{"data":[[{"distance":0,"station_name":"Kranji","station_id":"KRI","transit":false,"i_long":106.977657,"line":1,"is_transit":false,"time":0,"i_lat":-6.224515},{"transit":false,"is_transit":false,"i_lat":-6.219053,"time":3,"line":1,"station_name":"Cakung","i_long":106.951283,"distance":3097,"station_id":"CUK"},{"station_id":"KLDB","i_long":106.939679,"line":1,"distance":1385,"transit":false,"time":8,"is_transit":false,"i_lat":-6.217455,"station_name":"Klenderbaru"},{"station_name":"Buaran","i_lat":-6.215568,"station_id":"BUA","distance":1305,"i_long":106.922662,"transit":false,"time":1,"line":1,"is_transit":false},{"distance":3100,"i_lat":-6.2135,"is_transit":false,"station_id":"KLD","time":2,"station_name":"Klender","transit":false,"i_long":106.899548,"line":1},{"station_name":"Jatinegara","i_lat":-6.215091,"i_long":106.86807400000001,"is_transit":false,"distance":3395,"transit":false,"time":3,"station_id":"JNG","line":1},{"transit":false,"i_long":106.858896,"time":2,"i_lat":-6.212485,"distance":1377,"station_name":"Matraman","line":1,"station_id":"MTR","is_transit":false},{"transit":false,"station_id":"MRI","distance":1275,"i_lat":-6.209883,"i_long":106.84912,"line":2,"time":2,"is_transit":false,"station_name":"Manggarai"},{"i_lat":-6.202263,"line":1,"i_long":106.822649,"station_name":"Sudirman","time":4,"distance":3186,"transit":false,"station_id":"SUD","is_transit":false},{"time":1,"station_name":"Sudirman Baru","i_long":106.819881,"line":1,"i_lat":-6.201433,"distance":280,"transit":false,"station_id":"SUDB","is_transit":false},{"station_name":"Karet","station_id":"KAT","transit":false,"is_transit":false,"time":1,"distance":471,"line":1,"i_long":106.816351,"i_lat":-6.20132},{"time":5,"distance":2029,"is_transit":true,"i_long":106.811091,"transit":true,"station_id":"THB","station_name":"Tanah Abang","line":1,"i_lat":-6.185545},{"station_name":"Palmerah","is_transit":false,"station_id":"PLM","distance":3191,"i_lat":-6.207404,"i_long":106.79689,"time":6,"line":6,"transit":false},{"i_lat":-6.237242,"distance":3737,"line":6,"i_long":106.780334,"transit":false,"station_id":"KBY","is_transit":false,"station_name":"Kebayoran","time":7},{"station_id":"PDJ","is_transit":false,"time":8,"i_lat":-6.276362,"i_long":106.74273,"distance":6218,"line":6,"transit":false,"station_name":"Pondokranji"},{"is_transit":false,"transit":false,"line":6,"i_lat":-6.288927,"time":3,"station_name":"Jurangmangu","station_id":"JMU","distance":2179,"i_long":106.728916},{"station_id":"SDM","distance":1994,"transit":false,"i_lat":-6.296963,"is_transit":false,"time":4,"i_long":106.712277,"line":6,"station_name":"Sudimara"},{"line":6,"time":6,"station_name":"Rawa Buntu","is_transit":false,"i_long":106.675475,"i_lat":-6.314823,"distance":4566,"station_id":"RU","transit":false},{"time":4,"distance":2413,"station_name":"Serpong","i_long":106.66566,"station_id":"SRP","transit":false,"is_transit":false,"i_lat":-6.319871,"line":6}],[{"line":1,"time":0,"station_name":"Kranji","transit":false,"is_transit":false,"i_lat":-6.224515,"station_id":"KRI","i_long":106.977657,"distance":0},{"i_lat":-6.219053,"is_transit":false,"transit":false,"distance":3097,"station_id":"CUK","line":1,"time":3,"i_long":106.951283,"station_name":"Cakung"},{"station_name":"Klenderbaru","station_id":"KLDB","i_long":106.939679,"line":1,"time":8,"transit":false,"i_lat":-6.217455,"is_transit":false,"distance":1385},{"distance":1305,"time":1,"station_id":"BUA","transit":false,"i_long":106.922662,"station_name":"Buaran","is_transit":false,"i_lat":-6.215568,"line":1},{"i_lat":-6.2135,"distance":3100,"station_id":"KLD","time":2,"station_name":"Klender","i_long":106.899548,"transit":false,"is_transit":false,"line":1},{"transit":true,"i_lat":-6.215091,"time":3,"is_transit":true,"station_id":"JNG","distance":3395,"line":1,"station_name":"Jatinegara","i_long":106.86807400000001},{"station_id":"POK","i_lat":-6.209188,"line":11,"station_name":"Pondok Jati","distance":1236,"time":2,"i_long":106.861737,"is_transit":false,"transit":false},{"station_id":"KMT","i_long":106.855437,"is_transit":false,"transit":false,"line":11,"time":2,"station_name":"Kramat","distance":1829,"i_lat":-6.193792},{"distance":973,"is_transit":false,"i_long":106.850107,"station_id":"GST","line":11,"time":1,"station_name":"Gang Sentiong","transit":false,"i_lat":-6.185975},{"station_name":"Pasar Senen","transit":false,"i_long":106.84368,"time":8,"i_lat":-6.174784,"distance":1567,"station_id":"PSE","line":11,"is_transit":false},{"station_name":"Kemayoran","station_id":"KMO","distance":1436,"time":4,"is_transit":false,"i_long":106.839204,"line":11,"transit":false,"i_lat":-6.161728},{"time":5,"distance":1901,"transit":false,"i_lat":-6.14505,"station_id":"RJW","i_long":106.836569,"line":11,"is_transit":false,"station_name":"Rajawali"},{"station_id":"KPB","distance":1444,"line":4,"transit":true,"is_transit":true,"time":3,"i_lat":-6.132549,"i_long":106.826365,"station_name":"Kampung Bandan"},{"time":9,"i_lat":-6.144674,"station_id":"AK","i_long":106.79867,"station_name":"Angke","transit":false,"distance":4102,"is_transit":false,"line":1},{"station_name":"Duri","is_transit":false,"i_lat":-6.155215,"time":4,"transit":false,"distance":1230,"station_id":"DU","i_long":106.800832,"line":1},{"station_name":"Tanah Abang","i_lat":-6.185545,"i_long":106.811091,"time":8,"is_transit":true,"line":1,"distance":3632,"station_id":"THB","transit":true},{"i_long":106.79689,"is_transit":false,"line":6,"station_id":"PLM","transit":false,"distance":3191,"station_name":"Palmerah","time":6,"i_lat":-6.207404},{"is_transit":false,"i_lat":-6.237242,"station_id":"KBY","time":7,"station_name":"Kebayoran","i_long":106.780334,"distance":3737,"line":6,"transit":false},{"time":8,"station_id":"PDJ","i_lat":-6.276362,"distance":6218,"station_name":"Pondokranji","is_transit":false,"transit":false,"i_long":106.74273,"line":6},{"i_lat":-6.288927,"is_transit":false,"station_id":"JMU","i_long":106.728916,"time":3,"distance":2179,"line":6,"station_name":"Jurangmangu","transit":false},{"station_id":"SDM","i_lat":-6.296963,"transit":false,"i_long":106.712277,"station_name":"Sudimara","time":4,"line":6,"is_transit":false,"distance":1994},{"transit":false,"time":6,"is_transit":false,"station_name":"Rawa Buntu","station_id":"RU","i_long":106.675475,"distance":4566,"i_lat":-6.314823,"line":6},{"line":6,"i_lat":-6.319871,"time":4,"transit":false,"i_long":106.66566,"distance":2413,"station_name":"Serpong","station_id":"SRP","is_transit":false}],[{"is_transit":false,"time":0,"station_name":"Kranji","transit":false,"i_lat":-6.224515,"line":1,"station_id":"KRI","i_long":106.977657,"distance":0},{"transit":false,"line":1,"is_transit":false,"distance":3097,"i_lat":-6.219053,"station_id":"CUK","time":3,"station_name":"Cakung","i_long":106.951283},{"station_name":"Klenderbaru","distance":1385,"i_long":106.939679,"station_id":"KLDB","is_transit":false,"time":8,"line":1,"transit":false,"i_lat":-6.217455},{"station_id":"BUA","distance":1305,"is_transit":false,"i_long":106.922662,"line":1,"transit":false,"i_lat":-6.215568,"time":1,"station_name":"Buaran"},{"distance":3100,"is_transit":false,"time":2,"station_id":"KLD","transit":false,"line":1,"station_name":"Klender","i_lat":-6.2135,"i_long":106.899548},{"line":1,"station_name":"Jatinegara","i_long":106.86807400000001,"distance":3395,"i_lat":-6.215091,"time":3,"station_id":"JNG","transit":false,"is_transit":false},{"transit":false,"time":2,"distance":1377,"station_id":"MTR","station_name":"Matraman","i_long":106.858896,"i_lat":-6.212485,"line":1,"is_transit":false},{"distance":1275,"line":2,"is_transit":true,"station_name":"Manggarai","i_lat":-6.209883,"time":2,"i_long":106.84912,"station_id":"MRI","transit":true},{"station_name":"Cikini","distance":1590,"transit":false,"line":2,"i_lat":-6.198556,"time":4,"is_transit":false,"station_id":"CKI","i_long":106.840169},{"i_lat":-6.186295,"time":3,"transit":false,"is_transit":false,"i_long":106.832183,"distance":1750,"station_id":"GDD","station_name":"Gondangdia","line":2},{"station_id":"JUA","time":4,"distance":2015,"station_name":"Juanda","transit":false,"i_lat":-6.166716,"is_transit":false,"line":2,"i_long":106.828284},{"transit":false,"station_id":"SW","time":2,"line":2,"is_transit":false,"i_lat":-6.160725,"i_long":106.827103,"station_name":"Sawah Besar","distance":1149},{"is_transit":false,"distance":906,"i_lat":-6.149769,"i_long":106.82482,"transit":false,"station_id":"MGB","line":2,"time":2,"station_name":"Manggabesar"},{"station_id":"JAY","i_long":106.820901,"transit":false,"distance":1080,"is_transit":false,"i_lat":-6.141205,"line":2,"time":2,"station_name":"Jayakarta"},{"is_transit":true,"i_long":106.812439,"distance":1264,"transit":true,"line":2,"i_lat":-6.137569,"time":4,"station_name":"Jakarta Kota","station_id":"JAKK"},{"station_id":"KPB","i_long":106.826365,"time":3,"distance":1364,"station_name":"Kampung Bandan","line":4,"i_lat":-6.132549,"is_transit":true,"transit":true},{"station_name":"Angke","time":9,"station_id":"AK","distance":4102,"is_transit":false,"transit":false,"i_long":106.79867,"i_lat":-6.144674,"line":1},{"i_long":106.800832,"station_id":"DU","station_name":"Duri","line":1,"distance":1230,"transit":false,"i_lat":-6.155215,"time":4,"is_transit":false},{"distance":3632,"is_transit":true,"station_name":"Tanah Abang","time":8,"i_lat":-6.185545,"station_id":"THB","i_long":106.811091,"transit":true,"line":1},{"line":6,"time":6,"distance":3191,"station_name":"Palmerah","is_transit":false,"transit":false,"station_id":"PLM","i_lat":-6.207404,"i_long":106.79689},{"station_name":"Kebayoran","station_id":"KBY","i_lat":-6.237242,"distance":3737,"line":6,"i_long":106.780334,"time":7,"is_transit":false,"transit":false},{"station_name":"Pondokranji","transit":false,"line":6,"i_lat":-6.276362,"i_long":106.74273,"time":8,"station_id":"PDJ","distance":6218,"is_transit":false},{"time":3,"station_name":"Jurangmangu","distance":2179,"i_lat":-6.288927,"i_long":106.728916,"station_id":"JMU","is_transit":false,"line":6,"transit":false},{"transit":false,"time":4,"is_transit":false,"distance":1994,"station_name":"Sudimara","i_lat":-6.296963,"station_id":"SDM","i_long":106.712277,"line":6},{"time":6,"station_id":"RU","i_long":106.675475,"station_name":"Rawa Buntu","i_lat":-6.314823,"transit":false,"line":6,"is_transit":false,"distance":4566},{"is_transit":false,"distance":2413,"transit":false,"i_lat":-6.319871,"i_long":106.66566,"line":6,"station_id":"SRP","station_name":"Serpong","time":4}],[{"distance":0,"station_id":"KRI","transit":false,"station_name":"Kranji","is_transit":false,"i_lat":-6.224515,"time":0,"i_long":106.977657,"line":1},{"station_name":"Cakung","distance":3097,"i_lat":-6.219053,"transit":false,"time":3,"is_transit":false,"line":1,"station_id":"CUK","i_long":106.951283},{"transit":false,"line":1,"i_long":106.939679,"time":8,"station_id":"KLDB","distance":1385,"station_name":"Klenderbaru","is_transit":false,"i_lat":-6.217455},{"distance":1305,"station_name":"Buaran","line":1,"station_id":"BUA","is_transit":false,"i_long":106.922662,"transit":false,"time":1,"i_lat":-6.215568},{"time":2,"station_name":"Klender","i_long":106.899548,"distance":3100,"transit":false,"station_id":"KLD","line":1,"i_lat":-6.2135,"is_transit":false},{"i_long":106.86807400000001,"station_id":"JNG","line":1,"is_transit":true,"distance":3395,"i_lat":-6.215091,"transit":true,"time":3,"station_name":"Jatinegara"},{"station_name":"Pondok Jati","transit":false,"i_long":106.861737,"time":2,"station_id":"POK","i_lat":-6.209188,"distance":1236,"line":11,"is_transit":false},{"time":2,"distance":1829,"i_lat":-6.193792,"is_transit":false,"transit":false,"station_id":"KMT","i_long":106.855437,"station_name":"Kramat","line":11},{"distance":973,"is_transit":false,"station_name":"Gang Sentiong","transit":false,"time":1,"i_lat":-6.185975,"line":11,"i_long":106.850107,"station_id":"GST"},{"station_name":"Pasar Senen","station_id":"PSE","is_transit":false,"i_long":106.84368,"time":8,"transit":false,"distance":1567,"i_lat":-6.174784,"line":11},{"i_long":106.839204,"i_lat":-6.161728,"time":4,"distance":1436,"station_name":"Kemayoran","transit":false,"station_id":"KMO","line":11,"is_transit":false},{"station_id":"RJW","line":11,"station_name":"Rajawali","transit":false,"i_long":106.836569,"distance":1901,"is_transit":false,"time":5,"i_lat":-6.14505},{"time":3,"is_transit":true,"i_lat":-6.132549,"distance":1444,"station_id":"KPB","station_name":"Kampung Bandan","transit":true,"line":4,"i_long":106.826365},{"i_lat":-6.137569,"line":2,"distance":1364,"station_id":"JAKK","is_transit":true,"i_long":106.812439,"station_name":"Jakarta Kota","time":3,"transit":true},{"station_id":"JAY","is_transit":false,"i_long":106.820901,"distance":1264,"line":2,"station_name":"Jayakarta","i_lat":-6.141205,"time":4,"transit":false},{"is_transit":false,"transit":false,"line":2,"station_id":"MGB","time":2,"i_lat":-6.149769,"station_name":"Manggabesar","i_long":106.82482,"distance":1080},{"station_id":"SW","line":2,"transit":false,"i_long":106.827103,"i_lat":-6.160725,"station_name":"Sawah Besar","time":2,"distance":906,"is_transit":false},{"line":2,"station_name":"Juanda","transit":false,"is_transit":false,"station_id":"JUA","time":2,"i_lat":-6.166716,"distance":1149,"i_long":106.828284},{"station_id":"GDD","i_long":106.832183,"line":2,"distance":2015,"transit":false,"i_lat":-6.186295,"station_name":"Gondangdia","is_transit":false,"time":4},{"distance":1750,"i_lat":-6.198556,"station_name":"Cikini","line":2,"time":3,"i_long":106.840169,"station_id":"CKI","transit":false,"is_transit":false},{"distance":1590,"i_lat":-6.209883,"time":4,"station_id":"MRI","transit":true,"i_long":106.84912,"is_transit":true,"line":2,"station_name":"Manggarai"},{"time":4,"is_transit":false,"i_long":106.822649,"i_lat":-6.202263,"transit":false,"distance":3186,"station_id":"SUD","line":1,"station_name":"Sudirman"},{"station_id":"SUDB","distance":280,"station_name":"Sudirman Baru","transit":false,"i_lat":-6.201433,"is_transit":false,"i_long":106.819881,"line":1,"time":1},{"time":1,"distance":471,"station_name":"Karet","transit":false,"line":1,"i_long":106.816351,"is_transit":false,"i_lat":-6.20132,"station_id":"KAT"},{"is_transit":true,"line":1,"i_long":106.811091,"station_name":"Tanah Abang","station_id":"THB","i_lat":-6.185545,"distance":2029,"transit":true,"time":5},{"station_id":"PLM","is_transit":false,"station_name":"Palmerah","i_lat":-6.207404,"transit":false,"line":6,"time":6,"distance":3191,"i_long":106.79689},{"i_lat":-6.237242,"station_id":"KBY","is_transit":false,"time":7,"station_name":"Kebayoran","transit":false,"i_long":106.780334,"distance":3737,"line":6},{"distance":6218,"station_name":"Pondokranji","i_lat":-6.276362,"station_id":"PDJ","time":8,"transit":false,"is_transit":false,"i_long":106.74273,"line":6},{"station_name":"Jurangmangu","transit":false,"i_lat":-6.288927,"i_long":106.728916,"line":6,"station_id":"JMU","is_transit":false,"distance":2179,"time":3},{"station_name":"Sudimara","i_lat":-6.296963,"time":4,"line":6,"station_id":"SDM","distance":1994,"transit":false,"is_transit":false,"i_long":106.712277},{"i_lat":-6.314823,"time":6,"is_transit":false,"station_name":"Rawa Buntu","transit":false,"distance":4566,"line":6,"station_id":"RU","i_long":106.675475},{"i_long":106.66566,"i_lat":-6.319871,"is_transit":false,"station_name":"Serpong","station_id":"SRP","time":4,"distance":2413,"transit":false,"line":6}]]}