{"data":[[{"time":0,"station_id":"KRI","i_long":106.977657,"distance":0,"transit":false,"line":1,"station_name":"Kranji","i_lat":-6.224515,"is_transit":false},{"time":3,"station_name":"Cakung","station_id":"CUK","distance":3097,"i_lat":-6.219053,"i_long":106.951283,"line":1,"transit":false,"is_transit":false},{"line":1,"transit":false,"station_name":"Klenderbaru","station_id":"KLDB","i_lat":-6.217455,"i_long":106.939679,"is_transit":false,"time":8,"distance":1385},{"is_transit":false,"transit":false,"time":1,"i_lat":-6.215568,"i_long":106.922662,"line":1,"station_id":"BUA","station_name":"Buaran","distance":1305},{"is_transit":false,"i_long":106.899548,"i_lat":-6.2135,"station_name":"Klender","station_id":"KLD","distance":3100,"transit":false,"line":1,"time":2},{"time":3,"station_name":"Jatinegara","is_transit":false,"distance":3395,"station_id":"JNG","transit":false,"i_long":106.86807400000001,"i_lat":-6.215091,"line":1},{"distance":1377,"station_id":"MTR","transit":false,"i_long":106.858896,"i_lat":-6.212485,"station_name":"Matraman","line":1,"is_transit":false,"time":2},{"transit":true,"i_lat":-6.209883,"i_long":106.84912,"station_name":"Manggarai","time":2,"distance":1275,"line":2,"station_id":"MRI","is_transit":true},{"distance":1590,"station_name":"Cikini","station_id":"CKI","is_transit":false,"i_long":106.840169,"time":4,"line":2,"transit":false,"i_lat":-6.198556},{"time":3,"station_name":"Gondangdia","transit":false,"is_transit":false,"station_id":"GDD","i_lat":-6.186295,"distance":1750,"i_long":106.832183,"line":2},{"line":2,"transit":false,"station_id":"JUA","is_transit":false,"time":4,"distance":2015,"i_long":106.828284,"station_name":"Juanda","i_lat":-6.166716},{"distance":1149,"is_transit":false,"i_lat":-6.160725,"station_id":"SW","i_long":106.827103,"line":2,"transit":false,"time":2,"station_name":"Sawah Besar"}],[{"is_transit":false,"station_id":"KRI","distance":0,"i_lat":-6.224515,"i_long":106.977657,"time":0,"station_name":"Kranji","line":1,"transit":false},{"station_id":"CUK","i_lat":-6.219053,"station_name":"Cakung","transit":false,"is_transit":false,"i_long":106.951283,"distance":3097,"line":1,"time":3},{"distance":1385,"time":8,"station_name":"Klenderbaru","station_id":"KLDB","i_long":106.939679,"line":1,"is_transit":false,"transit":false,"i_lat":-6.217455},{"transit":false,"i_lat":-6.215568,"time":1,"station_name":"Buaran","line":1,"i_long":106.922662,"station_id":"BUA","is_transit":false,"distance":1305},{"time":2,"station_name":"Klender","transit":false,"distance":3100,"i_lat":-6.2135,"station_id":"KLD","i_long":106.899548,"line":1,"is_transit":false},{"i_lat":-6.215091,"station_id":"JNG","time":3,"station_name":"Jatinegara","i_long":106.86807400000001,"distance":3395,"line":1,"is_transit":true,"transit":true},{"transit":false,"is_transit":false,"station_name":"Pondok Jati","i_long":106.861737,"station_id":"POK","line":11,"time":2,"distance":1236,"i_lat":-6.209188},{"line":11,"is_transit":false,"station_id":"KMT","i_lat":-6.193792,"i_long":106.855437,"transit":false,"station_name":"Kramat","distance":1829,"time":2},{"distance":973,"i_lat":-6.185975,"line":11,"time":1,"is_transit":false,"station_id":"GST","station_name":"Gang Sentiong","transit":false,"i_long":106.850107},{"transit":false,"station_name":"Pasar Senen","i_long":106.84368,"station_id":"PSE","is_transit":false,"line":11,"time":8,"i_lat":-6.174784,"distance":1567},{"transit":false,"i_long":106.839204,"i_lat":-6.161728,"station_name":"Kemayoran","is_transit":false,"time":4,"distance":1436,"line":11,"station_id":"KMO"},{"station_id":"RJW","is_transit":false,"i_long":106.836569,"line":11,"station_name":"Rajawali","distance":1901,"time":5,"transit":false,"i_lat":-6.14505},{"station_name":"Kampung Bandan","time":3,"distance":1444,"i_lat":-6.132549,"transit":true,"line":4,"is_transit":true,"station_id":"KPB","i_long":106.826365},{"is_transit":true,"transit":true,"line":2,"station_id":"JAKK","time":3,"distance":1364,"station_name":"Jakarta Kota","i_lat":-6.137569,"i_long":106.812439},{"station_name":"Jayakarta","line":2,"transit":false,"station_id":"JAY","distance":1264,"time":4,"is_transit":false,"i_long":106.820901,"i_lat":-6.141205},{"transit":false,"time":2,"i_lat":-6.149769,"line":2,"distance":1080,"station_name":"Manggabesar","i_long":106.82482,"station_id":"MGB","is_transit":false},{"distance":906,"is_transit":false,"transit":false,"time":2,"i_lat":-6.160725,"i_long":106.827103,"station_name":"Sawah Besar","station_id":"SW","line":2}],[{"is_transit":false,"line":1,"i_long":106.977657,"station_name":"Kranji","distance":0,"transit":false,"station_id":"KRI","i_lat":-6.224515,"time":0},{"station_id":"CUK","station_name":"Cakung","transit":false,"i_lat":-6.219053,"distance":3097,"i_long":106.951283,"is_transit":false,"line":1,"time":3},{"station_name":"Klenderbaru","time":8,"i_lat":-6.217455,"station_id":"KLDB","distance":1385,"transit":false,"is_transit":false,"line":1,"i_long":106.939679},{"distance":1305,"station_id":"BUA","transit":false,"i_lat":-6.215568,"is_transit":false,"station_name":"Buaran","time":1,"i_long":106.922662,"line":1},{"i_lat":-6.2135,"station_id":"KLD","is_transit":false,"transit":false,"time":2,"i_long":106.899548,"line":1,"distance":3100,"station_name":"Klender"},{"is_transit":false,"time":3,"i_lat":-6.215091,"i_long":106.86807400000001,"transit":false,"station_name":"Jatinegara","distance":3395,"line":1,"station_id":"JNG"},{"transit":false,"station_id":"MTR","is_transit":false,"station_name":"Matraman","time":2,"i_long":106.858896,"distance":1377,"line":1,"i_lat":-6.212485},{"distance":1275,"is_transit":false,"i_long":106.84912,"time":2,"station_name":"Manggarai","station_id":"MRI","i_lat":-6.209883,"line":2,"transit":false},{"transit":false,"i_lat":-6.202263,"distance":3186,"time":4,"station_name":"Sudirman","is_transit":false,"i_long":106.822649,"station_id":"SUD","line":1},{"station_id":"SUDB","station_name":"Sudirman Baru","time":1,"line":1,"distance":280,"i_long":106.819881,"i_lat":-6.201433,"transit":false,"is_transit":false},{"i_lat":-6.20132,"distance":471,"station_name":"Karet","is_transit":false,"i_long":106.816351,"station_id":"KAT","time":1,"line":1,"transit":false},{"station_name":"Tanah Abang","line":1,"i_lat":-6.185545,"distance":2029,"time":5,"station_id":"THB","is_transit":false,"transit":false,"i_long":106.811091},{"transit":false,"is_transit":false,"distance":3632,"i_lat":-6.155215,"station_id":"DU","station_name":"Duri","time":8,"i_long":106.800832,"line":1},{"station_name":"Angke","line":1,"i_lat":-6.144674,"transit":false,"station_id":"AK","time":4,"is_transit":false,"distance":1230,"i_long":106.79867},{"i_long":106.826365,"station_name":"Kampung Bandan","line":4,"transit":true,"station_id":"KPB","i_lat":-6.132549,"is_transit":true,"time":9,"distance":4102},{"is_transit":true,"station_name":"Jakarta Kota","distance":1364,"transit":true,"i_lat":-6.137569,"i_long":106.812439,"line":2,"station_id":"JAKK","time":3},{"distance":1264,"time":4,"station_name":"Jayakarta","i_long":106.820901,"transit":false,"station_id":"JAY","is_transit":false,"i_lat":-6.141205,"line":2},{"distance":1080,"i_long":106.82482,"i_lat":-6.149769,"line":2,"station_name":"Manggabesar","is_transit":false,"transit":false,"station_id":"MGB","time":2},{"station_id":"SW","is_transit":false,"distance":906,"i_long":106.827103,"transit":false,"i_lat":-6.160725,"station_name":"Sawah Besar","time":2,"line":2}],[{"station_name":"Kranji","station_id":"KRI","is_transit":false,"transit":false,"time":0,"distance":0,"i_lat":-6.224515,"i_long":106.977657,"line":1},{"is_transit":false,"time":3,"distance":3097,"station_name":"Cakung","transit":false,"station_id":"CUK","line":1,"i_long":106.951283,"i_lat":-6.219053},{"transit":false,"time":8,"station_id":"KLDB","distance":1385,"is_transit":false,"line":1,"i_long":106.939679,"i_lat":-6.217455,"station_name":"Klenderbaru"},{"distance":1305,"station_id":"BUA","i_lat":-6.215568,"transit":false,"time":1,"station_name":"Buaran","line":1,"is_transit":false,"i_long":106.922662},{"transit":false,"station_name":"Klender","i_long":106.899548,"i_lat":-6.2135,"station_id":"KLD","time":2,"distance":3100,"line":1,"is_transit":false},{"distance":3395,"i_lat":-6.215091,"station_id":"JNG","i_long":106.86807400000001,"is_transit":true,"station_name":"Jatinegara","transit":true,"time":3,"line":1},{"station_id":"POK","i_long":106.861737,"is_transit":false,"transit":false,"time":2,"distance":1236,"i_lat":-6.209188,"station_name":"Pondok Jati","line":11},{"distance":1829,"station_id":"KMT","i_lat":-6.193792,"i_long":106.855437,"station_name":"Kramat","time":2,"is_transit":false,"transit":false,"line":11},{"i_lat":-6.185975,"i_long":106.850107,"station_name":"Gang Sentiong","station_id":"GST","is_transit":false,"line":11,"distance":973,"transit":false,"time":1},{"station_name":"Pasar Senen","station_id":"PSE","i_long":106.84368,"time":8,"i_lat":-6.174784,"line":11,"distance":1567,"is_transit":false,"transit":false},{"is_transit":false,"station_id":"KMO","time":4,"station_name":"Kemayoran","transit":false,"distance":1436,"i_lat":-6.161728,"i_long":106.839204,"line":11},{"line":11,"distance":1901,"is_transit":false,"time":5,"i_lat":-6.14505,"transit":false,"i_long":106.836569,"station_name":"Rajawali","station_id":"RJW"},{"station_id":"KPB","station_name":"Kampung Bandan","time":3,"transit":true,"is_transit":true,"i_lat":-6.132549,"i_long":106.826365,"distance":1444,"line":4},{"station_name":"Angke","transit":false,"time":9,"distance":4102,"i_lat":-6.144674,"station_id":"AK","is_transit":false,"line":1,"i_long":106.79867},{"station_name":"Duri","i_long":106.800832,"transit":false,"station_id":"DU","is_transit":false,"distance":1230,"i_lat":-6.155215,"line":1,"time":4},{"station_id":"THB","i_long":106.811091,"is_transit":false,"transit":false,"time":8,"station_name":"Tanah Abang","i_lat":-6.185545,"distance":3632,"line":1},{"time":5,"distance":2029,"transit":false,"is_transit":false,"line":1,"station_id":"KAT","station_name":"Karet","i_lat":-6.20132,"i_long":106.816351},{"time":1,"i_lat":-6.201433,"i_long":106.819881,"station_name":"Sudirman Baru","station_id":"SUDB","transit":false,"distance":471,"line":1,"is_transit":false},{"transit":false,"distance":280,"i_lat":-6.202263,"i_long":106.822649,"line":1,"is_transit":false,"time":1,"station_name":"Sudirman","station_id":"SUD"},{"i_long":106.84912,"line":2,"transit":true,"i_lat":-6.209883,"station_id":"MRI","time":4,"station_name":"Manggarai","is_transit":true,"distance":3186},{"line":2,"time":4,"is_transit":false,"i_lat":-6.198556,"transit":false,"station_id":"CKI","i_long":106.840169,"station_name":"Cikini","distance":1590},{"distance":1750,"station_name":"Gondangdia","is_transit":false,"i_lat":-6.186295,"transit":false,"time":3,"station_id":"GDD","i_long":106.832183,"line":2},{"station_name":"Juanda","distance":2015,"i_lat":-6.166716,"line":2,"i_long":106.828284,"is_transit":false,"station_id":"JUA","time":4,"transit":false},{"i_long":106.827103,"station_name":"Sawah Besar","station_id":"SW","transit":false,"line":2,"time":2,"is_transit":false,"distance":1149,"i_lat":-6.160725}]]}