{"data":[[{"station_id":"KRI","station_name":"Kranji","is_transit":false,"distance":0,"transit":false,"i_lat":-6.224515,"line":1,"i_long":106.977657,"time":0},{"station_name":"Cakung","i_lat":-6.219053,"i_long":106.951283,"station_id":"CUK","distance":3097,"transit":false,"is_transit":false,"time":3,"line":0},{"i_lat":-6.217455,"time":8,"is_transit":false,"line":1,"station_name":"Klenderbaru","i_long":106.939679,"distance":1385,"station_id":"KLDB","transit":false},{"is_transit":false,"station_id":"BUA","i_lat":-6.215568,"line":0,"transit":false,"station_name":"Buaran","time":1,"distance":1305,"i_long":106.922662},{"i_long":106.899548,"time":2,"line":1,"distance":3100,"i_lat":-6.2135,"station_id":"KLD","is_transit":false,"station_name":"Klender","transit":false},{"transit":false,"distance":3395,"i_long":106.86807400000001,"line":0,"time":3,"station_name":"Jatinegara","i_lat":-6.215091,"is_transit":true,"station_id":"JNG"},{"i_lat":-6.212485,"distance":1377,"i_long":106.858896,"transit":false,"station_name":"Matraman","is_transit":false,"station_id":"MTR","time":2,"line":1},{"distance":1275,"station_id":"MRI","transit":true,"station_name":"Manggarai","i_long":106.84912,"line":0,"is_transit":true,"time":2,"i_lat":-6.209883},{"station_id":"TEB","station_name":"Tebet","is_transit":false,"i_long":106.857948,"time":4,"transit":false,"distance":2610,"line":2,"i_lat":-6.226659},{"station_id":"CW","station_name":"Cawang","time":2,"distance":1230,"i_lat":-6.242512,"i_long":106.856607,"is_transit":false,"transit":false,"line":0},{"time":3,"i_long":106.85449,"line":0,"distance":1546,"is_transit":false,"transit":false,"station_id":"DRN","station_name":"Duren Kalibata","i_lat":-6.255332},{"is_transit":false,"station_name":"Pasar Minggu Baru","station_id":"PSMB","transit":false,"i_lat":-6.263214,"distance":824,"line":2,"time":2,"i_long":106.851577},{"distance":2380,"i_lat":-6.2842400000000005,"line":2,"station_name":"Pasar Minggu","station_id":"PSM","i_long":106.843999,"time":2,"is_transit":false,"transit":false},{"time":4,"station_id":"TNT","is_transit":false,"distance":2820,"transit":false,"i_lat":-6.3080680000000005,"station_name":"Tanjung Barat","i_long":106.838896,"line":2},{"i_lat":-6.330363,"distance":2671,"line":2,"is_transit":false,"time":3,"station_id":"LNA","station_name":"Lenteng Agung","transit":false,"i_long":106.832616},{"is_transit":false,"transit":false,"time":2,"distance":1029,"i_long":106.834175,"line":2,"i_lat":-6.339291,"station_id":"UP","station_name":"Univ. Pancasila"},{"line":2,"i_long":106.831474,"station_name":"Univ. Indonesia","i_lat":-6.360749,"is_transit":false,"transit":false,"station_id":"UI","time":3,"distance":2264},{"station_id":"POC","i_long":106.831114,"is_transit":false,"time":2,"distance":1109,"station_name":"Pondok Cina","line":2,"transit":false,"i_lat":-6.369073},{"time":4,"distance":2727,"i_long":106.819451,"i_lat":-6.391065,"line":0,"station_id":"DPB","transit":false,"is_transit":false,"station_name":"Depokbaru"},{"line":0,"transit":false,"station_name":"Depok","distance":1584,"i_lat":-6.405256,"time":3,"station_id":"DP","is_transit":false,"i_long":106.816926},{"station_name":"Citayam","time":6,"station_id":"CTA","distance":5084,"i_long":106.800298,"i_lat":-6.448811,"transit":false,"line":1,"is_transit":true},{"station_name":"Bojonggede","station_id":"BJD","is_transit":false,"i_lat":-6.493243,"line":0,"distance":5197,"time":5,"transit":false,"i_long":106.792719},{"is_transit":false,"i_long":106.800016,"station_id":"CLT","time":5,"distance":4331,"transit":false,"station_name":"Cilebut","line":0,"i_lat":-6.530544},{"is_transit":true,"station_name":"Bogor","distance":7514,"i_lat":-6.594596,"i_long":106.790574,"station_id":"BOO","line":1,"time":9,"transit":false}],[{"is_transit":false,"transit":false,"i_lat":-6.224515,"station_name":"Kranji","station_id":"KRI","time":0,"distance":0,"i_long":106.977657,"line":1},{"transit":false,"i_lat":-6.219053,"time":3,"i_long":106.951283,"line":0,"is_transit":false,"station_id":"CUK","station_name":"Cakung","distance":3097},{"i_lat":-6.217455,"line":1,"is_transit":false,"station_id":"KLDB","transit":false,"i_long":106.939679,"time":8,"distance":1385,"station_name":"Klenderbaru"},{"station_name":"Buaran","transit":false,"line":0,"i_lat":-6.215568,"time":1,"i_long":106.922662,"station_id":"BUA","distance":1305,"is_transit":false},{"time":2,"distance":3100,"station_name":"Klender","transit":false,"i_lat":-6.2135,"is_transit":false,"station_id":"KLD","line":1,"i_long":106.899548},{"i_lat":-6.215091,"line":0,"station_id":"JNG","distance":3395,"is_transit":true,"transit":true,"station_name":"Jatinegara","i_long":106.86807400000001,"time":3},{"station_name":"Pondok Jati","time":2,"i_lat":-6.209188,"station_id":"POK","is_transit":false,"distance":1236,"transit":false,"line":11,"i_long":106.861737},{"time":2,"i_lat":-6.193792,"transit":false,"is_transit":false,"station_id":"KMT","distance":1829,"station_name":"Kramat","i_long":106.855437,"line":11},{"is_transit":false,"transit":false,"i_lat":-6.185975,"time":1,"station_id":"GST","station_name":"Gang Sentiong","i_long":106.850107,"line":11,"distance":973},{"station_name":"Pasar Senen","station_id":"PSE","is_transit":false,"line":11,"distance":1567,"transit":false,"i_long":106.84368,"i_lat":-6.174784,"time":8},{"station_id":"KMO","transit":false,"station_name":"Kemayoran","distance":1436,"time":4,"i_long":106.839204,"is_transit":false,"i_lat":-6.161728,"line":11},{"is_transit":false,"station_name":"Rajawali","time":5,"distance":1901,"transit":false,"station_id":"RJW","i_lat":-6.14505,"i_long":106.836569,"line":11},{"i_lat":-6.132549,"is_transit":true,"line":0,"transit":true,"station_name":"Kampung Bandan","i_long":106.826365,"station_id":"KPB","time":3,"distance":1444},{"i_long":106.79867,"is_transit":false,"time":9,"station_name":"Angke","station_id":"AK","line":0,"distance":4102,"i_lat":-6.144674,"transit":false},{"distance":1230,"i_lat":-6.155215,"line":1,"is_transit":true,"station_name":"Duri","time":4,"station_id":"DU","i_long":106.800832,"transit":true},{"transit":false,"i_lat":-6.185545,"line":1,"time":8,"i_long":106.811091,"station_name":"Tanah Abang","station_id":"THB","is_transit":true,"distance":3632},{"is_transit":false,"i_lat":-6.20132,"distance":2029,"time":5,"transit":false,"station_id":"KAT","i_long":106.816351,"station_name":"Karet","line":1},{"transit":false,"line":1,"station_id":"SUDB","time":1,"i_long":106.819881,"i_lat":-6.201433,"station_name":"Sudirman Baru","is_transit":false,"distance":471},{"i_lat":-6.202263,"station_name":"Sudirman","station_id":"SUD","is_transit":false,"time":1,"distance":280,"i_long":106.822649,"line":1,"transit":false},{"line":0,"station_name":"Manggarai","i_long":106.84912,"distance":3186,"time":4,"transit":true,"station_id":"MRI","i_lat":-6.209883,"is_transit":true},{"time":4,"is_transit":false,"line":2,"station_name":"Tebet","transit":false,"i_lat":-6.226659,"distance":2610,"station_id":"TEB","i_long":106.857948},{"i_lat":-6.242512,"i_long":106.856607,"station_name":"Cawang","line":0,"station_id":"CW","time":2,"distance":1230,"transit":false,"is_transit":false},{"station_id":"DRN","distance":1546,"time":3,"station_name":"Duren Kalibata","transit":false,"i_lat":-6.255332,"i_long":106.85449,"line":0,"is_transit":false},{"time":2,"distance":824,"station_id":"PSMB","transit":false,"i_long":106.851577,"line":2,"station_name":"Pasar Minggu Baru","is_transit":false,"i_lat":-6.263214},{"transit":false,"distance":2380,"i_lat":-6.2842400000000005,"is_transit":false,"station_id":"PSM","station_name":"Pasar Minggu","i_long":106.843999,"time":2,"line":2},{"station_name":"Tanjung Barat","i_lat":-6.3080680000000005,"transit":false,"time":4,"station_id":"TNT","i_long":106.838896,"line":2,"is_transit":false,"distance":2820},{"line":2,"is_transit":false,"station_id":"LNA","i_lat":-6.330363,"station_name":"Lenteng Agung","transit":false,"time":3,"distance":2671,"i_long":106.832616},{"i_lat":-6.339291,"transit":false,"i_long":106.834175,"station_id":"UP","station_name":"Univ. Pancasila","distance":1029,"time":2,"line":2,"is_transit":false},{"station_name":"Univ. Indonesia","transit":false,"station_id":"UI","i_lat":-6.360749,"i_long":106.831474,"is_transit":false,"distance":2264,"line":2,"time":3},{"station_id":"POC","transit":false,"station_name":"Pondok Cina","time":2,"i_lat":-6.369073,"is_transit":false,"distance":1109,"i_long":106.831114,"line":2},{"station_id":"DPB","time":4,"distance":2727,"i_lat":-6.391065,"line":0,"station_name":"Depokbaru","transit":false,"is_transit":false,"i_long":106.819451},{"station_id":"DP","line":0,"time":3,"i_lat":-6.405256,"is_transit":false,"i_long":106.816926,"distance":1584,"transit":false,"station_name":"Depok"},{"time":6,"transit":false,"line":1,"station_id":"CTA","is_transit":true,"i_lat":-6.448811,"station_name":"Citayam","distance":5084,"i_long":106.800298},{"i_lat":-6.493243,"i_long":106.792719,"station_name":"Bojonggede","is_transit":false,"time":5,"distance":5197,"transit":false,"station_id":"BJD","line":0},{"i_long":106.800016,"line":0,"transit":false,"is_transit":false,"station_id":"CLT","time":5,"station_name":"Cilebut","distance":4331,"i_lat":-6.530544},{"i_long":106.790574,"time":9,"transit":false,"station_name":"Bogor","station_id":"BOO","distance":7514,"i_lat":-6.594596,"is_transit":true,"line":1}],[{"i_lat":-6.224515,"transit":false,"line":1,"station_id":"KRI","is_transit":false,"time":0,"distance":0,"station_name":"Kranji","i_long":106.977657},{"station_id":"CUK","time":3,"is_transit":false,"i_lat":-6.219053,"distance":3097,"i_long":106.951283,"station_name":"Cakung","transit":false,"line":0},{"distance":1385,"i_lat":-6.217455,"station_id":"KLDB","transit":false,"line":1,"is_transit":false,"time":8,"i_long":106.939679,"station_name":"Klenderbaru"},{"i_long":106.922662,"time":1,"distance":1305,"i_lat":-6.215568,"station_id":"BUA","station_name":"Buaran","is_transit":false,"transit":false,"line":0},{"line":1,"distance":3100,"station_name":"Klender","is_transit":false,"i_lat":-6.2135,"time":2,"station_id":"KLD","i_long":106.899548,"transit":false},{"i_long":106.86807400000001,"i_lat":-6.215091,"transit":true,"station_name":"Jatinegara","is_transit":true,"line":0,"station_id":"JNG","distance":3395,"time":3},{"station_id":"POK","transit":false,"i_lat":-6.209188,"station_name":"Pondok Jati","distance":1236,"line":11,"time":2,"is_transit":false,"i_long":106.861737},{"station_name":"Kramat","transit":false,"i_lat":-6.193792,"station_id":"KMT","line":11,"distance":1829,"i_long":106.855437,"is_transit":false,"time":2},{"is_transit":false,"i_long":106.850107,"transit":false,"station_name":"Gang Sentiong","station_id":"GST","line":11,"i_lat":-6.185975,"time":1,"distance":973},{"line":11,"i_long":106.84368,"transit":false,"i_lat":-6.174784,"station_name":"Pasar Senen","station_id":"PSE","is_transit":false,"time":8,"distance":1567},{"line":11,"time":4,"i_lat":-6.161728,"transit":false,"station_id":"KMO","station_name":"Kemayoran","distance":1436,"i_long":106.839204,"is_transit":false},{"distance":1901,"line":11,"i_long":106.836569,"is_transit":false,"i_lat":-6.14505,"time":5,"transit":false,"station_name":"Rajawali","station_id":"RJW"},{"distance":1444,"i_lat":-6.132549,"i_long":106.826365,"is_transit":true,"station_id":"KPB","time":3,"line":0,"transit":true,"station_name":"Kampung Bandan"},{"i_long":106.812439,"transit":true,"i_lat":-6.137569,"time":3,"line":0,"is_transit":true,"station_id":"JAKK","station_name":"Jakarta Kota","distance":1364},{"station_name":"Jayakarta","station_id":"JAY","line":7,"is_transit":false,"transit":false,"distance":1264,"i_long":106.820901,"time":4,"i_lat":-6.141205},{"distance":1080,"line":2,"station_name":"Manggabesar","transit":false,"is_transit":false,"station_id":"MGB","time":2,"i_long":106.82482,"i_lat":-6.149769},{"line":2,"station_id":"SW","station_name":"Sawah Besar","i_long":106.827103,"transit":false,"i_lat":-6.160725,"distance":906,"time":2,"is_transit":false},{"i_long":106.828284,"distance":1149,"time":2,"i_lat":-6.166716,"transit":false,"line":2,"station_name":"Juanda","station_id":"JUA","is_transit":false},{"i_long":106.832183,"is_transit":false,"i_lat":-6.186295,"station_id":"GDD","distance":2015,"time":4,"line":2,"transit":false,"station_name":"Gondangdia"},{"time":3,"station_id":"CKI","is_transit":false,"distance":1750,"i_lat":-6.198556,"transit":false,"station_name":"Cikini","i_long":106.840169,"line":0},{"distance":1590,"line":0,"i_long":106.84912,"i_lat":-6.209883,"transit":true,"is_transit":true,"time":4,"station_id":"MRI","station_name":"Manggarai"},{"is_transit":false,"time":4,"transit":false,"station_id":"TEB","distance":2610,"i_lat":-6.226659,"station_name":"Tebet","i_long":106.857948,"line":2},{"i_long":106.856607,"line":0,"time":2,"i_lat":-6.242512,"station_id":"CW","transit":false,"distance":1230,"station_name":"Cawang","is_transit":false},{"i_long":106.85449,"line":0,"time":3,"distance":1546,"i_lat":-6.255332,"transit":false,"station_id":"DRN","station_name":"Duren Kalibata","is_transit":false},{"station_name":"Pasar Minggu Baru","transit":false,"is_transit":false,"i_lat":-6.263214,"i_long":106.851577,"distance":824,"time":2,"line":2,"station_id":"PSMB"},{"line":2,"is_transit":false,"station_name":"Pasar Minggu","station_id":"PSM","time":2,"transit":false,"i_long":106.843999,"i_lat":-6.2842400000000005,"distance":2380},{"distance":2820,"transit":false,"line":2,"i_long":106.838896,"station_name":"Tanjung Barat","station_id":"TNT","is_transit":false,"time":4,"i_lat":-6.3080680000000005},{"is_transit":false,"station_id":"LNA","i_long":106.832616,"distance":2671,"i_lat":-6.330363,"transit":false,"station_name":"Lenteng Agung","line":2,"time":3},{"i_lat":-6.339291,"station_name":"Univ. Pancasila","line":2,"distance":1029,"i_long":106.834175,"is_transit":false,"time":2,"transit":false,"station_id":"UP"},{"i_lat":-6.360749,"station_id":"UI","line":2,"station_name":"Univ. Indonesia","transit":false,"i_long":106.831474,"time":3,"is_transit":false,"distance":2264},{"distance":1109,"transit":false,"i_long":106.831114,"line":2,"station_id":"POC","time":2,"i_lat":-6.369073,"station_name":"Pondok Cina","is_transit":false},{"is_transit":false,"time":4,"transit":false,"line":0,"i_lat":-6.391065,"station_id":"DPB","distance":2727,"i_long":106.819451,"station_name":"Depokbaru"},{"i_long":106.816926,"distance":1584,"station_name":"Depok","line":0,"transit":false,"station_id":"DP","time":3,"is_transit":false,"i_lat":-6.405256},{"transit":false,"is_transit":true,"i_long":106.800298,"i_lat":-6.448811,"station_id":"CTA","distance":5084,"station_name":"Citayam","time":6,"line":1},{"transit":false,"is_transit":false,"time":5,"i_lat":-6.493243,"distance":5197,"station_name":"Bojonggede","i_long":106.792719,"station_id":"BJD","line":0},{"i_lat":-6.530544,"station_name":"Cilebut","station_id":"CLT","time":5,"line":0,"distance":4331,"transit":false,"is_transit":false,"i_long":106.800016},{"is_transit":true,"line":1,"i_long":106.790574,"station_name":"Bogor","i_lat":-6.594596,"transit":false,"station_id":"BOO","time":9,"distance":7514}]]}