{"data":[[{"i_lat":-6.224515,"is_transit":false,"station_id":"KRI","line":1,"distance":0,"station_name":"Kranji","time":0,"i_long":106.977657,"transit":false},{"transit":false,"i_lat":-6.219053,"distance":3097,"time":3,"station_id":"CUK","is_transit":false,"i_long":106.951283,"station_name":"Cakung","line":1},{"line":1,"time":8,"station_id":"KLDB","is_transit":false,"i_lat":-6.217455,"transit":false,"station_name":"Klenderbaru","distance":1385,"i_long":106.939679},{"i_lat":-6.215568,"distance":1305,"time":1,"is_transit":false,"line":1,"transit":false,"i_long":106.922662,"station_name":"Buaran","station_id":"BUA"},{"distance":3100,"station_id":"KLD","time":2,"transit":false,"station_name":"Klender","is_transit":false,"line":1,"i_long":106.899548,"i_lat":-6.2135},{"time":3,"transit":false,"i_lat":-6.215091,"is_transit":false,"i_long":106.86807400000001,"line":1,"station_id":"JNG","station_name":"Jatinegara","distance":3395},{"station_name":"Matraman","is_transit":false,"transit":false,"time":2,"line":1,"station_id":"MTR","i_long":106.858896,"distance":1377,"i_lat":-6.212485},{"i_lat":-6.209883,"distance":1275,"transit":true,"station_id":"MRI","time":2,"is_transit":true,"i_long":106.84912,"line":2,"station_name":"Manggarai"},{"transit":false,"station_id":"TEB","line":2,"station_name":"Tebet","i_lat":-6.226659,"time":4,"i_long":106.857948,"is_transit":false,"distance":2610},{"time":2,"distance":1230,"i_long":106.856607,"i_lat":-6.242512,"station_name":"Cawang","station_id":"CW","line":2,"is_transit":false,"transit":false},{"distance":1546,"transit":false,"time":3,"is_transit":false,"i_long":106.85449,"line":2,"station_name":"Duren Kalibata","station_id":"DRN","i_lat":-6.255332},{"i_long":106.851577,"is_transit":false,"transit":false,"station_name":"Pasar Minggu Baru","distance":824,"time":2,"i_lat":-6.263214,"line":2,"station_id":"PSMB"},{"station_id":"PSM","is_transit":false,"transit":false,"time":2,"station_name":"Pasar Minggu","i_lat":-6.2842400000000005,"line":2,"distance":2380,"i_long":106.843999},{"station_id":"TNT","is_transit":false,"i_lat":-6.3080680000000005,"station_name":"Tanjung Barat","distance":2820,"line":2,"i_long":106.838896,"transit":false,"time":4},{"distance":2671,"transit":false,"i_lat":-6.330363,"station_id":"LNA","i_long":106.832616,"is_transit":false,"time":3,"line":2,"station_name":"Lenteng Agung"},{"i_long":106.834175,"line":2,"distance":1029,"station_name":"Univ. Pancasila","transit":false,"time":2,"is_transit":false,"i_lat":-6.339291,"station_id":"UP"},{"i_long":106.831474,"time":3,"distance":2264,"transit":false,"station_id":"UI","line":2,"is_transit":false,"i_lat":-6.360749,"station_name":"Univ. Indonesia"},{"station_name":"Pondok Cina","station_id":"POC","i_long":106.831114,"line":2,"i_lat":-6.369073,"distance":1109,"time":2,"is_transit":false,"transit":false},{"i_lat":-6.391065,"transit":false,"distance":2727,"station_name":"Depokbaru","is_transit":false,"line":2,"station_id":"DPB","time":4,"i_long":106.819451},{"distance":1584,"station_name":"Depok","line":2,"i_long":106.816926,"is_transit":false,"time":3,"i_lat":-6.405256,"transit":false,"station_id":"DP"},{"time":6,"station_name":"Citayam","line":2,"i_long":106.800298,"station_id":"CTA","transit":false,"distance":5084,"i_lat":-6.448811,"is_transit":false},{"is_transit":false,"i_long":106.792719,"i_lat":-6.493243,"station_name":"Bojonggede","line":2,"station_id":"BJD","transit":false,"distance":5197,"time":5},{"i_lat":-6.530544,"is_transit":false,"station_name":"Cilebut","transit":false,"i_long":106.800016,"station_id":"CLT","distance":4331,"line":2,"time":5},{"distance":7514,"is_transit":false,"station_id":"BOO","i_lat":-6.594596,"transit":false,"i_long":106.790574,"time":9,"station_name":"Bogor","line":2}],[{"is_transit":false,"time":0,"distance":0,"station_name":"Kranji","line":1,"station_id":"KRI","i_long":106.977657,"transit":false,"i_lat":-6.224515},{"i_lat":-6.219053,"is_transit":false,"i_long":106.951283,"line":1,"station_id":"CUK","transit":false,"time":3,"station_name":"Cakung","distance":3097},{"transit":false,"line":1,"distance":1385,"time":8,"station_id":"KLDB","is_transit":false,"i_lat":-6.217455,"i_long":106.939679,"station_name":"Klenderbaru"},{"line":1,"time":1,"station_id":"BUA","is_transit":false,"i_lat":-6.215568,"distance":1305,"transit":false,"i_long":106.922662,"station_name":"Buaran"},{"station_id":"KLD","i_lat":-6.2135,"i_long":106.899548,"distance":3100,"station_name":"Klender","time":2,"line":1,"is_transit":false,"transit":false},{"station_name":"Jatinegara","distance":3395,"line":1,"station_id":"JNG","i_lat":-6.215091,"is_transit":true,"transit":true,"i_long":106.86807400000001,"time":3},{"line":11,"distance":1236,"station_name":"Pondok Jati","time":2,"i_lat":-6.209188,"i_long":106.861737,"station_id":"POK","is_transit":false,"transit":false},{"transit":false,"line":11,"time":2,"i_long":106.855437,"station_name":"Kramat","distance":1829,"station_id":"KMT","i_lat":-6.193792,"is_transit":false},{"time":1,"station_id":"GST","line":11,"i_long":106.850107,"i_lat":-6.185975,"distance":973,"transit":false,"is_transit":false,"station_name":"Gang Sentiong"},{"time":8,"transit":false,"station_id":"PSE","line":11,"is_transit":false,"station_name":"Pasar Senen","i_long":106.84368,"distance":1567,"i_lat":-6.174784},{"i_long":106.839204,"time":4,"line":11,"station_name":"Kemayoran","i_lat":-6.161728,"is_transit":false,"distance":1436,"transit":false,"station_id":"KMO"},{"distance":1901,"time":5,"i_lat":-6.14505,"i_long":106.836569,"line":11,"station_name":"Rajawali","station_id":"RJW","is_transit":false,"transit":false},{"distance":1444,"station_name":"Kampung Bandan","i_lat":-6.132549,"transit":true,"line":4,"is_transit":true,"time":3,"station_id":"KPB","i_long":106.826365},{"i_long":106.79867,"station_id":"AK","time":9,"station_name":"Angke","is_transit":false,"line":1,"i_lat":-6.144674,"transit":false,"distance":4102},{"i_lat":-6.155215,"station_name":"Duri","time":4,"distance":1230,"is_transit":false,"line":1,"i_long":106.800832,"transit":false,"station_id":"DU"},{"station_name":"Tanah Abang","i_long":106.811091,"station_id":"THB","transit":false,"is_transit":false,"time":8,"i_lat":-6.185545,"line":1,"distance":3632},{"distance":2029,"transit":false,"i_lat":-6.20132,"time":5,"is_transit":false,"station_name":"Karet","station_id":"KAT","i_long":106.816351,"line":1},{"station_id":"SUDB","time":1,"i_lat":-6.201433,"i_long":106.819881,"station_name":"Sudirman Baru","is_transit":false,"transit":false,"line":1,"distance":471},{"time":1,"i_long":106.822649,"station_name":"Sudirman","i_lat":-6.202263,"transit":false,"line":1,"station_id":"SUD","is_transit":false,"distance":280},{"is_transit":true,"station_name":"Manggarai","time":4,"transit":true,"distance":3186,"i_lat":-6.209883,"station_id":"MRI","i_long":106.84912,"line":2},{"station_id":"TEB","station_name":"Tebet","is_transit":false,"i_long":106.857948,"i_lat":-6.226659,"line":2,"transit":false,"time":4,"distance":2610},{"i_long":106.856607,"time":2,"distance":1230,"line":2,"is_transit":false,"transit":false,"station_id":"CW","i_lat":-6.242512,"station_name":"Cawang"},{"line":2,"station_id":"DRN","time":3,"transit":false,"distance":1546,"is_transit":false,"station_name":"Duren Kalibata","i_long":106.85449,"i_lat":-6.255332},{"station_id":"PSMB","distance":824,"transit":false,"station_name":"Pasar Minggu Baru","time":2,"is_transit":false,"i_lat":-6.263214,"i_long":106.851577,"line":2},{"i_lat":-6.2842400000000005,"distance":2380,"time":2,"line":2,"i_long":106.843999,"station_name":"Pasar Minggu","station_id":"PSM","is_transit":false,"transit":false},{"i_lat":-6.3080680000000005,"time":4,"station_name":"Tanjung Barat","station_id":"TNT","distance":2820,"is_transit":false,"i_long":106.838896,"line":2,"transit":false},{"station_name":"Lenteng Agung","time":3,"is_transit":false,"i_long":106.832616,"station_id":"LNA","line":2,"distance":2671,"i_lat":-6.330363,"transit":false},{"time":2,"station_id":"UP","i_long":106.834175,"transit":false,"station_name":"Univ. Pancasila","i_lat":-6.339291,"line":2,"distance":1029,"is_transit":false},{"station_id":"UI","distance":2264,"transit":false,"i_lat":-6.360749,"line":2,"i_long":106.831474,"time":3,"is_transit":false,"station_name":"Univ. Indonesia"},{"i_lat":-6.369073,"is_transit":false,"line":2,"distance":1109,"transit":false,"station_name":"Pondok Cina","time":2,"station_id":"POC","i_long":106.831114},{"distance":2727,"is_transit":false,"time":4,"line":2,"station_name":"Depokbaru","station_id":"DPB","i_lat":-6.391065,"i_long":106.819451,"transit":false},{"time":3,"station_name":"Depok","transit":false,"is_transit":false,"i_lat":-6.405256,"i_long":106.816926,"station_id":"DP","line":2,"distance":1584},{"i_lat":-6.448811,"time":6,"station_name":"Citayam","is_transit":false,"transit":false,"i_long":106.800298,"station_id":"CTA","line":2,"distance":5084},{"station_id":"BJD","station_name":"Bojonggede","i_lat":-6.493243,"i_long":106.792719,"line":2,"is_transit":false,"transit":false,"distance":5197,"time":5},{"transit":false,"distance":4331,"station_name":"Cilebut","is_transit":false,"time":5,"i_lat":-6.530544,"i_long":106.800016,"line":2,"station_id":"CLT"},{"i_long":106.790574,"station_id":"BOO","distance":7514,"station_name":"Bogor","is_transit":false,"i_lat":-6.594596,"line":2,"transit":false,"time":9}],[{"time":0,"transit":false,"is_transit":false,"station_name":"Kranji","i_long":106.977657,"line":1,"station_id":"KRI","i_lat":-6.224515,"distance":0},{"is_transit":false,"i_lat":-6.219053,"i_long":106.951283,"transit":false,"line":1,"station_name":"Cakung","time":3,"station_id":"CUK","distance":3097},{"distance":1385,"i_long":106.939679,"line":1,"station_id":"KLDB","station_name":"Klenderbaru","time":8,"is_transit":false,"transit":false,"i_lat":-6.217455},{"i_lat":-6.215568,"distance":1305,"is_transit":false,"line":1,"time":1,"station_name":"Buaran","station_id":"BUA","i_long":106.922662,"transit":false},{"is_transit":false,"station_id":"KLD","i_long":106.899548,"transit":false,"time":2,"station_name":"Klender","i_lat":-6.2135,"line":1,"distance":3100},{"time":3,"i_lat":-6.215091,"station_name":"Jatinegara","line":1,"transit":true,"station_id":"JNG","is_transit":true,"i_long":106.86807400000001,"distance":3395},{"distance":1236,"transit":false,"i_lat":-6.209188,"station_id":"POK","time":2,"line":11,"station_name":"Pondok Jati","i_long":106.861737,"is_transit":false},{"time":2,"line":11,"transit":false,"is_transit":false,"station_name":"Kramat","station_id":"KMT","distance":1829,"i_long":106.855437,"i_lat":-6.193792},{"station_name":"Gang Sentiong","station_id":"GST","time":1,"i_lat":-6.185975,"i_long":106.850107,"distance":973,"is_transit":false,"line":11,"transit":false},{"is_transit":false,"station_name":"Pasar Senen","station_id":"PSE","distance":1567,"i_lat":-6.174784,"transit":false,"i_long":106.84368,"line":11,"time":8},{"line":11,"transit":false,"station_name":"Kemayoran","i_lat":-6.161728,"i_long":106.839204,"time":4,"is_transit":false,"station_id":"KMO","distance":1436},{"time":5,"i_lat":-6.14505,"distance":1901,"transit":false,"station_id":"RJW","i_long":106.836569,"is_transit":false,"line":11,"station_name":"Rajawali"},{"station_id":"KPB","transit":true,"is_transit":true,"i_lat":-6.132549,"distance":1444,"station_name":"Kampung Bandan","time":3,"i_long":106.826365,"line":4},{"i_long":106.812439,"station_name":"Jakarta Kota","transit":true,"distance":1364,"is_transit":true,"line":2,"station_id":"JAKK","i_lat":-6.137569,"time":3},{"distance":1264,"station_id":"JAY","line":2,"time":4,"transit":false,"i_long":106.820901,"is_transit":false,"station_name":"Jayakarta","i_lat":-6.141205},{"transit":false,"station_id":"MGB","i_long":106.82482,"distance":1080,"time":2,"is_transit":false,"station_name":"Manggabesar","line":2,"i_lat":-6.149769},{"distance":906,"station_name":"Sawah Besar","station_id":"SW","i_long":106.827103,"transit":false,"line":2,"i_lat":-6.160725,"time":2,"is_transit":false},{"distance":1149,"line":2,"transit":false,"station_id":"JUA","i_lat":-6.166716,"time":2,"i_long":106.828284,"station_name":"Juanda","is_transit":false},{"station_id":"GDD","transit":false,"station_name":"Gondangdia","distance":2015,"i_lat":-6.186295,"line":2,"time":4,"i_long":106.832183,"is_transit":false},{"distance":1750,"is_transit":false,"time":3,"station_name":"Cikini","i_lat":-6.198556,"i_long":106.840169,"station_id":"CKI","transit":false,"line":2},{"transit":false,"station_id":"MRI","i_lat":-6.209883,"time":4,"distance":1590,"station_name":"Manggarai","i_long":106.84912,"is_transit":false,"line":2},{"is_transit":false,"station_name":"Tebet","i_lat":-6.226659,"distance":2610,"time":4,"i_long":106.857948,"transit":false,"line":2,"station_id":"TEB"},{"station_id":"CW","line":2,"transit":false,"distance":1230,"i_long":106.856607,"station_name":"Cawang","is_transit":false,"i_lat":-6.242512,"time":2},{"is_transit":false,"station_id":"DRN","time":3,"transit":false,"i_lat":-6.255332,"i_long":106.85449,"distance":1546,"station_name":"Duren Kalibata","line":2},{"time":2,"i_lat":-6.263214,"i_long":106.851577,"transit":false,"line":2,"is_transit":false,"distance":824,"station_id":"PSMB","station_name":"Pasar Minggu Baru"},{"station_id":"PSM","i_long":106.843999,"time":2,"line":2,"transit":false,"distance":2380,"station_name":"Pasar Minggu","is_transit":false,"i_lat":-6.2842400000000005},{"time":4,"station_name":"Tanjung Barat","is_transit":false,"i_long":106.838896,"distance":2820,"i_lat":-6.3080680000000005,"transit":false,"station_id":"TNT","line":2},{"time":3,"i_lat":-6.330363,"distance":2671,"line":2,"i_long":106.832616,"station_name":"Lenteng Agung","transit":false,"is_transit":false,"station_id":"LNA"},{"i_lat":-6.339291,"time":2,"distance":1029,"station_name":"Univ. Pancasila","transit":false,"station_id":"UP","is_transit":false,"i_long":106.834175,"line":2},{"distance":2264,"i_long":106.831474,"i_lat":-6.360749,"transit":false,"time":3,"station_id":"UI","line":2,"is_transit":false,"station_name":"Univ. Indonesia"},{"station_id":"POC","is_transit":false,"station_name":"Pondok Cina","distance":1109,"i_lat":-6.369073,"i_long":106.831114,"transit":false,"line":2,"time":2},{"line":2,"distance":2727,"transit":false,"i_lat":-6.391065,"time":4,"station_name":"Depokbaru","station_id":"DPB","i_long":106.819451,"is_transit":false},{"line":2,"station_name":"Depok","station_id":"DP","transit":false,"time":3,"distance":1584,"i_lat":-6.405256,"i_long":106.816926,"is_transit":false},{"time":6,"i_lat":-6.448811,"station_id":"CTA","station_name":"Citayam","is_transit":false,"distance":5084,"transit":false,"i_long":106.800298,"line":2},{"i_lat":-6.493243,"distance":5197,"transit":false,"i_long":106.792719,"is_transit":false,"time":5,"station_name":"Bojonggede","station_id":"BJD","line":2},{"transit":false,"time":5,"station_id":"CLT","i_long":106.800016,"distance":4331,"is_transit":false,"i_lat":-6.530544,"line":2,"station_name":"Cilebut"},{"station_name":"Bogor","time":9,"transit":false,"i_long":106.790574,"line":2,"distance":7514,"i_lat":-6.594596,"is_transit":false,"station_id":"BOO"}]]}