{"data":[[{"i_long":106.977657,"line":1,"time":0,"station_id":"KRI","is_transit":false,"transit":false,"station_name":"Kranji","distance":0,"i_lat":-6.224515},{"distance":3097,"transit":false,"is_transit":false,"time":3,"line":1,"i_lat":-6.219053,"station_name":"Cakung","i_long":106.951283,"station_id":"CUK"},{"i_long":106.939679,"i_lat":-6.217455,"line":1,"time":8,"distance":1385,"transit":false,"station_id":"KLDB","is_transit":false,"station_name":"Klenderbaru"},{"time":1,"distance":1305,"i_lat":-6.215568,"i_long":106.922662,"line":1,"transit":false,"station_id":"BUA","station_name":"Buaran","is_transit":false},{"is_transit":false,"station_id":"KLD","station_name":"Klender","i_lat":-6.2135,"distance":3100,"time":2,"line":1,"i_long":106.899548,"transit":false},{"station_name":"Jatinegara","time":3,"distance":3395,"i_long":106.86807400000001,"i_lat":-6.215091,"transit":false,"station_id":"JNG","line":1,"is_transit":false},{"is_transit":false,"station_id":"MTR","station_name":"Matraman","transit":false,"time":2,"i_lat":-6.212485,"distance":1377,"i_long":106.858896,"line":1},{"i_long":106.84912,"line":2,"station_name":"Manggarai","time":2,"i_lat":-6.209883,"distance":1275,"is_transit":true,"transit":true,"station_id":"MRI"},{"station_id":"TEB","distance":2610,"transit":false,"i_lat":-6.226659,"station_name":"Tebet","i_long":106.857948,"is_transit":false,"time":4,"line":2},{"station_id":"CW","i_long":106.856607,"transit":false,"line":2,"station_name":"Cawang","time":2,"is_transit":false,"distance":1230,"i_lat":-6.242512},{"time":3,"distance":1546,"station_name":"Duren Kalibata","i_lat":-6.255332,"i_long":106.85449,"station_id":"DRN","is_transit":false,"line":2,"transit":false},{"i_lat":-6.263214,"time":2,"transit":false,"station_name":"Pasar Minggu Baru","distance":824,"station_id":"PSMB","is_transit":false,"line":2,"i_long":106.851577},{"station_name":"Pasar Minggu","time":2,"is_transit":false,"i_long":106.843999,"station_id":"PSM","distance":2380,"transit":false,"i_lat":-6.2842400000000005,"line":2},{"transit":false,"station_name":"Tanjung Barat","i_long":106.838896,"line":2,"time":4,"station_id":"TNT","is_transit":false,"distance":2820,"i_lat":-6.3080680000000005}],[{"distance":0,"i_lat":-6.224515,"i_long":106.977657,"line":1,"time":0,"station_name":"Kranji","transit":false,"station_id":"KRI","is_transit":false},{"i_long":106.951283,"i_lat":-6.219053,"station_id":"CUK","transit":false,"is_transit":false,"line":1,"station_name":"Cakung","distance":3097,"time":3},{"i_lat":-6.217455,"distance":1385,"station_id":"KLDB","is_transit":false,"i_long":106.939679,"transit":false,"time":8,"station_name":"Klenderbaru","line":1},{"is_transit":false,"i_lat":-6.215568,"station_name":"Buaran","transit":false,"line":1,"time":1,"distance":1305,"i_long":106.922662,"station_id":"BUA"},{"i_lat":-6.2135,"transit":false,"time":2,"i_long":106.899548,"line":1,"distance":3100,"station_name":"Klender","station_id":"KLD","is_transit":false},{"transit":true,"i_lat":-6.215091,"i_long":106.86807400000001,"station_id":"JNG","time":3,"line":1,"station_name":"Jatinegara","is_transit":true,"distance":3395},{"station_id":"POK","i_lat":-6.209188,"i_long":106.861737,"line":11,"time":2,"transit":false,"station_name":"Pondok Jati","distance":1236,"is_transit":false},{"i_long":106.855437,"transit":false,"station_id":"KMT","station_name":"Kramat","i_lat":-6.193792,"is_transit":false,"time":2,"line":11,"distance":1829},{"line":11,"station_name":"Gang Sentiong","i_lat":-6.185975,"transit":false,"is_transit":false,"time":1,"station_id":"GST","distance":973,"i_long":106.850107},{"i_long":106.84368,"line":11,"transit":false,"station_name":"Pasar Senen","station_id":"PSE","is_transit":false,"time":8,"distance":1567,"i_lat":-6.174784},{"is_transit":false,"transit":false,"station_id":"KMO","distance":1436,"line":11,"time":4,"i_lat":-6.161728,"station_name":"Kemayoran","i_long":106.839204},{"station_id":"RJW","time":5,"distance":1901,"station_name":"Rajawali","i_lat":-6.14505,"line":11,"i_long":106.836569,"is_transit":false,"transit":false},{"time":3,"station_id":"KPB","distance":1444,"transit":true,"station_name":"Kampung Bandan","i_lat":-6.132549,"is_transit":true,"i_long":106.826365,"line":4},{"station_name":"Angke","transit":false,"time":9,"distance":4102,"station_id":"AK","is_transit":false,"i_long":106.79867,"line":1,"i_lat":-6.144674},{"distance":1230,"i_long":106.800832,"station_name":"Duri","time":4,"i_lat":-6.155215,"line":1,"station_id":"DU","is_transit":false,"transit":false},{"is_transit":false,"distance":3632,"i_lat":-6.185545,"i_long":106.811091,"station_name":"Tanah Abang","station_id":"THB","time":8,"line":1,"transit":false},{"station_name":"Karet","is_transit":false,"distance":2029,"transit":false,"line":1,"station_id":"KAT","time":5,"i_lat":-6.20132,"i_long":106.816351},{"i_lat":-6.201433,"time":1,"distance":471,"station_id":"SUDB","line":1,"station_name":"Sudirman Baru","i_long":106.819881,"transit":false,"is_transit":false},{"time":1,"station_id":"SUD","i_long":106.822649,"station_name":"Sudirman","line":1,"i_lat":-6.202263,"distance":280,"transit":false,"is_transit":false},{"is_transit":true,"time":4,"i_lat":-6.209883,"station_name":"Manggarai","line":2,"i_long":106.84912,"distance":3186,"transit":true,"station_id":"MRI"},{"transit":false,"i_long":106.857948,"line":2,"is_transit":false,"station_id":"TEB","station_name":"Tebet","time":4,"distance":2610,"i_lat":-6.226659},{"i_long":106.856607,"transit":false,"station_id":"CW","distance":1230,"is_transit":false,"time":2,"i_lat":-6.242512,"line":2,"station_name":"Cawang"},{"i_lat":-6.255332,"is_transit":false,"distance":1546,"time":3,"transit":false,"station_name":"Duren Kalibata","station_id":"DRN","i_long":106.85449,"line":2},{"time":2,"i_lat":-6.263214,"station_name":"Pasar Minggu Baru","i_long":106.851577,"distance":824,"station_id":"PSMB","line":2,"transit":false,"is_transit":false},{"transit":false,"station_name":"Pasar Minggu","distance":2380,"time":2,"i_long":106.843999,"is_transit":false,"i_lat":-6.2842400000000005,"line":2,"station_id":"PSM"},{"time":4,"station_id":"TNT","station_name":"Tanjung Barat","i_lat":-6.3080680000000005,"transit":false,"i_long":106.838896,"distance":2820,"line":2,"is_transit":false}],[{"time":0,"i_long":106.977657,"i_lat":-6.224515,"transit":false,"station_id":"KRI","line":1,"station_name":"Kranji","distance":0,"is_transit":false},{"station_name":"Cakung","distance":3097,"line":1,"station_id":"CUK","i_long":106.951283,"is_transit":false,"time":3,"i_lat":-6.219053,"transit":false},{"line":1,"distance":1385,"transit":false,"i_lat":-6.217455,"station_name":"Klenderbaru","time":8,"station_id":"KLDB","i_long":106.939679,"is_transit":false},{"distance":1305,"i_lat":-6.215568,"station_id":"BUA","transit":false,"is_transit":false,"station_name":"Buaran","line":1,"time":1,"i_long":106.922662},{"time":2,"i_long":106.899548,"line":1,"is_transit":false,"distance":3100,"station_id":"KLD","i_lat":-6.2135,"station_name":"Klender","transit":false},{"transit":true,"station_id":"JNG","distance":3395,"station_name":"Jatinegara","line":1,"i_lat":-6.215091,"i_long":106.86807400000001,"time":3,"is_transit":true},{"distance":1236,"time":2,"transit":false,"station_id":"POK","i_lat":-6.209188,"is_transit":false,"i_long":106.861737,"line":11,"station_name":"Pondok Jati"},{"is_transit":false,"i_lat":-6.193792,"line":11,"i_long":106.855437,"distance":1829,"station_id":"KMT","transit":false,"time":2,"station_name":"Kramat"},{"is_transit":false,"station_name":"Gang Sentiong","i_long":106.850107,"transit":false,"line":11,"i_lat":-6.185975,"station_id":"GST","distance":973,"time":1},{"is_transit":false,"transit":false,"i_lat":-6.174784,"line":11,"distance":1567,"station_name":"Pasar Senen","i_long":106.84368,"station_id":"PSE","time":8},{"station_name":"Kemayoran","station_id":"KMO","i_lat":-6.161728,"i_long":106.839204,"line":11,"time":4,"distance":1436,"is_transit":false,"transit":false},{"i_long":106.836569,"station_name":"Rajawali","distance":1901,"transit":false,"is_transit":false,"station_id":"RJW","time":5,"i_lat":-6.14505,"line":11},{"station_id":"KPB","time":3,"transit":true,"station_name":"Kampung Bandan","distance":1444,"i_lat":-6.132549,"line":4,"i_long":106.826365,"is_transit":true},{"distance":1364,"is_transit":true,"time":3,"i_lat":-6.137569,"i_long":106.812439,"station_id":"JAKK","transit":true,"station_name":"Jakarta Kota","line":2},{"i_long":106.820901,"station_name":"Jayakarta","line":2,"transit":false,"station_id":"JAY","time":4,"distance":1264,"i_lat":-6.141205,"is_transit":false},{"station_id":"MGB","time":2,"line":2,"transit":false,"i_lat":-6.149769,"distance":1080,"is_transit":false,"station_name":"Manggabesar","i_long":106.82482},{"is_transit":false,"i_long":106.827103,"station_name":"Sawah Besar","i_lat":-6.160725,"time":2,"transit":false,"station_id":"SW","distance":906,"line":2},{"transit":false,"time":2,"i_long":106.828284,"i_lat":-6.166716,"line":2,"is_transit":false,"distance":1149,"station_name":"Juanda","station_id":"JUA"},{"station_id":"GDD","station_name":"Gondangdia","transit":false,"is_transit":false,"time":4,"distance":2015,"i_lat":-6.186295,"line":2,"i_long":106.832183},{"transit":false,"station_name":"Cikini","i_long":106.840169,"i_lat":-6.198556,"distance":1750,"line":2,"is_transit":false,"station_id":"CKI","time":3},{"line":2,"station_name":"Manggarai","time":4,"distance":1590,"transit":false,"i_lat":-6.209883,"i_long":106.84912,"station_id":"MRI","is_transit":false},{"station_id":"TEB","distance":2610,"station_name":"Tebet","i_long":106.857948,"line":2,"time":4,"transit":false,"i_lat":-6.226659,"is_transit":false},{"time":2,"transit":false,"i_lat":-6.242512,"distance":1230,"station_name":"Cawang","station_id":"CW","is_transit":false,"i_long":106.856607,"line":2},{"line":2,"station_id":"DRN","time":3,"distance":1546,"i_long":106.85449,"is_transit":false,"transit":false,"i_lat":-6.255332,"station_name":"Duren Kalibata"},{"i_lat":-6.263214,"i_long":106.851577,"station_id":"PSMB","station_name":"Pasar Minggu Baru","distance":824,"is_transit":false,"time":2,"transit":false,"line":2},{"line":2,"station_id":"PSM","i_lat":-6.2842400000000005,"i_long":106.843999,"station_name":"Pasar Minggu","distance":2380,"transit":false,"is_transit":false,"time":2},{"station_name":"Tanjung Barat","distance":2820,"transit":false,"station_id":"TNT","i_long":106.838896,"line":2,"i_lat":-6.3080680000000005,"time":4,"is_transit":false}]]}