{"data":[[{"time":0,"i_lat":-6.224515,"station_name":"Kranji","distance":0,"transit":false,"is_transit":false,"station_id":"KRI","i_long":106.977657,"line":1},{"is_transit":false,"station_id":"CUK","distance":3097,"i_lat":-6.219053,"time":3,"i_long":106.951283,"station_name":"Cakung","line":1,"transit":false},{"distance":1385,"station_id":"KLDB","is_transit":false,"i_lat":-6.217455,"i_long":106.939679,"line":1,"transit":false,"time":8,"station_name":"Klenderbaru"},{"time":1,"station_name":"Buaran","i_lat":-6.215568,"distance":1305,"transit":false,"station_id":"BUA","i_long":106.922662,"line":1,"is_transit":false},{"is_transit":false,"line":1,"time":2,"station_name":"Klender","distance":3100,"transit":false,"i_lat":-6.2135,"i_long":106.899548,"station_id":"KLD"},{"distance":3395,"station_name":"Jatinegara","is_transit":false,"i_long":106.86807400000001,"station_id":"JNG","transit":false,"i_lat":-6.215091,"line":1,"time":3},{"station_id":"MTR","is_transit":false,"line":1,"transit":false,"distance":1377,"station_name":"Matraman","i_lat":-6.212485,"time":2,"i_long":106.858896},{"transit":true,"station_id":"MRI","i_lat":-6.209883,"i_long":106.84912,"line":2,"distance":1275,"time":2,"is_transit":true,"station_name":"Manggarai"},{"i_long":106.840169,"distance":1590,"i_lat":-6.198556,"station_id":"CKI","is_transit":false,"transit":false,"station_name":"Cikini","time":4,"line":2},{"i_lat":-6.186295,"i_long":106.832183,"time":3,"line":2,"station_id":"GDD","transit":false,"distance":1750,"station_name":"Gondangdia","is_transit":false}],[{"distance":0,"i_long":106.977657,"station_id":"KRI","time":0,"i_lat":-6.224515,"line":1,"station_name":"Kranji","is_transit":false,"transit":false},{"distance":3097,"is_transit":false,"time":3,"station_name":"Cakung","station_id":"CUK","i_long":106.951283,"line":1,"i_lat":-6.219053,"transit":false},{"line":1,"i_long":106.939679,"i_lat":-6.217455,"distance":1385,"station_id":"KLDB","station_name":"Klenderbaru","time":8,"is_transit":false,"transit":false},{"is_transit":false,"transit":false,"i_lat":-6.215568,"station_id":"BUA","distance":1305,"i_long":106.922662,"time":1,"station_name":"Buaran","line":1},{"station_id":"KLD","is_transit":false,"distance":3100,"station_name":"Klender","i_lat":-6.2135,"i_long":106.899548,"time":2,"line":1,"transit":false},{"line":1,"transit":true,"i_lat":-6.215091,"distance":3395,"station_name":"Jatinegara","station_id":"JNG","is_transit":true,"i_long":106.86807400000001,"time":3},{"is_transit":false,"i_lat":-6.209188,"station_id":"POK","distance":1236,"station_name":"Pondok Jati","time":2,"i_long":106.861737,"transit":false,"line":11},{"time":2,"station_id":"KMT","transit":false,"i_lat":-6.193792,"i_long":106.855437,"distance":1829,"is_transit":false,"station_name":"Kramat","line":11},{"is_transit":false,"i_lat":-6.185975,"i_long":106.850107,"time":1,"line":11,"distance":973,"station_name":"Gang Sentiong","station_id":"GST","transit":false},{"station_id":"PSE","time":8,"transit":false,"is_transit":false,"i_long":106.84368,"distance":1567,"station_name":"Pasar Senen","i_lat":-6.174784,"line":11},{"line":11,"transit":false,"time":4,"i_lat":-6.161728,"i_long":106.839204,"is_transit":false,"station_name":"Kemayoran","station_id":"KMO","distance":1436},{"station_name":"Rajawali","distance":1901,"time":5,"transit":false,"station_id":"RJW","is_transit":false,"i_long":106.836569,"i_lat":-6.14505,"line":11},{"time":3,"line":4,"station_id":"KPB","is_transit":true,"station_name":"Kampung Bandan","i_lat":-6.132549,"i_long":106.826365,"distance":1444,"transit":true},{"time":3,"station_name":"Jakarta Kota","distance":1364,"transit":true,"i_lat":-6.137569,"i_long":106.812439,"line":2,"station_id":"JAKK","is_transit":true},{"line":2,"transit":false,"time":4,"distance":1264,"station_name":"Jayakarta","is_transit":false,"station_id":"JAY","i_lat":-6.141205,"i_long":106.820901},{"distance":1080,"station_id":"MGB","i_lat":-6.149769,"i_long":106.82482,"station_name":"Manggabesar","is_transit":false,"transit":false,"line":2,"time":2},{"is_transit":false,"distance":906,"transit":false,"i_lat":-6.160725,"time":2,"i_long":106.827103,"line":2,"station_name":"Sawah Besar","station_id":"SW"},{"station_id":"JUA","i_long":106.828284,"is_transit":false,"transit":false,"station_name":"Juanda","line":2,"distance":1149,"time":2,"i_lat":-6.166716},{"station_name":"Gondangdia","is_transit":false,"transit":false,"line":2,"i_lat":-6.186295,"station_id":"GDD","i_long":106.832183,"distance":2015,"time":4}],[{"is_transit":false,"transit":false,"i_lat":-6.224515,"station_id":"KRI","i_long":106.977657,"time":0,"line":1,"station_name":"Kranji","distance":0},{"station_name":"Cakung","i_long":106.951283,"time":3,"is_transit":false,"station_id":"CUK","transit":false,"line":1,"distance":3097,"i_lat":-6.219053},{"is_transit":false,"transit":false,"i_lat":-6.217455,"distance":1385,"station_name":"Klenderbaru","time":8,"i_long":106.939679,"station_id":"KLDB","line":1},{"is_transit":false,"station_name":"Buaran","i_lat":-6.215568,"i_long":106.922662,"distance":1305,"transit":false,"station_id":"BUA","line":1,"time":1},{"time":2,"line":1,"transit":false,"i_long":106.899548,"is_transit":false,"distance":3100,"station_id":"KLD","i_lat":-6.2135,"station_name":"Klender"},{"transit":false,"time":3,"i_long":106.86807400000001,"distance":3395,"station_name":"Jatinegara","is_transit":false,"i_lat":-6.215091,"line":1,"station_id":"JNG"},{"distance":1377,"time":2,"i_lat":-6.212485,"line":1,"station_id":"MTR","transit":false,"station_name":"Matraman","is_transit":false,"i_long":106.858896},{"transit":false,"station_name":"Manggarai","is_transit":false,"i_lat":-6.209883,"i_long":106.84912,"distance":1275,"time":2,"line":2,"station_id":"MRI"},{"transit":false,"station_id":"SUD","is_transit":false,"line":1,"station_name":"Sudirman","i_lat":-6.202263,"time":4,"i_long":106.822649,"distance":3186},{"station_name":"Sudirman Baru","station_id":"SUDB","i_lat":-6.201433,"line":1,"transit":false,"is_transit":false,"time":1,"distance":280,"i_long":106.819881},{"transit":false,"distance":471,"time":1,"station_name":"Karet","i_lat":-6.20132,"station_id":"KAT","is_transit":false,"i_long":106.816351,"line":1},{"i_lat":-6.185545,"station_id":"THB","i_long":106.811091,"time":5,"line":1,"distance":2029,"station_name":"Tanah Abang","is_transit":false,"transit":false},{"transit":false,"distance":3632,"time":8,"is_transit":false,"i_lat":-6.155215,"station_id":"DU","i_long":106.800832,"station_name":"Duri","line":1},{"i_lat":-6.144674,"distance":1230,"i_long":106.79867,"line":1,"station_id":"AK","time":4,"station_name":"Angke","is_transit":false,"transit":false},{"i_long":106.826365,"station_id":"KPB","time":9,"is_transit":true,"transit":true,"distance":4102,"i_lat":-6.132549,"station_name":"Kampung Bandan","line":4},{"time":3,"station_name":"Jakarta Kota","i_long":106.812439,"line":2,"i_lat":-6.137569,"is_transit":true,"station_id":"JAKK","transit":true,"distance":1364},{"station_name":"Jayakarta","station_id":"JAY","i_long":106.820901,"is_transit":false,"distance":1264,"time":4,"i_lat":-6.141205,"line":2,"transit":false},{"distance":1080,"i_lat":-6.149769,"station_id":"MGB","transit":false,"is_transit":false,"i_long":106.82482,"time":2,"station_name":"Manggabesar","line":2},{"time":2,"is_transit":false,"line":2,"station_name":"Sawah Besar","distance":906,"station_id":"SW","i_lat":-6.160725,"transit":false,"i_long":106.827103},{"line":2,"i_long":106.828284,"station_name":"Juanda","distance":1149,"is_transit":false,"time":2,"transit":false,"i_lat":-6.166716,"station_id":"JUA"},{"line":2,"i_long":106.832183,"distance":2015,"time":4,"station_name":"Gondangdia","is_transit":false,"i_lat":-6.186295,"station_id":"GDD","transit":false}],[{"station_name":"Kranji","station_id":"KRI","i_lat":-6.224515,"i_long":106.977657,"transit":false,"line":1,"time":0,"is_transit":false,"distance":0},{"i_lat":-6.219053,"time":3,"i_long":106.951283,"station_name":"Cakung","distance":3097,"line":1,"station_id":"CUK","transit":false,"is_transit":false},{"is_transit":false,"station_name":"Klenderbaru","transit":false,"i_lat":-6.217455,"distance":1385,"line":1,"i_long":106.939679,"station_id":"KLDB","time":8},{"time":1,"line":1,"station_name":"Buaran","station_id":"BUA","i_lat":-6.215568,"is_transit":false,"distance":1305,"transit":false,"i_long":106.922662},{"i_lat":-6.2135,"i_long":106.899548,"line":1,"station_id":"KLD","station_name":"Klender","time":2,"is_transit":false,"transit":false,"distance":3100},{"distance":3395,"time":3,"station_name":"Jatinegara","i_long":106.86807400000001,"is_transit":true,"transit":true,"i_lat":-6.215091,"line":1,"station_id":"JNG"},{"i_long":106.861737,"line":11,"transit":false,"i_lat":-6.209188,"distance":1236,"time":2,"station_id":"POK","station_name":"Pondok Jati","is_transit":false},{"line":11,"station_name":"Kramat","station_id":"KMT","time":2,"is_transit":false,"distance":1829,"transit":false,"i_lat":-6.193792,"i_long":106.855437},{"line":11,"time":1,"station_id":"GST","transit":false,"distance":973,"i_lat":-6.185975,"is_transit":false,"i_long":106.850107,"station_name":"Gang Sentiong"},{"line":11,"time":8,"station_id":"PSE","station_name":"Pasar Senen","transit":false,"is_transit":false,"i_long":106.84368,"distance":1567,"i_lat":-6.174784},{"i_long":106.839204,"time":4,"line":11,"transit":false,"station_id":"KMO","distance":1436,"is_transit":false,"i_lat":-6.161728,"station_name":"Kemayoran"},{"distance":1901,"time":5,"station_name":"Rajawali","is_transit":false,"station_id":"RJW","line":11,"transit":false,"i_lat":-6.14505,"i_long":106.836569},{"transit":true,"time":3,"i_lat":-6.132549,"station_id":"KPB","is_transit":true,"station_name":"Kampung Bandan","line":4,"i_long":106.826365,"distance":1444},{"station_id":"AK","distance":4102,"station_name":"Angke","i_long":106.79867,"line":1,"time":9,"i_lat":-6.144674,"transit":false,"is_transit":false},{"distance":1230,"station_id":"DU","line":1,"i_long":106.800832,"is_transit":false,"i_lat":-6.155215,"time":4,"station_name":"Duri","transit":false},{"is_transit":false,"distance":3632,"station_name":"Tanah Abang","i_long":106.811091,"line":1,"time":8,"transit":false,"i_lat":-6.185545,"station_id":"THB"},{"i_long":106.816351,"i_lat":-6.20132,"station_id":"KAT","station_name":"Karet","distance":2029,"line":1,"transit":false,"time":5,"is_transit":false},{"station_id":"SUDB","station_name":"Sudirman Baru","transit":false,"distance":471,"time":1,"i_long":106.819881,"line":1,"is_transit":false,"i_lat":-6.201433},{"is_transit":false,"i_lat":-6.202263,"distance":280,"station_id":"SUD","line":1,"i_long":106.822649,"time":1,"station_name":"Sudirman","transit":false},{"time":4,"i_lat":-6.209883,"distance":3186,"line":2,"station_name":"Manggarai","transit":true,"i_long":106.84912,"is_transit":true,"station_id":"MRI"},{"distance":1590,"time":4,"transit":false,"i_lat":-6.198556,"station_id":"CKI","line":2,"station_name":"Cikini","is_transit":false,"i_long":106.840169},{"is_transit":false,"transit":false,"i_lat":-6.186295,"line":2,"station_id":"GDD","station_name":"Gondangdia","time":3,"distance":1750,"i_long":106.832183}]]}