{"data":[[{"distance":0,"i_lat":-6.224515,"line":1,"station_name":"Kranji","station_id":"KRI","time":0,"i_long":106.977657,"is_transit":false,"transit":false},{"i_long":106.951283,"line":1,"transit":false,"time":3,"distance":3097,"station_id":"CUK","station_name":"Cakung","i_lat":-6.219053,"is_transit":false},{"is_transit":false,"station_name":"Klenderbaru","i_lat":-6.217455,"distance":1385,"line":1,"station_id":"KLDB","i_long":106.939679,"transit":false,"time":8},{"is_transit":false,"station_id":"BUA","station_name":"Buaran","time":1,"i_lat":-6.215568,"transit":false,"distance":1305,"i_long":106.922662,"line":1},{"distance":3100,"i_long":106.899548,"transit":false,"station_id":"KLD","time":2,"is_transit":false,"i_lat":-6.2135,"line":1,"station_name":"Klender"},{"station_id":"JNG","is_transit":false,"time":3,"line":1,"distance":3395,"i_lat":-6.215091,"station_name":"Jatinegara","i_long":106.86807400000001,"transit":false},{"station_name":"Matraman","distance":1377,"i_long":106.858896,"transit":false,"is_transit":false,"i_lat":-6.212485,"line":1,"station_id":"MTR","time":2},{"station_name":"Manggarai","time":2,"i_lat":-6.209883,"i_long":106.84912,"station_id":"MRI","is_transit":true,"distance":1275,"line":2,"transit":true},{"is_transit":false,"distance":2610,"transit":false,"time":4,"line":2,"station_name":"Tebet","i_lat":-6.226659,"i_long":106.857948,"station_id":"TEB"},{"i_long":106.856607,"station_name":"Cawang","distance":1230,"transit":false,"station_id":"CW","time":2,"i_lat":-6.242512,"is_transit":false,"line":2},{"is_transit":false,"station_name":"Duren Kalibata","distance":1546,"time":3,"i_lat":-6.255332,"i_long":106.85449,"transit":false,"station_id":"DRN","line":2},{"time":2,"transit":false,"station_name":"Pasar Minggu Baru","i_lat":-6.263214,"is_transit":false,"line":2,"distance":824,"i_long":106.851577,"station_id":"PSMB"},{"time":2,"distance":2380,"i_long":106.843999,"station_name":"Pasar Minggu","line":2,"transit":false,"station_id":"PSM","i_lat":-6.2842400000000005,"is_transit":false},{"time":4,"i_lat":-6.3080680000000005,"station_name":"Tanjung Barat","i_long":106.838896,"distance":2820,"station_id":"TNT","line":2,"is_transit":false,"transit":false}],[{"transit":false,"time":0,"i_lat":-6.224515,"line":1,"station_name":"Kranji","is_transit":false,"station_id":"KRI","distance":0,"i_long":106.977657},{"i_long":106.951283,"is_transit":false,"distance":3097,"i_lat":-6.219053,"time":3,"line":1,"transit":false,"station_name":"Cakung","station_id":"CUK"},{"line":1,"station_id":"KLDB","i_long":106.939679,"i_lat":-6.217455,"station_name":"Klenderbaru","time":8,"transit":false,"is_transit":false,"distance":1385},{"station_name":"Buaran","station_id":"BUA","distance":1305,"line":1,"is_transit":false,"transit":false,"i_lat":-6.215568,"i_long":106.922662,"time":1},{"i_long":106.899548,"station_id":"KLD","transit":false,"time":2,"station_name":"Klender","line":1,"i_lat":-6.2135,"is_transit":false,"distance":3100},{"i_lat":-6.215091,"distance":3395,"transit":true,"time":3,"station_id":"JNG","is_transit":true,"i_long":106.86807400000001,"line":1,"station_name":"Jatinegara"},{"line":11,"is_transit":false,"transit":false,"station_name":"Pondok Jati","distance":1236,"i_lat":-6.209188,"station_id":"POK","time":2,"i_long":106.861737},{"line":11,"is_transit":false,"station_id":"KMT","distance":1829,"i_lat":-6.193792,"station_name":"Kramat","time":2,"transit":false,"i_long":106.855437},{"station_id":"GST","i_lat":-6.185975,"i_long":106.850107,"is_transit":false,"line":11,"time":1,"transit":false,"station_name":"Gang Sentiong","distance":973},{"distance":1567,"i_lat":-6.174784,"line":11,"station_name":"Pasar Senen","is_transit":false,"station_id":"PSE","i_long":106.84368,"transit":false,"time":8},{"time":4,"distance":1436,"i_long":106.839204,"is_transit":false,"station_name":"Kemayoran","station_id":"KMO","line":11,"i_lat":-6.161728,"transit":false},{"transit":false,"i_long":106.836569,"line":11,"distance":1901,"i_lat":-6.14505,"is_transit":false,"station_id":"RJW","time":5,"station_name":"Rajawali"},{"transit":true,"station_id":"KPB","time":3,"is_transit":true,"distance":1444,"i_long":106.826365,"line":4,"station_name":"Kampung Bandan","i_lat":-6.132549},{"station_name":"Angke","i_lat":-6.144674,"distance":4102,"i_long":106.79867,"station_id":"AK","is_transit":false,"line":1,"transit":false,"time":9},{"line":1,"is_transit":false,"station_id":"DU","transit":false,"distance":1230,"i_long":106.800832,"station_name":"Duri","time":4,"i_lat":-6.155215},{"line":1,"station_id":"THB","transit":false,"is_transit":false,"station_name":"Tanah Abang","distance":3632,"i_lat":-6.185545,"i_long":106.811091,"time":8},{"station_id":"KAT","is_transit":false,"station_name":"Karet","i_lat":-6.20132,"i_long":106.816351,"transit":false,"line":1,"time":5,"distance":2029},{"is_transit":false,"line":1,"distance":471,"i_long":106.819881,"time":1,"i_lat":-6.201433,"transit":false,"station_id":"SUDB","station_name":"Sudirman Baru"},{"i_lat":-6.202263,"station_id":"SUD","time":1,"station_name":"Sudirman","distance":280,"is_transit":false,"transit":false,"i_long":106.822649,"line":1},{"time":4,"i_lat":-6.209883,"transit":true,"station_name":"Manggarai","line":2,"i_long":106.84912,"distance":3186,"is_transit":true,"station_id":"MRI"},{"distance":2610,"is_transit":false,"line":2,"transit":false,"i_long":106.857948,"station_id":"TEB","station_name":"Tebet","time":4,"i_lat":-6.226659},{"station_id":"CW","transit":false,"station_name":"Cawang","i_lat":-6.242512,"distance":1230,"i_long":106.856607,"line":2,"is_transit":false,"time":2},{"station_name":"Duren Kalibata","time":3,"distance":1546,"line":2,"i_lat":-6.255332,"station_id":"DRN","transit":false,"i_long":106.85449,"is_transit":false},{"i_lat":-6.263214,"transit":false,"station_id":"PSMB","station_name":"Pasar Minggu Baru","i_long":106.851577,"line":2,"time":2,"distance":824,"is_transit":false},{"line":2,"is_transit":false,"station_id":"PSM","transit":false,"i_long":106.843999,"station_name":"Pasar Minggu","time":2,"distance":2380,"i_lat":-6.2842400000000005},{"i_long":106.838896,"distance":2820,"line":2,"station_name":"Tanjung Barat","is_transit":false,"transit":false,"station_id":"TNT","time":4,"i_lat":-6.3080680000000005}],[{"station_id":"KRI","distance":0,"is_transit":false,"transit":false,"time":0,"i_lat":-6.224515,"i_long":106.977657,"line":1,"station_name":"Kranji"},{"transit":false,"station_id":"CUK","station_name":"Cakung","i_lat":-6.219053,"time":3,"is_transit":false,"distance":3097,"i_long":106.951283,"line":1},{"i_long":106.939679,"line":1,"transit":false,"station_name":"Klenderbaru","i_lat":-6.217455,"is_transit":false,"distance":1385,"time":8,"station_id":"KLDB"},{"transit":false,"time":1,"i_long":106.922662,"line":1,"is_transit":false,"i_lat":-6.215568,"station_name":"Buaran","station_id":"BUA","distance":1305},{"i_lat":-6.2135,"line":1,"time":2,"is_transit":false,"distance":3100,"i_long":106.899548,"station_id":"KLD","station_name":"Klender","transit":false},{"line":1,"i_long":106.86807400000001,"i_lat":-6.215091,"station_name":"Jatinegara","transit":true,"station_id":"JNG","is_transit":true,"distance":3395,"time":3},{"is_transit":false,"transit":false,"i_lat":-6.209188,"line":11,"station_id":"POK","station_name":"Pondok Jati","time":2,"i_long":106.861737,"distance":1236},{"is_transit":false,"station_name":"Kramat","station_id":"KMT","i_lat":-6.193792,"line":11,"i_long":106.855437,"time":2,"distance":1829,"transit":false},{"i_lat":-6.185975,"time":1,"line":11,"station_id":"GST","station_name":"Gang Sentiong","transit":false,"is_transit":false,"distance":973,"i_long":106.850107},{"line":11,"time":8,"transit":false,"station_name":"Pasar Senen","i_lat":-6.174784,"i_long":106.84368,"station_id":"PSE","is_transit":false,"distance":1567},{"station_name":"Kemayoran","station_id":"KMO","i_long":106.839204,"time":4,"line":11,"distance":1436,"is_transit":false,"transit":false,"i_lat":-6.161728},{"is_transit":false,"station_id":"RJW","station_name":"Rajawali","transit":false,"time":5,"line":11,"i_long":106.836569,"i_lat":-6.14505,"distance":1901},{"time":3,"station_name":"Kampung Bandan","distance":1444,"i_long":106.826365,"line":4,"station_id":"KPB","transit":true,"is_transit":true,"i_lat":-6.132549},{"i_lat":-6.137569,"i_long":106.812439,"station_name":"Jakarta Kota","station_id":"JAKK","line":2,"transit":true,"time":3,"is_transit":true,"distance":1364},{"transit":false,"distance":1264,"line":2,"is_transit":false,"station_id":"JAY","time":4,"i_lat":-6.141205,"station_name":"Jayakarta","i_long":106.820901},{"transit":false,"distance":1080,"i_lat":-6.149769,"station_id":"MGB","time":2,"line":2,"station_name":"Manggabesar","i_long":106.82482,"is_transit":false},{"i_lat":-6.160725,"line":2,"transit":false,"is_transit":false,"time":2,"i_long":106.827103,"station_name":"Sawah Besar","station_id":"SW","distance":906},{"i_long":106.828284,"transit":false,"station_id":"JUA","station_name":"Juanda","i_lat":-6.166716,"line":2,"time":2,"is_transit":false,"distance":1149},{"line":2,"distance":2015,"transit":false,"station_id":"GDD","time":4,"i_long":106.832183,"i_lat":-6.186295,"station_name":"Gondangdia","is_transit":false},{"i_lat":-6.198556,"i_long":106.840169,"station_id":"CKI","transit":false,"station_name":"Cikini","time":3,"line":2,"is_transit":false,"distance":1750},{"i_long":106.84912,"station_name":"Manggarai","time":4,"is_transit":false,"transit":false,"line":2,"station_id":"MRI","distance":1590,"i_lat":-6.209883},{"line":2,"time":4,"station_name":"Tebet","i_long":106.857948,"distance":2610,"transit":false,"is_transit":false,"station_id":"TEB","i_lat":-6.226659},{"station_id":"CW","i_long":106.856607,"station_name":"Cawang","line":2,"is_transit":false,"time":2,"transit":false,"distance":1230,"i_lat":-6.242512},{"station_name":"Duren Kalibata","distance":1546,"is_transit":false,"station_id":"DRN","line":2,"time":3,"i_lat":-6.255332,"transit":false,"i_long":106.85449},{"i_long":106.851577,"station_name":"Pasar Minggu Baru","is_transit":false,"transit":false,"time":2,"line":2,"i_lat":-6.263214,"distance":824,"station_id":"PSMB"},{"transit":false,"station_name":"Pasar Minggu","is_transit":false,"distance":2380,"line":2,"time":2,"i_lat":-6.2842400000000005,"i_long":106.843999,"station_id":"PSM"},{"time":4,"i_long":106.838896,"line":2,"i_lat":-6.3080680000000005,"is_transit":false,"station_name":"Tanjung Barat","distance":2820,"station_id":"TNT","transit":false}]]}