{"data":[[{"i_lat":-6.224515,"i_long":106.977657,"time":0,"is_transit":false,"station_name":"Kranji","distance":0,"station_id":"KRI","line":1,"transit":false},{"line":1,"time":3,"station_id":"CUK","i_lat":-6.219053,"i_long":106.951283,"distance":3097,"transit":false,"station_name":"Cakung","is_transit":false},{"is_transit":false,"i_lat":-6.217455,"i_long":106.939679,"line":1,"transit":false,"station_name":"Klenderbaru","station_id":"KLDB","time":8,"distance":1385},{"station_name":"Buaran","station_id":"BUA","distance":1305,"line":1,"i_long":106.922662,"i_lat":-6.215568,"time":1,"transit":false,"is_transit":false},{"i_long":106.899548,"distance":3100,"station_name":"Klender","station_id":"KLD","time":2,"transit":false,"line":1,"is_transit":false,"i_lat":-6.2135},{"distance":3395,"i_lat":-6.215091,"i_long":106.86807400000001,"station_id":"JNG","station_name":"Jatinegara","is_transit":true,"time":3,"line":1,"transit":true},{"i_long":106.861737,"distance":1236,"is_transit":false,"line":11,"time":2,"transit":false,"station_name":"Pondok Jati","i_lat":-6.209188,"station_id":"POK"},{"station_name":"Kramat","station_id":"KMT","distance":1829,"line":11,"time":2,"transit":false,"i_long":106.855437,"is_transit":false,"i_lat":-6.193792},{"i_long":106.850107,"station_name":"Gang Sentiong","i_lat":-6.185975,"station_id":"GST","time":1,"distance":973,"line":11,"transit":false,"is_transit":false},{"i_long":106.84368,"transit":false,"time":8,"is_transit":false,"i_lat":-6.174784,"distance":1567,"station_name":"Pasar Senen","station_id":"PSE","line":11},{"is_transit":false,"time":4,"station_id":"KMO","station_name":"Kemayoran","distance":1436,"transit":false,"i_long":106.839204,"i_lat":-6.161728,"line":11},{"line":11,"i_lat":-6.14505,"transit":false,"time":5,"station_name":"Rajawali","distance":1901,"is_transit":false,"station_id":"RJW","i_long":106.836569},{"line":4,"station_id":"KPB","i_lat":-6.132549,"distance":1444,"i_long":106.826365,"station_name":"Kampung Bandan","time":3,"transit":false,"is_transit":false}],[{"station_id":"KRI","distance":0,"line":1,"station_name":"Kranji","i_lat":-6.224515,"time":0,"transit":false,"is_transit":false,"i_long":106.977657},{"station_name":"Cakung","i_lat":-6.219053,"distance":3097,"station_id":"CUK","is_transit":false,"line":1,"transit":false,"time":3,"i_long":106.951283},{"transit":false,"line":1,"i_lat":-6.217455,"i_long":106.939679,"time":8,"distance":1385,"station_id":"KLDB","is_transit":false,"station_name":"Klenderbaru"},{"station_name":"Buaran","i_lat":-6.215568,"i_long":106.922662,"transit":false,"is_transit":false,"distance":1305,"station_id":"BUA","line":1,"time":1},{"line":1,"i_long":106.899548,"station_name":"Klender","distance":3100,"station_id":"KLD","time":2,"is_transit":false,"transit":false,"i_lat":-6.2135},{"station_name":"Jatinegara","line":1,"distance":3395,"is_transit":false,"station_id":"JNG","time":3,"i_lat":-6.215091,"i_long":106.86807400000001,"transit":false},{"i_long":106.858896,"station_name":"Matraman","station_id":"MTR","distance":1377,"i_lat":-6.212485,"time":2,"is_transit":false,"transit":false,"line":1},{"transit":false,"time":2,"station_id":"MRI","is_transit":false,"i_lat":-6.209883,"station_name":"Manggarai","i_long":106.84912,"line":2,"distance":1275},{"station_name":"Sudirman","transit":false,"distance":3186,"line":1,"station_id":"SUD","i_long":106.822649,"is_transit":false,"i_lat":-6.202263,"time":4},{"station_name":"Sudirman Baru","station_id":"SUDB","line":1,"time":1,"i_long":106.819881,"distance":280,"i_lat":-6.201433,"is_transit":false,"transit":false},{"i_long":106.816351,"station_id":"KAT","time":1,"i_lat":-6.20132,"distance":471,"is_transit":false,"line":1,"transit":false,"station_name":"Karet"},{"distance":2029,"station_name":"Tanah Abang","is_transit":false,"transit":false,"i_long":106.811091,"line":1,"time":5,"i_lat":-6.185545,"station_id":"THB"},{"time":8,"i_long":106.800832,"station_id":"DU","distance":3632,"line":1,"i_lat":-6.155215,"is_transit":false,"station_name":"Duri","transit":false},{"line":1,"distance":1230,"station_id":"AK","time":4,"is_transit":false,"i_lat":-6.144674,"transit":false,"i_long":106.79867,"station_name":"Angke"},{"line":4,"transit":false,"station_name":"Kampung Bandan","distance":4102,"station_id":"KPB","time":9,"i_long":106.826365,"is_transit":false,"i_lat":-6.132549}],[{"station_id":"KRI","i_long":106.977657,"time":0,"transit":false,"distance":0,"i_lat":-6.224515,"station_name":"Kranji","line":1,"is_transit":false},{"station_id":"CUK","time":3,"i_long":106.951283,"is_transit":false,"i_lat":-6.219053,"line":1,"distance":3097,"station_name":"Cakung","transit":false},{"station_id":"KLDB","time":8,"station_name":"Klenderbaru","i_lat":-6.217455,"distance":1385,"line":1,"is_transit":false,"i_long":106.939679,"transit":false},{"station_name":"Buaran","line":1,"i_long":106.922662,"time":1,"is_transit":false,"distance":1305,"station_id":"BUA","i_lat":-6.215568,"transit":false},{"time":2,"distance":3100,"transit":false,"i_long":106.899548,"is_transit":false,"line":1,"i_lat":-6.2135,"station_name":"Klender","station_id":"KLD"},{"transit":false,"line":1,"time":3,"distance":3395,"station_name":"Jatinegara","i_lat":-6.215091,"is_transit":false,"i_long":106.86807400000001,"station_id":"JNG"},{"is_transit":false,"station_id":"MTR","transit":false,"distance":1377,"time":2,"i_long":106.858896,"line":1,"station_name":"Matraman","i_lat":-6.212485},{"station_id":"MRI","distance":1275,"i_lat":-6.209883,"is_transit":true,"transit":true,"station_name":"Manggarai","time":2,"i_long":106.84912,"line":2},{"i_long":106.840169,"station_id":"CKI","time":4,"transit":false,"is_transit":false,"line":2,"station_name":"Cikini","distance":1590,"i_lat":-6.198556},{"distance":1750,"line":2,"i_long":106.832183,"i_lat":-6.186295,"station_name":"Gondangdia","station_id":"GDD","time":3,"transit":false,"is_transit":false},{"time":4,"station_name":"Juanda","station_id":"JUA","i_long":106.828284,"transit":false,"line":2,"is_transit":false,"distance":2015,"i_lat":-6.166716},{"i_lat":-6.160725,"time":2,"station_id":"SW","distance":1149,"transit":false,"station_name":"Sawah Besar","line":2,"is_transit":false,"i_long":106.827103},{"line":2,"i_lat":-6.149769,"i_long":106.82482,"distance":906,"transit":false,"station_name":"Manggabesar","time":2,"is_transit":false,"station_id":"MGB"},{"distance":1080,"i_long":106.820901,"line":2,"transit":false,"station_name":"Jayakarta","i_lat":-6.141205,"time":2,"station_id":"JAY","is_transit":false},{"station_name":"Jakarta Kota","station_id":"JAKK","is_transit":true,"time":4,"distance":1264,"transit":true,"i_long":106.812439,"i_lat":-6.137569,"line":2},{"time":3,"line":4,"station_name":"Kampung Bandan","transit":false,"station_id":"KPB","is_transit":false,"i_long":106.826365,"distance":1364,"i_lat":-6.132549}]]}