{"data":[[{"i_long":106.977657,"distance":0,"line":1,"station_name":"Kranji","time":0,"is_transit":false,"transit":false,"station_id":"KRI","i_lat":-6.224515},{"i_long":106.951283,"distance":3097,"station_id":"CUK","station_name":"Cakung","time":3,"is_transit":false,"transit":false,"line":0,"i_lat":-6.219053},{"transit":false,"is_transit":false,"distance":1385,"line":1,"station_id":"KLDB","station_name":"Klenderbaru","time":8,"i_long":106.939679,"i_lat":-6.217455},{"i_long":106.922662,"is_transit":false,"i_lat":-6.215568,"time":1,"line":0,"station_id":"BUA","distance":1305,"transit":false,"station_name":"Buaran"},{"time":2,"transit":false,"station_name":"Klender","i_lat":-6.2135,"i_long":106.899548,"distance":3100,"station_id":"KLD","line":1,"is_transit":false},{"station_name":"Jatinegara","time":3,"transit":false,"i_lat":-6.215091,"is_transit":true,"distance":3395,"station_id":"JNG","i_long":106.86807400000001,"line":0},{"transit":false,"time":2,"distance":1377,"i_lat":-6.212485,"station_name":"Matraman","is_transit":false,"i_long":106.858896,"station_id":"MTR","line":1},{"time":2,"i_lat":-6.209883,"i_long":106.84912,"station_id":"MRI","line":0,"is_transit":true,"transit":false,"distance":1275,"station_name":"Manggarai"},{"station_name":"Sudirman","transit":false,"i_lat":-6.202263,"is_transit":false,"time":4,"distance":3186,"i_long":106.822649,"line":1,"station_id":"SUD"},{"time":1,"distance":280,"i_lat":-6.201433,"transit":false,"station_name":"Sudirman Baru","line":1,"station_id":"SUDB","i_long":106.819881,"is_transit":false},{"i_lat":-6.20132,"station_id":"KAT","station_name":"Karet","distance":471,"transit":false,"is_transit":false,"i_long":106.816351,"line":1,"time":1},{"distance":2029,"i_long":106.811091,"is_transit":true,"line":1,"i_lat":-6.185545,"station_id":"THB","station_name":"Tanah Abang","transit":true,"time":5},{"transit":false,"station_name":"Palmerah","i_long":106.79689,"station_id":"PLM","distance":3191,"is_transit":false,"i_lat":-6.207404,"line":6,"time":6},{"i_lat":-6.237242,"time":7,"station_name":"Kebayoran","station_id":"KBY","line":6,"transit":false,"i_long":106.780334,"is_transit":false,"distance":3737}],[{"i_long":106.977657,"transit":false,"is_transit":false,"time":0,"distance":0,"i_lat":-6.224515,"line":1,"station_name":"Kranji","station_id":"KRI"},{"is_transit":false,"station_id":"CUK","i_lat":-6.219053,"time":3,"i_long":106.951283,"line":0,"distance":3097,"transit":false,"station_name":"Cakung"},{"time":8,"station_id":"KLDB","i_lat":-6.217455,"transit":false,"i_long":106.939679,"is_transit":false,"line":1,"distance":1385,"station_name":"Klenderbaru"},{"transit":false,"time":1,"line":0,"station_id":"BUA","is_transit":false,"station_name":"Buaran","i_lat":-6.215568,"distance":1305,"i_long":106.922662},{"distance":3100,"transit":false,"is_transit":false,"station_name":"Klender","i_lat":-6.2135,"time":2,"line":1,"i_long":106.899548,"station_id":"KLD"},{"line":0,"time":3,"station_name":"Jatinegara","distance":3395,"is_transit":true,"i_long":106.86807400000001,"i_lat":-6.215091,"station_id":"JNG","transit":true},{"i_lat":-6.209188,"i_long":106.861737,"station_name":"Pondok Jati","transit":false,"line":11,"distance":1236,"is_transit":false,"station_id":"POK","time":2},{"transit":false,"station_id":"KMT","station_name":"Kramat","is_transit":false,"distance":1829,"time":2,"i_lat":-6.193792,"i_long":106.855437,"line":11},{"station_id":"GST","station_name":"Gang Sentiong","distance":973,"i_long":106.850107,"is_transit":false,"transit":false,"i_lat":-6.185975,"line":11,"time":1},{"line":11,"station_name":"Pasar Senen","transit":false,"time":8,"is_transit":false,"distance":1567,"station_id":"PSE","i_lat":-6.174784,"i_long":106.84368},{"i_lat":-6.161728,"line":11,"distance":1436,"transit":false,"time":4,"station_id":"KMO","station_name":"Kemayoran","i_long":106.839204,"is_transit":false},{"distance":1901,"station_id":"RJW","is_transit":false,"transit":false,"i_long":106.836569,"time":5,"i_lat":-6.14505,"station_name":"Rajawali","line":11},{"is_transit":true,"time":3,"transit":true,"line":0,"i_lat":-6.132549,"i_long":106.826365,"station_name":"Kampung Bandan","distance":1444,"station_id":"KPB"},{"time":9,"station_name":"Angke","transit":false,"i_long":106.79867,"is_transit":false,"i_lat":-6.144674,"line":0,"station_id":"AK","distance":4102},{"distance":1230,"transit":true,"time":4,"line":1,"station_id":"DU","station_name":"Duri","is_transit":true,"i_lat":-6.155215,"i_long":106.800832},{"transit":true,"line":1,"i_lat":-6.185545,"station_id":"THB","station_name":"Tanah Abang","is_transit":true,"time":8,"i_long":106.811091,"distance":3632},{"is_transit":false,"i_lat":-6.207404,"station_name":"Palmerah","transit":false,"station_id":"PLM","time":6,"line":6,"distance":3191,"i_long":106.79689},{"line":6,"transit":false,"i_lat":-6.237242,"station_name":"Kebayoran","distance":3737,"station_id":"KBY","i_long":106.780334,"is_transit":false,"time":7}],[{"line":1,"station_name":"Kranji","station_id":"KRI","i_lat":-6.224515,"time":0,"transit":false,"is_transit":false,"distance":0,"i_long":106.977657},{"transit":false,"i_long":106.951283,"is_transit":false,"station_id":"CUK","line":0,"time":3,"i_lat":-6.219053,"distance":3097,"station_name":"Cakung"},{"station_id":"KLDB","time":8,"station_name":"Klenderbaru","i_lat":-6.217455,"distance":1385,"i_long":106.939679,"line":1,"is_transit":false,"transit":false},{"is_transit":false,"time":1,"station_id":"BUA","distance":1305,"i_lat":-6.215568,"i_long":106.922662,"transit":false,"line":0,"station_name":"Buaran"},{"is_transit":false,"i_lat":-6.2135,"line":1,"distance":3100,"station_id":"KLD","i_long":106.899548,"station_name":"Klender","time":2,"transit":false},{"distance":3395,"i_lat":-6.215091,"station_name":"Jatinegara","transit":false,"time":3,"line":0,"station_id":"JNG","is_transit":true,"i_long":106.86807400000001},{"station_name":"Matraman","is_transit":false,"distance":1377,"time":2,"transit":false,"line":1,"station_id":"MTR","i_long":106.858896,"i_lat":-6.212485},{"is_transit":true,"time":2,"i_lat":-6.209883,"line":0,"station_id":"MRI","i_long":106.84912,"station_name":"Manggarai","distance":1275,"transit":true},{"line":0,"transit":false,"distance":1590,"is_transit":false,"station_name":"Cikini","i_long":106.840169,"i_lat":-6.198556,"station_id":"CKI","time":4},{"station_name":"Gondangdia","i_long":106.832183,"time":3,"is_transit":false,"i_lat":-6.186295,"line":2,"station_id":"GDD","transit":false,"distance":1750},{"i_lat":-6.166716,"station_name":"Juanda","distance":2015,"transit":false,"i_long":106.828284,"station_id":"JUA","is_transit":false,"time":4,"line":2},{"station_name":"Sawah Besar","distance":1149,"line":2,"station_id":"SW","time":2,"i_lat":-6.160725,"i_long":106.827103,"transit":false,"is_transit":false},{"time":2,"transit":false,"i_lat":-6.149769,"i_long":106.82482,"station_name":"Manggabesar","station_id":"MGB","line":2,"is_transit":false,"distance":906},{"i_lat":-6.141205,"time":2,"transit":false,"distance":1080,"station_name":"Jayakarta","i_long":106.820901,"is_transit":false,"station_id":"JAY","line":7},{"transit":true,"time":4,"distance":1264,"station_id":"JAKK","is_transit":true,"i_lat":-6.137569,"i_long":106.812439,"station_name":"Jakarta Kota","line":0},{"time":3,"distance":1364,"transit":false,"i_long":106.826365,"station_id":"KPB","i_lat":-6.132549,"station_name":"Kampung Bandan","is_transit":true,"line":0},{"line":0,"station_name":"Angke","distance":4102,"time":9,"station_id":"AK","is_transit":false,"i_long":106.79867,"transit":false,"i_lat":-6.144674},{"i_long":106.800832,"station_id":"DU","transit":true,"station_name":"Duri","is_transit":true,"time":4,"i_lat":-6.155215,"line":1,"distance":1230},{"i_long":106.811091,"station_name":"Tanah Abang","line":1,"is_transit":true,"transit":true,"station_id":"THB","i_lat":-6.185545,"time":8,"distance":3632},{"transit":false,"station_name":"Palmerah","station_id":"PLM","distance":3191,"line":6,"i_lat":-6.207404,"is_transit":false,"i_long":106.79689,"time":6},{"i_lat":-6.237242,"time":7,"line":6,"station_name":"Kebayoran","distance":3737,"transit":false,"i_long":106.780334,"station_id":"KBY","is_transit":false}],[{"is_transit":false,"station_id":"KRI","station_name":"Kranji","distance":0,"i_long":106.977657,"transit":false,"line":1,"time":0,"i_lat":-6.224515},{"i_long":106.951283,"transit":false,"i_lat":-6.219053,"distance":3097,"line":0,"is_transit":false,"time":3,"station_id":"CUK","station_name":"Cakung"},{"transit":false,"is_transit":false,"i_long":106.939679,"i_lat":-6.217455,"station_id":"KLDB","distance":1385,"station_name":"Klenderbaru","time":8,"line":1},{"transit":false,"is_transit":false,"time":1,"i_lat":-6.215568,"distance":1305,"station_name":"Buaran","i_long":106.922662,"station_id":"BUA","line":0},{"i_lat":-6.2135,"station_name":"Klender","station_id":"KLD","time":2,"line":1,"distance":3100,"transit":false,"is_transit":false,"i_long":106.899548},{"is_transit":true,"line":0,"i_long":106.86807400000001,"station_name":"Jatinegara","i_lat":-6.215091,"transit":true,"station_id":"JNG","time":3,"distance":3395},{"distance":1236,"i_lat":-6.209188,"transit":false,"is_transit":false,"time":2,"i_long":106.861737,"line":11,"station_name":"Pondok Jati","station_id":"POK"},{"transit":false,"station_id":"KMT","i_lat":-6.193792,"distance":1829,"is_transit":false,"i_long":106.855437,"line":11,"time":2,"station_name":"Kramat"},{"is_transit":false,"time":1,"station_name":"Gang Sentiong","distance":973,"station_id":"GST","i_lat":-6.185975,"transit":false,"line":11,"i_long":106.850107},{"transit":false,"station_id":"PSE","station_name":"Pasar Senen","distance":1567,"line":11,"time":8,"i_long":106.84368,"is_transit":false,"i_lat":-6.174784},{"transit":false,"time":4,"is_transit":false,"distance":1436,"station_id":"KMO","i_long":106.839204,"i_lat":-6.161728,"line":11,"station_name":"Kemayoran"},{"transit":false,"station_id":"RJW","is_transit":false,"time":5,"i_long":106.836569,"i_lat":-6.14505,"distance":1901,"station_name":"Rajawali","line":11},{"is_transit":true,"station_name":"Kampung Bandan","station_id":"KPB","time":3,"i_long":106.826365,"distance":1444,"transit":true,"i_lat":-6.132549,"line":0},{"station_name":"Jakarta Kota","line":0,"transit":true,"time":3,"is_transit":true,"i_lat":-6.137569,"station_id":"JAKK","i_long":106.812439,"distance":1364},{"station_id":"JAY","i_long":106.820901,"i_lat":-6.141205,"line":7,"time":4,"is_transit":false,"station_name":"Jayakarta","transit":false,"distance":1264},{"station_id":"MGB","line":2,"station_name":"Manggabesar","i_long":106.82482,"transit":false,"is_transit":false,"time":2,"i_lat":-6.149769,"distance":1080},{"station_id":"SW","is_transit":false,"line":2,"i_long":106.827103,"station_name":"Sawah Besar","time":2,"distance":906,"transit":false,"i_lat":-6.160725},{"time":2,"transit":false,"line":2,"is_transit":false,"i_long":106.828284,"station_name":"Juanda","distance":1149,"station_id":"JUA","i_lat":-6.166716},{"distance":2015,"is_transit":false,"transit":false,"station_name":"Gondangdia","station_id":"GDD","i_lat":-6.186295,"time":4,"line":2,"i_long":106.832183},{"is_transit":false,"distance":1750,"station_id":"CKI","time":3,"transit":false,"i_lat":-6.198556,"i_long":106.840169,"station_name":"Cikini","line":0},{"transit":true,"station_name":"Manggarai","station_id":"MRI","time":4,"i_long":106.84912,"line":0,"is_transit":true,"i_lat":-6.209883,"distance":1590},{"i_long":106.822649,"line":1,"transit":false,"time":4,"i_lat":-6.202263,"distance":3186,"is_transit":false,"station_id":"SUD","station_name":"Sudirman"},{"i_long":106.819881,"line":1,"station_id":"SUDB","station_name":"Sudirman Baru","is_transit":false,"distance":280,"i_lat":-6.201433,"time":1,"transit":false},{"station_id":"KAT","i_lat":-6.20132,"station_name":"Karet","transit":false,"distance":471,"time":1,"line":1,"is_transit":false,"i_long":106.816351},{"time":5,"station_id":"THB","station_name":"Tanah Abang","transit":true,"i_long":106.811091,"distance":2029,"i_lat":-6.185545,"is_transit":true,"line":1},{"line":6,"station_id":"PLM","is_transit":false,"station_name":"Palmerah","transit":false,"time":6,"i_long":106.79689,"i_lat":-6.207404,"distance":3191},{"time":7,"line":6,"i_lat":-6.237242,"transit":false,"station_id":"KBY","station_name":"Kebayoran","is_transit":false,"distance":3737,"i_long":106.780334}]]}