{"data":[[{"is_transit":false,"time":0,"i_long":106.977657,"i_lat":-6.224515,"line":1,"transit":false,"distance":0,"station_id":"KRI","station_name":"Kranji"},{"station_id":"CUK","time":3,"is_transit":false,"transit":false,"i_lat":-6.219053,"line":1,"i_long":106.951283,"distance":3097,"station_name":"Cakung"},{"i_lat":-6.217455,"time":8,"distance":1385,"i_long":106.939679,"station_id":"KLDB","line":1,"station_name":"Klenderbaru","transit":false,"is_transit":false},{"time":1,"i_long":106.922662,"transit":false,"is_transit":false,"distance":1305,"station_name":"Buaran","station_id":"BUA","i_lat":-6.215568,"line":1},{"i_long":106.899548,"is_transit":false,"distance":3100,"station_name":"Klender","i_lat":-6.2135,"station_id":"KLD","transit":false,"time":2,"line":1},{"i_lat":-6.215091,"station_name":"Jatinegara","line":1,"distance":3395,"transit":false,"station_id":"JNG","is_transit":false,"time":3,"i_long":106.86807400000001},{"time":2,"transit":false,"is_transit":false,"i_long":106.858896,"station_id":"MTR","distance":1377,"i_lat":-6.212485,"station_name":"Matraman","line":1},{"transit":false,"line":2,"station_name":"Manggarai","station_id":"MRI","distance":1275,"is_transit":false,"i_long":106.84912,"i_lat":-6.209883,"time":2},{"station_name":"Sudirman","station_id":"SUD","line":1,"is_transit":false,"transit":false,"i_lat":-6.202263,"i_long":106.822649,"time":4,"distance":3186},{"time":1,"line":1,"is_transit":false,"i_long":106.819881,"distance":280,"i_lat":-6.201433,"transit":false,"station_name":"Sudirman Baru","station_id":"SUDB"},{"transit":false,"line":1,"station_name":"Karet","station_id":"KAT","is_transit":false,"i_lat":-6.20132,"time":1,"i_long":106.816351,"distance":471},{"station_id":"THB","i_lat":-6.185545,"transit":true,"line":1,"distance":2029,"station_name":"Tanah Abang","time":5,"i_long":106.811091,"is_transit":true},{"i_lat":-6.207404,"i_long":106.79689,"station_name":"Palmerah","station_id":"PLM","time":6,"line":6,"distance":3191,"is_transit":false,"transit":false},{"distance":3737,"station_id":"KBY","line":6,"time":7,"is_transit":false,"transit":false,"i_lat":-6.237242,"station_name":"Kebayoran","i_long":106.780334}],[{"transit":false,"i_lat":-6.224515,"i_long":106.977657,"station_name":"Kranji","is_transit":false,"line":1,"time":0,"distance":0,"station_id":"KRI"},{"line":1,"station_name":"Cakung","transit":false,"i_long":106.951283,"station_id":"CUK","distance":3097,"time":3,"i_lat":-6.219053,"is_transit":false},{"time":8,"is_transit":false,"transit":false,"line":1,"station_name":"Klenderbaru","i_lat":-6.217455,"i_long":106.939679,"station_id":"KLDB","distance":1385},{"station_id":"BUA","line":1,"time":1,"transit":false,"distance":1305,"i_long":106.922662,"is_transit":false,"station_name":"Buaran","i_lat":-6.215568},{"station_name":"Klender","is_transit":false,"i_lat":-6.2135,"distance":3100,"i_long":106.899548,"line":1,"transit":false,"time":2,"station_id":"KLD"},{"station_id":"JNG","time":3,"i_lat":-6.215091,"transit":true,"is_transit":true,"distance":3395,"i_long":106.86807400000001,"station_name":"Jatinegara","line":1},{"i_lat":-6.209188,"station_id":"POK","line":11,"transit":false,"station_name":"Pondok Jati","time":2,"i_long":106.861737,"is_transit":false,"distance":1236},{"station_name":"Kramat","line":11,"i_long":106.855437,"transit":false,"is_transit":false,"station_id":"KMT","time":2,"distance":1829,"i_lat":-6.193792},{"i_lat":-6.185975,"i_long":106.850107,"transit":false,"is_transit":false,"distance":973,"station_id":"GST","station_name":"Gang Sentiong","time":1,"line":11},{"i_lat":-6.174784,"station_name":"Pasar Senen","transit":false,"distance":1567,"station_id":"PSE","is_transit":false,"time":8,"i_long":106.84368,"line":11},{"station_name":"Kemayoran","i_lat":-6.161728,"is_transit":false,"i_long":106.839204,"line":11,"transit":false,"time":4,"station_id":"KMO","distance":1436},{"station_id":"RJW","transit":false,"is_transit":false,"i_long":106.836569,"distance":1901,"station_name":"Rajawali","time":5,"i_lat":-6.14505,"line":11},{"is_transit":true,"transit":true,"distance":1444,"station_name":"Kampung Bandan","station_id":"KPB","time":3,"line":4,"i_long":106.826365,"i_lat":-6.132549},{"transit":false,"is_transit":false,"i_lat":-6.144674,"line":1,"station_id":"AK","station_name":"Angke","time":9,"i_long":106.79867,"distance":4102},{"station_id":"DU","time":4,"distance":1230,"station_name":"Duri","i_long":106.800832,"line":1,"transit":false,"i_lat":-6.155215,"is_transit":false},{"transit":true,"time":8,"station_name":"Tanah Abang","i_long":106.811091,"station_id":"THB","i_lat":-6.185545,"is_transit":true,"distance":3632,"line":1},{"transit":false,"station_name":"Palmerah","station_id":"PLM","time":6,"i_lat":-6.207404,"distance":3191,"line":6,"i_long":106.79689,"is_transit":false},{"transit":false,"distance":3737,"i_lat":-6.237242,"station_name":"Kebayoran","time":7,"station_id":"KBY","is_transit":false,"i_long":106.780334,"line":6}],[{"line":1,"station_id":"KRI","transit":false,"i_long":106.977657,"station_name":"Kranji","time":0,"is_transit":false,"distance":0,"i_lat":-6.224515},{"is_transit":false,"distance":3097,"line":1,"station_id":"CUK","transit":false,"i_long":106.951283,"station_name":"Cakung","i_lat":-6.219053,"time":3},{"station_name":"Klenderbaru","i_lat":-6.217455,"i_long":106.939679,"distance":1385,"time":8,"transit":false,"station_id":"KLDB","line":1,"is_transit":false},{"transit":false,"station_name":"Buaran","distance":1305,"i_long":106.922662,"time":1,"line":1,"i_lat":-6.215568,"station_id":"BUA","is_transit":false},{"i_long":106.899548,"station_name":"Klender","time":2,"distance":3100,"i_lat":-6.2135,"line":1,"transit":false,"station_id":"KLD","is_transit":false},{"station_id":"JNG","i_long":106.86807400000001,"time":3,"line":1,"station_name":"Jatinegara","is_transit":false,"i_lat":-6.215091,"distance":3395,"transit":false},{"i_lat":-6.212485,"station_name":"Matraman","i_long":106.858896,"transit":false,"is_transit":false,"line":1,"distance":1377,"time":2,"station_id":"MTR"},{"is_transit":true,"distance":1275,"transit":true,"time":2,"i_long":106.84912,"i_lat":-6.209883,"station_id":"MRI","station_name":"Manggarai","line":2},{"i_lat":-6.198556,"station_name":"Cikini","station_id":"CKI","is_transit":false,"distance":1590,"i_long":106.840169,"line":2,"transit":false,"time":4},{"distance":1750,"i_long":106.832183,"is_transit":false,"station_name":"Gondangdia","station_id":"GDD","i_lat":-6.186295,"line":2,"transit":false,"time":3},{"station_name":"Juanda","time":4,"i_lat":-6.166716,"i_long":106.828284,"station_id":"JUA","distance":2015,"is_transit":false,"line":2,"transit":false},{"transit":false,"i_long":106.827103,"is_transit":false,"station_name":"Sawah Besar","station_id":"SW","distance":1149,"i_lat":-6.160725,"time":2,"line":2},{"station_name":"Manggabesar","station_id":"MGB","line":2,"transit":false,"i_lat":-6.149769,"is_transit":false,"i_long":106.82482,"time":2,"distance":906},{"i_lat":-6.141205,"time":2,"station_id":"JAY","station_name":"Jayakarta","distance":1080,"transit":false,"is_transit":false,"i_long":106.820901,"line":2},{"i_long":106.812439,"station_id":"JAKK","station_name":"Jakarta Kota","is_transit":true,"distance":1264,"line":2,"time":4,"i_lat":-6.137569,"transit":true},{"station_name":"Kampung Bandan","i_long":106.826365,"transit":true,"time":3,"i_lat":-6.132549,"station_id":"KPB","line":4,"is_transit":true,"distance":1364},{"time":9,"station_name":"Angke","i_long":106.79867,"transit":false,"is_transit":false,"distance":4102,"line":1,"i_lat":-6.144674,"station_id":"AK"},{"is_transit":false,"i_lat":-6.155215,"line":1,"time":4,"distance":1230,"station_name":"Duri","i_long":106.800832,"station_id":"DU","transit":false},{"station_name":"Tanah Abang","i_long":106.811091,"line":1,"time":8,"is_transit":true,"i_lat":-6.185545,"distance":3632,"transit":true,"station_id":"THB"},{"station_id":"PLM","line":6,"i_long":106.79689,"transit":false,"station_name":"Palmerah","is_transit":false,"distance":3191,"i_lat":-6.207404,"time":6},{"transit":false,"station_name":"Kebayoran","line":6,"time":7,"i_lat":-6.237242,"station_id":"KBY","is_transit":false,"i_long":106.780334,"distance":3737}],[{"is_transit":false,"transit":false,"time":0,"line":1,"i_lat":-6.224515,"i_long":106.977657,"station_id":"KRI","distance":0,"station_name":"Kranji"},{"i_long":106.951283,"distance":3097,"station_id":"CUK","station_name":"Cakung","is_transit":false,"time":3,"line":1,"i_lat":-6.219053,"transit":false},{"station_name":"Klenderbaru","station_id":"KLDB","distance":1385,"i_lat":-6.217455,"line":1,"time":8,"is_transit":false,"i_long":106.939679,"transit":false},{"is_transit":false,"distance":1305,"time":1,"i_lat":-6.215568,"transit":false,"station_name":"Buaran","station_id":"BUA","i_long":106.922662,"line":1},{"time":2,"i_lat":-6.2135,"is_transit":false,"station_id":"KLD","station_name":"Klender","distance":3100,"transit":false,"line":1,"i_long":106.899548},{"time":3,"is_transit":true,"transit":true,"station_id":"JNG","i_lat":-6.215091,"distance":3395,"station_name":"Jatinegara","i_long":106.86807400000001,"line":1},{"is_transit":false,"station_id":"POK","distance":1236,"i_long":106.861737,"time":2,"i_lat":-6.209188,"transit":false,"station_name":"Pondok Jati","line":11},{"i_lat":-6.193792,"time":2,"distance":1829,"transit":false,"station_name":"Kramat","i_long":106.855437,"line":11,"station_id":"KMT","is_transit":false},{"i_long":106.850107,"time":1,"distance":973,"station_name":"Gang Sentiong","transit":false,"station_id":"GST","i_lat":-6.185975,"line":11,"is_transit":false},{"station_id":"PSE","i_lat":-6.174784,"i_long":106.84368,"is_transit":false,"line":11,"distance":1567,"time":8,"transit":false,"station_name":"Pasar Senen"},{"i_lat":-6.161728,"is_transit":false,"station_id":"KMO","station_name":"Kemayoran","time":4,"transit":false,"distance":1436,"line":11,"i_long":106.839204},{"distance":1901,"i_lat":-6.14505,"station_id":"RJW","time":5,"line":11,"transit":false,"station_name":"Rajawali","is_transit":false,"i_long":106.836569},{"transit":true,"station_name":"Kampung Bandan","line":4,"distance":1444,"station_id":"KPB","is_transit":true,"i_lat":-6.132549,"i_long":106.826365,"time":3},{"distance":1364,"station_id":"JAKK","transit":true,"time":3,"line":2,"i_lat":-6.137569,"station_name":"Jakarta Kota","is_transit":true,"i_long":106.812439},{"is_transit":false,"transit":false,"distance":1264,"line":2,"i_lat":-6.141205,"i_long":106.820901,"station_name":"Jayakarta","station_id":"JAY","time":4},{"transit":false,"i_long":106.82482,"i_lat":-6.149769,"station_id":"MGB","is_transit":false,"time":2,"line":2,"station_name":"Manggabesar","distance":1080},{"line":2,"transit":false,"i_long":106.827103,"is_transit":false,"time":2,"station_id":"SW","distance":906,"station_name":"Sawah Besar","i_lat":-6.160725},{"is_transit":false,"station_id":"JUA","station_name":"Juanda","time":2,"transit":false,"distance":1149,"i_long":106.828284,"line":2,"i_lat":-6.166716},{"station_name":"Gondangdia","distance":2015,"station_id":"GDD","transit":false,"is_transit":false,"i_long":106.832183,"line":2,"time":4,"i_lat":-6.186295},{"distance":1750,"time":3,"transit":false,"station_id":"CKI","station_name":"Cikini","is_transit":false,"i_lat":-6.198556,"i_long":106.840169,"line":2},{"transit":true,"time":4,"distance":1590,"line":2,"station_name":"Manggarai","station_id":"MRI","is_transit":true,"i_lat":-6.209883,"i_long":106.84912},{"i_lat":-6.202263,"line":1,"transit":false,"time":4,"station_name":"Sudirman","station_id":"SUD","is_transit":false,"distance":3186,"i_long":106.822649},{"transit":false,"station_id":"SUDB","distance":280,"i_lat":-6.201433,"line":1,"i_long":106.819881,"time":1,"is_transit":false,"station_name":"Sudirman Baru"},{"i_long":106.816351,"distance":471,"station_id":"KAT","station_name":"Karet","i_lat":-6.20132,"transit":false,"time":1,"line":1,"is_transit":false},{"transit":true,"line":1,"i_lat":-6.185545,"station_id":"THB","is_transit":true,"station_name":"Tanah Abang","time":5,"i_long":106.811091,"distance":2029},{"station_id":"PLM","i_long":106.79689,"transit":false,"distance":3191,"station_name":"Palmerah","is_transit":false,"i_lat":-6.207404,"line":6,"time":6},{"is_transit":false,"station_id":"KBY","time":7,"station_name":"Kebayoran","i_lat":-6.237242,"distance":3737,"transit":false,"line":6,"i_long":106.780334}]]}