{"data":[[{"distance":0,"is_transit":false,"station_id":"KRI","i_long":106.977657,"transit":false,"time":0,"i_lat":-6.224515,"station_name":"Kranji","line":1},{"distance":3097,"line":1,"i_long":106.951283,"transit":false,"station_id":"CUK","i_lat":-6.219053,"is_transit":false,"time":3,"station_name":"Cakung"},{"i_long":106.939679,"station_name":"Klenderbaru","time":8,"i_lat":-6.217455,"transit":false,"station_id":"KLDB","is_transit":false,"line":1,"distance":1385},{"distance":1305,"is_transit":false,"line":1,"time":1,"station_id":"BUA","station_name":"Buaran","i_long":106.922662,"transit":false,"i_lat":-6.215568},{"station_id":"KLD","transit":false,"distance":3100,"is_transit":false,"time":2,"line":1,"i_lat":-6.2135,"i_long":106.899548,"station_name":"Klender"},{"is_transit":false,"distance":3395,"i_lat":-6.215091,"i_long":106.86807400000001,"transit":false,"station_name":"Jatinegara","time":3,"line":1,"station_id":"JNG"},{"i_lat":-6.212485,"is_transit":false,"time":2,"line":1,"station_name":"Matraman","transit":false,"station_id":"MTR","distance":1377,"i_long":106.858896},{"distance":1275,"time":2,"line":2,"is_transit":false,"transit":false,"station_id":"MRI","station_name":"Manggarai","i_lat":-6.209883,"i_long":106.84912},{"transit":false,"station_id":"SUD","i_lat":-6.202263,"line":1,"time":4,"i_long":106.822649,"is_transit":false,"distance":3186,"station_name":"Sudirman"},{"i_long":106.819881,"is_transit":false,"transit":false,"station_id":"SUDB","line":1,"i_lat":-6.201433,"distance":280,"station_name":"Sudirman Baru","time":1},{"line":1,"i_lat":-6.20132,"transit":false,"station_name":"Karet","i_long":106.816351,"time":1,"station_id":"KAT","is_transit":false,"distance":471},{"transit":true,"distance":2029,"i_long":106.811091,"i_lat":-6.185545,"time":5,"station_id":"THB","line":1,"is_transit":true,"station_name":"Tanah Abang"},{"is_transit":false,"i_lat":-6.207404,"transit":false,"distance":3191,"i_long":106.79689,"time":6,"line":6,"station_id":"PLM","station_name":"Palmerah"},{"i_lat":-6.237242,"transit":false,"station_id":"KBY","station_name":"Kebayoran","distance":3737,"is_transit":false,"time":7,"i_long":106.780334,"line":6}],[{"station_name":"Kranji","time":0,"station_id":"KRI","i_long":106.977657,"is_transit":false,"line":1,"distance":0,"transit":false,"i_lat":-6.224515},{"station_name":"Cakung","station_id":"CUK","is_transit":false,"time":3,"i_long":106.951283,"i_lat":-6.219053,"line":1,"transit":false,"distance":3097},{"i_long":106.939679,"station_id":"KLDB","time":8,"transit":false,"is_transit":false,"i_lat":-6.217455,"line":1,"distance":1385,"station_name":"Klenderbaru"},{"station_name":"Buaran","distance":1305,"time":1,"station_id":"BUA","i_lat":-6.215568,"transit":false,"is_transit":false,"i_long":106.922662,"line":1},{"is_transit":false,"i_lat":-6.2135,"line":1,"time":2,"transit":false,"station_id":"KLD","i_long":106.899548,"station_name":"Klender","distance":3100},{"is_transit":true,"i_long":106.86807400000001,"i_lat":-6.215091,"transit":true,"time":3,"distance":3395,"line":1,"station_id":"JNG","station_name":"Jatinegara"},{"i_lat":-6.209188,"i_long":106.861737,"time":2,"distance":1236,"transit":false,"station_id":"POK","is_transit":false,"line":11,"station_name":"Pondok Jati"},{"is_transit":false,"transit":false,"station_name":"Kramat","time":2,"i_long":106.855437,"line":11,"distance":1829,"i_lat":-6.193792,"station_id":"KMT"},{"station_name":"Gang Sentiong","is_transit":false,"time":1,"station_id":"GST","line":11,"transit":false,"distance":973,"i_lat":-6.185975,"i_long":106.850107},{"line":11,"station_name":"Pasar Senen","station_id":"PSE","i_lat":-6.174784,"i_long":106.84368,"transit":false,"time":8,"distance":1567,"is_transit":false},{"distance":1436,"i_lat":-6.161728,"transit":false,"is_transit":false,"i_long":106.839204,"line":11,"time":4,"station_id":"KMO","station_name":"Kemayoran"},{"i_lat":-6.14505,"i_long":106.836569,"station_id":"RJW","transit":false,"station_name":"Rajawali","is_transit":false,"line":11,"distance":1901,"time":5},{"transit":true,"i_long":106.826365,"time":3,"line":4,"distance":1444,"station_name":"Kampung Bandan","i_lat":-6.132549,"is_transit":true,"station_id":"KPB"},{"transit":false,"station_id":"AK","is_transit":false,"i_lat":-6.144674,"line":1,"distance":4102,"time":9,"i_long":106.79867,"station_name":"Angke"},{"transit":false,"i_lat":-6.155215,"time":4,"distance":1230,"i_long":106.800832,"is_transit":false,"line":1,"station_name":"Duri","station_id":"DU"},{"station_id":"THB","i_lat":-6.185545,"transit":true,"station_name":"Tanah Abang","time":8,"is_transit":true,"distance":3632,"i_long":106.811091,"line":1},{"line":6,"i_long":106.79689,"time":6,"station_id":"PLM","transit":false,"distance":3191,"i_lat":-6.207404,"station_name":"Palmerah","is_transit":false},{"line":6,"i_long":106.780334,"transit":false,"station_id":"KBY","is_transit":false,"station_name":"Kebayoran","time":7,"distance":3737,"i_lat":-6.237242}],[{"station_id":"KRI","i_lat":-6.224515,"distance":0,"station_name":"Kranji","is_transit":false,"i_long":106.977657,"time":0,"transit":false,"line":1},{"is_transit":false,"transit":false,"line":1,"time":3,"i_lat":-6.219053,"station_name":"Cakung","distance":3097,"station_id":"CUK","i_long":106.951283},{"station_name":"Klenderbaru","distance":1385,"is_transit":false,"time":8,"i_lat":-6.217455,"station_id":"KLDB","transit":false,"line":1,"i_long":106.939679},{"line":1,"distance":1305,"station_id":"BUA","i_lat":-6.215568,"i_long":106.922662,"is_transit":false,"station_name":"Buaran","transit":false,"time":1},{"i_long":106.899548,"i_lat":-6.2135,"transit":false,"time":2,"station_name":"Klender","line":1,"distance":3100,"is_transit":false,"station_id":"KLD"},{"station_id":"JNG","station_name":"Jatinegara","time":3,"is_transit":false,"i_lat":-6.215091,"distance":3395,"line":1,"transit":false,"i_long":106.86807400000001},{"time":2,"i_long":106.858896,"transit":false,"line":1,"station_id":"MTR","is_transit":false,"i_lat":-6.212485,"distance":1377,"station_name":"Matraman"},{"distance":1275,"transit":true,"station_name":"Manggarai","station_id":"MRI","i_lat":-6.209883,"is_transit":true,"time":2,"i_long":106.84912,"line":2},{"i_long":106.840169,"station_id":"CKI","transit":false,"line":2,"station_name":"Cikini","i_lat":-6.198556,"is_transit":false,"time":4,"distance":1590},{"transit":false,"station_id":"GDD","i_lat":-6.186295,"i_long":106.832183,"line":2,"station_name":"Gondangdia","time":3,"distance":1750,"is_transit":false},{"station_id":"JUA","station_name":"Juanda","is_transit":false,"i_long":106.828284,"i_lat":-6.166716,"time":4,"distance":2015,"transit":false,"line":2},{"station_name":"Sawah Besar","i_lat":-6.160725,"distance":1149,"is_transit":false,"transit":false,"line":2,"time":2,"station_id":"SW","i_long":106.827103},{"i_long":106.82482,"distance":906,"is_transit":false,"time":2,"station_name":"Manggabesar","i_lat":-6.149769,"transit":false,"line":2,"station_id":"MGB"},{"i_lat":-6.141205,"i_long":106.820901,"station_id":"JAY","station_name":"Jayakarta","transit":false,"is_transit":false,"time":2,"distance":1080,"line":2},{"station_name":"Jakarta Kota","time":4,"i_long":106.812439,"line":2,"distance":1264,"is_transit":true,"i_lat":-6.137569,"station_id":"JAKK","transit":true},{"is_transit":true,"transit":true,"station_id":"KPB","i_lat":-6.132549,"distance":1364,"i_long":106.826365,"line":4,"station_name":"Kampung Bandan","time":3},{"i_lat":-6.144674,"station_name":"Angke","transit":false,"line":1,"station_id":"AK","is_transit":false,"time":9,"distance":4102,"i_long":106.79867},{"is_transit":false,"station_id":"DU","distance":1230,"i_long":106.800832,"station_name":"Duri","i_lat":-6.155215,"line":1,"time":4,"transit":false},{"is_transit":true,"line":1,"station_id":"THB","transit":true,"i_lat":-6.185545,"station_name":"Tanah Abang","i_long":106.811091,"distance":3632,"time":8},{"station_name":"Palmerah","station_id":"PLM","line":6,"i_lat":-6.207404,"is_transit":false,"distance":3191,"transit":false,"i_long":106.79689,"time":6},{"time":7,"transit":false,"distance":3737,"station_id":"KBY","station_name":"Kebayoran","i_lat":-6.237242,"is_transit":false,"i_long":106.780334,"line":6}],[{"distance":0,"is_transit":false,"station_id":"KRI","station_name":"Kranji","i_long":106.977657,"i_lat":-6.224515,"line":1,"transit":false,"time":0},{"i_long":106.951283,"is_transit":false,"line":1,"distance":3097,"station_name":"Cakung","station_id":"CUK","transit":false,"time":3,"i_lat":-6.219053},{"time":8,"i_long":106.939679,"line":1,"station_id":"KLDB","distance":1385,"transit":false,"station_name":"Klenderbaru","i_lat":-6.217455,"is_transit":false},{"line":1,"station_name":"Buaran","station_id":"BUA","i_long":106.922662,"i_lat":-6.215568,"transit":false,"time":1,"distance":1305,"is_transit":false},{"station_name":"Klender","time":2,"is_transit":false,"transit":false,"station_id":"KLD","i_lat":-6.2135,"distance":3100,"i_long":106.899548,"line":1},{"distance":3395,"is_transit":true,"transit":true,"i_long":106.86807400000001,"i_lat":-6.215091,"line":1,"station_id":"JNG","station_name":"Jatinegara","time":3},{"i_lat":-6.209188,"is_transit":false,"i_long":106.861737,"line":11,"station_name":"Pondok Jati","distance":1236,"station_id":"POK","transit":false,"time":2},{"i_long":106.855437,"station_name":"Kramat","station_id":"KMT","transit":false,"line":11,"distance":1829,"i_lat":-6.193792,"time":2,"is_transit":false},{"station_name":"Gang Sentiong","line":11,"distance":973,"transit":false,"time":1,"station_id":"GST","is_transit":false,"i_lat":-6.185975,"i_long":106.850107},{"distance":1567,"i_lat":-6.174784,"line":11,"station_name":"Pasar Senen","station_id":"PSE","transit":false,"is_transit":false,"time":8,"i_long":106.84368},{"line":11,"station_id":"KMO","is_transit":false,"transit":false,"station_name":"Kemayoran","time":4,"i_lat":-6.161728,"distance":1436,"i_long":106.839204},{"i_lat":-6.14505,"station_id":"RJW","transit":false,"time":5,"i_long":106.836569,"distance":1901,"station_name":"Rajawali","line":11,"is_transit":false},{"is_transit":true,"i_long":106.826365,"transit":true,"time":3,"distance":1444,"station_id":"KPB","i_lat":-6.132549,"line":4,"station_name":"Kampung Bandan"},{"i_lat":-6.137569,"i_long":106.812439,"transit":true,"time":3,"is_transit":true,"line":2,"distance":1364,"station_id":"JAKK","station_name":"Jakarta Kota"},{"line":2,"transit":false,"is_transit":false,"station_name":"Jayakarta","distance":1264,"i_long":106.820901,"time":4,"i_lat":-6.141205,"station_id":"JAY"},{"transit":false,"time":2,"station_name":"Manggabesar","i_lat":-6.149769,"i_long":106.82482,"is_transit":false,"line":2,"station_id":"MGB","distance":1080},{"is_transit":false,"transit":false,"station_name":"Sawah Besar","line":2,"i_long":106.827103,"station_id":"SW","time":2,"distance":906,"i_lat":-6.160725},{"station_id":"JUA","i_long":106.828284,"is_transit":false,"i_lat":-6.166716,"line":2,"station_name":"Juanda","transit":false,"time":2,"distance":1149},{"distance":2015,"station_id":"GDD","line":2,"time":4,"i_long":106.832183,"station_name":"Gondangdia","i_lat":-6.186295,"transit":false,"is_transit":false},{"distance":1750,"station_name":"Cikini","is_transit":false,"station_id":"CKI","i_lat":-6.198556,"i_long":106.840169,"transit":false,"time":3,"line":2},{"distance":1590,"i_lat":-6.209883,"transit":true,"i_long":106.84912,"line":2,"time":4,"station_name":"Manggarai","is_transit":true,"station_id":"MRI"},{"line":1,"station_name":"Sudirman","transit":false,"i_long":106.822649,"time":4,"station_id":"SUD","i_lat":-6.202263,"distance":3186,"is_transit":false},{"is_transit":false,"station_id":"SUDB","station_name":"Sudirman Baru","time":1,"distance":280,"i_long":106.819881,"line":1,"transit":false,"i_lat":-6.201433},{"line":1,"i_lat":-6.20132,"i_long":106.816351,"transit":false,"time":1,"station_id":"KAT","station_name":"Karet","distance":471,"is_transit":false},{"station_name":"Tanah Abang","distance":2029,"is_transit":true,"station_id":"THB","i_lat":-6.185545,"time":5,"i_long":106.811091,"line":1,"transit":true},{"distance":3191,"i_lat":-6.207404,"line":6,"transit":false,"station_name":"Palmerah","time":6,"i_long":106.79689,"is_transit":false,"station_id":"PLM"},{"time":7,"station_name":"Kebayoran","i_long":106.780334,"i_lat":-6.237242,"line":6,"transit":false,"distance":3737,"is_transit":false,"station_id":"KBY"}]]}