{"data":[[{"time":0,"transit":false,"line":1,"i_long":106.977657,"i_lat":-6.224515,"distance":0,"is_transit":false,"station_name":"Kranji","station_id":"KRI"},{"line":1,"i_long":106.951283,"time":3,"station_id":"CUK","transit":false,"distance":3097,"is_transit":false,"station_name":"Cakung","i_lat":-6.219053},{"distance":1385,"time":8,"line":1,"i_long":106.939679,"transit":false,"is_transit":false,"station_name":"Klenderbaru","i_lat":-6.217455,"station_id":"KLDB"},{"station_id":"BUA","is_transit":false,"time":1,"transit":false,"distance":1305,"line":1,"station_name":"Buaran","i_lat":-6.215568,"i_long":106.922662},{"is_transit":false,"distance":3100,"station_id":"KLD","transit":false,"station_name":"Klender","i_lat":-6.2135,"i_long":106.899548,"line":1,"time":2},{"i_lat":-6.215091,"transit":false,"line":1,"time":3,"station_name":"Jatinegara","station_id":"JNG","is_transit":false,"distance":3395,"i_long":106.86807400000001},{"time":2,"transit":false,"i_lat":-6.212485,"i_long":106.858896,"is_transit":false,"station_id":"MTR","distance":1377,"station_name":"Matraman","line":1},{"line":2,"i_long":106.84912,"station_name":"Manggarai","distance":1275,"station_id":"MRI","is_transit":true,"time":2,"transit":true,"i_lat":-6.209883},{"i_long":106.857948,"line":2,"station_name":"Tebet","time":4,"is_transit":false,"i_lat":-6.226659,"transit":false,"station_id":"TEB","distance":2610},{"distance":1230,"is_transit":false,"station_id":"CW","station_name":"Cawang","i_long":106.856607,"line":2,"time":2,"transit":false,"i_lat":-6.242512},{"distance":1546,"line":2,"time":3,"station_id":"DRN","is_transit":false,"transit":false,"i_lat":-6.255332,"i_long":106.85449,"station_name":"Duren Kalibata"},{"station_name":"Pasar Minggu Baru","transit":false,"i_lat":-6.263214,"line":2,"time":2,"is_transit":false,"i_long":106.851577,"distance":824,"station_id":"PSMB"},{"station_id":"PSM","distance":2380,"station_name":"Pasar Minggu","transit":false,"time":2,"i_lat":-6.2842400000000005,"is_transit":false,"i_long":106.843999,"line":2},{"is_transit":false,"time":4,"transit":false,"i_long":106.838896,"station_id":"TNT","line":2,"distance":2820,"station_name":"Tanjung Barat","i_lat":-6.3080680000000005},{"station_id":"LNA","distance":2671,"line":2,"transit":false,"i_long":106.832616,"is_transit":false,"station_name":"Lenteng Agung","time":3,"i_lat":-6.330363},{"time":2,"station_id":"UP","line":2,"transit":false,"i_lat":-6.339291,"distance":1029,"i_long":106.834175,"station_name":"Univ. Pancasila","is_transit":false},{"station_id":"UI","station_name":"Univ. Indonesia","line":2,"is_transit":false,"i_lat":-6.360749,"distance":2264,"time":3,"transit":false,"i_long":106.831474},{"i_long":106.831114,"transit":false,"line":2,"i_lat":-6.369073,"distance":1109,"is_transit":false,"station_id":"POC","time":2,"station_name":"Pondok Cina"},{"is_transit":false,"time":4,"station_name":"Depokbaru","transit":false,"i_lat":-6.391065,"distance":2727,"i_long":106.819451,"station_id":"DPB","line":2},{"line":2,"distance":1584,"time":3,"is_transit":false,"station_name":"Depok","transit":false,"station_id":"DP","i_lat":-6.405256,"i_long":106.816926},{"line":2,"distance":5084,"is_transit":true,"transit":true,"i_lat":-6.448811,"i_long":106.800298,"station_name":"Citayam","station_id":"CTA","time":6},{"station_id":"PDRG","i_lat":-6.460735,"station_name":"Pondok Rajeg","i_long":106.824374,"distance":0,"transit":false,"line":21,"time":0,"is_transit":false},{"station_id":"CBN","distance":0,"line":21,"time":0,"is_transit":false,"station_name":"Cibinong","transit":false,"i_long":106.851978,"i_lat":-6.46424}],[{"station_id":"KRI","line":1,"is_transit":false,"time":0,"distance":0,"i_lat":-6.224515,"transit":false,"station_name":"Kranji","i_long":106.977657},{"i_lat":-6.219053,"is_transit":false,"transit":false,"station_name":"Cakung","line":1,"i_long":106.951283,"station_id":"CUK","distance":3097,"time":3},{"i_lat":-6.217455,"station_name":"Klenderbaru","is_transit":false,"i_long":106.939679,"line":1,"distance":1385,"time":8,"station_id":"KLDB","transit":false},{"i_lat":-6.215568,"station_name":"Buaran","station_id":"BUA","i_long":106.922662,"transit":false,"line":1,"distance":1305,"is_transit":false,"time":1},{"is_transit":false,"time":2,"i_long":106.899548,"station_id":"KLD","i_lat":-6.2135,"station_name":"Klender","line":1,"transit":false,"distance":3100},{"transit":true,"is_transit":true,"station_id":"JNG","i_lat":-6.215091,"station_name":"Jatinegara","time":3,"distance":3395,"i_long":106.86807400000001,"line":1},{"distance":1236,"time":2,"i_lat":-6.209188,"transit":false,"i_long":106.861737,"is_transit":false,"line":11,"station_id":"POK","station_name":"Pondok Jati"},{"station_id":"KMT","transit":false,"line":11,"i_lat":-6.193792,"is_transit":false,"time":2,"distance":1829,"station_name":"Kramat","i_long":106.855437},{"distance":973,"line":11,"is_transit":false,"station_id":"GST","time":1,"i_lat":-6.185975,"i_long":106.850107,"station_name":"Gang Sentiong","transit":false},{"line":11,"is_transit":false,"i_long":106.84368,"distance":1567,"transit":false,"station_name":"Pasar Senen","time":8,"i_lat":-6.174784,"station_id":"PSE"},{"station_name":"Kemayoran","is_transit":false,"i_long":106.839204,"i_lat":-6.161728,"station_id":"KMO","transit":false,"line":11,"distance":1436,"time":4},{"transit":false,"time":5,"i_lat":-6.14505,"station_name":"Rajawali","line":11,"is_transit":false,"i_long":106.836569,"distance":1901,"station_id":"RJW"},{"station_id":"KPB","time":3,"transit":true,"line":4,"distance":1444,"is_transit":true,"station_name":"Kampung Bandan","i_lat":-6.132549,"i_long":106.826365},{"line":1,"is_transit":false,"transit":false,"time":9,"station_name":"Angke","station_id":"AK","i_lat":-6.144674,"i_long":106.79867,"distance":4102},{"station_name":"Duri","station_id":"DU","is_transit":false,"transit":false,"time":4,"i_lat":-6.155215,"distance":1230,"line":1,"i_long":106.800832},{"line":1,"i_lat":-6.185545,"i_long":106.811091,"station_name":"Tanah Abang","is_transit":false,"transit":false,"time":8,"distance":3632,"station_id":"THB"},{"i_long":106.816351,"distance":2029,"station_name":"Karet","station_id":"KAT","line":1,"is_transit":false,"transit":false,"time":5,"i_lat":-6.20132},{"transit":false,"i_lat":-6.201433,"line":1,"station_id":"SUDB","distance":471,"i_long":106.819881,"is_transit":false,"station_name":"Sudirman Baru","time":1},{"time":1,"i_lat":-6.202263,"transit":false,"i_long":106.822649,"is_transit":false,"station_name":"Sudirman","distance":280,"line":1,"station_id":"SUD"},{"distance":3186,"station_id":"MRI","transit":true,"time":4,"station_name":"Manggarai","i_lat":-6.209883,"is_transit":true,"i_long":106.84912,"line":2},{"transit":false,"line":2,"is_transit":false,"distance":2610,"time":4,"i_long":106.857948,"i_lat":-6.226659,"station_name":"Tebet","station_id":"TEB"},{"distance":1230,"line":2,"time":2,"transit":false,"station_name":"Cawang","is_transit":false,"station_id":"CW","i_lat":-6.242512,"i_long":106.856607},{"station_id":"DRN","i_lat":-6.255332,"is_transit":false,"line":2,"transit":false,"station_name":"Duren Kalibata","time":3,"distance":1546,"i_long":106.85449},{"line":2,"is_transit":false,"distance":824,"transit":false,"station_name":"Pasar Minggu Baru","i_lat":-6.263214,"i_long":106.851577,"station_id":"PSMB","time":2},{"i_long":106.843999,"transit":false,"station_name":"Pasar Minggu","line":2,"is_transit":false,"station_id":"PSM","time":2,"distance":2380,"i_lat":-6.2842400000000005},{"distance":2820,"transit":false,"i_lat":-6.3080680000000005,"line":2,"station_id":"TNT","i_long":106.838896,"is_transit":false,"time":4,"station_name":"Tanjung Barat"},{"station_id":"LNA","distance":2671,"time":3,"is_transit":false,"transit":false,"station_name":"Lenteng Agung","i_lat":-6.330363,"i_long":106.832616,"line":2},{"is_transit":false,"station_id":"UP","transit":false,"line":2,"station_name":"Univ. Pancasila","i_long":106.834175,"time":2,"i_lat":-6.339291,"distance":1029},{"i_lat":-6.360749,"i_long":106.831474,"line":2,"time":3,"station_name":"Univ. Indonesia","transit":false,"distance":2264,"station_id":"UI","is_transit":false},{"time":2,"i_long":106.831114,"station_name":"Pondok Cina","line":2,"transit":false,"i_lat":-6.369073,"is_transit":false,"station_id":"POC","distance":1109},{"i_long":106.819451,"i_lat":-6.391065,"transit":false,"distance":2727,"line":2,"station_name":"Depokbaru","is_transit":false,"station_id":"DPB","time":4},{"station_name":"Depok","line":2,"station_id":"DP","transit":false,"i_long":106.816926,"is_transit":false,"time":3,"i_lat":-6.405256,"distance":1584},{"transit":true,"i_lat":-6.448811,"i_long":106.800298,"line":2,"station_id":"CTA","time":6,"distance":5084,"is_transit":true,"station_name":"Citayam"},{"station_name":"Pondok Rajeg","is_transit":false,"i_long":106.824374,"line":21,"transit":false,"time":0,"station_id":"PDRG","i_lat":-6.460735,"distance":0},{"station_name":"Cibinong","i_lat":-6.46424,"station_id":"CBN","is_transit":false,"transit":false,"distance":0,"line":21,"time":0,"i_long":106.851978}],[{"i_long":106.977657,"transit":false,"station_id":"KRI","station_name":"Kranji","i_lat":-6.224515,"time":0,"line":1,"distance":0,"is_transit":false},{"i_long":106.951283,"station_id":"CUK","transit":false,"is_transit":false,"i_lat":-6.219053,"distance":3097,"line":1,"station_name":"Cakung","time":3},{"transit":false,"is_transit":false,"station_id":"KLDB","i_lat":-6.217455,"station_name":"Klenderbaru","line":1,"i_long":106.939679,"time":8,"distance":1385},{"line":1,"i_long":106.922662,"transit":false,"distance":1305,"is_transit":false,"station_id":"BUA","station_name":"Buaran","i_lat":-6.215568,"time":1},{"line":1,"transit":false,"time":2,"i_lat":-6.2135,"distance":3100,"i_long":106.899548,"station_name":"Klender","is_transit":false,"station_id":"KLD"},{"station_id":"JNG","i_long":106.86807400000001,"distance":3395,"transit":true,"time":3,"is_transit":true,"i_lat":-6.215091,"station_name":"Jatinegara","line":1},{"station_id":"POK","distance":1236,"is_transit":false,"i_lat":-6.209188,"time":2,"transit":false,"line":11,"i_long":106.861737,"station_name":"Pondok Jati"},{"line":11,"distance":1829,"transit":false,"i_long":106.855437,"time":2,"i_lat":-6.193792,"is_transit":false,"station_id":"KMT","station_name":"Kramat"},{"time":1,"transit":false,"station_id":"GST","is_transit":false,"distance":973,"i_long":106.850107,"line":11,"station_name":"Gang Sentiong","i_lat":-6.185975},{"time":8,"transit":false,"i_lat":-6.174784,"station_id":"PSE","distance":1567,"station_name":"Pasar Senen","is_transit":false,"i_long":106.84368,"line":11},{"is_transit":false,"station_id":"KMO","time":4,"i_lat":-6.161728,"i_long":106.839204,"transit":false,"station_name":"Kemayoran","line":11,"distance":1436},{"station_id":"RJW","station_name":"Rajawali","i_lat":-6.14505,"i_long":106.836569,"line":11,"is_transit":false,"transit":false,"time":5,"distance":1901},{"station_id":"KPB","station_name":"Kampung Bandan","i_long":106.826365,"distance":1444,"transit":true,"time":3,"line":4,"is_transit":true,"i_lat":-6.132549},{"is_transit":true,"i_lat":-6.137569,"line":2,"distance":1364,"station_name":"Jakarta Kota","station_id":"JAKK","time":3,"transit":true,"i_long":106.812439},{"time":4,"station_name":"Jayakarta","line":2,"station_id":"JAY","i_lat":-6.141205,"distance":1264,"is_transit":false,"i_long":106.820901,"transit":false},{"station_id":"MGB","transit":false,"i_lat":-6.149769,"is_transit":false,"i_long":106.82482,"station_name":"Manggabesar","line":2,"distance":1080,"time":2},{"is_transit":false,"transit":false,"i_long":106.827103,"station_name":"Sawah Besar","station_id":"SW","distance":906,"line":2,"i_lat":-6.160725,"time":2},{"i_lat":-6.166716,"is_transit":false,"time":2,"i_long":106.828284,"distance":1149,"line":2,"transit":false,"station_id":"JUA","station_name":"Juanda"},{"i_long":106.832183,"time":4,"i_lat":-6.186295,"station_id":"GDD","distance":2015,"line":2,"is_transit":false,"transit":false,"station_name":"Gondangdia"},{"line":2,"time":3,"transit":false,"i_lat":-6.198556,"station_id":"CKI","i_long":106.840169,"distance":1750,"station_name":"Cikini","is_transit":false},{"time":4,"i_long":106.84912,"station_id":"MRI","i_lat":-6.209883,"distance":1590,"is_transit":false,"station_name":"Manggarai","transit":false,"line":2},{"station_id":"TEB","transit":false,"line":2,"i_long":106.857948,"i_lat":-6.226659,"is_transit":false,"station_name":"Tebet","time":4,"distance":2610},{"i_lat":-6.242512,"is_transit":false,"i_long":106.856607,"station_id":"CW","distance":1230,"transit":false,"time":2,"line":2,"station_name":"Cawang"},{"distance":1546,"transit":false,"i_lat":-6.255332,"station_id":"DRN","station_name":"Duren Kalibata","line":2,"time":3,"is_transit":false,"i_long":106.85449},{"i_long":106.851577,"distance":824,"line":2,"transit":false,"station_id":"PSMB","i_lat":-6.263214,"is_transit":false,"time":2,"station_name":"Pasar Minggu Baru"},{"transit":false,"station_name":"Pasar Minggu","i_long":106.843999,"is_transit":false,"line":2,"distance":2380,"time":2,"i_lat":-6.2842400000000005,"station_id":"PSM"},{"station_name":"Tanjung Barat","distance":2820,"line":2,"transit":false,"is_transit":false,"i_lat":-6.3080680000000005,"i_long":106.838896,"station_id":"TNT","time":4},{"i_long":106.832616,"is_transit":false,"station_name":"Lenteng Agung","station_id":"LNA","transit":false,"time":3,"i_lat":-6.330363,"line":2,"distance":2671},{"station_id":"UP","station_name":"Univ. Pancasila","is_transit":false,"i_long":106.834175,"line":2,"i_lat":-6.339291,"transit":false,"time":2,"distance":1029},{"i_lat":-6.360749,"time":3,"station_name":"Univ. Indonesia","line":2,"distance":2264,"transit":false,"i_long":106.831474,"is_transit":false,"station_id":"UI"},{"transit":false,"line":2,"time":2,"i_long":106.831114,"i_lat":-6.369073,"is_transit":false,"station_name":"Pondok Cina","distance":1109,"station_id":"POC"},{"is_transit":false,"transit":false,"station_name":"Depokbaru","distance":2727,"station_id":"DPB","time":4,"i_lat":-6.391065,"i_long":106.819451,"line":2},{"time":3,"is_transit":false,"i_long":106.816926,"distance":1584,"station_id":"DP","line":2,"i_lat":-6.405256,"station_name":"Depok","transit":false},{"time":6,"station_id":"CTA","distance":5084,"transit":true,"station_name":"Citayam","i_lat":-6.448811,"is_transit":true,"i_long":106.800298,"line":2},{"station_name":"Pondok Rajeg","transit":false,"time":0,"distance":0,"station_id":"PDRG","is_transit":false,"i_long":106.824374,"line":21,"i_lat":-6.460735},{"distance":0,"i_long":106.851978,"station_name":"Cibinong","time":0,"i_lat":-6.46424,"line":21,"station_id":"CBN","is_transit":false,"transit":false}]]}