{"data":[[{"is_transit":false,"distance":0,"i_lat":-6.224515,"time":0,"station_id":"KRI","i_long":106.977657,"station_name":"Kranji","line":1,"transit":false},{"i_lat":-6.219053,"distance":3097,"line":1,"is_transit":false,"station_name":"Cakung","transit":false,"station_id":"CUK","i_long":106.951283,"time":3},{"station_id":"KLDB","transit":false,"is_transit":false,"station_name":"Klenderbaru","time":8,"line":1,"distance":1385,"i_lat":-6.217455,"i_long":106.939679},{"station_id":"BUA","line":1,"station_name":"Buaran","i_long":106.922662,"i_lat":-6.215568,"distance":1305,"transit":false,"is_transit":false,"time":1},{"station_id":"KLD","is_transit":false,"line":1,"transit":false,"i_long":106.899548,"station_name":"Klender","distance":3100,"i_lat":-6.2135,"time":2},{"station_id":"JNG","distance":3395,"station_name":"Jatinegara","is_transit":false,"i_long":106.86807400000001,"line":1,"time":3,"i_lat":-6.215091,"transit":false},{"i_lat":-6.212485,"is_transit":false,"transit":false,"i_long":106.858896,"station_name":"Matraman","line":1,"station_id":"MTR","distance":1377,"time":2},{"is_transit":true,"station_id":"MRI","distance":1275,"station_name":"Manggarai","transit":true,"time":2,"i_lat":-6.209883,"i_long":106.84912,"line":2},{"line":2,"i_lat":-6.198556,"distance":1590,"transit":false,"time":4,"i_long":106.840169,"station_id":"CKI","is_transit":false,"station_name":"Cikini"},{"transit":false,"i_long":106.832183,"line":2,"station_id":"GDD","time":3,"station_name":"Gondangdia","distance":1750,"is_transit":false,"i_lat":-6.186295},{"i_long":106.828284,"station_name":"Juanda","time":4,"distance":2015,"i_lat":-6.166716,"line":2,"transit":false,"station_id":"JUA","is_transit":false},{"time":2,"station_id":"SW","transit":false,"is_transit":false,"station_name":"Sawah Besar","i_long":106.827103,"distance":1149,"line":2,"i_lat":-6.160725}],[{"station_name":"Kranji","distance":0,"i_long":106.977657,"transit":false,"i_lat":-6.224515,"line":1,"station_id":"KRI","time":0,"is_transit":false},{"is_transit":false,"station_name":"Cakung","line":1,"i_lat":-6.219053,"transit":false,"i_long":106.951283,"time":3,"station_id":"CUK","distance":3097},{"is_transit":false,"distance":1385,"i_lat":-6.217455,"transit":false,"line":1,"station_id":"KLDB","time":8,"i_long":106.939679,"station_name":"Klenderbaru"},{"station_name":"Buaran","transit":false,"distance":1305,"i_lat":-6.215568,"station_id":"BUA","is_transit":false,"time":1,"i_long":106.922662,"line":1},{"line":1,"time":2,"is_transit":false,"station_name":"Klender","i_lat":-6.2135,"i_long":106.899548,"station_id":"KLD","distance":3100,"transit":false},{"station_id":"JNG","transit":true,"station_name":"Jatinegara","line":1,"is_transit":true,"i_long":106.86807400000001,"time":3,"distance":3395,"i_lat":-6.215091},{"station_name":"Pondok Jati","i_long":106.861737,"line":11,"distance":1236,"transit":false,"i_lat":-6.209188,"time":2,"station_id":"POK","is_transit":false},{"i_lat":-6.193792,"distance":1829,"is_transit":false,"time":2,"station_name":"Kramat","i_long":106.855437,"station_id":"KMT","transit":false,"line":11},{"i_lat":-6.185975,"i_long":106.850107,"line":11,"station_name":"Gang Sentiong","time":1,"transit":false,"distance":973,"station_id":"GST","is_transit":false},{"transit":false,"time":8,"line":11,"station_name":"Pasar Senen","distance":1567,"i_lat":-6.174784,"is_transit":false,"i_long":106.84368,"station_id":"PSE"},{"station_id":"KMO","is_transit":false,"i_lat":-6.161728,"line":11,"transit":false,"time":4,"i_long":106.839204,"station_name":"Kemayoran","distance":1436},{"i_long":106.836569,"line":11,"station_name":"Rajawali","transit":false,"distance":1901,"station_id":"RJW","is_transit":false,"time":5,"i_lat":-6.14505},{"transit":true,"is_transit":true,"distance":1444,"i_lat":-6.132549,"time":3,"station_name":"Kampung Bandan","i_long":106.826365,"line":4,"station_id":"KPB"},{"time":3,"distance":1364,"station_id":"JAKK","i_long":106.812439,"is_transit":true,"transit":true,"station_name":"Jakarta Kota","i_lat":-6.137569,"line":2},{"station_id":"JAY","time":4,"distance":1264,"i_lat":-6.141205,"i_long":106.820901,"line":2,"is_transit":false,"transit":false,"station_name":"Jayakarta"},{"is_transit":false,"transit":false,"distance":1080,"station_name":"Manggabesar","station_id":"MGB","i_lat":-6.149769,"time":2,"line":2,"i_long":106.82482},{"distance":906,"station_name":"Sawah Besar","line":2,"transit":false,"i_lat":-6.160725,"i_long":106.827103,"time":2,"station_id":"SW","is_transit":false}],[{"station_name":"Kranji","time":0,"transit":false,"i_long":106.977657,"i_lat":-6.224515,"line":1,"station_id":"KRI","is_transit":false,"distance":0},{"i_long":106.951283,"time":3,"distance":3097,"i_lat":-6.219053,"line":1,"station_id":"CUK","station_name":"Cakung","is_transit":false,"transit":false},{"is_transit":false,"distance":1385,"transit":false,"time":8,"i_long":106.939679,"line":1,"station_name":"Klenderbaru","i_lat":-6.217455,"station_id":"KLDB"},{"time":1,"i_long":106.922662,"line":1,"distance":1305,"station_id":"BUA","transit":false,"i_lat":-6.215568,"is_transit":false,"station_name":"Buaran"},{"i_lat":-6.2135,"distance":3100,"i_long":106.899548,"is_transit":false,"time":2,"station_name":"Klender","station_id":"KLD","transit":false,"line":1},{"distance":3395,"time":3,"station_id":"JNG","i_lat":-6.215091,"transit":false,"is_transit":false,"station_name":"Jatinegara","i_long":106.86807400000001,"line":1},{"i_long":106.858896,"station_id":"MTR","distance":1377,"time":2,"line":1,"station_name":"Matraman","transit":false,"i_lat":-6.212485,"is_transit":false},{"i_lat":-6.209883,"line":2,"i_long":106.84912,"distance":1275,"time":2,"station_id":"MRI","station_name":"Manggarai","transit":false,"is_transit":false},{"transit":false,"is_transit":false,"i_long":106.822649,"distance":3186,"line":1,"station_id":"SUD","station_name":"Sudirman","time":4,"i_lat":-6.202263},{"i_long":106.819881,"time":1,"station_name":"Sudirman Baru","distance":280,"i_lat":-6.201433,"transit":false,"line":1,"station_id":"SUDB","is_transit":false},{"i_lat":-6.20132,"transit":false,"station_id":"KAT","station_name":"Karet","is_transit":false,"i_long":106.816351,"time":1,"distance":471,"line":1},{"is_transit":false,"distance":2029,"i_long":106.811091,"line":1,"station_id":"THB","transit":false,"i_lat":-6.185545,"time":5,"station_name":"Tanah Abang"},{"i_lat":-6.155215,"time":8,"i_long":106.800832,"is_transit":false,"station_name":"Duri","distance":3632,"line":1,"station_id":"DU","transit":false},{"line":1,"distance":1230,"station_name":"Angke","is_transit":false,"i_lat":-6.144674,"i_long":106.79867,"station_id":"AK","time":4,"transit":false},{"time":9,"i_lat":-6.132549,"station_id":"KPB","is_transit":true,"i_long":106.826365,"distance":4102,"transit":true,"line":4,"station_name":"Kampung Bandan"},{"is_transit":true,"line":2,"station_name":"Jakarta Kota","i_long":106.812439,"station_id":"JAKK","time":3,"distance":1364,"transit":true,"i_lat":-6.137569},{"is_transit":false,"i_lat":-6.141205,"transit":false,"station_id":"JAY","i_long":106.820901,"distance":1264,"line":2,"station_name":"Jayakarta","time":4},{"station_id":"MGB","is_transit":false,"line":2,"distance":1080,"i_long":106.82482,"station_name":"Manggabesar","i_lat":-6.149769,"transit":false,"time":2},{"distance":906,"line":2,"station_name":"Sawah Besar","i_lat":-6.160725,"is_transit":false,"i_long":106.827103,"station_id":"SW","time":2,"transit":false}],[{"is_transit":false,"station_name":"Kranji","line":1,"i_lat":-6.224515,"i_long":106.977657,"station_id":"KRI","transit":false,"time":0,"distance":0},{"transit":false,"line":1,"distance":3097,"is_transit":false,"i_lat":-6.219053,"time":3,"station_id":"CUK","station_name":"Cakung","i_long":106.951283},{"is_transit":false,"station_name":"Klenderbaru","distance":1385,"line":1,"i_long":106.939679,"i_lat":-6.217455,"time":8,"transit":false,"station_id":"KLDB"},{"time":1,"line":1,"station_name":"Buaran","distance":1305,"station_id":"BUA","is_transit":false,"transit":false,"i_long":106.922662,"i_lat":-6.215568},{"time":2,"station_id":"KLD","transit":false,"station_name":"Klender","distance":3100,"i_lat":-6.2135,"i_long":106.899548,"line":1,"is_transit":false},{"station_id":"JNG","i_long":106.86807400000001,"is_transit":true,"time":3,"i_lat":-6.215091,"line":1,"transit":true,"station_name":"Jatinegara","distance":3395},{"line":11,"station_name":"Pondok Jati","distance":1236,"i_long":106.861737,"i_lat":-6.209188,"is_transit":false,"station_id":"POK","time":2,"transit":false},{"station_name":"Kramat","is_transit":false,"transit":false,"line":11,"distance":1829,"i_lat":-6.193792,"station_id":"KMT","time":2,"i_long":106.855437},{"i_lat":-6.185975,"distance":973,"line":11,"station_name":"Gang Sentiong","station_id":"GST","is_transit":false,"time":1,"transit":false,"i_long":106.850107},{"transit":false,"i_long":106.84368,"distance":1567,"time":8,"station_name":"Pasar Senen","is_transit":false,"station_id":"PSE","i_lat":-6.174784,"line":11},{"station_name":"Kemayoran","is_transit":false,"distance":1436,"line":11,"station_id":"KMO","i_lat":-6.161728,"transit":false,"time":4,"i_long":106.839204},{"time":5,"station_id":"RJW","is_transit":false,"i_long":106.836569,"line":11,"station_name":"Rajawali","distance":1901,"i_lat":-6.14505,"transit":false},{"station_id":"KPB","transit":true,"is_transit":true,"distance":1444,"i_lat":-6.132549,"i_long":106.826365,"line":4,"time":3,"station_name":"Kampung Bandan"},{"station_name":"Angke","i_lat":-6.144674,"station_id":"AK","transit":false,"i_long":106.79867,"line":1,"time":9,"is_transit":false,"distance":4102},{"station_id":"DU","i_long":106.800832,"line":1,"transit":false,"is_transit":false,"station_name":"Duri","time":4,"distance":1230,"i_lat":-6.155215},{"line":1,"i_lat":-6.185545,"is_transit":false,"time":8,"distance":3632,"station_id":"THB","station_name":"Tanah Abang","transit":false,"i_long":106.811091},{"time":5,"distance":2029,"transit":false,"i_long":106.816351,"station_id":"KAT","i_lat":-6.20132,"station_name":"Karet","line":1,"is_transit":false},{"i_long":106.819881,"distance":471,"station_name":"Sudirman Baru","transit":false,"line":1,"station_id":"SUDB","is_transit":false,"time":1,"i_lat":-6.201433},{"transit":false,"time":1,"line":1,"i_lat":-6.202263,"i_long":106.822649,"station_name":"Sudirman","is_transit":false,"station_id":"SUD","distance":280},{"station_id":"MRI","station_name":"Manggarai","distance":3186,"time":4,"is_transit":true,"i_lat":-6.209883,"line":2,"transit":true,"i_long":106.84912},{"line":2,"is_transit":false,"transit":false,"station_name":"Cikini","station_id":"CKI","time":4,"distance":1590,"i_lat":-6.198556,"i_long":106.840169},{"station_id":"GDD","is_transit":false,"i_long":106.832183,"station_name":"Gondangdia","time":3,"i_lat":-6.186295,"line":2,"transit":false,"distance":1750},{"time":4,"line":2,"station_name":"Juanda","i_long":106.828284,"distance":2015,"transit":false,"station_id":"JUA","is_transit":false,"i_lat":-6.166716},{"transit":false,"station_id":"SW","is_transit":false,"line":2,"time":2,"distance":1149,"station_name":"Sawah Besar","i_lat":-6.160725,"i_long":106.827103}]]}