{"data":[[{"line":1,"i_long":106.977657,"transit":false,"time":0,"station_name":"Kranji","station_id":"KRI","is_transit":false,"distance":0,"i_lat":-6.224515},{"transit":false,"is_transit":false,"i_lat":-6.219053,"line":0,"station_name":"Cakung","distance":3097,"station_id":"CUK","i_long":106.951283,"time":3},{"is_transit":false,"time":8,"line":1,"distance":1385,"station_name":"Klenderbaru","i_lat":-6.217455,"i_long":106.939679,"station_id":"KLDB","transit":false},{"is_transit":false,"i_long":106.922662,"transit":false,"i_lat":-6.215568,"time":1,"distance":1305,"line":0,"station_id":"BUA","station_name":"Buaran"},{"station_name":"Klender","time":2,"i_lat":-6.2135,"distance":3100,"station_id":"KLD","is_transit":false,"line":1,"i_long":106.899548,"transit":false},{"station_id":"JNG","line":0,"time":3,"transit":false,"is_transit":true,"i_long":106.86807400000001,"station_name":"Jatinegara","distance":3395,"i_lat":-6.215091},{"transit":false,"i_lat":-6.212485,"line":1,"station_id":"MTR","is_transit":false,"i_long":106.858896,"distance":1377,"time":2,"station_name":"Matraman"},{"distance":1275,"transit":true,"i_lat":-6.209883,"i_long":106.84912,"station_name":"Manggarai","line":0,"station_id":"MRI","is_transit":true,"time":2},{"station_name":"Tebet","station_id":"TEB","distance":2610,"line":2,"i_long":106.857948,"time":4,"i_lat":-6.226659,"is_transit":false,"transit":false},{"station_id":"CW","time":2,"distance":1230,"transit":false,"i_long":106.856607,"is_transit":false,"line":0,"i_lat":-6.242512,"station_name":"Cawang"},{"time":3,"i_long":106.85449,"line":0,"is_transit":false,"i_lat":-6.255332,"transit":false,"station_id":"DRN","distance":1546,"station_name":"Duren Kalibata"},{"distance":824,"is_transit":false,"line":2,"time":2,"i_long":106.851577,"i_lat":-6.263214,"transit":false,"station_id":"PSMB","station_name":"Pasar Minggu Baru"},{"i_long":106.843999,"station_name":"Pasar Minggu","station_id":"PSM","distance":2380,"i_lat":-6.2842400000000005,"transit":false,"time":2,"is_transit":false,"line":2},{"station_name":"Tanjung Barat","transit":false,"line":2,"i_long":106.838896,"i_lat":-6.3080680000000005,"is_transit":false,"time":4,"station_id":"TNT","distance":2820},{"transit":false,"i_lat":-6.330363,"is_transit":false,"station_id":"LNA","i_long":106.832616,"line":2,"time":3,"station_name":"Lenteng Agung","distance":2671},{"time":2,"distance":1029,"station_name":"Univ. Pancasila","i_long":106.834175,"line":2,"i_lat":-6.339291,"station_id":"UP","transit":false,"is_transit":false},{"time":3,"station_id":"UI","i_long":106.831474,"station_name":"Univ. Indonesia","transit":false,"is_transit":false,"distance":2264,"i_lat":-6.360749,"line":2},{"station_id":"POC","station_name":"Pondok Cina","is_transit":false,"distance":1109,"i_lat":-6.369073,"i_long":106.831114,"time":2,"transit":false,"line":2},{"station_name":"Depokbaru","i_long":106.819451,"is_transit":false,"transit":false,"i_lat":-6.391065,"distance":2727,"line":0,"time":4,"station_id":"DPB"},{"distance":1584,"i_lat":-6.405256,"station_name":"Depok","is_transit":false,"station_id":"DP","transit":false,"i_long":106.816926,"time":3,"line":0},{"is_transit":true,"station_name":"Citayam","time":6,"distance":5084,"i_long":106.800298,"line":1,"i_lat":-6.448811,"transit":false,"station_id":"CTA"},{"is_transit":false,"transit":false,"station_name":"Cibinong","station_id":"CBN","i_long":106.851978,"line":0,"distance":6740,"i_lat":-6.46424,"time":10}],[{"distance":0,"transit":false,"is_transit":false,"station_id":"KRI","i_long":106.977657,"line":1,"i_lat":-6.224515,"time":0,"station_name":"Kranji"},{"line":0,"is_transit":false,"distance":3097,"station_id":"CUK","time":3,"i_lat":-6.219053,"station_name":"Cakung","i_long":106.951283,"transit":false},{"i_lat":-6.217455,"transit":false,"station_id":"KLDB","i_long":106.939679,"station_name":"Klenderbaru","distance":1385,"is_transit":false,"line":1,"time":8},{"transit":false,"i_long":106.922662,"line":0,"i_lat":-6.215568,"distance":1305,"station_id":"BUA","station_name":"Buaran","is_transit":false,"time":1},{"is_transit":false,"transit":false,"time":2,"distance":3100,"station_id":"KLD","i_lat":-6.2135,"station_name":"Klender","i_long":106.899548,"line":1},{"i_long":106.86807400000001,"is_transit":true,"station_name":"Jatinegara","time":3,"line":0,"i_lat":-6.215091,"station_id":"JNG","distance":3395,"transit":true},{"is_transit":false,"time":2,"station_name":"Pondok Jati","distance":1236,"i_long":106.861737,"station_id":"POK","transit":false,"line":11,"i_lat":-6.209188},{"station_name":"Kramat","i_lat":-6.193792,"station_id":"KMT","distance":1829,"is_transit":false,"time":2,"transit":false,"i_long":106.855437,"line":11},{"i_long":106.850107,"is_transit":false,"line":11,"transit":false,"station_name":"Gang Sentiong","time":1,"distance":973,"i_lat":-6.185975,"station_id":"GST"},{"station_id":"PSE","i_long":106.84368,"station_name":"Pasar Senen","is_transit":false,"transit":false,"time":8,"line":11,"i_lat":-6.174784,"distance":1567},{"station_name":"Kemayoran","is_transit":false,"line":11,"i_lat":-6.161728,"distance":1436,"station_id":"KMO","time":4,"transit":false,"i_long":106.839204},{"distance":1901,"i_long":106.836569,"line":11,"i_lat":-6.14505,"time":5,"is_transit":false,"station_id":"RJW","station_name":"Rajawali","transit":false},{"is_transit":true,"i_lat":-6.132549,"time":3,"transit":true,"line":0,"distance":1444,"i_long":106.826365,"station_id":"KPB","station_name":"Kampung Bandan"},{"i_long":106.79867,"line":0,"station_id":"AK","transit":false,"is_transit":false,"station_name":"Angke","distance":4102,"time":9,"i_lat":-6.144674},{"time":4,"is_transit":true,"transit":true,"station_id":"DU","distance":1230,"line":1,"station_name":"Duri","i_lat":-6.155215,"i_long":106.800832},{"is_transit":true,"station_id":"THB","time":8,"line":1,"transit":false,"i_lat":-6.185545,"distance":3632,"i_long":106.811091,"station_name":"Tanah Abang"},{"i_lat":-6.20132,"time":5,"station_name":"Karet","i_long":106.816351,"station_id":"KAT","line":1,"is_transit":false,"transit":false,"distance":2029},{"i_long":106.819881,"line":1,"time":1,"transit":false,"station_id":"SUDB","distance":471,"i_lat":-6.201433,"station_name":"Sudirman Baru","is_transit":false},{"time":1,"distance":280,"i_long":106.822649,"station_id":"SUD","is_transit":false,"transit":false,"line":1,"i_lat":-6.202263,"station_name":"Sudirman"},{"is_transit":true,"distance":3186,"i_lat":-6.209883,"i_long":106.84912,"station_name":"Manggarai","line":0,"transit":true,"time":4,"station_id":"MRI"},{"is_transit":false,"time":4,"distance":2610,"transit":false,"i_long":106.857948,"station_id":"TEB","station_name":"Tebet","i_lat":-6.226659,"line":2},{"line":0,"i_lat":-6.242512,"time":2,"station_id":"CW","transit":false,"distance":1230,"is_transit":false,"station_name":"Cawang","i_long":106.856607},{"station_name":"Duren Kalibata","transit":false,"is_transit":false,"i_long":106.85449,"line":0,"station_id":"DRN","i_lat":-6.255332,"time":3,"distance":1546},{"station_id":"PSMB","line":2,"is_transit":false,"station_name":"Pasar Minggu Baru","time":2,"distance":824,"transit":false,"i_lat":-6.263214,"i_long":106.851577},{"line":2,"is_transit":false,"distance":2380,"station_id":"PSM","station_name":"Pasar Minggu","time":2,"i_long":106.843999,"transit":false,"i_lat":-6.2842400000000005},{"i_long":106.838896,"station_id":"TNT","transit":false,"line":2,"i_lat":-6.3080680000000005,"is_transit":false,"distance":2820,"time":4,"station_name":"Tanjung Barat"},{"line":2,"time":3,"distance":2671,"i_lat":-6.330363,"station_name":"Lenteng Agung","is_transit":false,"station_id":"LNA","i_long":106.832616,"transit":false},{"i_lat":-6.339291,"station_id":"UP","is_transit":false,"transit":false,"station_name":"Univ. Pancasila","time":2,"line":2,"i_long":106.834175,"distance":1029},{"station_name":"Univ. Indonesia","time":3,"i_lat":-6.360749,"transit":false,"i_long":106.831474,"line":2,"is_transit":false,"distance":2264,"station_id":"UI"},{"station_id":"POC","time":2,"transit":false,"i_lat":-6.369073,"i_long":106.831114,"line":2,"station_name":"Pondok Cina","is_transit":false,"distance":1109},{"station_name":"Depokbaru","i_lat":-6.391065,"is_transit":false,"time":4,"i_long":106.819451,"line":0,"station_id":"DPB","distance":2727,"transit":false},{"station_id":"DP","distance":1584,"i_long":106.816926,"station_name":"Depok","line":0,"i_lat":-6.405256,"transit":false,"time":3,"is_transit":false},{"transit":false,"station_id":"CTA","time":6,"i_lat":-6.448811,"distance":5084,"line":1,"station_name":"Citayam","i_long":106.800298,"is_transit":true},{"time":10,"station_id":"CBN","station_name":"Cibinong","is_transit":false,"distance":6740,"transit":false,"i_lat":-6.46424,"i_long":106.851978,"line":0}],[{"i_lat":-6.224515,"station_name":"Kranji","i_long":106.977657,"station_id":"KRI","distance":0,"line":1,"time":0,"transit":false,"is_transit":false},{"i_lat":-6.219053,"distance":3097,"station_name":"Cakung","time":3,"station_id":"CUK","transit":false,"line":0,"i_long":106.951283,"is_transit":false},{"is_transit":false,"transit":false,"station_id":"KLDB","line":1,"distance":1385,"time":8,"i_lat":-6.217455,"station_name":"Klenderbaru","i_long":106.939679},{"is_transit":false,"transit":false,"station_name":"Buaran","line":0,"time":1,"i_lat":-6.215568,"i_long":106.922662,"station_id":"BUA","distance":1305},{"is_transit":false,"time":2,"i_lat":-6.2135,"distance":3100,"station_name":"Klender","i_long":106.899548,"station_id":"KLD","line":1,"transit":false},{"station_name":"Jatinegara","is_transit":true,"time":3,"distance":3395,"transit":true,"i_lat":-6.215091,"i_long":106.86807400000001,"line":0,"station_id":"JNG"},{"time":2,"line":11,"distance":1236,"station_name":"Pondok Jati","is_transit":false,"i_lat":-6.209188,"transit":false,"station_id":"POK","i_long":106.861737},{"station_id":"KMT","distance":1829,"line":11,"station_name":"Kramat","is_transit":false,"time":2,"i_lat":-6.193792,"i_long":106.855437,"transit":false},{"is_transit":false,"station_id":"GST","i_long":106.850107,"station_name":"Gang Sentiong","time":1,"i_lat":-6.185975,"line":11,"distance":973,"transit":false},{"i_long":106.84368,"distance":1567,"is_transit":false,"transit":false,"station_id":"PSE","station_name":"Pasar Senen","i_lat":-6.174784,"line":11,"time":8},{"station_name":"Kemayoran","i_lat":-6.161728,"is_transit":false,"i_long":106.839204,"station_id":"KMO","time":4,"distance":1436,"line":11,"transit":false},{"i_lat":-6.14505,"time":5,"station_name":"Rajawali","distance":1901,"is_transit":false,"line":11,"i_long":106.836569,"station_id":"RJW","transit":false},{"distance":1444,"line":0,"station_id":"KPB","transit":true,"station_name":"Kampung Bandan","is_transit":true,"i_long":106.826365,"time":3,"i_lat":-6.132549},{"station_id":"JAKK","i_lat":-6.137569,"time":3,"is_transit":true,"i_long":106.812439,"distance":1364,"line":0,"transit":true,"station_name":"Jakarta Kota"},{"is_transit":false,"station_name":"Jayakarta","transit":false,"distance":1264,"i_long":106.820901,"station_id":"JAY","time":4,"i_lat":-6.141205,"line":7},{"distance":1080,"i_lat":-6.149769,"station_id":"MGB","time":2,"line":2,"station_name":"Manggabesar","is_transit":false,"transit":false,"i_long":106.82482},{"station_name":"Sawah Besar","time":2,"distance":906,"transit":false,"station_id":"SW","i_lat":-6.160725,"i_long":106.827103,"is_transit":false,"line":2},{"transit":false,"i_lat":-6.166716,"station_id":"JUA","station_name":"Juanda","is_transit":false,"time":2,"i_long":106.828284,"distance":1149,"line":2},{"distance":2015,"time":4,"transit":false,"is_transit":false,"station_id":"GDD","i_lat":-6.186295,"station_name":"Gondangdia","i_long":106.832183,"line":2},{"is_transit":false,"time":3,"line":0,"distance":1750,"i_long":106.840169,"station_id":"CKI","station_name":"Cikini","transit":false,"i_lat":-6.198556},{"time":4,"station_id":"MRI","i_lat":-6.209883,"station_name":"Manggarai","distance":1590,"line":0,"transit":true,"is_transit":true,"i_long":106.84912},{"i_lat":-6.226659,"i_long":106.857948,"distance":2610,"time":4,"station_name":"Tebet","station_id":"TEB","transit":false,"line":2,"is_transit":false},{"time":2,"i_long":106.856607,"i_lat":-6.242512,"station_id":"CW","is_transit":false,"transit":false,"line":0,"station_name":"Cawang","distance":1230},{"i_lat":-6.255332,"time":3,"transit":false,"station_name":"Duren Kalibata","is_transit":false,"i_long":106.85449,"station_id":"DRN","distance":1546,"line":0},{"distance":824,"station_name":"Pasar Minggu Baru","line":2,"time":2,"is_transit":false,"transit":false,"i_lat":-6.263214,"station_id":"PSMB","i_long":106.851577},{"line":2,"transit":false,"distance":2380,"time":2,"station_id":"PSM","i_long":106.843999,"station_name":"Pasar Minggu","i_lat":-6.2842400000000005,"is_transit":false},{"i_long":106.838896,"i_lat":-6.3080680000000005,"distance":2820,"is_transit":false,"time":4,"station_name":"Tanjung Barat","transit":false,"line":2,"station_id":"TNT"},{"i_long":106.832616,"is_transit":false,"station_name":"Lenteng Agung","time":3,"station_id":"LNA","distance":2671,"transit":false,"i_lat":-6.330363,"line":2},{"time":2,"station_name":"Univ. Pancasila","i_lat":-6.339291,"line":2,"is_transit":false,"station_id":"UP","distance":1029,"transit":false,"i_long":106.834175},{"station_id":"UI","i_lat":-6.360749,"distance":2264,"transit":false,"i_long":106.831474,"station_name":"Univ. Indonesia","line":2,"time":3,"is_transit":false},{"i_lat":-6.369073,"is_transit":false,"line":2,"distance":1109,"station_name":"Pondok Cina","station_id":"POC","transit":false,"i_long":106.831114,"time":2},{"transit":false,"line":0,"station_name":"Depokbaru","i_long":106.819451,"station_id":"DPB","is_transit":false,"time":4,"distance":2727,"i_lat":-6.391065},{"station_name":"Depok","station_id":"DP","transit":false,"is_transit":false,"i_lat":-6.405256,"i_long":106.816926,"time":3,"distance":1584,"line":0},{"i_long":106.800298,"line":1,"is_transit":true,"i_lat":-6.448811,"station_id":"CTA","transit":false,"station_name":"Citayam","time":6,"distance":5084},{"i_long":106.851978,"line":0,"i_lat":-6.46424,"transit":false,"station_id":"CBN","is_transit":false,"station_name":"Cibinong","time":10,"distance":6740}]]}