{"data":[[{"station_id":"KRI","i_long":106.977657,"is_transit":false,"station_name":"Kranji","i_lat":-6.224515,"time":0,"line":1,"transit":false,"distance":0},{"station_id":"CUK","i_lat":-6.219053,"i_long":106.951283,"is_transit":false,"transit":false,"distance":3097,"station_name":"Cakung","line":1,"time":3},{"time":8,"station_name":"Klenderbaru","i_lat":-6.217455,"transit":false,"distance":1385,"is_transit":false,"line":1,"i_long":106.939679,"station_id":"KLDB"},{"transit":false,"time":1,"distance":1305,"is_transit":false,"line":1,"station_id":"BUA","station_name":"Buaran","i_long":106.922662,"i_lat":-6.215568},{"is_transit":false,"station_id":"KLD","i_long":106.899548,"i_lat":-6.2135,"transit":false,"time":2,"distance":3100,"station_name":"Klender","line":1},{"time":3,"is_transit":false,"distance":3395,"line":1,"station_name":"Jatinegara","i_long":106.86807400000001,"station_id":"JNG","i_lat":-6.215091,"transit":false},{"time":2,"is_transit":false,"distance":1377,"station_name":"Matraman","station_id":"MTR","i_long":106.858896,"transit":false,"i_lat":-6.212485,"line":1},{"line":2,"time":2,"i_long":106.84912,"station_id":"MRI","transit":false,"is_transit":false,"distance":1275,"i_lat":-6.209883,"station_name":"Manggarai"},{"i_long":106.822649,"distance":3186,"transit":false,"station_id":"SUD","i_lat":-6.202263,"station_name":"Sudirman","line":1,"time":4,"is_transit":false},{"time":1,"i_lat":-6.201433,"i_long":106.819881,"is_transit":false,"distance":280,"transit":false,"station_id":"SUDB","station_name":"Sudirman Baru","line":1},{"station_name":"Karet","i_lat":-6.20132,"line":1,"distance":471,"station_id":"KAT","time":1,"i_long":106.816351,"transit":false,"is_transit":false},{"time":5,"station_name":"Tanah Abang","transit":false,"distance":2029,"is_transit":false,"i_lat":-6.185545,"i_long":106.811091,"station_id":"THB","line":1},{"time":8,"is_transit":true,"station_name":"Duri","transit":true,"station_id":"DU","i_lat":-6.155215,"distance":3632,"i_long":106.800832,"line":1},{"i_long":106.788277,"is_transit":false,"i_lat":-6.162021,"station_name":"Grogol","transit":false,"station_id":"GGL","line":5,"time":3,"distance":1700},{"station_id":"PSG","time":2,"i_lat":-6.161433,"i_long":106.771379,"line":5,"transit":false,"is_transit":false,"distance":2036,"station_name":"Pesing"},{"distance":1614,"is_transit":false,"i_long":106.756522,"station_id":"TKO","time":2,"station_name":"Taman Kota","transit":false,"i_lat":-6.1587309999999995,"line":5},{"distance":2334,"line":5,"is_transit":false,"transit":false,"station_name":"Bojongindah","i_lat":-6.159876,"time":2,"i_long":106.737035,"station_id":"BOI"}],[{"transit":false,"station_id":"KRI","i_lat":-6.224515,"is_transit":false,"distance":0,"i_long":106.977657,"line":1,"station_name":"Kranji","time":0},{"distance":3097,"transit":false,"is_transit":false,"time":3,"station_name":"Cakung","station_id":"CUK","line":1,"i_lat":-6.219053,"i_long":106.951283},{"transit":false,"time":8,"distance":1385,"station_id":"KLDB","station_name":"Klenderbaru","is_transit":false,"i_lat":-6.217455,"i_long":106.939679,"line":1},{"time":1,"is_transit":false,"transit":false,"station_id":"BUA","distance":1305,"station_name":"Buaran","i_long":106.922662,"line":1,"i_lat":-6.215568},{"line":1,"transit":false,"distance":3100,"i_long":106.899548,"i_lat":-6.2135,"station_id":"KLD","station_name":"Klender","time":2,"is_transit":false},{"i_lat":-6.215091,"is_transit":true,"station_name":"Jatinegara","distance":3395,"i_long":106.86807400000001,"time":3,"transit":true,"station_id":"JNG","line":1},{"i_long":106.861737,"transit":false,"is_transit":false,"station_id":"POK","time":2,"distance":1236,"line":11,"station_name":"Pondok Jati","i_lat":-6.209188},{"station_id":"KMT","i_lat":-6.193792,"station_name":"Kramat","time":2,"distance":1829,"i_long":106.855437,"transit":false,"is_transit":false,"line":11},{"i_long":106.850107,"station_name":"Gang Sentiong","line":11,"time":1,"distance":973,"i_lat":-6.185975,"is_transit":false,"transit":false,"station_id":"GST"},{"transit":false,"station_id":"PSE","time":8,"i_lat":-6.174784,"i_long":106.84368,"distance":1567,"line":11,"is_transit":false,"station_name":"Pasar Senen"},{"transit":false,"station_name":"Kemayoran","i_lat":-6.161728,"distance":1436,"station_id":"KMO","is_transit":false,"time":4,"i_long":106.839204,"line":11},{"is_transit":false,"distance":1901,"i_long":106.836569,"line":11,"transit":false,"time":5,"station_id":"RJW","i_lat":-6.14505,"station_name":"Rajawali"},{"station_name":"Kampung Bandan","transit":true,"i_lat":-6.132549,"i_long":106.826365,"is_transit":true,"station_id":"KPB","time":3,"line":4,"distance":1444},{"line":1,"is_transit":false,"transit":false,"i_lat":-6.144674,"i_long":106.79867,"station_id":"AK","time":9,"station_name":"Angke","distance":4102},{"station_id":"DU","distance":1230,"i_lat":-6.155215,"i_long":106.800832,"is_transit":true,"station_name":"Duri","line":1,"transit":true,"time":4},{"distance":1700,"transit":false,"station_id":"GGL","i_long":106.788277,"i_lat":-6.162021,"line":5,"time":3,"is_transit":false,"station_name":"Grogol"},{"i_lat":-6.161433,"transit":false,"is_transit":false,"station_name":"Pesing","time":2,"line":5,"distance":2036,"i_long":106.771379,"station_id":"PSG"},{"line":5,"transit":false,"station_id":"TKO","distance":1614,"station_name":"Taman Kota","is_transit":false,"time":2,"i_lat":-6.1587309999999995,"i_long":106.756522},{"i_long":106.737035,"is_transit":false,"time":2,"transit":false,"distance":2334,"station_name":"Bojongindah","station_id":"BOI","i_lat":-6.159876,"line":5}],[{"station_name":"Kranji","transit":false,"time":0,"station_id":"KRI","is_transit":false,"distance":0,"i_long":106.977657,"i_lat":-6.224515,"line":1},{"distance":3097,"i_long":106.951283,"transit":false,"station_id":"CUK","station_name":"Cakung","i_lat":-6.219053,"time":3,"line":1,"is_transit":false},{"distance":1385,"time":8,"is_transit":false,"station_name":"Klenderbaru","line":1,"i_lat":-6.217455,"i_long":106.939679,"station_id":"KLDB","transit":false},{"line":1,"distance":1305,"time":1,"station_name":"Buaran","station_id":"BUA","i_lat":-6.215568,"is_transit":false,"i_long":106.922662,"transit":false},{"time":2,"distance":3100,"i_long":106.899548,"transit":false,"is_transit":false,"i_lat":-6.2135,"line":1,"station_id":"KLD","station_name":"Klender"},{"line":1,"distance":3395,"transit":false,"station_id":"JNG","i_long":106.86807400000001,"time":3,"station_name":"Jatinegara","i_lat":-6.215091,"is_transit":false},{"distance":1377,"station_name":"Matraman","i_lat":-6.212485,"transit":false,"station_id":"MTR","line":1,"is_transit":false,"i_long":106.858896,"time":2},{"distance":1275,"i_lat":-6.209883,"station_name":"Manggarai","i_long":106.84912,"station_id":"MRI","is_transit":true,"line":2,"transit":true,"time":2},{"i_long":106.840169,"station_id":"CKI","time":4,"transit":false,"distance":1590,"station_name":"Cikini","line":2,"i_lat":-6.198556,"is_transit":false},{"i_long":106.832183,"station_name":"Gondangdia","time":3,"i_lat":-6.186295,"line":2,"distance":1750,"station_id":"GDD","is_transit":false,"transit":false},{"distance":2015,"time":4,"station_name":"Juanda","transit":false,"is_transit":false,"i_lat":-6.166716,"i_long":106.828284,"station_id":"JUA","line":2},{"station_id":"SW","transit":false,"time":2,"is_transit":false,"station_name":"Sawah Besar","i_lat":-6.160725,"line":2,"distance":1149,"i_long":106.827103},{"is_transit":false,"time":2,"station_name":"Manggabesar","station_id":"MGB","line":2,"i_lat":-6.149769,"transit":false,"distance":906,"i_long":106.82482},{"line":2,"station_name":"Jayakarta","distance":1080,"i_lat":-6.141205,"time":2,"station_id":"JAY","is_transit":false,"transit":false,"i_long":106.820901},{"line":2,"station_name":"Jakarta Kota","is_transit":true,"time":4,"i_lat":-6.137569,"station_id":"JAKK","transit":true,"distance":1264,"i_long":106.812439},{"i_lat":-6.132549,"i_long":106.826365,"distance":1364,"line":4,"is_transit":true,"transit":true,"station_id":"KPB","station_name":"Kampung Bandan","time":3},{"station_id":"AK","transit":false,"station_name":"Angke","distance":4102,"i_lat":-6.144674,"i_long":106.79867,"line":1,"time":9,"is_transit":false},{"line":1,"time":4,"transit":true,"i_lat":-6.155215,"distance":1230,"i_long":106.800832,"station_name":"Duri","station_id":"DU","is_transit":true},{"transit":false,"is_transit":false,"i_lat":-6.162021,"i_long":106.788277,"station_name":"Grogol","distance":1700,"line":5,"time":3,"station_id":"GGL"},{"station_id":"PSG","is_transit":false,"station_name":"Pesing","transit":false,"distance":2036,"i_long":106.771379,"i_lat":-6.161433,"line":5,"time":2},{"time":2,"station_name":"Taman Kota","distance":1614,"is_transit":false,"i_lat":-6.1587309999999995,"line":5,"i_long":106.756522,"transit":false,"station_id":"TKO"},{"is_transit":false,"station_name":"Bojongindah","distance":2334,"station_id":"BOI","i_lat":-6.159876,"time":2,"i_long":106.737035,"transit":false,"line":5}],[{"station_id":"KRI","distance":0,"i_lat":-6.224515,"line":1,"time":0,"is_transit":false,"station_name":"Kranji","transit":false,"i_long":106.977657},{"transit":false,"is_transit":false,"line":1,"i_lat":-6.219053,"station_name":"Cakung","time":3,"distance":3097,"station_id":"CUK","i_long":106.951283},{"transit":false,"distance":1385,"is_transit":false,"time":8,"station_name":"Klenderbaru","station_id":"KLDB","i_lat":-6.217455,"line":1,"i_long":106.939679},{"station_id":"BUA","station_name":"Buaran","is_transit":false,"line":1,"transit":false,"time":1,"i_long":106.922662,"distance":1305,"i_lat":-6.215568},{"transit":false,"distance":3100,"i_long":106.899548,"i_lat":-6.2135,"station_id":"KLD","line":1,"time":2,"is_transit":false,"station_name":"Klender"},{"distance":3395,"i_long":106.86807400000001,"station_name":"Jatinegara","line":1,"station_id":"JNG","i_lat":-6.215091,"time":3,"is_transit":true,"transit":true},{"time":2,"line":11,"station_name":"Pondok Jati","transit":false,"station_id":"POK","is_transit":false,"distance":1236,"i_lat":-6.209188,"i_long":106.861737},{"is_transit":false,"i_long":106.855437,"station_name":"Kramat","station_id":"KMT","distance":1829,"i_lat":-6.193792,"time":2,"transit":false,"line":11},{"station_id":"GST","station_name":"Gang Sentiong","distance":973,"i_lat":-6.185975,"i_long":106.850107,"transit":false,"line":11,"time":1,"is_transit":false},{"distance":1567,"station_name":"Pasar Senen","line":11,"i_lat":-6.174784,"is_transit":false,"i_long":106.84368,"station_id":"PSE","transit":false,"time":8},{"distance":1436,"transit":false,"i_long":106.839204,"station_name":"Kemayoran","station_id":"KMO","is_transit":false,"i_lat":-6.161728,"time":4,"line":11},{"distance":1901,"time":5,"is_transit":false,"station_name":"Rajawali","i_lat":-6.14505,"station_id":"RJW","line":11,"i_long":106.836569,"transit":false},{"distance":1444,"time":3,"i_lat":-6.132549,"transit":true,"is_transit":true,"station_name":"Kampung Bandan","station_id":"KPB","i_long":106.826365,"line":4},{"distance":1364,"station_name":"Jakarta Kota","line":2,"time":3,"i_long":106.812439,"station_id":"JAKK","transit":true,"i_lat":-6.137569,"is_transit":true},{"i_lat":-6.141205,"distance":1264,"station_id":"JAY","time":4,"is_transit":false,"i_long":106.820901,"line":2,"station_name":"Jayakarta","transit":false},{"transit":false,"distance":1080,"station_id":"MGB","line":2,"i_long":106.82482,"time":2,"i_lat":-6.149769,"station_name":"Manggabesar","is_transit":false},{"station_name":"Sawah Besar","transit":false,"i_lat":-6.160725,"station_id":"SW","distance":906,"i_long":106.827103,"line":2,"time":2,"is_transit":false},{"station_id":"JUA","transit":false,"i_long":106.828284,"distance":1149,"i_lat":-6.166716,"is_transit":false,"time":2,"line":2,"station_name":"Juanda"},{"time":4,"transit":false,"is_transit":false,"station_id":"GDD","distance":2015,"station_name":"Gondangdia","i_lat":-6.186295,"i_long":106.832183,"line":2},{"station_id":"CKI","time":3,"distance":1750,"i_long":106.840169,"i_lat":-6.198556,"line":2,"transit":false,"station_name":"Cikini","is_transit":false},{"distance":1590,"line":2,"i_lat":-6.209883,"station_id":"MRI","time":4,"i_long":106.84912,"is_transit":true,"station_name":"Manggarai","transit":true},{"i_lat":-6.202263,"time":4,"station_id":"SUD","distance":3186,"station_name":"Sudirman","is_transit":false,"transit":false,"i_long":106.822649,"line":1},{"station_id":"SUDB","transit":false,"station_name":"Sudirman Baru","is_transit":false,"distance":280,"i_long":106.819881,"line":1,"i_lat":-6.201433,"time":1},{"i_long":106.816351,"time":1,"station_id":"KAT","distance":471,"transit":false,"i_lat":-6.20132,"is_transit":false,"station_name":"Karet","line":1},{"line":1,"time":5,"i_long":106.811091,"station_name":"Tanah Abang","is_transit":false,"transit":false,"station_id":"THB","i_lat":-6.185545,"distance":2029},{"station_name":"Duri","time":8,"distance":3632,"i_long":106.800832,"is_transit":true,"transit":true,"i_lat":-6.155215,"station_id":"DU","line":1},{"i_lat":-6.162021,"time":3,"is_transit":false,"distance":1700,"station_id":"GGL","i_long":106.788277,"line":5,"station_name":"Grogol","transit":false},{"station_id":"PSG","is_transit":false,"time":2,"i_long":106.771379,"transit":false,"distance":2036,"line":5,"station_name":"Pesing","i_lat":-6.161433},{"i_long":106.756522,"station_name":"Taman Kota","distance":1614,"time":2,"i_lat":-6.1587309999999995,"line":5,"station_id":"TKO","is_transit":false,"transit":false},{"i_long":106.737035,"transit":false,"line":5,"i_lat":-6.159876,"is_transit":false,"distance":2334,"time":2,"station_name":"Bojongindah","station_id":"BOI"}]]}