{"data":[[{"station_name":"Kranji","is_transit":false,"station_id":"KRI","line":1,"transit":false,"time":0,"i_lat":-6.224515,"distance":0,"i_long":106.977657},{"line":1,"time":4,"transit":false,"station_name":"Bekasi","station_id":"BKS","i_long":106.997013,"is_transit":false,"i_lat":-6.236616,"distance":2520},{"station_id":"BKST","time":2,"transit":false,"is_transit":false,"station_name":"Bekasi Timur","i_lat":-6.248029,"i_long":107.016735,"line":1,"distance":2368},{"distance":4460,"transit":false,"station_name":"Tambun","station_id":"TB","is_transit":false,"line":1,"i_long":107.055722,"time":7,"i_lat":-6.258864},{"i_long":107.083084,"line":1,"is_transit":false,"station_id":"CIT","transit":false,"i_lat":-6.261877,"station_name":"Cibitung","time":3,"distance":3420},{"i_long":107.093313,"station_id":"TLM","i_lat":-6.262938,"line":1,"is_transit":false,"time":2,"transit":false,"distance":2800,"station_name":"Metland Telaga Murni"}]]}