{"data":[[{"i_long":106.977657,"distance":0,"is_transit":false,"line":1,"station_id":"KRI","time":0,"station_name":"Kranji","i_lat":-6.224515,"transit":false},{"i_long":106.951283,"is_transit":false,"i_lat":-6.219053,"time":3,"station_name":"Cakung","distance":3097,"station_id":"CUK","line":0,"transit":false},{"transit":false,"is_transit":false,"station_name":"Klenderbaru","station_id":"KLDB","distance":1385,"i_long":106.939679,"time":8,"line":1,"i_lat":-6.217455},{"i_lat":-6.215568,"station_id":"BUA","line":0,"is_transit":false,"time":1,"i_long":106.922662,"distance":1305,"transit":false,"station_name":"Buaran"},{"station_id":"KLD","distance":3100,"line":1,"i_lat":-6.2135,"station_name":"Klender","is_transit":false,"time":2,"transit":false,"i_long":106.899548},{"i_lat":-6.215091,"station_name":"Jatinegara","transit":true,"is_transit":true,"time":3,"station_id":"JNG","distance":3395,"i_long":106.86807400000001,"line":0},{"station_id":"POK","is_transit":false,"i_lat":-6.209188,"station_name":"Pondok Jati","distance":1236,"i_long":106.861737,"line":11,"time":2,"transit":false},{"i_lat":-6.193792,"distance":1829,"time":2,"transit":false,"station_name":"Kramat","line":11,"station_id":"KMT","i_long":106.855437,"is_transit":false},{"distance":973,"i_lat":-6.185975,"i_long":106.850107,"is_transit":false,"line":11,"time":1,"station_id":"GST","station_name":"Gang Sentiong","transit":false},{"station_name":"Pasar Senen","is_transit":false,"transit":false,"i_lat":-6.174784,"distance":1567,"station_id":"PSE","line":11,"time":8,"i_long":106.84368},{"is_transit":false,"time":4,"distance":1436,"transit":false,"station_name":"Kemayoran","line":11,"station_id":"KMO","i_lat":-6.161728,"i_long":106.839204},{"is_transit":false,"distance":1901,"i_lat":-6.14505,"transit":false,"line":11,"station_id":"RJW","time":5,"station_name":"Rajawali","i_long":106.836569}],[{"is_transit":false,"line":1,"time":0,"distance":0,"transit":false,"i_long":106.977657,"i_lat":-6.224515,"station_name":"Kranji","station_id":"KRI"},{"station_name":"Cakung","station_id":"CUK","distance":3097,"transit":false,"i_lat":-6.219053,"i_long":106.951283,"is_transit":false,"time":3,"line":0},{"station_id":"KLDB","transit":false,"i_lat":-6.217455,"i_long":106.939679,"line":1,"station_name":"Klenderbaru","is_transit":false,"time":8,"distance":1385},{"i_lat":-6.215568,"time":1,"station_id":"BUA","station_name":"Buaran","is_transit":false,"transit":false,"i_long":106.922662,"line":0,"distance":1305},{"station_id":"KLD","i_lat":-6.2135,"station_name":"Klender","i_long":106.899548,"is_transit":false,"time":2,"line":1,"transit":false,"distance":3100},{"i_long":106.86807400000001,"i_lat":-6.215091,"station_id":"JNG","transit":false,"line":0,"distance":3395,"station_name":"Jatinegara","time":3,"is_transit":true},{"transit":false,"i_lat":-6.212485,"is_transit":false,"station_name":"Matraman","station_id":"MTR","i_long":106.858896,"line":1,"time":2,"distance":1377},{"distance":1275,"line":0,"station_id":"MRI","i_lat":-6.209883,"is_transit":true,"transit":false,"station_name":"Manggarai","i_long":106.84912,"time":2},{"distance":3186,"line":1,"station_name":"Sudirman","time":4,"is_transit":false,"transit":false,"i_long":106.822649,"station_id":"SUD","i_lat":-6.202263},{"time":1,"transit":false,"i_long":106.819881,"station_name":"Sudirman Baru","station_id":"SUDB","is_transit":false,"line":1,"i_lat":-6.201433,"distance":280},{"station_name":"Karet","distance":471,"station_id":"KAT","time":1,"transit":false,"i_long":106.816351,"line":1,"is_transit":false,"i_lat":-6.20132},{"station_id":"THB","transit":false,"time":5,"station_name":"Tanah Abang","distance":2029,"i_lat":-6.185545,"is_transit":true,"i_long":106.811091,"line":1},{"i_lat":-6.155215,"station_id":"DU","station_name":"Duri","i_long":106.800832,"line":1,"transit":true,"is_transit":true,"distance":3632,"time":8},{"is_transit":false,"i_long":106.79867,"transit":false,"station_name":"Angke","line":0,"distance":1230,"i_lat":-6.144674,"time":4,"station_id":"AK"},{"station_id":"KPB","i_long":106.826365,"distance":4102,"line":0,"time":9,"transit":true,"i_lat":-6.132549,"is_transit":true,"station_name":"Kampung Bandan"},{"i_long":106.836569,"is_transit":false,"transit":false,"station_id":"RJW","line":11,"distance":1444,"time":3,"i_lat":-6.14505,"station_name":"Rajawali"}],[{"line":1,"station_id":"KRI","time":0,"distance":0,"transit":false,"i_lat":-6.224515,"station_name":"Kranji","i_long":106.977657,"is_transit":false},{"is_transit":false,"i_lat":-6.219053,"distance":3097,"station_id":"CUK","station_name":"Cakung","i_long":106.951283,"line":0,"time":3,"transit":false},{"i_lat":-6.217455,"line":1,"i_long":106.939679,"station_name":"Klenderbaru","time":8,"transit":false,"is_transit":false,"station_id":"KLDB","distance":1385},{"time":1,"transit":false,"i_lat":-6.215568,"i_long":106.922662,"distance":1305,"station_name":"Buaran","is_transit":false,"station_id":"BUA","line":0},{"i_long":106.899548,"station_name":"Klender","is_transit":false,"time":2,"station_id":"KLD","line":1,"transit":false,"distance":3100,"i_lat":-6.2135},{"line":0,"station_name":"Jatinegara","is_transit":true,"station_id":"JNG","transit":false,"distance":3395,"i_lat":-6.215091,"i_long":106.86807400000001,"time":3},{"station_name":"Matraman","transit":false,"i_lat":-6.212485,"station_id":"MTR","is_transit":false,"distance":1377,"i_long":106.858896,"line":1,"time":2},{"i_lat":-6.209883,"station_id":"MRI","transit":true,"line":0,"station_name":"Manggarai","is_transit":true,"distance":1275,"time":2,"i_long":106.84912},{"i_lat":-6.198556,"station_id":"CKI","i_long":106.840169,"transit":false,"line":0,"time":4,"distance":1590,"is_transit":false,"station_name":"Cikini"},{"station_id":"GDD","transit":false,"i_long":106.832183,"line":2,"time":3,"is_transit":false,"i_lat":-6.186295,"distance":1750,"station_name":"Gondangdia"},{"station_name":"Juanda","time":4,"i_lat":-6.166716,"line":2,"i_long":106.828284,"distance":2015,"station_id":"JUA","transit":false,"is_transit":false},{"time":2,"distance":1149,"station_name":"Sawah Besar","is_transit":false,"line":2,"station_id":"SW","transit":false,"i_lat":-6.160725,"i_long":106.827103},{"station_name":"Manggabesar","i_long":106.82482,"time":2,"station_id":"MGB","line":2,"transit":false,"is_transit":false,"distance":906,"i_lat":-6.149769},{"station_id":"JAY","i_lat":-6.141205,"distance":1080,"time":2,"i_long":106.820901,"transit":false,"station_name":"Jayakarta","line":7,"is_transit":false},{"station_id":"JAKK","i_lat":-6.137569,"is_transit":true,"transit":true,"distance":1264,"i_long":106.812439,"station_name":"Jakarta Kota","line":0,"time":4},{"time":3,"station_id":"KPB","i_long":106.826365,"i_lat":-6.132549,"line":0,"station_name":"Kampung Bandan","is_transit":true,"distance":1364,"transit":true},{"i_lat":-6.14505,"i_long":106.836569,"station_id":"RJW","is_transit":false,"distance":1444,"time":3,"transit":false,"line":11,"station_name":"Rajawali"}]]}