{"data":[[{"is_transit":false,"time":0,"station_id":"KRI","distance":0,"i_lat":-6.224515,"i_long":106.977657,"line":1,"station_name":"Kranji","transit":false},{"station_name":"Cakung","transit":false,"i_lat":-6.219053,"is_transit":false,"time":3,"distance":3097,"station_id":"CUK","i_long":106.951283,"line":0},{"distance":1385,"transit":false,"i_lat":-6.217455,"i_long":106.939679,"line":1,"time":8,"station_name":"Klenderbaru","station_id":"KLDB","is_transit":false},{"transit":false,"station_id":"BUA","i_long":106.922662,"line":0,"is_transit":false,"distance":1305,"i_lat":-6.215568,"station_name":"Buaran","time":1},{"station_name":"Klender","is_transit":false,"distance":3100,"time":2,"transit":false,"i_long":106.899548,"line":1,"i_lat":-6.2135,"station_id":"KLD"},{"i_lat":-6.215091,"station_id":"JNG","line":0,"station_name":"Jatinegara","distance":3395,"is_transit":true,"time":3,"i_long":106.86807400000001,"transit":false},{"i_lat":-6.212485,"station_id":"MTR","station_name":"Matraman","time":2,"is_transit":false,"distance":1377,"transit":false,"line":1,"i_long":106.858896},{"transit":true,"station_id":"MRI","distance":1275,"i_lat":-6.209883,"station_name":"Manggarai","line":0,"time":2,"is_transit":true,"i_long":106.84912},{"station_name":"Tebet","distance":2610,"is_transit":false,"transit":false,"i_long":106.857948,"i_lat":-6.226659,"time":4,"line":2,"station_id":"TEB"},{"i_long":106.856607,"station_id":"CW","station_name":"Cawang","line":0,"i_lat":-6.242512,"distance":1230,"is_transit":false,"time":2,"transit":false}],[{"i_long":106.977657,"line":1,"station_name":"Kranji","transit":false,"time":0,"is_transit":false,"station_id":"KRI","distance":0,"i_lat":-6.224515},{"time":3,"is_transit":false,"i_long":106.951283,"station_id":"CUK","distance":3097,"transit":false,"line":0,"i_lat":-6.219053,"station_name":"Cakung"},{"station_id":"KLDB","time":8,"station_name":"Klenderbaru","distance":1385,"line":1,"is_transit":false,"i_long":106.939679,"transit":false,"i_lat":-6.217455},{"i_lat":-6.215568,"distance":1305,"line":0,"station_id":"BUA","station_name":"Buaran","is_transit":false,"transit":false,"i_long":106.922662,"time":1},{"distance":3100,"station_name":"Klender","time":2,"transit":false,"i_lat":-6.2135,"i_long":106.899548,"station_id":"KLD","line":1,"is_transit":false},{"station_id":"JNG","time":3,"transit":true,"is_transit":true,"i_lat":-6.215091,"line":0,"station_name":"Jatinegara","distance":3395,"i_long":106.86807400000001},{"station_name":"Pondok Jati","is_transit":false,"time":2,"transit":false,"i_long":106.861737,"line":11,"station_id":"POK","i_lat":-6.209188,"distance":1236},{"station_id":"KMT","time":2,"i_lat":-6.193792,"i_long":106.855437,"transit":false,"is_transit":false,"distance":1829,"line":11,"station_name":"Kramat"},{"station_name":"Gang Sentiong","time":1,"distance":973,"station_id":"GST","is_transit":false,"transit":false,"i_lat":-6.185975,"line":11,"i_long":106.850107},{"line":11,"is_transit":false,"i_lat":-6.174784,"time":8,"transit":false,"distance":1567,"station_name":"Pasar Senen","station_id":"PSE","i_long":106.84368},{"is_transit":false,"i_long":106.839204,"transit":false,"time":4,"station_id":"KMO","distance":1436,"line":11,"station_name":"Kemayoran","i_lat":-6.161728},{"time":5,"i_lat":-6.14505,"line":11,"station_id":"RJW","transit":false,"is_transit":false,"i_long":106.836569,"station_name":"Rajawali","distance":1901},{"station_id":"KPB","line":0,"time":3,"i_lat":-6.132549,"is_transit":true,"station_name":"Kampung Bandan","i_long":106.826365,"distance":1444,"transit":true},{"station_name":"Angke","time":9,"station_id":"AK","distance":4102,"transit":false,"i_lat":-6.144674,"is_transit":false,"i_long":106.79867,"line":0},{"time":4,"line":1,"is_transit":true,"i_long":106.800832,"station_id":"DU","station_name":"Duri","transit":true,"i_lat":-6.155215,"distance":1230},{"time":8,"transit":false,"i_lat":-6.185545,"is_transit":true,"station_name":"Tanah Abang","line":1,"i_long":106.811091,"distance":3632,"station_id":"THB"},{"is_transit":false,"time":5,"transit":false,"i_lat":-6.20132,"line":1,"station_name":"Karet","i_long":106.816351,"distance":2029,"station_id":"KAT"},{"i_long":106.819881,"time":1,"station_id":"SUDB","line":1,"station_name":"Sudirman Baru","distance":471,"is_transit":false,"i_lat":-6.201433,"transit":false},{"is_transit":false,"station_id":"SUD","transit":false,"i_lat":-6.202263,"i_long":106.822649,"station_name":"Sudirman","time":1,"distance":280,"line":1},{"time":4,"line":0,"distance":3186,"i_lat":-6.209883,"i_long":106.84912,"station_id":"MRI","is_transit":true,"transit":true,"station_name":"Manggarai"},{"time":4,"i_lat":-6.226659,"distance":2610,"station_name":"Tebet","line":2,"station_id":"TEB","i_long":106.857948,"is_transit":false,"transit":false},{"station_id":"CW","station_name":"Cawang","transit":false,"is_transit":false,"time":2,"i_lat":-6.242512,"i_long":106.856607,"line":0,"distance":1230}],[{"station_name":"Kranji","distance":0,"is_transit":false,"i_long":106.977657,"transit":false,"time":0,"station_id":"KRI","i_lat":-6.224515,"line":1},{"line":0,"i_long":106.951283,"is_transit":false,"i_lat":-6.219053,"station_id":"CUK","distance":3097,"transit":false,"station_name":"Cakung","time":3},{"distance":1385,"line":1,"i_lat":-6.217455,"i_long":106.939679,"station_id":"KLDB","time":8,"is_transit":false,"station_name":"Klenderbaru","transit":false},{"time":1,"transit":false,"i_lat":-6.215568,"line":0,"i_long":106.922662,"station_name":"Buaran","station_id":"BUA","is_transit":false,"distance":1305},{"time":2,"line":1,"is_transit":false,"distance":3100,"i_long":106.899548,"station_name":"Klender","station_id":"KLD","i_lat":-6.2135,"transit":false},{"transit":true,"is_transit":true,"i_long":106.86807400000001,"line":0,"i_lat":-6.215091,"station_name":"Jatinegara","time":3,"station_id":"JNG","distance":3395},{"time":2,"is_transit":false,"line":11,"distance":1236,"station_name":"Pondok Jati","station_id":"POK","transit":false,"i_long":106.861737,"i_lat":-6.209188},{"is_transit":false,"station_id":"KMT","time":2,"station_name":"Kramat","i_lat":-6.193792,"line":11,"i_long":106.855437,"transit":false,"distance":1829},{"i_lat":-6.185975,"station_name":"Gang Sentiong","distance":973,"time":1,"station_id":"GST","transit":false,"is_transit":false,"i_long":106.850107,"line":11},{"is_transit":false,"i_lat":-6.174784,"i_long":106.84368,"line":11,"station_name":"Pasar Senen","station_id":"PSE","transit":false,"time":8,"distance":1567},{"time":4,"transit":false,"i_lat":-6.161728,"i_long":106.839204,"is_transit":false,"station_id":"KMO","line":11,"distance":1436,"station_name":"Kemayoran"},{"line":11,"station_id":"RJW","i_long":106.836569,"time":5,"transit":false,"is_transit":false,"station_name":"Rajawali","i_lat":-6.14505,"distance":1901},{"i_lat":-6.132549,"distance":1444,"i_long":106.826365,"station_id":"KPB","station_name":"Kampung Bandan","time":3,"is_transit":true,"line":0,"transit":true},{"station_id":"JAKK","transit":true,"time":3,"line":0,"i_long":106.812439,"distance":1364,"station_name":"Jakarta Kota","is_transit":true,"i_lat":-6.137569},{"distance":1264,"transit":false,"time":4,"i_long":106.820901,"station_name":"Jayakarta","line":7,"i_lat":-6.141205,"is_transit":false,"station_id":"JAY"},{"station_id":"MGB","i_lat":-6.149769,"time":2,"line":2,"is_transit":false,"distance":1080,"i_long":106.82482,"transit":false,"station_name":"Manggabesar"},{"station_name":"Sawah Besar","line":2,"is_transit":false,"time":2,"i_long":106.827103,"transit":false,"station_id":"SW","distance":906,"i_lat":-6.160725},{"is_transit":false,"i_long":106.828284,"transit":false,"station_name":"Juanda","station_id":"JUA","line":2,"i_lat":-6.166716,"time":2,"distance":1149},{"line":2,"i_long":106.832183,"transit":false,"i_lat":-6.186295,"station_name":"Gondangdia","station_id":"GDD","is_transit":false,"time":4,"distance":2015},{"line":0,"time":3,"i_lat":-6.198556,"transit":false,"station_id":"CKI","station_name":"Cikini","distance":1750,"i_long":106.840169,"is_transit":false},{"distance":1590,"line":0,"i_long":106.84912,"is_transit":true,"i_lat":-6.209883,"time":4,"transit":true,"station_name":"Manggarai","station_id":"MRI"},{"distance":2610,"i_lat":-6.226659,"i_long":106.857948,"is_transit":false,"station_id":"TEB","time":4,"line":2,"transit":false,"station_name":"Tebet"},{"i_long":106.856607,"transit":false,"i_lat":-6.242512,"time":2,"line":0,"is_transit":false,"station_id":"CW","station_name":"Cawang","distance":1230}]]}