{"data":[[{"time":0,"line":1,"station_id":"KRI","station_name":"Kranji","is_transit":false,"distance":0,"i_long":106.977657,"i_lat":-6.224515,"transit":false},{"station_id":"CUK","is_transit":false,"i_long":106.951283,"station_name":"Cakung","distance":3097,"i_lat":-6.219053,"transit":false,"line":1,"time":3},{"station_id":"KLDB","distance":1385,"station_name":"Klenderbaru","transit":false,"i_lat":-6.217455,"line":1,"is_transit":false,"time":8,"i_long":106.939679},{"station_name":"Buaran","station_id":"BUA","time":1,"is_transit":false,"i_lat":-6.215568,"distance":1305,"i_long":106.922662,"line":1,"transit":false},{"i_long":106.899548,"i_lat":-6.2135,"transit":false,"station_name":"Klender","station_id":"KLD","is_transit":false,"time":2,"distance":3100,"line":1},{"time":3,"transit":false,"is_transit":false,"distance":3395,"station_id":"JNG","i_lat":-6.215091,"line":1,"i_long":106.86807400000001,"station_name":"Jatinegara"},{"line":1,"distance":1377,"i_lat":-6.212485,"time":2,"transit":false,"station_name":"Matraman","i_long":106.858896,"station_id":"MTR","is_transit":false},{"transit":false,"is_transit":false,"station_id":"MRI","line":2,"i_long":106.84912,"distance":1275,"station_name":"Manggarai","i_lat":-6.209883,"time":2},{"time":4,"i_lat":-6.202263,"line":1,"transit":false,"station_id":"SUD","is_transit":false,"distance":3186,"i_long":106.822649,"station_name":"Sudirman"},{"time":1,"is_transit":false,"i_long":106.819881,"line":1,"transit":false,"station_name":"Sudirman Baru","distance":280,"station_id":"SUDB","i_lat":-6.201433},{"transit":false,"distance":471,"is_transit":false,"station_id":"KAT","i_lat":-6.20132,"line":1,"time":1,"station_name":"Karet","i_long":106.816351},{"distance":2029,"station_name":"Tanah Abang","is_transit":true,"time":5,"i_long":106.811091,"line":1,"station_id":"THB","transit":true,"i_lat":-6.185545},{"is_transit":false,"time":6,"i_lat":-6.207404,"i_long":106.79689,"line":6,"station_name":"Palmerah","transit":false,"station_id":"PLM","distance":3191},{"is_transit":false,"i_long":106.780334,"transit":false,"station_name":"Kebayoran","distance":3737,"i_lat":-6.237242,"station_id":"KBY","time":7,"line":6},{"i_long":106.74273,"station_name":"Pondokranji","i_lat":-6.276362,"time":8,"line":6,"is_transit":false,"station_id":"PDJ","transit":false,"distance":6218},{"station_name":"Jurangmangu","is_transit":false,"station_id":"JMU","distance":2179,"i_long":106.728916,"line":6,"time":3,"i_lat":-6.288927,"transit":false},{"distance":1994,"i_lat":-6.296963,"station_name":"Sudimara","i_long":106.712277,"line":6,"is_transit":false,"transit":false,"station_id":"SDM","time":4},{"line":6,"is_transit":false,"distance":4566,"station_name":"Rawa Buntu","i_lat":-6.314823,"transit":false,"station_id":"RU","time":6,"i_long":106.675475},{"line":6,"time":4,"is_transit":false,"station_name":"Serpong","distance":2413,"transit":false,"station_id":"SRP","i_lat":-6.319871,"i_long":106.66566}],[{"i_long":106.977657,"line":1,"station_id":"KRI","station_name":"Kranji","time":0,"transit":false,"is_transit":false,"distance":0,"i_lat":-6.224515},{"transit":false,"station_id":"CUK","is_transit":false,"station_name":"Cakung","i_long":106.951283,"distance":3097,"line":1,"time":3,"i_lat":-6.219053},{"line":1,"station_name":"Klenderbaru","is_transit":false,"distance":1385,"transit":false,"time":8,"i_lat":-6.217455,"i_long":106.939679,"station_id":"KLDB"},{"station_id":"BUA","station_name":"Buaran","distance":1305,"time":1,"is_transit":false,"i_lat":-6.215568,"i_long":106.922662,"line":1,"transit":false},{"i_lat":-6.2135,"line":1,"station_id":"KLD","station_name":"Klender","is_transit":false,"distance":3100,"transit":false,"time":2,"i_long":106.899548},{"station_name":"Jatinegara","i_lat":-6.215091,"is_transit":true,"line":1,"time":3,"transit":true,"station_id":"JNG","i_long":106.86807400000001,"distance":3395},{"line":11,"is_transit":false,"station_id":"POK","time":2,"distance":1236,"transit":false,"station_name":"Pondok Jati","i_lat":-6.209188,"i_long":106.861737},{"time":2,"i_long":106.855437,"transit":false,"is_transit":false,"line":11,"station_name":"Kramat","i_lat":-6.193792,"station_id":"KMT","distance":1829},{"station_name":"Gang Sentiong","distance":973,"i_lat":-6.185975,"station_id":"GST","is_transit":false,"time":1,"i_long":106.850107,"line":11,"transit":false},{"distance":1567,"is_transit":false,"i_long":106.84368,"line":11,"time":8,"i_lat":-6.174784,"station_id":"PSE","station_name":"Pasar Senen","transit":false},{"is_transit":false,"transit":false,"station_name":"Kemayoran","station_id":"KMO","i_lat":-6.161728,"i_long":106.839204,"time":4,"line":11,"distance":1436},{"i_long":106.836569,"station_name":"Rajawali","time":5,"is_transit":false,"transit":false,"line":11,"distance":1901,"station_id":"RJW","i_lat":-6.14505},{"i_lat":-6.132549,"i_long":106.826365,"station_name":"Kampung Bandan","distance":1444,"transit":true,"line":4,"is_transit":true,"station_id":"KPB","time":3},{"transit":false,"station_id":"AK","i_long":106.79867,"station_name":"Angke","is_transit":false,"line":1,"i_lat":-6.144674,"time":9,"distance":4102},{"station_id":"DU","time":4,"is_transit":false,"i_lat":-6.155215,"line":1,"station_name":"Duri","i_long":106.800832,"transit":false,"distance":1230},{"is_transit":true,"distance":3632,"transit":true,"line":1,"i_lat":-6.185545,"station_name":"Tanah Abang","station_id":"THB","i_long":106.811091,"time":8},{"is_transit":false,"time":6,"distance":3191,"transit":false,"i_long":106.79689,"station_id":"PLM","i_lat":-6.207404,"station_name":"Palmerah","line":6},{"station_id":"KBY","transit":false,"i_long":106.780334,"station_name":"Kebayoran","distance":3737,"time":7,"i_lat":-6.237242,"line":6,"is_transit":false},{"line":6,"time":8,"is_transit":false,"transit":false,"i_lat":-6.276362,"distance":6218,"i_long":106.74273,"station_id":"PDJ","station_name":"Pondokranji"},{"is_transit":false,"distance":2179,"line":6,"transit":false,"i_long":106.728916,"time":3,"i_lat":-6.288927,"station_id":"JMU","station_name":"Jurangmangu"},{"i_long":106.712277,"i_lat":-6.296963,"station_id":"SDM","station_name":"Sudimara","distance":1994,"is_transit":false,"line":6,"transit":false,"time":4},{"time":6,"transit":false,"station_name":"Rawa Buntu","is_transit":false,"i_lat":-6.314823,"i_long":106.675475,"line":6,"distance":4566,"station_id":"RU"},{"station_name":"Serpong","time":4,"i_long":106.66566,"line":6,"i_lat":-6.319871,"transit":false,"is_transit":false,"distance":2413,"station_id":"SRP"}],[{"station_name":"Kranji","i_lat":-6.224515,"distance":0,"line":1,"station_id":"KRI","time":0,"i_long":106.977657,"is_transit":false,"transit":false},{"i_long":106.951283,"station_id":"CUK","is_transit":false,"station_name":"Cakung","line":1,"transit":false,"time":3,"distance":3097,"i_lat":-6.219053},{"is_transit":false,"station_name":"Klenderbaru","i_lat":-6.217455,"i_long":106.939679,"transit":false,"distance":1385,"line":1,"station_id":"KLDB","time":8},{"time":1,"station_name":"Buaran","i_lat":-6.215568,"station_id":"BUA","transit":false,"is_transit":false,"i_long":106.922662,"distance":1305,"line":1},{"station_name":"Klender","distance":3100,"is_transit":false,"i_lat":-6.2135,"station_id":"KLD","line":1,"i_long":106.899548,"time":2,"transit":false},{"station_name":"Jatinegara","time":3,"distance":3395,"i_lat":-6.215091,"transit":false,"station_id":"JNG","line":1,"is_transit":false,"i_long":106.86807400000001},{"transit":false,"station_name":"Matraman","distance":1377,"station_id":"MTR","is_transit":false,"line":1,"time":2,"i_lat":-6.212485,"i_long":106.858896},{"time":2,"distance":1275,"line":2,"station_id":"MRI","i_lat":-6.209883,"i_long":106.84912,"is_transit":true,"station_name":"Manggarai","transit":true},{"line":2,"time":4,"distance":1590,"i_lat":-6.198556,"transit":false,"station_name":"Cikini","station_id":"CKI","is_transit":false,"i_long":106.840169},{"transit":false,"station_name":"Gondangdia","station_id":"GDD","is_transit":false,"distance":1750,"i_lat":-6.186295,"i_long":106.832183,"time":3,"line":2},{"i_long":106.828284,"transit":false,"station_name":"Juanda","i_lat":-6.166716,"line":2,"is_transit":false,"station_id":"JUA","time":4,"distance":2015},{"i_long":106.827103,"station_name":"Sawah Besar","transit":false,"i_lat":-6.160725,"time":2,"distance":1149,"station_id":"SW","line":2,"is_transit":false},{"station_name":"Manggabesar","is_transit":false,"time":2,"distance":906,"line":2,"i_lat":-6.149769,"transit":false,"i_long":106.82482,"station_id":"MGB"},{"station_id":"JAY","station_name":"Jayakarta","i_long":106.820901,"i_lat":-6.141205,"time":2,"is_transit":false,"transit":false,"distance":1080,"line":2},{"transit":true,"station_id":"JAKK","is_transit":true,"distance":1264,"i_long":106.812439,"station_name":"Jakarta Kota","i_lat":-6.137569,"line":2,"time":4},{"is_transit":true,"i_long":106.826365,"line":4,"station_name":"Kampung Bandan","transit":true,"station_id":"KPB","time":3,"i_lat":-6.132549,"distance":1364},{"line":1,"station_id":"AK","is_transit":false,"time":9,"distance":4102,"i_lat":-6.144674,"transit":false,"i_long":106.79867,"station_name":"Angke"},{"i_long":106.800832,"time":4,"line":1,"station_id":"DU","distance":1230,"station_name":"Duri","transit":false,"i_lat":-6.155215,"is_transit":false},{"is_transit":true,"transit":true,"station_name":"Tanah Abang","i_lat":-6.185545,"station_id":"THB","distance":3632,"i_long":106.811091,"line":1,"time":8},{"is_transit":false,"station_name":"Palmerah","station_id":"PLM","time":6,"distance":3191,"i_long":106.79689,"i_lat":-6.207404,"line":6,"transit":false},{"time":7,"is_transit":false,"station_id":"KBY","i_lat":-6.237242,"transit":false,"station_name":"Kebayoran","distance":3737,"i_long":106.780334,"line":6},{"transit":false,"distance":6218,"i_long":106.74273,"station_name":"Pondokranji","is_transit":false,"time":8,"i_lat":-6.276362,"line":6,"station_id":"PDJ"},{"station_id":"JMU","time":3,"line":6,"distance":2179,"station_name":"Jurangmangu","transit":false,"i_lat":-6.288927,"is_transit":false,"i_long":106.728916},{"is_transit":false,"station_name":"Sudimara","distance":1994,"i_lat":-6.296963,"i_long":106.712277,"line":6,"transit":false,"time":4,"station_id":"SDM"},{"transit":false,"time":6,"station_name":"Rawa Buntu","i_long":106.675475,"i_lat":-6.314823,"station_id":"RU","line":6,"is_transit":false,"distance":4566},{"line":6,"is_transit":false,"time":4,"i_lat":-6.319871,"distance":2413,"i_long":106.66566,"transit":false,"station_name":"Serpong","station_id":"SRP"}],[{"is_transit":false,"line":1,"station_id":"KRI","time":0,"i_long":106.977657,"station_name":"Kranji","transit":false,"distance":0,"i_lat":-6.224515},{"i_long":106.951283,"distance":3097,"i_lat":-6.219053,"transit":false,"station_id":"CUK","is_transit":false,"station_name":"Cakung","time":3,"line":1},{"time":8,"station_id":"KLDB","is_transit":false,"i_lat":-6.217455,"transit":false,"distance":1385,"i_long":106.939679,"line":1,"station_name":"Klenderbaru"},{"transit":false,"is_transit":false,"time":1,"i_long":106.922662,"line":1,"station_name":"Buaran","distance":1305,"station_id":"BUA","i_lat":-6.215568},{"is_transit":false,"station_id":"KLD","time":2,"i_long":106.899548,"line":1,"station_name":"Klender","distance":3100,"transit":false,"i_lat":-6.2135},{"i_long":106.86807400000001,"station_id":"JNG","line":1,"distance":3395,"transit":true,"station_name":"Jatinegara","time":3,"is_transit":true,"i_lat":-6.215091},{"time":2,"is_transit":false,"i_long":106.861737,"line":11,"station_id":"POK","i_lat":-6.209188,"distance":1236,"transit":false,"station_name":"Pondok Jati"},{"station_name":"Kramat","i_long":106.855437,"station_id":"KMT","line":11,"transit":false,"is_transit":false,"time":2,"distance":1829,"i_lat":-6.193792},{"transit":false,"station_name":"Gang Sentiong","station_id":"GST","is_transit":false,"i_lat":-6.185975,"i_long":106.850107,"distance":973,"time":1,"line":11},{"station_name":"Pasar Senen","station_id":"PSE","is_transit":false,"time":8,"i_lat":-6.174784,"i_long":106.84368,"distance":1567,"transit":false,"line":11},{"is_transit":false,"distance":1436,"station_id":"KMO","i_long":106.839204,"line":11,"time":4,"i_lat":-6.161728,"transit":false,"station_name":"Kemayoran"},{"station_id":"RJW","station_name":"Rajawali","is_transit":false,"i_long":106.836569,"line":11,"distance":1901,"transit":false,"time":5,"i_lat":-6.14505},{"line":4,"i_long":106.826365,"transit":true,"station_name":"Kampung Bandan","time":3,"is_transit":true,"distance":1444,"i_lat":-6.132549,"station_id":"KPB"},{"station_name":"Jakarta Kota","time":3,"i_long":106.812439,"i_lat":-6.137569,"line":2,"station_id":"JAKK","is_transit":true,"transit":true,"distance":1364},{"distance":1264,"time":4,"line":2,"transit":false,"is_transit":false,"i_lat":-6.141205,"station_name":"Jayakarta","i_long":106.820901,"station_id":"JAY"},{"station_name":"Manggabesar","is_transit":false,"i_long":106.82482,"distance":1080,"line":2,"transit":false,"i_lat":-6.149769,"station_id":"MGB","time":2},{"station_name":"Sawah Besar","station_id":"SW","line":2,"i_long":106.827103,"transit":false,"time":2,"distance":906,"is_transit":false,"i_lat":-6.160725},{"line":2,"time":2,"station_name":"Juanda","transit":false,"distance":1149,"i_lat":-6.166716,"station_id":"JUA","is_transit":false,"i_long":106.828284},{"station_name":"Gondangdia","i_lat":-6.186295,"line":2,"distance":2015,"is_transit":false,"station_id":"GDD","time":4,"transit":false,"i_long":106.832183},{"station_id":"CKI","distance":1750,"is_transit":false,"transit":false,"line":2,"i_long":106.840169,"station_name":"Cikini","i_lat":-6.198556,"time":3},{"station_name":"Manggarai","station_id":"MRI","i_lat":-6.209883,"distance":1590,"transit":true,"is_transit":true,"time":4,"i_long":106.84912,"line":2},{"distance":3186,"i_lat":-6.202263,"station_id":"SUD","is_transit":false,"time":4,"line":1,"station_name":"Sudirman","i_long":106.822649,"transit":false},{"time":1,"transit":false,"station_id":"SUDB","station_name":"Sudirman Baru","is_transit":false,"i_lat":-6.201433,"distance":280,"line":1,"i_long":106.819881},{"time":1,"distance":471,"station_name":"Karet","i_lat":-6.20132,"station_id":"KAT","i_long":106.816351,"line":1,"transit":false,"is_transit":false},{"transit":true,"station_name":"Tanah Abang","i_long":106.811091,"time":5,"distance":2029,"station_id":"THB","i_lat":-6.185545,"is_transit":true,"line":1},{"distance":3191,"time":6,"i_lat":-6.207404,"i_long":106.79689,"is_transit":false,"station_name":"Palmerah","line":6,"station_id":"PLM","transit":false},{"time":7,"i_lat":-6.237242,"is_transit":false,"station_id":"KBY","line":6,"distance":3737,"i_long":106.780334,"transit":false,"station_name":"Kebayoran"},{"time":8,"station_id":"PDJ","transit":false,"i_long":106.74273,"line":6,"i_lat":-6.276362,"station_name":"Pondokranji","is_transit":false,"distance":6218},{"line":6,"time":3,"station_name":"Jurangmangu","i_long":106.728916,"station_id":"JMU","transit":false,"is_transit":false,"distance":2179,"i_lat":-6.288927},{"transit":false,"time":4,"station_name":"Sudimara","distance":1994,"i_long":106.712277,"is_transit":false,"i_lat":-6.296963,"line":6,"station_id":"SDM"},{"station_id":"RU","line":6,"i_long":106.675475,"time":6,"is_transit":false,"i_lat":-6.314823,"station_name":"Rawa Buntu","distance":4566,"transit":false},{"i_lat":-6.319871,"station_id":"SRP","i_long":106.66566,"line":6,"distance":2413,"station_name":"Serpong","transit":false,"time":4,"is_transit":false}]]}