{"data":[[{"station_name":"Kranji","line":1,"station_id":"KRI","is_transit":false,"transit":false,"distance":0,"time":0,"i_long":106.977657,"i_lat":-6.224515},{"distance":3097,"i_lat":-6.219053,"i_long":106.951283,"is_transit":false,"transit":false,"station_id":"CUK","station_name":"Cakung","time":3,"line":1},{"i_lat":-6.217455,"i_long":106.939679,"time":8,"is_transit":false,"distance":1385,"line":1,"station_name":"Klenderbaru","transit":false,"station_id":"KLDB"},{"station_name":"Buaran","distance":1305,"station_id":"BUA","i_long":106.922662,"time":1,"line":1,"is_transit":false,"i_lat":-6.215568,"transit":false},{"line":1,"station_id":"KLD","time":2,"i_long":106.899548,"distance":3100,"i_lat":-6.2135,"station_name":"Klender","is_transit":false,"transit":false},{"distance":3395,"transit":false,"station_id":"JNG","time":3,"i_lat":-6.215091,"i_long":106.86807400000001,"line":1,"station_name":"Jatinegara","is_transit":false},{"transit":false,"time":2,"is_transit":false,"station_id":"MTR","distance":1377,"station_name":"Matraman","line":1,"i_lat":-6.212485,"i_long":106.858896},{"i_lat":-6.209883,"station_id":"MRI","station_name":"Manggarai","distance":1275,"i_long":106.84912,"transit":false,"line":2,"time":2,"is_transit":false},{"distance":3186,"i_long":106.822649,"i_lat":-6.202263,"is_transit":false,"station_id":"SUD","transit":false,"line":1,"time":4,"station_name":"Sudirman"},{"is_transit":false,"station_id":"SUDB","time":1,"transit":false,"distance":280,"i_lat":-6.201433,"i_long":106.819881,"station_name":"Sudirman Baru","line":1},{"station_id":"KAT","station_name":"Karet","is_transit":false,"line":1,"transit":false,"time":1,"distance":471,"i_lat":-6.20132,"i_long":106.816351},{"i_lat":-6.185545,"station_name":"Tanah Abang","i_long":106.811091,"station_id":"THB","distance":2029,"is_transit":true,"time":5,"line":1,"transit":true},{"is_transit":false,"time":6,"station_name":"Palmerah","i_long":106.79689,"line":6,"transit":false,"i_lat":-6.207404,"station_id":"PLM","distance":3191},{"transit":false,"distance":3737,"i_lat":-6.237242,"station_id":"KBY","is_transit":false,"station_name":"Kebayoran","line":6,"time":7,"i_long":106.780334}],[{"transit":false,"is_transit":false,"station_name":"Kranji","time":0,"i_lat":-6.224515,"i_long":106.977657,"station_id":"KRI","line":1,"distance":0},{"is_transit":false,"i_lat":-6.219053,"station_name":"Cakung","distance":3097,"line":1,"transit":false,"time":3,"i_long":106.951283,"station_id":"CUK"},{"is_transit":false,"station_id":"KLDB","i_lat":-6.217455,"transit":false,"distance":1385,"station_name":"Klenderbaru","i_long":106.939679,"time":8,"line":1},{"line":1,"time":1,"station_id":"BUA","i_lat":-6.215568,"is_transit":false,"i_long":106.922662,"station_name":"Buaran","transit":false,"distance":1305},{"transit":false,"i_long":106.899548,"station_name":"Klender","distance":3100,"i_lat":-6.2135,"time":2,"line":1,"is_transit":false,"station_id":"KLD"},{"i_lat":-6.215091,"is_transit":true,"line":1,"transit":true,"distance":3395,"i_long":106.86807400000001,"station_id":"JNG","station_name":"Jatinegara","time":3},{"is_transit":false,"transit":false,"station_id":"POK","time":2,"i_long":106.861737,"line":11,"distance":1236,"i_lat":-6.209188,"station_name":"Pondok Jati"},{"time":2,"station_id":"KMT","i_lat":-6.193792,"station_name":"Kramat","line":11,"transit":false,"is_transit":false,"distance":1829,"i_long":106.855437},{"is_transit":false,"station_name":"Gang Sentiong","transit":false,"time":1,"distance":973,"station_id":"GST","i_lat":-6.185975,"i_long":106.850107,"line":11},{"station_id":"PSE","i_lat":-6.174784,"is_transit":false,"transit":false,"distance":1567,"line":11,"station_name":"Pasar Senen","i_long":106.84368,"time":8},{"station_name":"Kemayoran","distance":1436,"i_lat":-6.161728,"station_id":"KMO","is_transit":false,"i_long":106.839204,"line":11,"time":4,"transit":false},{"i_lat":-6.14505,"station_name":"Rajawali","station_id":"RJW","distance":1901,"line":11,"transit":false,"time":5,"i_long":106.836569,"is_transit":false},{"i_lat":-6.132549,"station_id":"KPB","transit":true,"line":4,"is_transit":true,"station_name":"Kampung Bandan","distance":1444,"time":3,"i_long":106.826365},{"distance":4102,"is_transit":false,"i_lat":-6.144674,"station_id":"AK","line":1,"transit":false,"i_long":106.79867,"time":9,"station_name":"Angke"},{"i_long":106.800832,"station_id":"DU","line":1,"i_lat":-6.155215,"distance":1230,"transit":false,"is_transit":false,"time":4,"station_name":"Duri"},{"line":1,"station_id":"THB","station_name":"Tanah Abang","time":8,"transit":true,"is_transit":true,"distance":3632,"i_lat":-6.185545,"i_long":106.811091},{"time":6,"station_id":"PLM","distance":3191,"transit":false,"station_name":"Palmerah","i_long":106.79689,"line":6,"is_transit":false,"i_lat":-6.207404},{"i_long":106.780334,"is_transit":false,"station_id":"KBY","time":7,"i_lat":-6.237242,"station_name":"Kebayoran","transit":false,"distance":3737,"line":6}],[{"line":1,"i_long":106.977657,"i_lat":-6.224515,"time":0,"transit":false,"is_transit":false,"distance":0,"station_id":"KRI","station_name":"Kranji"},{"is_transit":false,"transit":false,"time":3,"line":1,"distance":3097,"i_long":106.951283,"station_id":"CUK","i_lat":-6.219053,"station_name":"Cakung"},{"station_id":"KLDB","time":8,"i_long":106.939679,"line":1,"transit":false,"station_name":"Klenderbaru","i_lat":-6.217455,"is_transit":false,"distance":1385},{"distance":1305,"transit":false,"i_long":106.922662,"is_transit":false,"i_lat":-6.215568,"line":1,"station_id":"BUA","time":1,"station_name":"Buaran"},{"is_transit":false,"station_name":"Klender","distance":3100,"station_id":"KLD","time":2,"line":1,"i_lat":-6.2135,"i_long":106.899548,"transit":false},{"transit":false,"distance":3395,"station_id":"JNG","line":1,"i_lat":-6.215091,"time":3,"station_name":"Jatinegara","i_long":106.86807400000001,"is_transit":false},{"station_name":"Matraman","time":2,"distance":1377,"i_lat":-6.212485,"i_long":106.858896,"is_transit":false,"transit":false,"station_id":"MTR","line":1},{"time":2,"distance":1275,"station_id":"MRI","is_transit":true,"station_name":"Manggarai","i_long":106.84912,"i_lat":-6.209883,"line":2,"transit":true},{"station_id":"CKI","i_lat":-6.198556,"i_long":106.840169,"time":4,"station_name":"Cikini","transit":false,"line":2,"distance":1590,"is_transit":false},{"transit":false,"station_id":"GDD","station_name":"Gondangdia","distance":1750,"i_lat":-6.186295,"is_transit":false,"i_long":106.832183,"time":3,"line":2},{"time":4,"line":2,"transit":false,"station_name":"Juanda","distance":2015,"i_lat":-6.166716,"is_transit":false,"i_long":106.828284,"station_id":"JUA"},{"i_lat":-6.160725,"is_transit":false,"time":2,"distance":1149,"line":2,"station_name":"Sawah Besar","station_id":"SW","i_long":106.827103,"transit":false},{"station_id":"MGB","time":2,"i_lat":-6.149769,"i_long":106.82482,"station_name":"Manggabesar","transit":false,"is_transit":false,"distance":906,"line":2},{"station_name":"Jayakarta","distance":1080,"i_lat":-6.141205,"time":2,"transit":false,"i_long":106.820901,"line":2,"is_transit":false,"station_id":"JAY"},{"transit":true,"time":4,"i_lat":-6.137569,"is_transit":true,"station_id":"JAKK","station_name":"Jakarta Kota","i_long":106.812439,"line":2,"distance":1264},{"station_id":"KPB","i_long":106.826365,"i_lat":-6.132549,"transit":true,"time":3,"distance":1364,"line":4,"station_name":"Kampung Bandan","is_transit":true},{"time":9,"i_lat":-6.144674,"distance":4102,"station_id":"AK","i_long":106.79867,"station_name":"Angke","transit":false,"is_transit":false,"line":1},{"i_long":106.800832,"transit":false,"station_id":"DU","is_transit":false,"distance":1230,"station_name":"Duri","i_lat":-6.155215,"line":1,"time":4},{"line":1,"station_name":"Tanah Abang","is_transit":true,"i_lat":-6.185545,"time":8,"transit":true,"station_id":"THB","distance":3632,"i_long":106.811091},{"station_name":"Palmerah","is_transit":false,"time":6,"distance":3191,"i_long":106.79689,"transit":false,"line":6,"i_lat":-6.207404,"station_id":"PLM"},{"station_id":"KBY","i_lat":-6.237242,"transit":false,"station_name":"Kebayoran","time":7,"distance":3737,"line":6,"i_long":106.780334,"is_transit":false}],[{"transit":false,"line":1,"is_transit":false,"station_name":"Kranji","station_id":"KRI","time":0,"distance":0,"i_lat":-6.224515,"i_long":106.977657},{"station_id":"CUK","time":3,"distance":3097,"i_long":106.951283,"is_transit":false,"i_lat":-6.219053,"station_name":"Cakung","transit":false,"line":1},{"i_long":106.939679,"distance":1385,"line":1,"i_lat":-6.217455,"station_id":"KLDB","time":8,"is_transit":false,"transit":false,"station_name":"Klenderbaru"},{"station_name":"Buaran","line":1,"time":1,"distance":1305,"transit":false,"station_id":"BUA","is_transit":false,"i_long":106.922662,"i_lat":-6.215568},{"i_long":106.899548,"transit":false,"station_id":"KLD","time":2,"line":1,"is_transit":false,"distance":3100,"i_lat":-6.2135,"station_name":"Klender"},{"distance":3395,"time":3,"i_long":106.86807400000001,"line":1,"transit":true,"station_id":"JNG","station_name":"Jatinegara","i_lat":-6.215091,"is_transit":true},{"is_transit":false,"i_long":106.861737,"line":11,"time":2,"transit":false,"station_name":"Pondok Jati","i_lat":-6.209188,"distance":1236,"station_id":"POK"},{"transit":false,"time":2,"distance":1829,"is_transit":false,"i_long":106.855437,"station_id":"KMT","line":11,"station_name":"Kramat","i_lat":-6.193792},{"i_long":106.850107,"line":11,"i_lat":-6.185975,"station_name":"Gang Sentiong","distance":973,"station_id":"GST","transit":false,"is_transit":false,"time":1},{"time":8,"i_long":106.84368,"is_transit":false,"line":11,"station_id":"PSE","i_lat":-6.174784,"transit":false,"station_name":"Pasar Senen","distance":1567},{"i_lat":-6.161728,"station_name":"Kemayoran","transit":false,"is_transit":false,"distance":1436,"station_id":"KMO","time":4,"i_long":106.839204,"line":11},{"is_transit":false,"i_lat":-6.14505,"line":11,"time":5,"station_name":"Rajawali","distance":1901,"station_id":"RJW","transit":false,"i_long":106.836569},{"i_long":106.826365,"time":3,"is_transit":true,"transit":true,"i_lat":-6.132549,"station_id":"KPB","line":4,"station_name":"Kampung Bandan","distance":1444},{"line":2,"i_long":106.812439,"station_name":"Jakarta Kota","distance":1364,"transit":true,"station_id":"JAKK","i_lat":-6.137569,"is_transit":true,"time":3},{"is_transit":false,"transit":false,"time":4,"line":2,"station_name":"Jayakarta","station_id":"JAY","i_lat":-6.141205,"distance":1264,"i_long":106.820901},{"line":2,"transit":false,"i_long":106.82482,"time":2,"distance":1080,"i_lat":-6.149769,"station_id":"MGB","is_transit":false,"station_name":"Manggabesar"},{"station_name":"Sawah Besar","line":2,"time":2,"is_transit":false,"station_id":"SW","transit":false,"distance":906,"i_long":106.827103,"i_lat":-6.160725},{"station_id":"JUA","station_name":"Juanda","time":2,"i_lat":-6.166716,"line":2,"transit":false,"distance":1149,"i_long":106.828284,"is_transit":false},{"station_id":"GDD","is_transit":false,"station_name":"Gondangdia","i_lat":-6.186295,"time":4,"distance":2015,"i_long":106.832183,"line":2,"transit":false},{"transit":false,"station_id":"CKI","i_long":106.840169,"line":2,"is_transit":false,"time":3,"station_name":"Cikini","i_lat":-6.198556,"distance":1750},{"distance":1590,"i_long":106.84912,"line":2,"station_id":"MRI","is_transit":true,"time":4,"i_lat":-6.209883,"station_name":"Manggarai","transit":true},{"distance":3186,"station_name":"Sudirman","line":1,"i_long":106.822649,"transit":false,"station_id":"SUD","time":4,"is_transit":false,"i_lat":-6.202263},{"time":1,"station_id":"SUDB","station_name":"Sudirman Baru","i_long":106.819881,"distance":280,"transit":false,"is_transit":false,"line":1,"i_lat":-6.201433},{"i_lat":-6.20132,"is_transit":false,"i_long":106.816351,"station_id":"KAT","time":1,"transit":false,"station_name":"Karet","distance":471,"line":1},{"station_name":"Tanah Abang","line":1,"station_id":"THB","time":5,"distance":2029,"is_transit":true,"i_lat":-6.185545,"transit":true,"i_long":106.811091},{"distance":3191,"station_id":"PLM","transit":false,"is_transit":false,"i_lat":-6.207404,"time":6,"station_name":"Palmerah","line":6,"i_long":106.79689},{"distance":3737,"station_id":"KBY","i_long":106.780334,"line":6,"i_lat":-6.237242,"station_name":"Kebayoran","transit":false,"is_transit":false,"time":7}]]}