{"data":[[{"time":0,"distance":0,"station_name":"Kranji","is_transit":false,"i_long":106.977657,"line":1,"i_lat":-6.224515,"transit":false,"station_id":"KRI"},{"station_name":"Cakung","transit":false,"distance":3097,"i_lat":-6.219053,"is_transit":false,"station_id":"CUK","time":3,"i_long":106.951283,"line":1},{"distance":1385,"station_id":"KLDB","transit":false,"station_name":"Klenderbaru","i_long":106.939679,"line":1,"i_lat":-6.217455,"is_transit":false,"time":8},{"transit":false,"i_long":106.922662,"i_lat":-6.215568,"line":1,"time":1,"distance":1305,"station_name":"Buaran","station_id":"BUA","is_transit":false},{"station_name":"Klender","station_id":"KLD","is_transit":false,"time":2,"i_lat":-6.2135,"i_long":106.899548,"line":1,"distance":3100,"transit":false},{"i_lat":-6.215091,"i_long":106.86807400000001,"station_name":"Jatinegara","transit":false,"line":1,"time":3,"station_id":"JNG","is_transit":false,"distance":3395},{"station_name":"Matraman","line":1,"i_lat":-6.212485,"station_id":"MTR","time":2,"is_transit":false,"i_long":106.858896,"distance":1377,"transit":false},{"time":2,"distance":1275,"station_name":"Manggarai","transit":false,"station_id":"MRI","is_transit":false,"line":2,"i_lat":-6.209883,"i_long":106.84912},{"i_long":106.822649,"distance":3186,"time":4,"station_id":"SUD","transit":false,"line":1,"is_transit":false,"station_name":"Sudirman","i_lat":-6.202263},{"i_long":106.819881,"transit":false,"station_id":"SUDB","distance":280,"i_lat":-6.201433,"is_transit":false,"time":1,"station_name":"Sudirman Baru","line":1},{"line":1,"transit":false,"is_transit":false,"station_id":"KAT","i_lat":-6.20132,"time":1,"distance":471,"station_name":"Karet","i_long":106.816351},{"station_id":"THB","i_long":106.811091,"is_transit":true,"line":1,"time":5,"distance":2029,"station_name":"Tanah Abang","transit":true,"i_lat":-6.185545},{"i_long":106.79689,"distance":3191,"station_id":"PLM","is_transit":false,"i_lat":-6.207404,"time":6,"transit":false,"line":6,"station_name":"Palmerah"},{"i_lat":-6.237242,"i_long":106.780334,"line":6,"distance":3737,"station_id":"KBY","time":7,"transit":false,"is_transit":false,"station_name":"Kebayoran"},{"i_long":106.74273,"station_id":"PDJ","distance":6218,"transit":false,"line":6,"station_name":"Pondokranji","time":8,"is_transit":false,"i_lat":-6.276362}],[{"distance":0,"station_id":"KRI","transit":false,"time":0,"i_lat":-6.224515,"i_long":106.977657,"station_name":"Kranji","is_transit":false,"line":1},{"station_name":"Cakung","line":1,"i_lat":-6.219053,"i_long":106.951283,"is_transit":false,"transit":false,"distance":3097,"time":3,"station_id":"CUK"},{"is_transit":false,"station_name":"Klenderbaru","i_long":106.939679,"transit":false,"distance":1385,"time":8,"line":1,"station_id":"KLDB","i_lat":-6.217455},{"i_long":106.922662,"station_name":"Buaran","is_transit":false,"line":1,"i_lat":-6.215568,"distance":1305,"time":1,"transit":false,"station_id":"BUA"},{"station_name":"Klender","i_long":106.899548,"transit":false,"time":2,"distance":3100,"station_id":"KLD","is_transit":false,"i_lat":-6.2135,"line":1},{"line":1,"station_id":"JNG","i_lat":-6.215091,"distance":3395,"i_long":106.86807400000001,"is_transit":true,"transit":true,"time":3,"station_name":"Jatinegara"},{"is_transit":false,"distance":1236,"line":11,"i_long":106.861737,"time":2,"transit":false,"station_id":"POK","i_lat":-6.209188,"station_name":"Pondok Jati"},{"distance":1829,"time":2,"line":11,"i_long":106.855437,"i_lat":-6.193792,"is_transit":false,"station_name":"Kramat","station_id":"KMT","transit":false},{"time":1,"distance":973,"station_name":"Gang Sentiong","station_id":"GST","is_transit":false,"transit":false,"i_long":106.850107,"line":11,"i_lat":-6.185975},{"distance":1567,"i_lat":-6.174784,"transit":false,"station_name":"Pasar Senen","line":11,"time":8,"i_long":106.84368,"station_id":"PSE","is_transit":false},{"station_id":"KMO","i_long":106.839204,"station_name":"Kemayoran","is_transit":false,"time":4,"distance":1436,"line":11,"i_lat":-6.161728,"transit":false},{"station_id":"RJW","transit":false,"i_lat":-6.14505,"distance":1901,"line":11,"is_transit":false,"i_long":106.836569,"station_name":"Rajawali","time":5},{"i_long":106.826365,"line":4,"time":3,"station_name":"Kampung Bandan","i_lat":-6.132549,"transit":true,"distance":1444,"station_id":"KPB","is_transit":true},{"i_lat":-6.144674,"distance":4102,"i_long":106.79867,"station_name":"Angke","line":1,"time":9,"station_id":"AK","transit":false,"is_transit":false},{"time":4,"station_name":"Duri","station_id":"DU","distance":1230,"is_transit":false,"i_lat":-6.155215,"i_long":106.800832,"line":1,"transit":false},{"station_id":"THB","i_long":106.811091,"line":1,"station_name":"Tanah Abang","i_lat":-6.185545,"time":8,"transit":true,"distance":3632,"is_transit":true},{"distance":3191,"transit":false,"i_lat":-6.207404,"i_long":106.79689,"station_name":"Palmerah","station_id":"PLM","is_transit":false,"time":6,"line":6},{"distance":3737,"i_long":106.780334,"transit":false,"station_id":"KBY","is_transit":false,"station_name":"Kebayoran","i_lat":-6.237242,"time":7,"line":6},{"transit":false,"is_transit":false,"i_lat":-6.276362,"time":8,"station_id":"PDJ","distance":6218,"i_long":106.74273,"station_name":"Pondokranji","line":6}],[{"i_long":106.977657,"is_transit":false,"station_name":"Kranji","distance":0,"i_lat":-6.224515,"station_id":"KRI","line":1,"time":0,"transit":false},{"i_lat":-6.219053,"distance":3097,"transit":false,"station_id":"CUK","station_name":"Cakung","line":1,"time":3,"i_long":106.951283,"is_transit":false},{"line":1,"station_name":"Klenderbaru","i_lat":-6.217455,"distance":1385,"time":8,"station_id":"KLDB","i_long":106.939679,"transit":false,"is_transit":false},{"is_transit":false,"i_lat":-6.215568,"station_id":"BUA","time":1,"i_long":106.922662,"distance":1305,"transit":false,"line":1,"station_name":"Buaran"},{"i_lat":-6.2135,"time":2,"i_long":106.899548,"is_transit":false,"station_name":"Klender","station_id":"KLD","transit":false,"line":1,"distance":3100},{"i_long":106.86807400000001,"i_lat":-6.215091,"distance":3395,"transit":false,"is_transit":false,"time":3,"station_id":"JNG","line":1,"station_name":"Jatinegara"},{"station_id":"MTR","line":1,"i_lat":-6.212485,"distance":1377,"station_name":"Matraman","i_long":106.858896,"is_transit":false,"transit":false,"time":2},{"time":2,"transit":true,"station_name":"Manggarai","i_lat":-6.209883,"distance":1275,"is_transit":true,"i_long":106.84912,"line":2,"station_id":"MRI"},{"i_long":106.840169,"line":2,"time":4,"i_lat":-6.198556,"distance":1590,"station_id":"CKI","is_transit":false,"station_name":"Cikini","transit":false},{"station_id":"GDD","i_lat":-6.186295,"line":2,"station_name":"Gondangdia","transit":false,"i_long":106.832183,"distance":1750,"is_transit":false,"time":3},{"time":4,"station_name":"Juanda","station_id":"JUA","is_transit":false,"line":2,"i_lat":-6.166716,"distance":2015,"i_long":106.828284,"transit":false},{"i_long":106.827103,"i_lat":-6.160725,"station_id":"SW","time":2,"distance":1149,"line":2,"transit":false,"station_name":"Sawah Besar","is_transit":false},{"time":2,"transit":false,"distance":906,"station_id":"MGB","i_long":106.82482,"is_transit":false,"i_lat":-6.149769,"station_name":"Manggabesar","line":2},{"i_long":106.820901,"i_lat":-6.141205,"transit":false,"distance":1080,"is_transit":false,"time":2,"station_name":"Jayakarta","station_id":"JAY","line":2},{"station_name":"Jakarta Kota","line":2,"i_lat":-6.137569,"station_id":"JAKK","distance":1264,"is_transit":true,"i_long":106.812439,"time":4,"transit":true},{"station_name":"Kampung Bandan","station_id":"KPB","distance":1364,"is_transit":true,"transit":true,"i_long":106.826365,"time":3,"i_lat":-6.132549,"line":4},{"distance":4102,"is_transit":false,"station_id":"AK","transit":false,"i_lat":-6.144674,"line":1,"time":9,"station_name":"Angke","i_long":106.79867},{"time":4,"distance":1230,"station_id":"DU","is_transit":false,"i_lat":-6.155215,"i_long":106.800832,"station_name":"Duri","line":1,"transit":false},{"line":1,"distance":3632,"is_transit":true,"transit":true,"station_id":"THB","time":8,"i_long":106.811091,"station_name":"Tanah Abang","i_lat":-6.185545},{"line":6,"station_id":"PLM","station_name":"Palmerah","i_lat":-6.207404,"distance":3191,"is_transit":false,"i_long":106.79689,"time":6,"transit":false},{"time":7,"distance":3737,"transit":false,"i_lat":-6.237242,"i_long":106.780334,"station_id":"KBY","line":6,"station_name":"Kebayoran","is_transit":false},{"i_lat":-6.276362,"line":6,"station_name":"Pondokranji","station_id":"PDJ","is_transit":false,"i_long":106.74273,"time":8,"transit":false,"distance":6218}],[{"distance":0,"transit":false,"time":0,"station_name":"Kranji","station_id":"KRI","line":1,"i_lat":-6.224515,"i_long":106.977657,"is_transit":false},{"station_id":"CUK","line":1,"station_name":"Cakung","transit":false,"time":3,"i_long":106.951283,"distance":3097,"i_lat":-6.219053,"is_transit":false},{"transit":false,"distance":1385,"station_id":"KLDB","line":1,"i_long":106.939679,"time":8,"is_transit":false,"station_name":"Klenderbaru","i_lat":-6.217455},{"distance":1305,"station_id":"BUA","is_transit":false,"time":1,"line":1,"transit":false,"i_lat":-6.215568,"station_name":"Buaran","i_long":106.922662},{"distance":3100,"i_lat":-6.2135,"line":1,"i_long":106.899548,"is_transit":false,"transit":false,"station_id":"KLD","station_name":"Klender","time":2},{"transit":true,"i_lat":-6.215091,"station_id":"JNG","is_transit":true,"time":3,"station_name":"Jatinegara","line":1,"i_long":106.86807400000001,"distance":3395},{"time":2,"is_transit":false,"station_name":"Pondok Jati","station_id":"POK","i_lat":-6.209188,"distance":1236,"i_long":106.861737,"line":11,"transit":false},{"line":11,"i_lat":-6.193792,"distance":1829,"i_long":106.855437,"station_name":"Kramat","time":2,"is_transit":false,"station_id":"KMT","transit":false},{"station_name":"Gang Sentiong","i_lat":-6.185975,"line":11,"time":1,"i_long":106.850107,"is_transit":false,"transit":false,"station_id":"GST","distance":973},{"i_long":106.84368,"is_transit":false,"station_id":"PSE","line":11,"distance":1567,"i_lat":-6.174784,"time":8,"station_name":"Pasar Senen","transit":false},{"i_lat":-6.161728,"transit":false,"i_long":106.839204,"line":11,"is_transit":false,"distance":1436,"station_name":"Kemayoran","station_id":"KMO","time":4},{"i_long":106.836569,"distance":1901,"station_id":"RJW","is_transit":false,"i_lat":-6.14505,"transit":false,"line":11,"time":5,"station_name":"Rajawali"},{"time":3,"line":4,"i_lat":-6.132549,"i_long":106.826365,"station_id":"KPB","station_name":"Kampung Bandan","is_transit":true,"distance":1444,"transit":true},{"distance":1364,"station_name":"Jakarta Kota","time":3,"i_lat":-6.137569,"station_id":"JAKK","i_long":106.812439,"is_transit":true,"transit":true,"line":2},{"station_name":"Jayakarta","time":4,"station_id":"JAY","i_lat":-6.141205,"i_long":106.820901,"distance":1264,"is_transit":false,"transit":false,"line":2},{"station_name":"Manggabesar","distance":1080,"transit":false,"time":2,"station_id":"MGB","is_transit":false,"i_lat":-6.149769,"i_long":106.82482,"line":2},{"is_transit":false,"station_name":"Sawah Besar","time":2,"distance":906,"transit":false,"i_lat":-6.160725,"i_long":106.827103,"line":2,"station_id":"SW"},{"line":2,"is_transit":false,"station_id":"JUA","i_lat":-6.166716,"distance":1149,"transit":false,"station_name":"Juanda","time":2,"i_long":106.828284},{"distance":2015,"station_name":"Gondangdia","transit":false,"i_lat":-6.186295,"is_transit":false,"i_long":106.832183,"time":4,"station_id":"GDD","line":2},{"transit":false,"i_long":106.840169,"line":2,"i_lat":-6.198556,"time":3,"is_transit":false,"distance":1750,"station_name":"Cikini","station_id":"CKI"},{"i_lat":-6.209883,"line":2,"time":4,"i_long":106.84912,"distance":1590,"station_id":"MRI","is_transit":true,"station_name":"Manggarai","transit":true},{"is_transit":false,"time":4,"distance":3186,"transit":false,"station_id":"SUD","i_lat":-6.202263,"station_name":"Sudirman","i_long":106.822649,"line":1},{"i_lat":-6.201433,"station_id":"SUDB","i_long":106.819881,"is_transit":false,"station_name":"Sudirman Baru","line":1,"time":1,"transit":false,"distance":280},{"station_name":"Karet","i_long":106.816351,"is_transit":false,"time":1,"line":1,"transit":false,"station_id":"KAT","i_lat":-6.20132,"distance":471},{"transit":true,"time":5,"station_name":"Tanah Abang","i_lat":-6.185545,"is_transit":true,"station_id":"THB","i_long":106.811091,"line":1,"distance":2029},{"i_lat":-6.207404,"i_long":106.79689,"line":6,"station_id":"PLM","time":6,"is_transit":false,"distance":3191,"station_name":"Palmerah","transit":false},{"line":6,"i_lat":-6.237242,"station_id":"KBY","is_transit":false,"time":7,"station_name":"Kebayoran","transit":false,"i_long":106.780334,"distance":3737},{"station_id":"PDJ","i_long":106.74273,"station_name":"Pondokranji","line":6,"is_transit":false,"distance":6218,"time":8,"transit":false,"i_lat":-6.276362}]]}