{"data":[[{"station_name":"Klaten","transit":false,"station_id":"KT","i_long":110.602981,"time":0,"distance":0,"line":7,"is_transit":false,"i_lat":-7.712087},{"transit":false,"station_id":"SWT","time":8,"i_lat":-7.74111,"i_long":110.548972,"station_name":"Srowot","is_transit":false,"distance":6738,"line":7},{"is_transit":false,"i_lat":-7.756284,"line":0,"time":7,"i_long":110.500451,"station_name":"Brambanan","station_id":"BBN","distance":5850,"transit":false},{"i_long":110.436791,"station_name":"Maguwo","line":7,"i_lat":-7.784476,"transit":false,"station_id":"MGW","is_transit":false,"distance":7905,"time":8},{"station_id":"LPN","station_name":"Lempuyangan","i_long":110.375434,"is_transit":false,"line":7,"distance":6799,"time":7,"transit":false,"i_lat":-7.790018},{"line":7,"station_id":"YK","transit":false,"distance":1307,"station_name":"Yogyakarta","is_transit":false,"i_long":110.36345,"time":6,"i_lat":-7.788961},{"station_id":"PTN","distance":4241,"is_transit":false,"time":5,"transit":false,"i_lat":-7.790605,"i_long":110.32542,"line":7,"station_name":"Patukan"},{"transit":false,"is_transit":false,"time":4,"distance":4579,"station_name":"Rewulu","i_lat":-7.797702,"i_long":110.279205,"station_id":"RWL","line":7},{"i_long":110.220122,"time":8,"station_id":"STL","is_transit":false,"i_lat":-7.832939,"line":0,"station_name":"Sentolo","distance":9041,"transit":false},{"i_lat":-7.859237,"i_long":110.158003,"time":25,"is_transit":false,"distance":10145,"line":7,"station_id":"WT","station_name":"Wates","transit":false},{"time":15,"line":7,"i_long":110.040449,"transit":false,"station_name":"Wojo","i_lat":-7.861626,"station_id":"WJ","distance":13652,"is_transit":false},{"i_long":110.000548,"is_transit":false,"time":10,"station_name":"Jenar","i_lat":-7.801845,"transit":false,"distance":8393,"line":0,"station_id":"JN"}]]}