{"data":[[{"is_transit":false,"transit":false,"time":0,"i_long":110.602981,"station_name":"Klaten","distance":0,"station_id":"KT","i_lat":-7.712087,"line":7},{"distance":6738,"is_transit":false,"station_id":"SWT","station_name":"Srowot","i_long":110.548972,"line":7,"time":8,"transit":false,"i_lat":-7.74111},{"i_long":110.500451,"i_lat":-7.756284,"time":7,"is_transit":false,"station_id":"BBN","station_name":"Brambanan","transit":false,"distance":5850,"line":0},{"i_lat":-7.784476,"station_id":"MGW","station_name":"Maguwo","transit":false,"line":7,"time":8,"distance":7905,"i_long":110.436791,"is_transit":false},{"is_transit":false,"i_lat":-7.790018,"time":7,"distance":6799,"station_id":"LPN","station_name":"Lempuyangan","line":7,"i_long":110.375434,"transit":false},{"line":7,"station_name":"Yogyakarta","transit":false,"i_lat":-7.788961,"is_transit":false,"station_id":"YK","time":6,"distance":1307,"i_long":110.36345},{"distance":4241,"station_name":"Patukan","i_long":110.32542,"line":7,"transit":false,"is_transit":false,"i_lat":-7.790605,"station_id":"PTN","time":5},{"is_transit":false,"distance":4579,"line":7,"transit":false,"station_name":"Rewulu","station_id":"RWL","time":4,"i_lat":-7.797702,"i_long":110.279205},{"distance":9041,"time":8,"is_transit":false,"i_long":110.220122,"line":7,"station_id":"STL","transit":false,"station_name":"Sentolo","i_lat":-7.832939},{"transit":false,"distance":10145,"station_name":"Wates","station_id":"WT","is_transit":false,"time":25,"i_lat":-7.859237,"i_long":110.158003,"line":7},{"time":15,"i_long":110.040449,"i_lat":-7.861626,"distance":13652,"transit":false,"line":7,"station_id":"WJ","is_transit":false,"station_name":"Wojo"},{"is_transit":false,"i_long":110.000548,"distance":8393,"line":7,"station_id":"JN","transit":false,"i_lat":-7.801845,"station_name":"Jenar","time":10}]]}