{"data":[[{"station_id":"KT","time":0,"i_long":110.602981,"transit":false,"station_name":"Klaten","i_lat":-7.712087,"distance":0,"is_transit":false,"line":7},{"is_transit":false,"transit":false,"station_name":"Srowot","i_long":110.548972,"line":7,"station_id":"SWT","distance":6738,"i_lat":-7.74111,"time":8},{"i_long":110.500451,"transit":false,"is_transit":false,"line":0,"station_id":"BBN","distance":5850,"station_name":"Brambanan","time":7,"i_lat":-7.756284},{"is_transit":false,"station_name":"Maguwo","i_lat":-7.784476,"line":7,"i_long":110.436791,"time":8,"transit":false,"distance":7905,"station_id":"MGW"},{"i_lat":-7.790018,"distance":6799,"station_id":"LPN","transit":false,"line":7,"is_transit":false,"station_name":"Lempuyangan","i_long":110.375434,"time":7},{"station_id":"YK","is_transit":false,"distance":1307,"line":7,"i_long":110.36345,"transit":false,"i_lat":-7.788961,"time":6,"station_name":"Yogyakarta"},{"station_name":"Patukan","i_long":110.32542,"is_transit":false,"distance":4241,"line":7,"transit":false,"i_lat":-7.790605,"time":5,"station_id":"PTN"},{"line":7,"i_lat":-7.797702,"station_id":"RWL","time":4,"is_transit":false,"distance":4579,"transit":false,"i_long":110.279205,"station_name":"Rewulu"},{"station_id":"STL","i_long":110.220122,"station_name":"Sentolo","line":0,"distance":9041,"transit":false,"is_transit":false,"time":8,"i_lat":-7.832939},{"i_lat":-7.859237,"line":7,"transit":false,"time":25,"distance":10145,"station_id":"WT","station_name":"Wates","is_transit":false,"i_long":110.158003},{"i_long":110.040449,"time":15,"i_lat":-7.861626,"station_name":"Wojo","distance":13652,"transit":false,"station_id":"WJ","line":7,"is_transit":false},{"transit":false,"i_long":110.000548,"is_transit":false,"station_id":"JN","time":10,"i_lat":-7.801845,"station_name":"Jenar","distance":8393,"line":0}]]}