{"data":[[{"is_transit":false,"distance":0,"station_id":"KT","i_lat":-7.712087,"i_long":110.602981,"time":0,"line":7,"transit":false,"station_name":"Klaten"},{"is_transit":false,"i_lat":-7.74111,"transit":false,"station_id":"SWT","station_name":"Srowot","i_long":110.548972,"time":8,"line":7,"distance":6738},{"distance":5850,"i_long":110.500451,"time":7,"line":0,"transit":false,"is_transit":false,"i_lat":-7.756284,"station_name":"Brambanan","station_id":"BBN"},{"distance":7905,"time":8,"station_name":"Maguwo","i_long":110.436791,"line":7,"station_id":"MGW","transit":false,"is_transit":false,"i_lat":-7.784476},{"transit":false,"distance":6799,"i_lat":-7.790018,"is_transit":false,"station_name":"Lempuyangan","i_long":110.375434,"line":7,"station_id":"LPN","time":7},{"i_lat":-7.788961,"i_long":110.36345,"is_transit":false,"time":6,"station_name":"Yogyakarta","transit":false,"distance":1307,"station_id":"YK","line":7},{"i_long":110.32542,"is_transit":false,"distance":4241,"station_name":"Patukan","i_lat":-7.790605,"station_id":"PTN","line":7,"transit":false,"time":5},{"time":4,"station_id":"RWL","i_lat":-7.797702,"station_name":"Rewulu","line":7,"i_long":110.279205,"transit":false,"is_transit":false,"distance":4579},{"time":8,"transit":false,"station_name":"Sentolo","i_long":110.220122,"distance":9041,"i_lat":-7.832939,"line":0,"is_transit":false,"station_id":"STL"},{"i_lat":-7.859237,"i_long":110.158003,"station_id":"WT","time":25,"distance":10145,"line":7,"transit":false,"is_transit":false,"station_name":"Wates"},{"station_id":"WJ","i_lat":-7.861626,"is_transit":false,"time":15,"station_name":"Wojo","line":7,"i_long":110.040449,"transit":false,"distance":13652},{"i_long":110.000548,"is_transit":false,"distance":8393,"station_name":"Jenar","line":0,"time":10,"station_id":"JN","transit":false,"i_lat":-7.801845}]]}