{"data":[[{"i_long":109.90723,"station_id":"KTA","is_transit":false,"line":0,"station_name":"Kutoarjo","distance":0,"time":0,"i_lat":-7.725824,"transit":false},{"time":16,"station_id":"JN","is_transit":false,"i_lat":-7.801845,"line":0,"distance":10145,"station_name":"Jenar","transit":false,"i_long":110.000548},{"i_lat":-7.861626,"i_long":110.040449,"distance":8393,"transit":false,"time":10,"line":7,"station_id":"WJ","is_transit":false,"station_name":"Wojo"},{"time":15,"station_name":"Wates","station_id":"WT","i_long":110.158003,"line":7,"distance":13652,"i_lat":-7.859237,"is_transit":false,"transit":false},{"is_transit":false,"station_id":"STL","i_lat":-7.832939,"i_long":110.220122,"line":0,"distance":10145,"transit":false,"station_name":"Sentolo","time":25},{"i_lat":-7.797702,"transit":false,"i_long":110.279205,"station_name":"Rewulu","distance":9041,"time":8,"is_transit":false,"station_id":"RWL","line":7},{"distance":4579,"line":7,"transit":false,"i_lat":-7.790605,"i_long":110.32542,"time":4,"station_id":"PTN","is_transit":false,"station_name":"Patukan"},{"station_id":"YK","i_lat":-7.788961,"distance":4241,"time":5,"i_long":110.36345,"transit":false,"is_transit":false,"line":7,"station_name":"Yogyakarta"},{"time":6,"transit":false,"station_name":"Lempuyangan","i_long":110.375434,"line":7,"is_transit":false,"i_lat":-7.790018,"station_id":"LPN","distance":1307},{"is_transit":false,"distance":6799,"transit":false,"station_name":"Maguwo","i_long":110.436791,"station_id":"MGW","line":7,"time":7,"i_lat":-7.784476},{"transit":false,"is_transit":false,"line":0,"distance":7905,"i_long":110.500451,"i_lat":-7.756284,"station_name":"Brambanan","station_id":"BBN","time":8},{"station_id":"SWT","i_lat":-7.74111,"distance":5850,"time":7,"i_long":110.548972,"line":7,"is_transit":false,"transit":false,"station_name":"Srowot"},{"distance":6738,"transit":false,"station_id":"KT","i_lat":-7.712087,"time":8,"is_transit":false,"i_long":110.602981,"station_name":"Klaten","line":7},{"station_name":"Ceper","i_long":110.674861,"is_transit":false,"station_id":"CE","transit":false,"i_lat":-7.668597,"distance":9279,"line":7,"time":9},{"station_name":"Delanggu","transit":false,"time":7,"i_lat":-7.62181,"line":7,"station_id":"DL","i_long":110.706679,"distance":6271,"is_transit":false},{"time":6,"station_id":"GW","station_name":"Gawok","line":7,"is_transit":false,"transit":false,"i_lat":-7.589036,"distance":5543,"i_long":110.744432}]]}