{"data":[[{"transit":false,"i_lat":-7.725824,"i_long":109.90723,"is_transit":false,"station_id":"KTA","distance":0,"station_name":"Kutoarjo","time":0,"line":0},{"time":16,"transit":false,"station_name":"Jenar","i_lat":-7.801845,"distance":10145,"line":0,"i_long":110.000548,"station_id":"JN","is_transit":false},{"line":7,"transit":false,"distance":8393,"station_name":"Wojo","time":10,"i_lat":-7.861626,"station_id":"WJ","i_long":110.040449,"is_transit":false},{"is_transit":false,"station_name":"Wates","i_lat":-7.859237,"i_long":110.158003,"station_id":"WT","distance":13652,"line":7,"time":15,"transit":false},{"i_lat":-7.832939,"transit":false,"line":0,"distance":10145,"station_id":"STL","time":25,"station_name":"Sentolo","i_long":110.220122,"is_transit":false},{"transit":false,"i_lat":-7.797702,"distance":9041,"station_name":"Rewulu","is_transit":false,"time":8,"line":7,"i_long":110.279205,"station_id":"RWL"},{"time":4,"i_long":110.32542,"is_transit":false,"transit":false,"distance":4579,"station_id":"PTN","station_name":"Patukan","i_lat":-7.790605,"line":7},{"is_transit":false,"time":5,"i_long":110.36345,"station_name":"Yogyakarta","station_id":"YK","distance":4241,"transit":false,"line":7,"i_lat":-7.788961},{"station_name":"Lempuyangan","distance":1307,"line":7,"i_long":110.375434,"is_transit":false,"time":6,"station_id":"LPN","i_lat":-7.790018,"transit":false},{"i_lat":-7.784476,"is_transit":false,"time":7,"station_name":"Maguwo","line":7,"distance":6799,"transit":false,"i_long":110.436791,"station_id":"MGW"},{"i_lat":-7.756284,"line":0,"distance":7905,"i_long":110.500451,"station_name":"Brambanan","station_id":"BBN","transit":false,"time":8,"is_transit":false},{"station_id":"SWT","i_lat":-7.74111,"is_transit":false,"i_long":110.548972,"distance":5850,"station_name":"Srowot","transit":false,"line":7,"time":7},{"i_lat":-7.712087,"is_transit":false,"distance":6738,"station_id":"KT","i_long":110.602981,"transit":false,"station_name":"Klaten","time":8,"line":7},{"line":7,"station_name":"Ceper","transit":false,"time":9,"is_transit":false,"i_lat":-7.668597,"station_id":"CE","i_long":110.674861,"distance":9279},{"distance":6271,"transit":false,"station_id":"DL","line":7,"station_name":"Delanggu","i_long":110.706679,"i_lat":-7.62181,"is_transit":false,"time":7},{"transit":false,"is_transit":false,"distance":5543,"station_name":"Gawok","i_long":110.744432,"time":6,"line":7,"i_lat":-7.589036,"station_id":"GW"},{"transit":false,"i_long":110.796655,"time":7,"station_name":"Purwosari","station_id":"PWS","distance":6639,"line":7,"is_transit":false,"i_lat":-7.561362}]]}