{"data":[[{"station_name":"Kutoarjo","station_id":"KTA","i_lat":-7.725824,"i_long":109.90723,"line":0,"distance":0,"is_transit":false,"transit":false,"time":0},{"line":0,"is_transit":false,"time":16,"transit":false,"i_long":110.000548,"station_name":"Jenar","i_lat":-7.801845,"distance":10145,"station_id":"JN"},{"station_id":"WJ","transit":false,"i_lat":-7.861626,"distance":8393,"line":7,"station_name":"Wojo","i_long":110.040449,"time":10,"is_transit":false},{"line":7,"station_name":"Wates","station_id":"WT","i_lat":-7.859237,"is_transit":false,"distance":13652,"transit":false,"time":15,"i_long":110.158003},{"time":25,"station_name":"Sentolo","i_long":110.220122,"i_lat":-7.832939,"distance":10145,"transit":false,"line":0,"is_transit":false,"station_id":"STL"},{"station_id":"RWL","is_transit":false,"i_lat":-7.797702,"distance":9041,"time":8,"transit":false,"station_name":"Rewulu","i_long":110.279205,"line":7},{"station_id":"PTN","is_transit":false,"i_long":110.32542,"time":4,"i_lat":-7.790605,"transit":false,"line":7,"distance":4579,"station_name":"Patukan"},{"station_name":"Yogyakarta","station_id":"YK","line":7,"time":5,"is_transit":false,"distance":4241,"transit":false,"i_lat":-7.788961,"i_long":110.36345},{"line":7,"is_transit":false,"transit":false,"distance":1307,"i_lat":-7.790018,"i_long":110.375434,"station_id":"LPN","time":6,"station_name":"Lempuyangan"},{"time":7,"line":7,"is_transit":false,"i_lat":-7.784476,"station_name":"Maguwo","i_long":110.436791,"transit":false,"distance":6799,"station_id":"MGW"},{"i_lat":-7.756284,"time":8,"transit":false,"station_name":"Brambanan","i_long":110.500451,"distance":7905,"station_id":"BBN","is_transit":false,"line":0},{"transit":false,"station_name":"Srowot","i_lat":-7.74111,"i_long":110.548972,"is_transit":false,"line":7,"time":7,"distance":5850,"station_id":"SWT"},{"is_transit":false,"i_lat":-7.712087,"i_long":110.602981,"station_name":"Klaten","line":7,"station_id":"KT","transit":false,"distance":6738,"time":8},{"transit":false,"i_lat":-7.668597,"distance":9279,"line":7,"time":9,"i_long":110.674861,"is_transit":false,"station_id":"CE","station_name":"Ceper"},{"station_id":"DL","transit":false,"distance":6271,"station_name":"Delanggu","i_long":110.706679,"line":7,"time":7,"i_lat":-7.62181,"is_transit":false},{"time":6,"station_id":"GW","transit":false,"station_name":"Gawok","i_lat":-7.589036,"i_long":110.744432,"line":7,"distance":5543,"is_transit":false},{"i_lat":-7.561362,"line":7,"distance":6639,"is_transit":false,"i_long":110.796655,"transit":false,"time":7,"station_name":"Purwosari","station_id":"PWS"}]]}