{"data":[[{"station_id":"KTA","transit":false,"i_lat":-7.725824,"is_transit":false,"station_name":"Kutoarjo","time":0,"i_long":109.90723,"distance":0,"line":7},{"time":16,"is_transit":false,"station_id":"JN","transit":false,"i_long":110.000548,"distance":10145,"station_name":"Jenar","i_lat":-7.801845,"line":7},{"is_transit":false,"station_id":"WJ","i_long":110.040449,"time":10,"transit":false,"i_lat":-7.861626,"station_name":"Wojo","distance":8393,"line":7},{"transit":false,"time":15,"i_long":110.158003,"i_lat":-7.859237,"is_transit":false,"line":7,"distance":13652,"station_name":"Wates","station_id":"WT"},{"i_lat":-7.832939,"distance":10145,"time":25,"line":7,"transit":false,"i_long":110.220122,"is_transit":false,"station_id":"STL","station_name":"Sentolo"},{"i_long":110.279205,"station_name":"Rewulu","line":7,"transit":false,"station_id":"RWL","time":8,"distance":9041,"is_transit":false,"i_lat":-7.797702},{"distance":4579,"transit":false,"station_id":"PTN","is_transit":false,"station_name":"Patukan","time":4,"i_lat":-7.790605,"i_long":110.32542,"line":7},{"is_transit":false,"line":7,"i_lat":-7.788961,"time":5,"station_id":"YK","station_name":"Yogyakarta","transit":false,"i_long":110.36345,"distance":4241},{"station_id":"LPN","time":6,"distance":1307,"line":7,"i_long":110.375434,"transit":false,"is_transit":false,"station_name":"Lempuyangan","i_lat":-7.790018},{"station_id":"MGW","i_long":110.436791,"time":7,"is_transit":false,"i_lat":-7.784476,"station_name":"Maguwo","line":7,"distance":6799,"transit":false},{"is_transit":false,"distance":7905,"station_name":"Brambanan","i_long":110.500451,"transit":false,"time":8,"station_id":"BBN","line":0,"i_lat":-7.756284},{"time":7,"line":7,"distance":5850,"station_id":"SWT","i_long":110.548972,"is_transit":false,"transit":false,"i_lat":-7.74111,"station_name":"Srowot"},{"is_transit":false,"i_long":110.602981,"station_name":"Klaten","line":7,"i_lat":-7.712087,"time":8,"distance":6738,"station_id":"KT","transit":false},{"i_long":110.674861,"distance":9279,"line":0,"time":9,"is_transit":false,"transit":false,"station_id":"CE","i_lat":-7.668597,"station_name":"Ceper"},{"distance":6271,"station_name":"Delanggu","transit":false,"i_lat":-7.62181,"i_long":110.706679,"line":0,"station_id":"DL","time":7,"is_transit":false},{"i_long":110.744432,"time":6,"i_lat":-7.589036,"line":7,"is_transit":false,"transit":false,"station_id":"GW","station_name":"Gawok","distance":5543},{"time":7,"line":7,"distance":6639,"is_transit":false,"station_id":"PWS","transit":false,"i_long":110.796655,"station_name":"Purwosari","i_lat":-7.561362}]]}