{"data":[[{"line":0,"transit":false,"station_name":"Kutoarjo","i_lat":-7.725824,"time":0,"station_id":"KTA","i_long":109.90723,"distance":0,"is_transit":false},{"distance":10145,"time":16,"transit":false,"station_id":"JN","i_long":110.000548,"station_name":"Jenar","i_lat":-7.801845,"is_transit":false,"line":0},{"time":10,"i_lat":-7.861626,"transit":false,"station_id":"WJ","is_transit":false,"distance":8393,"i_long":110.040449,"line":7,"station_name":"Wojo"},{"station_id":"WT","i_lat":-7.859237,"station_name":"Wates","transit":false,"distance":13652,"time":15,"i_long":110.158003,"line":7,"is_transit":false},{"station_id":"STL","station_name":"Sentolo","transit":false,"distance":10145,"line":0,"i_lat":-7.832939,"time":25,"is_transit":false,"i_long":110.220122},{"i_long":110.279205,"distance":9041,"i_lat":-7.797702,"is_transit":false,"line":7,"station_id":"RWL","station_name":"Rewulu","time":8,"transit":false},{"i_long":110.32542,"line":7,"station_id":"PTN","distance":4579,"time":4,"transit":false,"station_name":"Patukan","is_transit":false,"i_lat":-7.790605},{"station_id":"YK","time":5,"is_transit":false,"station_name":"Yogyakarta","transit":false,"i_lat":-7.788961,"i_long":110.36345,"line":7,"distance":4241},{"station_name":"Lempuyangan","time":6,"station_id":"LPN","is_transit":false,"i_long":110.375434,"i_lat":-7.790018,"line":7,"distance":1307,"transit":false},{"station_name":"Maguwo","distance":6799,"transit":false,"i_lat":-7.784476,"i_long":110.436791,"time":7,"line":7,"station_id":"MGW","is_transit":false},{"station_name":"Brambanan","transit":false,"is_transit":false,"distance":7905,"time":8,"i_long":110.500451,"line":0,"station_id":"BBN","i_lat":-7.756284},{"station_name":"Srowot","i_lat":-7.74111,"is_transit":false,"station_id":"SWT","i_long":110.548972,"distance":5850,"line":7,"time":7,"transit":false},{"station_id":"KT","distance":6738,"time":8,"transit":false,"station_name":"Klaten","i_lat":-7.712087,"i_long":110.602981,"line":7,"is_transit":false}]]}