{"data":[[{"station_id":"KTA","transit":false,"station_name":"Kutoarjo","time":0,"i_long":109.90723,"distance":0,"line":7,"is_transit":false,"i_lat":-7.725824},{"is_transit":false,"distance":10145,"transit":false,"line":7,"i_long":110.000548,"i_lat":-7.801845,"station_id":"JN","time":16,"station_name":"Jenar"},{"is_transit":false,"transit":false,"i_long":110.040449,"distance":8393,"station_name":"Wojo","time":10,"line":7,"i_lat":-7.861626,"station_id":"WJ"},{"line":7,"station_id":"WT","transit":false,"i_lat":-7.859237,"distance":13652,"is_transit":false,"i_long":110.158003,"time":15,"station_name":"Wates"},{"is_transit":false,"time":25,"i_lat":-7.832939,"line":7,"i_long":110.220122,"station_id":"STL","distance":10145,"transit":false,"station_name":"Sentolo"},{"transit":false,"i_long":110.279205,"distance":9041,"line":7,"station_name":"Rewulu","is_transit":false,"i_lat":-7.797702,"time":8,"station_id":"RWL"},{"station_name":"Patukan","station_id":"PTN","is_transit":false,"time":4,"i_lat":-7.790605,"transit":false,"i_long":110.32542,"distance":4579,"line":7},{"station_name":"Yogyakarta","i_lat":-7.788961,"distance":4241,"is_transit":false,"station_id":"YK","time":5,"i_long":110.36345,"transit":false,"line":7},{"time":6,"station_id":"LPN","line":7,"station_name":"Lempuyangan","i_long":110.375434,"transit":false,"is_transit":false,"distance":1307,"i_lat":-7.790018},{"station_name":"Maguwo","time":7,"i_lat":-7.784476,"i_long":110.436791,"station_id":"MGW","transit":false,"is_transit":false,"distance":6799,"line":7},{"station_id":"BBN","line":0,"is_transit":false,"transit":false,"time":8,"i_long":110.500451,"distance":7905,"i_lat":-7.756284,"station_name":"Brambanan"},{"distance":5850,"i_long":110.548972,"station_id":"SWT","transit":false,"line":7,"is_transit":false,"i_lat":-7.74111,"station_name":"Srowot","time":7},{"is_transit":false,"time":8,"transit":false,"i_long":110.602981,"i_lat":-7.712087,"station_id":"KT","line":7,"distance":6738,"station_name":"Klaten"},{"distance":9279,"transit":false,"station_name":"Ceper","i_lat":-7.668597,"i_long":110.674861,"time":9,"is_transit":false,"station_id":"CE","line":0},{"station_id":"DL","is_transit":false,"time":7,"i_lat":-7.62181,"distance":6271,"station_name":"Delanggu","transit":false,"line":0,"i_long":110.706679},{"station_name":"Gawok","i_long":110.744432,"line":7,"transit":false,"time":6,"i_lat":-7.589036,"station_id":"GW","is_transit":false,"distance":5543}]]}