{"data":[[{"line":0,"station_id":"KTA","i_long":109.90723,"distance":0,"transit":false,"is_transit":false,"i_lat":-7.725824,"station_name":"Kutoarjo","time":0},{"i_long":110.000548,"line":0,"time":16,"station_id":"JN","transit":false,"distance":10145,"is_transit":false,"station_name":"Jenar","i_lat":-7.801845},{"time":10,"transit":false,"station_name":"Wojo","is_transit":false,"i_lat":-7.861626,"i_long":110.040449,"distance":8393,"station_id":"WJ","line":7},{"i_long":110.158003,"line":7,"i_lat":-7.859237,"station_id":"WT","is_transit":false,"transit":false,"distance":13652,"station_name":"Wates","time":15},{"station_name":"Sentolo","transit":false,"distance":10145,"station_id":"STL","i_lat":-7.832939,"i_long":110.220122,"time":25,"is_transit":false,"line":0},{"i_long":110.279205,"station_name":"Rewulu","distance":9041,"line":7,"i_lat":-7.797702,"time":8,"transit":false,"is_transit":false,"station_id":"RWL"},{"transit":false,"is_transit":false,"station_id":"PTN","i_lat":-7.790605,"line":7,"distance":4579,"i_long":110.32542,"time":4,"station_name":"Patukan"},{"transit":false,"distance":4241,"line":7,"time":5,"station_id":"YK","i_lat":-7.788961,"is_transit":false,"i_long":110.36345,"station_name":"Yogyakarta"},{"time":6,"station_name":"Lempuyangan","transit":false,"distance":1307,"is_transit":false,"station_id":"LPN","i_lat":-7.790018,"i_long":110.375434,"line":7},{"station_name":"Maguwo","distance":6799,"station_id":"MGW","i_long":110.436791,"is_transit":false,"transit":false,"i_lat":-7.784476,"line":7,"time":7},{"station_id":"BBN","transit":false,"i_long":110.500451,"distance":7905,"time":8,"line":0,"station_name":"Brambanan","is_transit":false,"i_lat":-7.756284},{"station_id":"SWT","i_long":110.548972,"transit":false,"is_transit":false,"time":7,"line":7,"distance":5850,"station_name":"Srowot","i_lat":-7.74111},{"distance":6738,"is_transit":false,"transit":false,"i_lat":-7.712087,"station_name":"Klaten","i_long":110.602981,"line":7,"station_id":"KT","time":8},{"transit":false,"distance":9279,"is_transit":false,"i_lat":-7.668597,"i_long":110.674861,"station_name":"Ceper","station_id":"CE","line":7,"time":9},{"i_long":110.706679,"station_id":"DL","i_lat":-7.62181,"transit":false,"is_transit":false,"station_name":"Delanggu","distance":6271,"time":7,"line":7},{"is_transit":false,"i_lat":-7.589036,"i_long":110.744432,"distance":5543,"line":7,"station_name":"Gawok","time":6,"transit":false,"station_id":"GW"}]]}