{"data":[[{"is_transit":false,"i_lat":-7.725824,"i_long":109.90723,"distance":0,"line":0,"station_name":"Kutoarjo","time":0,"transit":false,"station_id":"KTA"},{"is_transit":false,"time":16,"station_id":"JN","distance":10145,"i_lat":-7.801845,"station_name":"Jenar","i_long":110.000548,"line":0,"transit":false},{"line":7,"distance":8393,"station_name":"Wojo","time":10,"station_id":"WJ","is_transit":false,"i_long":110.040449,"i_lat":-7.861626,"transit":false},{"transit":false,"distance":13652,"line":7,"time":15,"station_id":"WT","i_lat":-7.859237,"is_transit":false,"i_long":110.158003,"station_name":"Wates"},{"time":25,"station_name":"Sentolo","transit":false,"distance":10145,"is_transit":false,"station_id":"STL","i_lat":-7.832939,"i_long":110.220122,"line":0},{"distance":9041,"station_name":"Rewulu","station_id":"RWL","i_long":110.279205,"is_transit":false,"transit":false,"i_lat":-7.797702,"line":7,"time":8},{"station_id":"PTN","transit":false,"i_long":110.32542,"distance":4579,"time":4,"line":7,"station_name":"Patukan","is_transit":false,"i_lat":-7.790605},{"station_id":"YK","i_long":110.36345,"transit":false,"is_transit":false,"time":5,"line":7,"distance":4241,"station_name":"Yogyakarta","i_lat":-7.788961},{"distance":1307,"is_transit":false,"transit":false,"i_lat":-7.790018,"station_name":"Lempuyangan","i_long":110.375434,"line":7,"station_id":"LPN","time":6},{"transit":false,"distance":6799,"is_transit":false,"i_lat":-7.784476,"i_long":110.436791,"station_name":"Maguwo","station_id":"MGW","line":7,"time":7},{"i_long":110.500451,"station_id":"BBN","i_lat":-7.756284,"transit":false,"is_transit":false,"station_name":"Brambanan","distance":7905,"time":8,"line":0},{"line":7,"transit":false,"distance":5850,"time":7,"is_transit":false,"station_id":"SWT","i_lat":-7.74111,"station_name":"Srowot","i_long":110.548972},{"i_long":110.602981,"line":7,"distance":6738,"transit":false,"station_id":"KT","i_lat":-7.712087,"is_transit":false,"time":8,"station_name":"Klaten"},{"transit":false,"station_name":"Ceper","is_transit":false,"station_id":"CE","time":9,"i_long":110.674861,"line":7,"i_lat":-7.668597,"distance":9279},{"station_name":"Delanggu","is_transit":false,"distance":6271,"station_id":"DL","i_lat":-7.62181,"i_long":110.706679,"line":7,"time":7,"transit":false},{"time":6,"station_id":"GW","transit":false,"is_transit":false,"distance":5543,"line":7,"station_name":"Gawok","i_lat":-7.589036,"i_long":110.744432},{"time":7,"transit":false,"distance":6639,"station_id":"PWS","is_transit":false,"line":7,"i_long":110.796655,"i_lat":-7.561362,"station_name":"Purwosari"}]]}