{"data":[[{"i_lat":-7.725824,"i_long":109.90723,"line":7,"time":0,"station_name":"Kutoarjo","is_transit":false,"distance":0,"station_id":"KTA","transit":false},{"transit":false,"line":7,"station_name":"Jenar","station_id":"JN","i_long":110.000548,"i_lat":-7.801845,"distance":10145,"is_transit":false,"time":16},{"i_long":110.040449,"station_name":"Wojo","is_transit":false,"distance":8393,"transit":false,"time":10,"line":7,"i_lat":-7.861626,"station_id":"WJ"},{"i_long":110.158003,"station_name":"Wates","i_lat":-7.859237,"transit":false,"station_id":"WT","distance":13652,"line":7,"is_transit":false,"time":15},{"line":7,"transit":false,"station_name":"Sentolo","is_transit":false,"i_lat":-7.832939,"station_id":"STL","time":25,"i_long":110.220122,"distance":10145},{"station_id":"RWL","time":8,"is_transit":false,"i_long":110.279205,"distance":9041,"line":7,"i_lat":-7.797702,"station_name":"Rewulu","transit":false},{"station_name":"Patukan","transit":false,"time":4,"distance":4579,"i_long":110.32542,"is_transit":false,"station_id":"PTN","line":7,"i_lat":-7.790605},{"time":5,"transit":false,"line":7,"distance":4241,"i_lat":-7.788961,"is_transit":false,"station_id":"YK","station_name":"Yogyakarta","i_long":110.36345},{"i_long":110.375434,"is_transit":false,"transit":false,"station_id":"LPN","i_lat":-7.790018,"line":7,"distance":1307,"station_name":"Lempuyangan","time":6},{"distance":6799,"station_id":"MGW","is_transit":false,"station_name":"Maguwo","transit":false,"time":7,"line":7,"i_lat":-7.784476,"i_long":110.436791},{"time":8,"is_transit":false,"transit":false,"distance":7905,"i_lat":-7.756284,"i_long":110.500451,"line":0,"station_id":"BBN","station_name":"Brambanan"},{"i_lat":-7.74111,"line":7,"i_long":110.548972,"transit":false,"is_transit":false,"station_id":"SWT","time":7,"station_name":"Srowot","distance":5850},{"distance":6738,"i_long":110.602981,"line":7,"station_name":"Klaten","time":8,"i_lat":-7.712087,"is_transit":false,"transit":false,"station_id":"KT"}]]}