{"data":[[{"time":0,"i_long":109.90723,"line":0,"station_name":"Kutoarjo","transit":false,"distance":0,"station_id":"KTA","is_transit":false,"i_lat":-7.725824},{"time":16,"is_transit":false,"station_id":"JN","transit":false,"i_lat":-7.801845,"station_name":"Jenar","i_long":110.000548,"distance":10145,"line":0},{"transit":false,"i_long":110.040449,"line":7,"station_id":"WJ","station_name":"Wojo","is_transit":false,"distance":8393,"time":10,"i_lat":-7.861626},{"station_name":"Wates","i_long":110.158003,"transit":false,"time":15,"line":7,"is_transit":false,"station_id":"WT","distance":13652,"i_lat":-7.859237},{"line":0,"station_id":"STL","distance":10145,"time":25,"is_transit":false,"transit":false,"i_lat":-7.832939,"station_name":"Sentolo","i_long":110.220122},{"station_id":"RWL","time":8,"line":7,"transit":false,"distance":9041,"is_transit":false,"station_name":"Rewulu","i_lat":-7.797702,"i_long":110.279205},{"is_transit":false,"i_lat":-7.790605,"i_long":110.32542,"station_id":"PTN","distance":4579,"time":4,"line":7,"transit":false,"station_name":"Patukan"},{"time":5,"i_lat":-7.788961,"line":7,"station_id":"YK","distance":4241,"transit":false,"is_transit":false,"station_name":"Yogyakarta","i_long":110.36345},{"is_transit":false,"i_long":110.375434,"line":7,"time":6,"station_name":"Lempuyangan","station_id":"LPN","transit":false,"distance":1307,"i_lat":-7.790018},{"station_name":"Maguwo","distance":6799,"i_lat":-7.784476,"is_transit":false,"station_id":"MGW","time":7,"i_long":110.436791,"transit":false,"line":7},{"is_transit":false,"line":0,"station_name":"Brambanan","time":8,"station_id":"BBN","i_long":110.500451,"transit":false,"distance":7905,"i_lat":-7.756284},{"transit":false,"i_long":110.548972,"i_lat":-7.74111,"distance":5850,"is_transit":false,"station_name":"Srowot","time":7,"line":7,"station_id":"SWT"},{"station_id":"KT","station_name":"Klaten","distance":6738,"i_lat":-7.712087,"i_long":110.602981,"is_transit":false,"time":8,"line":7,"transit":false}]]}