{"data":[[{"line":0,"i_long":109.90723,"station_name":"Kutoarjo","time":0,"transit":false,"distance":0,"i_lat":-7.725824,"is_transit":false,"station_id":"KTA"},{"time":16,"station_name":"Jenar","is_transit":false,"line":0,"distance":10145,"i_long":110.000548,"station_id":"JN","i_lat":-7.801845,"transit":false},{"station_name":"Wojo","transit":false,"is_transit":false,"line":7,"station_id":"WJ","time":10,"i_long":110.040449,"distance":8393,"i_lat":-7.861626},{"transit":false,"distance":13652,"line":7,"station_name":"Wates","station_id":"WT","time":15,"i_long":110.158003,"i_lat":-7.859237,"is_transit":false},{"station_name":"Sentolo","line":0,"is_transit":false,"time":25,"i_long":110.220122,"transit":false,"distance":10145,"i_lat":-7.832939,"station_id":"STL"},{"line":7,"is_transit":false,"distance":9041,"i_lat":-7.797702,"i_long":110.279205,"transit":false,"time":8,"station_name":"Rewulu","station_id":"RWL"},{"distance":4579,"transit":false,"station_name":"Patukan","i_long":110.32542,"is_transit":false,"time":4,"line":7,"station_id":"PTN","i_lat":-7.790605},{"transit":false,"station_name":"Yogyakarta","is_transit":false,"station_id":"YK","i_lat":-7.788961,"i_long":110.36345,"line":7,"distance":4241,"time":5},{"is_transit":false,"station_id":"LPN","time":6,"line":7,"transit":false,"distance":1307,"i_lat":-7.790018,"i_long":110.375434,"station_name":"Lempuyangan"},{"time":7,"station_id":"MGW","is_transit":false,"i_long":110.436791,"line":7,"i_lat":-7.784476,"transit":false,"station_name":"Maguwo","distance":6799},{"is_transit":false,"i_lat":-7.756284,"line":0,"time":8,"transit":false,"station_id":"BBN","distance":7905,"station_name":"Brambanan","i_long":110.500451},{"line":7,"i_lat":-7.74111,"transit":false,"is_transit":false,"distance":5850,"station_name":"Srowot","station_id":"SWT","i_long":110.548972,"time":7},{"is_transit":false,"distance":6738,"time":8,"i_long":110.602981,"line":7,"i_lat":-7.712087,"transit":false,"station_id":"KT","station_name":"Klaten"},{"time":9,"station_id":"CE","line":7,"distance":9279,"i_lat":-7.668597,"is_transit":false,"transit":false,"station_name":"Ceper","i_long":110.674861},{"transit":false,"station_name":"Delanggu","time":7,"distance":6271,"is_transit":false,"i_lat":-7.62181,"line":7,"station_id":"DL","i_long":110.706679},{"station_name":"Gawok","i_lat":-7.589036,"is_transit":false,"i_long":110.744432,"distance":5543,"line":7,"transit":false,"time":6,"station_id":"GW"}]]}