{"data":[[{"is_transit":false,"transit":false,"distance":0,"i_lat":-7.725824,"line":0,"station_id":"KTA","time":0,"i_long":109.90723,"station_name":"Kutoarjo"},{"line":0,"distance":10145,"i_long":110.000548,"station_name":"Jenar","time":16,"i_lat":-7.801845,"station_id":"JN","is_transit":false,"transit":false},{"station_id":"WJ","station_name":"Wojo","distance":8393,"i_long":110.040449,"transit":false,"time":10,"line":7,"is_transit":false,"i_lat":-7.861626},{"line":7,"i_lat":-7.859237,"is_transit":false,"station_name":"Wates","distance":13652,"station_id":"WT","i_long":110.158003,"time":15,"transit":false},{"line":0,"time":25,"i_long":110.220122,"i_lat":-7.832939,"distance":10145,"transit":false,"is_transit":false,"station_id":"STL","station_name":"Sentolo"},{"station_name":"Rewulu","distance":9041,"i_lat":-7.797702,"line":7,"is_transit":false,"transit":false,"station_id":"RWL","time":8,"i_long":110.279205},{"is_transit":false,"distance":4579,"line":7,"transit":false,"time":4,"station_id":"PTN","i_long":110.32542,"station_name":"Patukan","i_lat":-7.790605},{"transit":false,"distance":4241,"line":7,"station_id":"YK","time":5,"i_lat":-7.788961,"is_transit":false,"i_long":110.36345,"station_name":"Yogyakarta"},{"time":6,"station_name":"Lempuyangan","transit":false,"is_transit":false,"distance":1307,"station_id":"LPN","i_lat":-7.790018,"i_long":110.375434,"line":7},{"station_name":"Maguwo","station_id":"MGW","distance":6799,"i_long":110.436791,"is_transit":false,"transit":false,"i_lat":-7.784476,"line":7,"time":7},{"station_id":"BBN","transit":false,"i_long":110.500451,"distance":7905,"time":8,"line":0,"is_transit":false,"station_name":"Brambanan","i_lat":-7.756284},{"station_id":"SWT","i_long":110.548972,"is_transit":false,"transit":false,"time":7,"line":7,"distance":5850,"station_name":"Srowot","i_lat":-7.74111},{"is_transit":false,"distance":6738,"transit":false,"i_lat":-7.712087,"station_name":"Klaten","i_long":110.602981,"line":7,"station_id":"KT","time":8}]]}