{"data":[[{"distance":0,"station_id":"LNA","transit":false,"is_transit":false,"i_lat":-6.330363,"i_long":106.832616,"time":0,"line":2,"station_name":"Lenteng Agung"},{"i_lat":-6.3080680000000005,"distance":2671,"line":2,"is_transit":false,"i_long":106.838896,"time":3,"station_id":"TNT","station_name":"Tanjung Barat","transit":false},{"line":2,"time":4,"i_lat":-6.2842400000000005,"station_name":"Pasar Minggu","distance":2820,"transit":false,"station_id":"PSM","is_transit":false,"i_long":106.843999},{"transit":false,"i_lat":-6.263214,"station_name":"Pasar Minggu Baru","is_transit":false,"time":2,"i_long":106.851577,"line":2,"station_id":"PSMB","distance":2380},{"i_lat":-6.255332,"is_transit":false,"line":2,"station_id":"DRN","time":2,"distance":824,"i_long":106.85449,"transit":false,"station_name":"Duren Kalibata"},{"is_transit":false,"time":3,"distance":1546,"i_long":106.856607,"station_id":"CW","i_lat":-6.242512,"transit":false,"station_name":"Cawang","line":2},{"distance":1230,"station_name":"Tebet","transit":false,"line":2,"time":2,"i_long":106.857948,"station_id":"TEB","i_lat":-6.226659,"is_transit":false},{"time":4,"is_transit":false,"distance":2610,"station_name":"Manggarai","station_id":"MRI","i_lat":-6.209883,"i_long":106.84912,"line":2,"transit":false},{"i_long":106.840169,"i_lat":-6.198556,"distance":1590,"station_id":"CKI","station_name":"Cikini","transit":false,"is_transit":false,"time":4,"line":2},{"i_lat":-6.186295,"i_long":106.832183,"distance":1750,"line":2,"transit":false,"station_name":"Gondangdia","station_id":"GDD","is_transit":false,"time":3},{"distance":2015,"station_id":"JUA","i_lat":-6.166716,"line":2,"transit":false,"time":4,"i_long":106.828284,"station_name":"Juanda","is_transit":false},{"i_lat":-6.160725,"time":2,"distance":1149,"is_transit":false,"station_id":"SW","station_name":"Sawah Besar","i_long":106.827103,"line":2,"transit":false},{"i_long":106.82482,"distance":906,"i_lat":-6.149769,"time":2,"station_name":"Manggabesar","is_transit":false,"line":2,"transit":false,"station_id":"MGB"},{"is_transit":false,"station_id":"JAY","i_long":106.820901,"time":2,"line":2,"i_lat":-6.141205,"transit":false,"station_name":"Jayakarta","distance":1080},{"i_long":106.812439,"line":2,"station_id":"JAKK","station_name":"Jakarta Kota","is_transit":false,"transit":false,"distance":1264,"i_lat":-6.137569,"time":4}],[{"time":0,"station_name":"Lenteng Agung","station_id":"LNA","transit":false,"distance":0,"i_lat":-6.330363,"i_long":106.832616,"line":2,"is_transit":false},{"i_lat":-6.3080680000000005,"station_id":"TNT","is_transit":false,"distance":2671,"i_long":106.838896,"time":3,"station_name":"Tanjung Barat","transit":false,"line":2},{"transit":false,"station_id":"PSM","station_name":"Pasar Minggu","i_long":106.843999,"time":4,"distance":2820,"is_transit":false,"i_lat":-6.2842400000000005,"line":2},{"station_id":"PSMB","transit":false,"is_transit":false,"i_long":106.851577,"time":2,"distance":2380,"i_lat":-6.263214,"station_name":"Pasar Minggu Baru","line":2},{"is_transit":false,"distance":824,"time":2,"i_long":106.85449,"station_id":"DRN","i_lat":-6.255332,"line":2,"transit":false,"station_name":"Duren Kalibata"},{"is_transit":false,"i_long":106.856607,"station_name":"Cawang","line":2,"transit":false,"distance":1546,"time":3,"station_id":"CW","i_lat":-6.242512},{"station_id":"TEB","transit":false,"time":2,"i_lat":-6.226659,"distance":1230,"station_name":"Tebet","i_long":106.857948,"line":2,"is_transit":false},{"station_id":"MRI","i_lat":-6.209883,"is_transit":true,"line":2,"i_long":106.84912,"time":4,"station_name":"Manggarai","distance":2610,"transit":true},{"is_transit":false,"i_lat":-6.202263,"time":4,"distance":3186,"transit":false,"station_name":"Sudirman","station_id":"SUD","i_long":106.822649,"line":1},{"line":1,"i_lat":-6.201433,"i_long":106.819881,"is_transit":false,"time":1,"distance":280,"station_name":"Sudirman Baru","station_id":"SUDB","transit":false},{"i_long":106.816351,"i_lat":-6.20132,"station_id":"KAT","is_transit":false,"transit":false,"distance":471,"line":1,"station_name":"Karet","time":1},{"transit":false,"distance":2029,"time":5,"i_long":106.811091,"is_transit":false,"station_id":"THB","line":1,"station_name":"Tanah Abang","i_lat":-6.185545},{"is_transit":false,"i_lat":-6.155215,"line":1,"i_long":106.800832,"transit":false,"time":8,"station_id":"DU","distance":3632,"station_name":"Duri"},{"time":4,"i_lat":-6.144674,"is_transit":false,"i_long":106.79867,"line":1,"transit":false,"distance":1230,"station_id":"AK","station_name":"Angke"},{"station_name":"Kampung Bandan","i_long":106.826365,"is_transit":true,"station_id":"KPB","i_lat":-6.132549,"transit":true,"distance":4102,"time":9,"line":4},{"is_transit":false,"station_name":"Jakarta Kota","i_long":106.812439,"line":2,"transit":false,"station_id":"JAKK","i_lat":-6.137569,"distance":1364,"time":3}],[{"station_name":"Lenteng Agung","is_transit":false,"i_long":106.832616,"line":2,"distance":0,"i_lat":-6.330363,"station_id":"LNA","transit":false,"time":0},{"is_transit":false,"time":3,"distance":2671,"transit":false,"line":2,"i_lat":-6.3080680000000005,"station_id":"TNT","station_name":"Tanjung Barat","i_long":106.838896},{"station_id":"PSM","i_lat":-6.2842400000000005,"is_transit":false,"line":2,"station_name":"Pasar Minggu","i_long":106.843999,"transit":false,"distance":2820,"time":4},{"i_lat":-6.263214,"line":2,"i_long":106.851577,"time":2,"distance":2380,"station_name":"Pasar Minggu Baru","station_id":"PSMB","transit":false,"is_transit":false},{"i_lat":-6.255332,"transit":false,"is_transit":false,"station_id":"DRN","i_long":106.85449,"line":2,"time":2,"distance":824,"station_name":"Duren Kalibata"},{"transit":false,"is_transit":false,"station_name":"Cawang","station_id":"CW","i_long":106.856607,"distance":1546,"i_lat":-6.242512,"line":2,"time":3},{"line":2,"station_id":"TEB","i_long":106.857948,"station_name":"Tebet","time":2,"transit":false,"distance":1230,"is_transit":false,"i_lat":-6.226659},{"is_transit":true,"time":4,"i_lat":-6.209883,"station_id":"MRI","i_long":106.84912,"distance":2610,"station_name":"Manggarai","line":2,"transit":true},{"distance":1275,"time":2,"transit":false,"station_name":"Matraman","i_lat":-6.212485,"is_transit":false,"station_id":"MTR","line":1,"i_long":106.858896},{"i_long":106.86807400000001,"distance":1377,"station_id":"JNG","transit":true,"is_transit":true,"line":1,"station_name":"Jatinegara","i_lat":-6.215091,"time":8},{"i_long":106.861737,"is_transit":false,"time":2,"i_lat":-6.209188,"station_id":"POK","distance":1236,"transit":false,"station_name":"Pondok Jati","line":11},{"i_lat":-6.193792,"line":11,"station_name":"Kramat","station_id":"KMT","i_long":106.855437,"time":2,"distance":1829,"transit":false,"is_transit":false},{"time":1,"transit":false,"station_name":"Gang Sentiong","is_transit":false,"station_id":"GST","i_long":106.850107,"distance":973,"line":11,"i_lat":-6.185975},{"i_long":106.84368,"station_name":"Pasar Senen","line":11,"transit":false,"time":8,"distance":1567,"station_id":"PSE","i_lat":-6.174784,"is_transit":false},{"time":4,"station_id":"KMO","i_lat":-6.161728,"distance":1436,"i_long":106.839204,"station_name":"Kemayoran","line":11,"is_transit":false,"transit":false},{"distance":1901,"station_name":"Rajawali","line":11,"transit":false,"is_transit":false,"station_id":"RJW","i_lat":-6.14505,"i_long":106.836569,"time":5},{"time":3,"station_id":"KPB","is_transit":true,"i_lat":-6.132549,"i_long":106.826365,"line":4,"transit":true,"station_name":"Kampung Bandan","distance":1444},{"line":2,"i_long":106.812439,"is_transit":false,"station_name":"Jakarta Kota","station_id":"JAKK","time":3,"transit":false,"distance":1364,"i_lat":-6.137569}]]}