{"data":[[{"transit":false,"station_name":"Lenteng Agung","i_lat":-6.330363,"i_long":106.832616,"distance":0,"time":0,"station_id":"LNA","is_transit":false,"line":2},{"line":2,"station_name":"Tanjung Barat","i_long":106.838896,"transit":false,"i_lat":-6.3080680000000005,"time":3,"distance":2671,"station_id":"TNT","is_transit":false},{"i_long":106.843999,"time":4,"station_id":"PSM","is_transit":false,"station_name":"Pasar Minggu","distance":2820,"line":2,"transit":false,"i_lat":-6.2842400000000005},{"transit":false,"station_name":"Pasar Minggu Baru","i_long":106.851577,"line":2,"is_transit":false,"time":2,"station_id":"PSMB","i_lat":-6.263214,"distance":2380},{"i_long":106.85449,"station_name":"Duren Kalibata","time":2,"station_id":"DRN","i_lat":-6.255332,"transit":false,"distance":824,"is_transit":false,"line":0},{"time":3,"station_id":"CW","station_name":"Cawang","is_transit":false,"distance":1546,"i_long":106.856607,"i_lat":-6.242512,"line":0,"transit":false},{"transit":false,"line":2,"station_name":"Tebet","i_long":106.857948,"station_id":"TEB","is_transit":false,"time":2,"distance":1230,"i_lat":-6.226659},{"i_lat":-6.209883,"distance":2610,"line":0,"i_long":106.84912,"is_transit":true,"transit":true,"station_name":"Manggarai","station_id":"MRI","time":4},{"is_transit":false,"transit":false,"station_name":"Sudirman","station_id":"SUD","distance":3186,"i_lat":-6.202263,"i_long":106.822649,"time":4,"line":1},{"time":1,"is_transit":false,"line":1,"station_name":"Sudirman Baru","transit":false,"i_long":106.819881,"distance":280,"station_id":"SUDB","i_lat":-6.201433},{"station_name":"Karet","distance":471,"time":1,"i_lat":-6.20132,"line":1,"station_id":"KAT","transit":false,"i_long":106.816351,"is_transit":false},{"i_lat":-6.185545,"station_name":"Tanah Abang","transit":true,"line":1,"station_id":"THB","is_transit":true,"i_long":106.811091,"time":5,"distance":2029},{"i_lat":-6.207404,"i_long":106.79689,"time":6,"is_transit":false,"line":6,"station_name":"Palmerah","station_id":"PLM","distance":3191,"transit":false}],[{"transit":false,"time":0,"i_lat":-6.330363,"i_long":106.832616,"line":2,"is_transit":false,"distance":0,"station_id":"LNA","station_name":"Lenteng Agung"},{"i_long":106.838896,"line":2,"i_lat":-6.3080680000000005,"station_name":"Tanjung Barat","distance":2671,"station_id":"TNT","is_transit":false,"time":3,"transit":false},{"i_long":106.843999,"line":2,"distance":2820,"station_id":"PSM","station_name":"Pasar Minggu","i_lat":-6.2842400000000005,"is_transit":false,"time":4,"transit":false},{"time":2,"i_lat":-6.263214,"is_transit":false,"transit":false,"station_name":"Pasar Minggu Baru","line":2,"distance":2380,"station_id":"PSMB","i_long":106.851577},{"distance":824,"line":0,"i_lat":-6.255332,"station_name":"Duren Kalibata","is_transit":false,"time":2,"i_long":106.85449,"station_id":"DRN","transit":false},{"transit":false,"station_name":"Cawang","distance":1546,"time":3,"station_id":"CW","is_transit":false,"i_lat":-6.242512,"line":0,"i_long":106.856607},{"transit":false,"is_transit":false,"time":2,"i_long":106.857948,"i_lat":-6.226659,"line":2,"station_name":"Tebet","distance":1230,"station_id":"TEB"},{"station_id":"MRI","transit":true,"is_transit":true,"i_lat":-6.209883,"distance":2610,"time":4,"line":0,"station_name":"Manggarai","i_long":106.84912},{"transit":false,"is_transit":false,"line":0,"time":4,"i_lat":-6.198556,"station_name":"Cikini","i_long":106.840169,"station_id":"CKI","distance":1590},{"distance":1750,"time":3,"line":2,"i_long":106.832183,"i_lat":-6.186295,"transit":false,"station_name":"Gondangdia","station_id":"GDD","is_transit":false},{"distance":2015,"station_name":"Juanda","station_id":"JUA","time":4,"transit":false,"line":2,"is_transit":false,"i_lat":-6.166716,"i_long":106.828284},{"station_id":"SW","is_transit":false,"time":2,"line":2,"station_name":"Sawah Besar","i_long":106.827103,"i_lat":-6.160725,"distance":1149,"transit":false},{"station_name":"Manggabesar","line":2,"time":2,"is_transit":false,"distance":906,"i_lat":-6.149769,"i_long":106.82482,"transit":false,"station_id":"MGB"},{"distance":1080,"station_id":"JAY","transit":false,"is_transit":false,"i_long":106.820901,"i_lat":-6.141205,"time":2,"station_name":"Jayakarta","line":7},{"line":0,"station_id":"JAKK","distance":1264,"station_name":"Jakarta Kota","transit":true,"time":4,"i_lat":-6.137569,"is_transit":true,"i_long":106.812439},{"is_transit":true,"station_id":"KPB","i_lat":-6.132549,"transit":false,"time":3,"i_long":106.826365,"station_name":"Kampung Bandan","line":0,"distance":1364},{"i_lat":-6.144674,"station_id":"AK","transit":false,"is_transit":false,"distance":4102,"i_long":106.79867,"line":0,"station_name":"Angke","time":9},{"line":1,"time":4,"is_transit":true,"i_long":106.800832,"station_id":"DU","i_lat":-6.155215,"distance":1230,"transit":true,"station_name":"Duri"},{"line":1,"station_id":"THB","distance":3632,"i_long":106.811091,"station_name":"Tanah Abang","i_lat":-6.185545,"is_transit":true,"transit":true,"time":8},{"transit":false,"station_name":"Palmerah","is_transit":false,"i_long":106.79689,"station_id":"PLM","i_lat":-6.207404,"distance":3191,"line":6,"time":6}],[{"i_long":106.832616,"i_lat":-6.330363,"line":2,"transit":false,"station_name":"Lenteng Agung","is_transit":false,"station_id":"LNA","time":0,"distance":0},{"i_lat":-6.3080680000000005,"transit":false,"station_name":"Tanjung Barat","station_id":"TNT","time":3,"distance":2671,"line":2,"is_transit":false,"i_long":106.838896},{"line":2,"transit":false,"station_id":"PSM","i_long":106.843999,"time":4,"is_transit":false,"i_lat":-6.2842400000000005,"distance":2820,"station_name":"Pasar Minggu"},{"line":2,"station_name":"Pasar Minggu Baru","transit":false,"distance":2380,"i_lat":-6.263214,"i_long":106.851577,"time":2,"station_id":"PSMB","is_transit":false},{"distance":824,"time":2,"is_transit":false,"i_long":106.85449,"station_id":"DRN","station_name":"Duren Kalibata","line":0,"i_lat":-6.255332,"transit":false},{"i_lat":-6.242512,"is_transit":false,"line":0,"time":3,"distance":1546,"station_name":"Cawang","transit":false,"i_long":106.856607,"station_id":"CW"},{"time":2,"station_id":"TEB","i_lat":-6.226659,"i_long":106.857948,"transit":false,"is_transit":false,"station_name":"Tebet","distance":1230,"line":2},{"is_transit":true,"time":4,"i_lat":-6.209883,"station_id":"MRI","station_name":"Manggarai","i_long":106.84912,"line":0,"distance":2610,"transit":true},{"i_long":106.858896,"station_name":"Matraman","transit":false,"i_lat":-6.212485,"is_transit":false,"station_id":"MTR","time":2,"distance":1275,"line":1},{"time":8,"i_lat":-6.215091,"station_name":"Jatinegara","station_id":"JNG","i_long":106.86807400000001,"distance":1377,"is_transit":true,"line":0,"transit":true},{"station_name":"Pondok Jati","is_transit":false,"transit":false,"distance":1236,"station_id":"POK","time":2,"i_long":106.861737,"line":11,"i_lat":-6.209188},{"i_long":106.855437,"line":11,"station_name":"Kramat","distance":1829,"transit":false,"station_id":"KMT","is_transit":false,"time":2,"i_lat":-6.193792},{"i_long":106.850107,"distance":973,"time":1,"line":11,"station_id":"GST","station_name":"Gang Sentiong","transit":false,"i_lat":-6.185975,"is_transit":false},{"station_id":"PSE","i_long":106.84368,"is_transit":false,"line":11,"station_name":"Pasar Senen","i_lat":-6.174784,"transit":false,"time":8,"distance":1567},{"transit":false,"station_name":"Kemayoran","line":11,"distance":1436,"is_transit":false,"time":4,"i_lat":-6.161728,"station_id":"KMO","i_long":106.839204},{"i_lat":-6.14505,"i_long":106.836569,"line":11,"station_id":"RJW","station_name":"Rajawali","transit":false,"is_transit":false,"time":5,"distance":1901},{"station_name":"Kampung Bandan","i_long":106.826365,"station_id":"KPB","transit":true,"is_transit":true,"distance":1444,"i_lat":-6.132549,"line":0,"time":3},{"station_name":"Angke","transit":false,"distance":4102,"i_long":106.79867,"line":0,"is_transit":false,"time":9,"station_id":"AK","i_lat":-6.144674},{"station_id":"DU","i_lat":-6.155215,"time":4,"transit":true,"line":1,"is_transit":true,"distance":1230,"station_name":"Duri","i_long":106.800832},{"is_transit":true,"station_id":"THB","transit":true,"line":1,"time":8,"i_lat":-6.185545,"i_long":106.811091,"distance":3632,"station_name":"Tanah Abang"},{"station_name":"Palmerah","i_lat":-6.207404,"i_long":106.79689,"line":6,"is_transit":false,"time":6,"station_id":"PLM","transit":false,"distance":3191}]]}