{"data":[[{"transit":false,"station_name":"Lenteng Agung","line":2,"time":0,"station_id":"LNA","i_long":106.832616,"i_lat":-6.330363,"is_transit":false,"distance":0},{"is_transit":false,"distance":2671,"station_name":"Tanjung Barat","i_long":106.838896,"line":2,"time":3,"i_lat":-6.3080680000000005,"transit":false,"station_id":"TNT"},{"i_long":106.843999,"transit":false,"station_id":"PSM","is_transit":false,"time":4,"line":2,"station_name":"Pasar Minggu","distance":2820,"i_lat":-6.2842400000000005},{"distance":2380,"transit":false,"time":2,"i_long":106.851577,"line":2,"station_name":"Pasar Minggu Baru","station_id":"PSMB","i_lat":-6.263214,"is_transit":false},{"line":2,"transit":false,"distance":824,"station_name":"Duren Kalibata","time":2,"station_id":"DRN","i_long":106.85449,"is_transit":false,"i_lat":-6.255332},{"i_long":106.856607,"line":2,"i_lat":-6.242512,"time":3,"distance":1546,"station_name":"Cawang","transit":false,"is_transit":false,"station_id":"CW"},{"i_long":106.857948,"i_lat":-6.226659,"transit":false,"is_transit":false,"distance":1230,"station_id":"TEB","station_name":"Tebet","line":2,"time":2},{"i_long":106.84912,"line":2,"transit":true,"is_transit":true,"time":4,"station_name":"Manggarai","i_lat":-6.209883,"distance":2610,"station_id":"MRI"},{"time":4,"distance":3186,"station_name":"Sudirman","is_transit":false,"i_long":106.822649,"transit":false,"i_lat":-6.202263,"line":1,"station_id":"SUD"},{"time":1,"line":1,"i_lat":-6.201433,"transit":false,"distance":280,"i_long":106.819881,"station_id":"SUDB","station_name":"Sudirman Baru","is_transit":false},{"station_name":"Karet","i_long":106.816351,"time":1,"transit":false,"i_lat":-6.20132,"line":1,"is_transit":false,"station_id":"KAT","distance":471},{"station_name":"Tanah Abang","distance":2029,"station_id":"THB","line":1,"transit":false,"i_lat":-6.185545,"i_long":106.811091,"time":5,"is_transit":false}],[{"i_lat":-6.330363,"is_transit":false,"time":0,"station_name":"Lenteng Agung","transit":false,"distance":0,"i_long":106.832616,"station_id":"LNA","line":2},{"station_name":"Tanjung Barat","is_transit":false,"time":3,"transit":false,"distance":2671,"line":2,"station_id":"TNT","i_lat":-6.3080680000000005,"i_long":106.838896},{"transit":false,"is_transit":false,"i_lat":-6.2842400000000005,"distance":2820,"line":2,"station_id":"PSM","i_long":106.843999,"time":4,"station_name":"Pasar Minggu"},{"station_id":"PSMB","i_lat":-6.263214,"distance":2380,"i_long":106.851577,"is_transit":false,"station_name":"Pasar Minggu Baru","time":2,"transit":false,"line":2},{"i_long":106.85449,"is_transit":false,"time":2,"station_id":"DRN","station_name":"Duren Kalibata","i_lat":-6.255332,"distance":824,"line":2,"transit":false},{"distance":1546,"station_id":"CW","time":3,"transit":false,"i_lat":-6.242512,"is_transit":false,"line":2,"i_long":106.856607,"station_name":"Cawang"},{"time":2,"transit":false,"is_transit":false,"i_lat":-6.226659,"station_name":"Tebet","line":2,"distance":1230,"station_id":"TEB","i_long":106.857948},{"transit":false,"is_transit":false,"time":4,"i_lat":-6.209883,"distance":2610,"station_name":"Manggarai","line":2,"i_long":106.84912,"station_id":"MRI"},{"transit":false,"line":2,"i_long":106.840169,"time":4,"distance":1590,"station_name":"Cikini","i_lat":-6.198556,"is_transit":false,"station_id":"CKI"},{"i_lat":-6.186295,"transit":false,"time":3,"distance":1750,"i_long":106.832183,"station_name":"Gondangdia","is_transit":false,"station_id":"GDD","line":2},{"i_long":106.828284,"line":2,"i_lat":-6.166716,"distance":2015,"transit":false,"station_name":"Juanda","is_transit":false,"time":4,"station_id":"JUA"},{"i_lat":-6.160725,"distance":1149,"station_id":"SW","station_name":"Sawah Besar","is_transit":false,"line":2,"time":2,"transit":false,"i_long":106.827103},{"transit":false,"i_lat":-6.149769,"station_name":"Manggabesar","distance":906,"line":2,"time":2,"station_id":"MGB","i_long":106.82482,"is_transit":false},{"is_transit":false,"station_id":"JAY","i_long":106.820901,"distance":1080,"station_name":"Jayakarta","time":2,"i_lat":-6.141205,"transit":false,"line":2},{"distance":1264,"i_lat":-6.137569,"line":2,"station_id":"JAKK","i_long":106.812439,"time":4,"station_name":"Jakarta Kota","is_transit":true,"transit":true},{"distance":1364,"i_lat":-6.132549,"i_long":106.826365,"is_transit":true,"line":4,"transit":true,"station_id":"KPB","station_name":"Kampung Bandan","time":3},{"station_name":"Angke","distance":4102,"time":9,"i_long":106.79867,"line":1,"transit":false,"station_id":"AK","is_transit":false,"i_lat":-6.144674},{"is_transit":false,"station_name":"Duri","transit":false,"distance":1230,"line":1,"time":4,"i_lat":-6.155215,"i_long":106.800832,"station_id":"DU"},{"station_name":"Tanah Abang","is_transit":false,"i_long":106.811091,"station_id":"THB","time":8,"line":1,"distance":3632,"i_lat":-6.185545,"transit":false}],[{"time":0,"line":2,"is_transit":false,"i_long":106.832616,"station_name":"Lenteng Agung","distance":0,"transit":false,"i_lat":-6.330363,"station_id":"LNA"},{"station_id":"TNT","station_name":"Tanjung Barat","distance":2671,"is_transit":false,"time":3,"i_lat":-6.3080680000000005,"transit":false,"i_long":106.838896,"line":2},{"is_transit":false,"station_id":"PSM","i_lat":-6.2842400000000005,"distance":2820,"station_name":"Pasar Minggu","transit":false,"time":4,"line":2,"i_long":106.843999},{"transit":false,"station_name":"Pasar Minggu Baru","is_transit":false,"station_id":"PSMB","distance":2380,"i_lat":-6.263214,"i_long":106.851577,"line":2,"time":2},{"i_long":106.85449,"is_transit":false,"station_id":"DRN","distance":824,"i_lat":-6.255332,"line":2,"station_name":"Duren Kalibata","transit":false,"time":2},{"transit":false,"is_transit":false,"i_lat":-6.242512,"line":2,"station_name":"Cawang","station_id":"CW","time":3,"distance":1546,"i_long":106.856607},{"is_transit":false,"i_long":106.857948,"line":2,"i_lat":-6.226659,"transit":false,"station_id":"TEB","station_name":"Tebet","time":2,"distance":1230},{"time":4,"i_lat":-6.209883,"station_name":"Manggarai","is_transit":true,"station_id":"MRI","line":2,"i_long":106.84912,"transit":true,"distance":2610},{"station_id":"MTR","station_name":"Matraman","line":1,"transit":false,"i_lat":-6.212485,"i_long":106.858896,"is_transit":false,"time":2,"distance":1275},{"station_name":"Jatinegara","is_transit":true,"i_lat":-6.215091,"time":8,"distance":1377,"transit":true,"i_long":106.86807400000001,"line":1,"station_id":"JNG"},{"station_name":"Pondok Jati","time":2,"i_long":106.861737,"is_transit":false,"line":11,"station_id":"POK","distance":1236,"i_lat":-6.209188,"transit":false},{"distance":1829,"is_transit":false,"transit":false,"station_name":"Kramat","i_long":106.855437,"station_id":"KMT","line":11,"i_lat":-6.193792,"time":2},{"station_id":"GST","i_long":106.850107,"station_name":"Gang Sentiong","transit":false,"i_lat":-6.185975,"time":1,"line":11,"is_transit":false,"distance":973},{"station_id":"PSE","i_long":106.84368,"transit":false,"line":11,"is_transit":false,"station_name":"Pasar Senen","time":8,"distance":1567,"i_lat":-6.174784},{"is_transit":false,"i_long":106.839204,"transit":false,"time":4,"station_id":"KMO","line":11,"distance":1436,"i_lat":-6.161728,"station_name":"Kemayoran"},{"is_transit":false,"line":11,"i_lat":-6.14505,"i_long":106.836569,"station_name":"Rajawali","time":5,"transit":false,"distance":1901,"station_id":"RJW"},{"line":4,"transit":true,"is_transit":true,"distance":1444,"station_name":"Kampung Bandan","time":3,"i_long":106.826365,"i_lat":-6.132549,"station_id":"KPB"},{"transit":false,"i_long":106.79867,"is_transit":false,"station_name":"Angke","i_lat":-6.144674,"time":9,"station_id":"AK","line":1,"distance":4102},{"station_name":"Duri","distance":1230,"i_lat":-6.155215,"transit":false,"time":4,"i_long":106.800832,"station_id":"DU","is_transit":false,"line":1},{"i_long":106.811091,"transit":false,"station_id":"THB","station_name":"Tanah Abang","is_transit":false,"time":8,"distance":3632,"i_lat":-6.185545,"line":1}]]}