{"data":[[{"time":0,"i_long":106.832616,"i_lat":-6.330363,"is_transit":false,"distance":0,"line":2,"station_id":"LNA","station_name":"Lenteng Agung","transit":false},{"is_transit":false,"distance":2671,"transit":false,"station_name":"Tanjung Barat","time":3,"i_lat":-6.3080680000000005,"station_id":"TNT","i_long":106.838896,"line":2},{"station_id":"PSM","i_long":106.843999,"time":4,"transit":false,"station_name":"Pasar Minggu","is_transit":false,"line":2,"distance":2820,"i_lat":-6.2842400000000005},{"line":2,"i_long":106.851577,"i_lat":-6.263214,"distance":2380,"transit":false,"station_name":"Pasar Minggu Baru","time":2,"station_id":"PSMB","is_transit":false},{"station_id":"DRN","transit":false,"is_transit":false,"time":2,"station_name":"Duren Kalibata","distance":824,"i_lat":-6.255332,"i_long":106.85449,"line":2},{"i_lat":-6.242512,"transit":false,"i_long":106.856607,"station_name":"Cawang","time":3,"line":2,"is_transit":false,"station_id":"CW","distance":1546},{"station_id":"TEB","time":2,"is_transit":false,"distance":1230,"i_long":106.857948,"line":2,"i_lat":-6.226659,"station_name":"Tebet","transit":false},{"time":4,"station_id":"MRI","distance":2610,"i_lat":-6.209883,"i_long":106.84912,"transit":false,"is_transit":false,"line":2,"station_name":"Manggarai"},{"transit":false,"time":4,"distance":1590,"is_transit":false,"i_lat":-6.198556,"station_name":"Cikini","i_long":106.840169,"line":2,"station_id":"CKI"},{"transit":false,"i_lat":-6.186295,"time":3,"is_transit":false,"distance":1750,"line":2,"i_long":106.832183,"station_id":"GDD","station_name":"Gondangdia"},{"transit":false,"i_lat":-6.166716,"distance":2015,"line":2,"station_id":"JUA","is_transit":false,"station_name":"Juanda","i_long":106.828284,"time":4},{"is_transit":false,"station_name":"Sawah Besar","distance":1149,"time":2,"station_id":"SW","i_long":106.827103,"transit":false,"line":2,"i_lat":-6.160725},{"i_long":106.82482,"is_transit":false,"line":2,"station_id":"MGB","i_lat":-6.149769,"transit":false,"station_name":"Manggabesar","time":2,"distance":906},{"station_name":"Jayakarta","distance":1080,"i_long":106.820901,"is_transit":false,"i_lat":-6.141205,"transit":false,"station_id":"JAY","time":2,"line":2},{"station_id":"JAKK","transit":false,"time":4,"i_long":106.812439,"line":2,"distance":1264,"station_name":"Jakarta Kota","is_transit":false,"i_lat":-6.137569}],[{"line":2,"transit":false,"time":0,"is_transit":false,"distance":0,"i_lat":-6.330363,"station_id":"LNA","station_name":"Lenteng Agung","i_long":106.832616},{"line":2,"transit":false,"station_name":"Tanjung Barat","is_transit":false,"i_lat":-6.3080680000000005,"i_long":106.838896,"station_id":"TNT","time":3,"distance":2671},{"is_transit":false,"distance":2820,"i_long":106.843999,"station_id":"PSM","line":2,"i_lat":-6.2842400000000005,"transit":false,"time":4,"station_name":"Pasar Minggu"},{"station_id":"PSMB","transit":false,"station_name":"Pasar Minggu Baru","time":2,"line":2,"i_lat":-6.263214,"is_transit":false,"distance":2380,"i_long":106.851577},{"distance":824,"time":2,"station_id":"DRN","station_name":"Duren Kalibata","transit":false,"is_transit":false,"i_lat":-6.255332,"i_long":106.85449,"line":2},{"distance":1546,"is_transit":false,"station_name":"Cawang","i_long":106.856607,"i_lat":-6.242512,"line":2,"transit":false,"station_id":"CW","time":3},{"i_long":106.857948,"is_transit":false,"line":2,"distance":1230,"time":2,"i_lat":-6.226659,"transit":false,"station_id":"TEB","station_name":"Tebet"},{"i_lat":-6.209883,"is_transit":true,"distance":2610,"i_long":106.84912,"transit":true,"line":2,"station_name":"Manggarai","station_id":"MRI","time":4},{"i_long":106.822649,"distance":3186,"i_lat":-6.202263,"is_transit":false,"transit":false,"station_id":"SUD","station_name":"Sudirman","line":1,"time":4},{"line":1,"is_transit":false,"station_id":"SUDB","transit":false,"i_lat":-6.201433,"distance":280,"time":1,"station_name":"Sudirman Baru","i_long":106.819881},{"station_name":"Karet","time":1,"station_id":"KAT","i_lat":-6.20132,"distance":471,"line":1,"i_long":106.816351,"transit":false,"is_transit":false},{"i_long":106.811091,"distance":2029,"time":5,"line":1,"is_transit":false,"station_id":"THB","transit":false,"station_name":"Tanah Abang","i_lat":-6.185545},{"transit":false,"is_transit":false,"i_long":106.800832,"time":8,"station_name":"Duri","distance":3632,"i_lat":-6.155215,"line":1,"station_id":"DU"},{"is_transit":false,"station_name":"Angke","time":4,"i_long":106.79867,"station_id":"AK","line":1,"distance":1230,"i_lat":-6.144674,"transit":false},{"time":9,"is_transit":true,"i_lat":-6.132549,"station_id":"KPB","station_name":"Kampung Bandan","line":4,"distance":4102,"transit":true,"i_long":106.826365},{"i_long":106.812439,"station_name":"Jakarta Kota","station_id":"JAKK","is_transit":false,"distance":1364,"line":2,"transit":false,"time":3,"i_lat":-6.137569}],[{"is_transit":false,"time":0,"distance":0,"transit":false,"i_lat":-6.330363,"station_name":"Lenteng Agung","i_long":106.832616,"line":2,"station_id":"LNA"},{"time":3,"line":2,"station_id":"TNT","is_transit":false,"distance":2671,"transit":false,"station_name":"Tanjung Barat","i_long":106.838896,"i_lat":-6.3080680000000005},{"is_transit":false,"time":4,"transit":false,"i_lat":-6.2842400000000005,"station_name":"Pasar Minggu","i_long":106.843999,"line":2,"station_id":"PSM","distance":2820},{"is_transit":false,"line":2,"distance":2380,"time":2,"station_id":"PSMB","transit":false,"station_name":"Pasar Minggu Baru","i_long":106.851577,"i_lat":-6.263214},{"i_long":106.85449,"time":2,"transit":false,"station_name":"Duren Kalibata","distance":824,"station_id":"DRN","is_transit":false,"i_lat":-6.255332,"line":2},{"transit":false,"station_id":"CW","station_name":"Cawang","time":3,"i_lat":-6.242512,"i_long":106.856607,"is_transit":false,"distance":1546,"line":2},{"i_long":106.857948,"transit":false,"station_name":"Tebet","distance":1230,"time":2,"line":2,"is_transit":false,"i_lat":-6.226659,"station_id":"TEB"},{"distance":2610,"station_id":"MRI","is_transit":true,"station_name":"Manggarai","i_lat":-6.209883,"i_long":106.84912,"time":4,"line":2,"transit":true},{"i_lat":-6.212485,"transit":false,"station_name":"Matraman","is_transit":false,"station_id":"MTR","i_long":106.858896,"time":2,"line":1,"distance":1275},{"i_lat":-6.215091,"i_long":106.86807400000001,"station_name":"Jatinegara","distance":1377,"is_transit":true,"transit":true,"time":8,"line":1,"station_id":"JNG"},{"station_id":"POK","i_long":106.861737,"time":2,"is_transit":false,"station_name":"Pondok Jati","distance":1236,"transit":false,"i_lat":-6.209188,"line":11},{"distance":1829,"line":11,"transit":false,"i_lat":-6.193792,"i_long":106.855437,"station_id":"KMT","station_name":"Kramat","is_transit":false,"time":2},{"station_id":"GST","i_lat":-6.185975,"i_long":106.850107,"time":1,"transit":false,"station_name":"Gang Sentiong","is_transit":false,"line":11,"distance":973},{"i_long":106.84368,"is_transit":false,"distance":1567,"transit":false,"i_lat":-6.174784,"line":11,"time":8,"station_id":"PSE","station_name":"Pasar Senen"},{"station_id":"KMO","station_name":"Kemayoran","time":4,"is_transit":false,"i_long":106.839204,"transit":false,"i_lat":-6.161728,"line":11,"distance":1436},{"i_lat":-6.14505,"time":5,"line":11,"i_long":106.836569,"transit":false,"distance":1901,"station_id":"RJW","station_name":"Rajawali","is_transit":false},{"transit":true,"distance":1444,"station_id":"KPB","is_transit":true,"i_long":106.826365,"time":3,"i_lat":-6.132549,"line":4,"station_name":"Kampung Bandan"},{"i_long":106.812439,"distance":1364,"station_name":"Jakarta Kota","i_lat":-6.137569,"station_id":"JAKK","time":3,"line":2,"transit":false,"is_transit":false}]]}