{"data":[[{"line":2,"station_name":"Lenteng Agung","is_transit":false,"station_id":"LNA","distance":0,"i_lat":-6.330363,"transit":false,"time":0,"i_long":106.832616},{"time":3,"i_lat":-6.3080680000000005,"i_long":106.838896,"station_id":"TNT","transit":false,"distance":2671,"line":2,"station_name":"Tanjung Barat","is_transit":false},{"is_transit":false,"line":2,"station_name":"Pasar Minggu","distance":2820,"station_id":"PSM","time":4,"i_lat":-6.2842400000000005,"i_long":106.843999,"transit":false},{"is_transit":false,"distance":2380,"time":2,"i_long":106.851577,"transit":false,"i_lat":-6.263214,"line":2,"station_name":"Pasar Minggu Baru","station_id":"PSMB"},{"transit":false,"station_name":"Duren Kalibata","distance":824,"is_transit":false,"i_lat":-6.255332,"time":2,"i_long":106.85449,"line":2,"station_id":"DRN"},{"line":2,"station_name":"Cawang","time":3,"distance":1546,"i_lat":-6.242512,"is_transit":false,"station_id":"CW","transit":false,"i_long":106.856607},{"i_long":106.857948,"distance":1230,"station_id":"TEB","time":2,"station_name":"Tebet","is_transit":false,"line":2,"i_lat":-6.226659,"transit":false},{"i_lat":-6.209883,"time":4,"transit":true,"station_id":"MRI","is_transit":true,"distance":2610,"i_long":106.84912,"station_name":"Manggarai","line":2},{"line":1,"is_transit":false,"distance":3186,"time":4,"transit":false,"station_name":"Sudirman","i_lat":-6.202263,"station_id":"SUD","i_long":106.822649},{"is_transit":false,"transit":false,"line":1,"station_id":"SUDB","time":1,"i_lat":-6.201433,"station_name":"Sudirman Baru","i_long":106.819881,"distance":280},{"line":1,"station_id":"KAT","station_name":"Karet","is_transit":false,"time":1,"transit":false,"distance":471,"i_long":106.816351,"i_lat":-6.20132},{"transit":true,"time":5,"line":1,"i_long":106.811091,"i_lat":-6.185545,"station_id":"THB","station_name":"Tanah Abang","is_transit":true,"distance":2029},{"i_long":106.79689,"station_name":"Palmerah","i_lat":-6.207404,"transit":false,"is_transit":false,"time":6,"distance":3191,"line":6,"station_id":"PLM"},{"station_id":"KBY","is_transit":false,"i_lat":-6.237242,"distance":3737,"time":7,"station_name":"Kebayoran","transit":false,"line":6,"i_long":106.780334},{"line":6,"i_long":106.74273,"time":8,"station_id":"PDJ","is_transit":false,"i_lat":-6.276362,"station_name":"Pondokranji","transit":false,"distance":6218},{"transit":false,"distance":2179,"station_id":"JMU","i_lat":-6.288927,"station_name":"Jurangmangu","i_long":106.728916,"is_transit":false,"time":3,"line":6},{"i_lat":-6.296963,"i_long":106.712277,"line":6,"station_name":"Sudimara","station_id":"SDM","is_transit":false,"transit":false,"time":4,"distance":1994},{"line":6,"time":6,"transit":false,"is_transit":false,"distance":4566,"i_lat":-6.314823,"station_id":"RU","station_name":"Rawa Buntu","i_long":106.675475},{"i_lat":-6.319871,"station_id":"SRP","time":4,"i_long":106.66566,"is_transit":false,"line":6,"transit":false,"station_name":"Serpong","distance":2413},{"station_id":"CSK","transit":false,"distance":1784,"station_name":"Cisauk","line":3,"time":4,"i_lat":-6.32484,"i_long":106.640411,"is_transit":false},{"i_lat":-6.329547,"is_transit":false,"i_long":106.617853,"station_id":"CC","distance":2519,"transit":false,"station_name":"Cicayur","time":4,"line":3},{"is_transit":false,"transit":false,"station_id":"PRP","station_name":"Parung Panjang","i_long":106.568863,"distance":5968,"line":6,"i_lat":-6.3441410000000005,"time":8},{"line":3,"station_name":"Cilejit","time":9,"transit":false,"i_lat":-6.354349,"i_long":106.508482,"station_id":"CJT","distance":7025,"is_transit":false},{"station_name":"Daru","transit":false,"line":0,"station_id":"DAR","i_long":106.491338,"is_transit":false,"time":6,"i_lat":-6.338021,"distance":2675},{"station_name":"Tenjo","is_transit":false,"time":5,"i_long":106.460812,"transit":false,"station_id":"TEJ","distance":3902,"i_lat":-6.327251,"line":6},{"time":5,"i_lat":-6.328533,"line":6,"is_transit":false,"i_long":106.425991,"transit":false,"distance":2974,"station_name":"Tigaraksa","station_id":"TGS"},{"station_name":"Cikoya","station_id":"CKY","line":3,"transit":false,"i_long":106.411216,"is_transit":false,"i_lat":-6.33561,"distance":2651,"time":3},{"i_lat":-6.332307,"i_long":106.394373,"station_id":"MJ","transit":false,"line":6,"distance":1853,"time":4,"is_transit":false,"station_name":"Maja"}],[{"line":2,"time":0,"transit":false,"is_transit":false,"station_name":"Lenteng Agung","i_long":106.832616,"station_id":"LNA","distance":0,"i_lat":-6.330363},{"i_long":106.838896,"time":3,"is_transit":false,"transit":false,"station_id":"TNT","i_lat":-6.3080680000000005,"line":2,"station_name":"Tanjung Barat","distance":2671},{"is_transit":false,"i_long":106.843999,"line":2,"transit":false,"station_name":"Pasar Minggu","time":4,"distance":2820,"station_id":"PSM","i_lat":-6.2842400000000005},{"distance":2380,"i_lat":-6.263214,"time":2,"station_id":"PSMB","station_name":"Pasar Minggu Baru","transit":false,"i_long":106.851577,"is_transit":false,"line":2},{"i_long":106.85449,"line":2,"is_transit":false,"station_id":"DRN","distance":824,"transit":false,"station_name":"Duren Kalibata","time":2,"i_lat":-6.255332},{"transit":false,"i_lat":-6.242512,"i_long":106.856607,"line":2,"time":3,"station_id":"CW","distance":1546,"is_transit":false,"station_name":"Cawang"},{"i_lat":-6.226659,"station_id":"TEB","i_long":106.857948,"line":2,"station_name":"Tebet","time":2,"distance":1230,"transit":false,"is_transit":false},{"i_long":106.84912,"line":2,"distance":2610,"time":4,"station_name":"Manggarai","i_lat":-6.209883,"station_id":"MRI","is_transit":false,"transit":false},{"i_long":106.840169,"line":2,"is_transit":false,"distance":1590,"transit":false,"i_lat":-6.198556,"station_name":"Cikini","station_id":"CKI","time":4},{"time":3,"is_transit":false,"line":2,"transit":false,"station_name":"Gondangdia","i_long":106.832183,"i_lat":-6.186295,"distance":1750,"station_id":"GDD"},{"distance":2015,"station_name":"Juanda","line":2,"station_id":"JUA","time":4,"is_transit":false,"transit":false,"i_lat":-6.166716,"i_long":106.828284},{"i_long":106.827103,"distance":1149,"time":2,"station_id":"SW","line":2,"is_transit":false,"transit":false,"i_lat":-6.160725,"station_name":"Sawah Besar"},{"transit":false,"station_name":"Manggabesar","distance":906,"i_lat":-6.149769,"station_id":"MGB","line":2,"time":2,"i_long":106.82482,"is_transit":false},{"i_long":106.820901,"time":2,"line":2,"transit":false,"station_name":"Jayakarta","is_transit":false,"distance":1080,"i_lat":-6.141205,"station_id":"JAY"},{"distance":1264,"is_transit":true,"time":4,"line":2,"i_long":106.812439,"i_lat":-6.137569,"station_id":"JAKK","transit":true,"station_name":"Jakarta Kota"},{"time":3,"i_long":106.826365,"line":4,"station_id":"KPB","is_transit":true,"transit":true,"i_lat":-6.132549,"station_name":"Kampung Bandan","distance":1364},{"time":9,"distance":4102,"station_id":"AK","is_transit":false,"station_name":"Angke","i_lat":-6.144674,"i_long":106.79867,"transit":false,"line":1},{"distance":1230,"i_lat":-6.155215,"station_name":"Duri","time":4,"is_transit":false,"i_long":106.800832,"station_id":"DU","transit":false,"line":1},{"transit":true,"line":1,"station_name":"Tanah Abang","is_transit":true,"i_lat":-6.185545,"time":8,"i_long":106.811091,"station_id":"THB","distance":3632},{"station_id":"PLM","distance":3191,"is_transit":false,"i_lat":-6.207404,"i_long":106.79689,"line":6,"transit":false,"station_name":"Palmerah","time":6},{"station_name":"Kebayoran","station_id":"KBY","transit":false,"time":7,"distance":3737,"line":6,"i_lat":-6.237242,"i_long":106.780334,"is_transit":false},{"station_name":"Pondokranji","transit":false,"i_lat":-6.276362,"i_long":106.74273,"line":6,"distance":6218,"is_transit":false,"time":8,"station_id":"PDJ"},{"time":3,"i_lat":-6.288927,"line":6,"is_transit":false,"station_name":"Jurangmangu","distance":2179,"station_id":"JMU","transit":false,"i_long":106.728916},{"transit":false,"distance":1994,"station_id":"SDM","time":4,"i_lat":-6.296963,"i_long":106.712277,"station_name":"Sudimara","line":6,"is_transit":false},{"transit":false,"time":6,"i_lat":-6.314823,"i_long":106.675475,"station_name":"Rawa Buntu","is_transit":false,"station_id":"RU","distance":4566,"line":6},{"line":6,"station_name":"Serpong","is_transit":false,"station_id":"SRP","i_long":106.66566,"distance":2413,"time":4,"i_lat":-6.319871,"transit":false},{"is_transit":false,"station_name":"Cisauk","station_id":"CSK","i_long":106.640411,"line":3,"time":4,"distance":1784,"transit":false,"i_lat":-6.32484},{"distance":2519,"transit":false,"station_name":"Cicayur","is_transit":false,"line":3,"station_id":"CC","i_long":106.617853,"i_lat":-6.329547,"time":4},{"station_name":"Parung Panjang","line":6,"i_long":106.568863,"time":8,"distance":5968,"transit":false,"is_transit":false,"station_id":"PRP","i_lat":-6.3441410000000005},{"distance":7025,"time":9,"is_transit":false,"station_name":"Cilejit","station_id":"CJT","line":3,"transit":false,"i_lat":-6.354349,"i_long":106.508482},{"line":0,"is_transit":false,"distance":2675,"time":6,"transit":false,"station_name":"Daru","i_lat":-6.338021,"i_long":106.491338,"station_id":"DAR"},{"station_name":"Tenjo","station_id":"TEJ","time":5,"distance":3902,"i_lat":-6.327251,"i_long":106.460812,"line":6,"transit":false,"is_transit":false},{"is_transit":false,"time":5,"distance":2974,"i_long":106.425991,"line":6,"station_id":"TGS","transit":false,"i_lat":-6.328533,"station_name":"Tigaraksa"},{"i_lat":-6.33561,"time":3,"station_id":"CKY","distance":2651,"transit":false,"station_name":"Cikoya","line":3,"i_long":106.411216,"is_transit":false},{"i_long":106.394373,"transit":false,"line":6,"station_name":"Maja","time":4,"i_lat":-6.332307,"is_transit":false,"station_id":"MJ","distance":1853}],[{"station_id":"LNA","distance":0,"station_name":"Lenteng Agung","i_lat":-6.330363,"i_long":106.832616,"line":2,"is_transit":false,"transit":false,"time":0},{"distance":2671,"station_id":"TNT","line":2,"station_name":"Tanjung Barat","is_transit":false,"transit":false,"i_lat":-6.3080680000000005,"i_long":106.838896,"time":3},{"is_transit":false,"transit":false,"distance":2820,"i_lat":-6.2842400000000005,"line":2,"station_id":"PSM","station_name":"Pasar Minggu","time":4,"i_long":106.843999},{"i_lat":-6.263214,"distance":2380,"station_id":"PSMB","station_name":"Pasar Minggu Baru","line":2,"is_transit":false,"transit":false,"time":2,"i_long":106.851577},{"distance":824,"station_name":"Duren Kalibata","is_transit":false,"station_id":"DRN","transit":false,"i_long":106.85449,"line":2,"time":2,"i_lat":-6.255332},{"station_name":"Cawang","station_id":"CW","is_transit":false,"time":3,"i_lat":-6.242512,"transit":false,"distance":1546,"line":2,"i_long":106.856607},{"line":2,"station_id":"TEB","i_lat":-6.226659,"transit":false,"is_transit":false,"time":2,"distance":1230,"station_name":"Tebet","i_long":106.857948},{"i_lat":-6.209883,"transit":true,"i_long":106.84912,"station_name":"Manggarai","time":4,"line":2,"is_transit":true,"station_id":"MRI","distance":2610},{"is_transit":false,"time":2,"station_id":"MTR","i_lat":-6.212485,"distance":1275,"line":1,"i_long":106.858896,"transit":false,"station_name":"Matraman"},{"i_long":106.86807400000001,"time":8,"transit":true,"i_lat":-6.215091,"station_name":"Jatinegara","distance":1377,"station_id":"JNG","line":1,"is_transit":true},{"time":2,"transit":false,"i_long":106.861737,"station_id":"POK","i_lat":-6.209188,"is_transit":false,"distance":1236,"station_name":"Pondok Jati","line":11},{"time":2,"station_id":"KMT","distance":1829,"station_name":"Kramat","transit":false,"i_long":106.855437,"i_lat":-6.193792,"is_transit":false,"line":11},{"distance":973,"i_lat":-6.185975,"is_transit":false,"line":11,"station_id":"GST","transit":false,"i_long":106.850107,"station_name":"Gang Sentiong","time":1},{"station_id":"PSE","time":8,"is_transit":false,"transit":false,"station_name":"Pasar Senen","i_lat":-6.174784,"i_long":106.84368,"line":11,"distance":1567},{"distance":1436,"is_transit":false,"transit":false,"station_name":"Kemayoran","station_id":"KMO","i_lat":-6.161728,"i_long":106.839204,"time":4,"line":11},{"i_lat":-6.14505,"i_long":106.836569,"station_name":"Rajawali","line":11,"time":5,"distance":1901,"is_transit":false,"station_id":"RJW","transit":false},{"time":3,"distance":1444,"station_name":"Kampung Bandan","i_long":106.826365,"station_id":"KPB","is_transit":true,"transit":true,"line":4,"i_lat":-6.132549},{"station_id":"AK","i_long":106.79867,"distance":4102,"station_name":"Angke","line":1,"time":9,"transit":false,"i_lat":-6.144674,"is_transit":false},{"line":1,"time":4,"distance":1230,"is_transit":false,"station_id":"DU","i_long":106.800832,"transit":false,"i_lat":-6.155215,"station_name":"Duri"},{"is_transit":true,"time":8,"transit":true,"station_id":"THB","station_name":"Tanah Abang","i_lat":-6.185545,"i_long":106.811091,"line":1,"distance":3632},{"is_transit":false,"line":6,"i_long":106.79689,"i_lat":-6.207404,"station_id":"PLM","time":6,"distance":3191,"transit":false,"station_name":"Palmerah"},{"time":7,"station_name":"Kebayoran","station_id":"KBY","line":6,"i_long":106.780334,"transit":false,"distance":3737,"is_transit":false,"i_lat":-6.237242},{"line":6,"i_lat":-6.276362,"is_transit":false,"i_long":106.74273,"station_name":"Pondokranji","transit":false,"distance":6218,"time":8,"station_id":"PDJ"},{"time":3,"i_long":106.728916,"distance":2179,"transit":false,"i_lat":-6.288927,"station_name":"Jurangmangu","line":6,"is_transit":false,"station_id":"JMU"},{"is_transit":false,"time":4,"station_name":"Sudimara","i_lat":-6.296963,"distance":1994,"station_id":"SDM","transit":false,"i_long":106.712277,"line":6},{"line":6,"transit":false,"time":6,"i_long":106.675475,"is_transit":false,"station_id":"RU","i_lat":-6.314823,"distance":4566,"station_name":"Rawa Buntu"},{"i_lat":-6.319871,"i_long":106.66566,"time":4,"station_id":"SRP","is_transit":false,"transit":false,"distance":2413,"line":6,"station_name":"Serpong"},{"line":3,"station_id":"CSK","time":4,"is_transit":false,"transit":false,"station_name":"Cisauk","i_long":106.640411,"i_lat":-6.32484,"distance":1784},{"i_lat":-6.329547,"i_long":106.617853,"is_transit":false,"station_name":"Cicayur","time":4,"transit":false,"line":3,"station_id":"CC","distance":2519},{"station_name":"Parung Panjang","i_long":106.568863,"line":6,"distance":5968,"is_transit":false,"i_lat":-6.3441410000000005,"time":8,"transit":false,"station_id":"PRP"},{"is_transit":false,"distance":7025,"i_lat":-6.354349,"line":3,"station_name":"Cilejit","i_long":106.508482,"transit":false,"station_id":"CJT","time":9},{"line":0,"station_name":"Daru","i_lat":-6.338021,"i_long":106.491338,"time":6,"transit":false,"station_id":"DAR","distance":2675,"is_transit":false},{"line":6,"i_long":106.460812,"transit":false,"time":5,"station_name":"Tenjo","station_id":"TEJ","i_lat":-6.327251,"distance":3902,"is_transit":false},{"is_transit":false,"line":6,"i_lat":-6.328533,"i_long":106.425991,"station_id":"TGS","station_name":"Tigaraksa","transit":false,"time":5,"distance":2974},{"is_transit":false,"station_name":"Cikoya","i_long":106.411216,"time":3,"station_id":"CKY","transit":false,"i_lat":-6.33561,"line":3,"distance":2651},{"i_lat":-6.332307,"i_long":106.394373,"time":4,"is_transit":false,"distance":1853,"station_id":"MJ","transit":false,"station_name":"Maja","line":6}]]}