{"data":[[{"station_id":"LNA","distance":0,"transit":false,"line":2,"is_transit":false,"i_long":106.832616,"time":0,"i_lat":-6.330363,"station_name":"Lenteng Agung"},{"i_long":106.834175,"is_transit":false,"station_id":"UP","distance":1029,"transit":false,"time":2,"station_name":"Univ. Pancasila","i_lat":-6.339291,"line":2},{"line":2,"distance":2264,"station_name":"Univ. Indonesia","station_id":"UI","is_transit":false,"i_long":106.831474,"i_lat":-6.360749,"time":3,"transit":false},{"station_name":"Pondok Cina","time":2,"is_transit":false,"i_lat":-6.369073,"station_id":"POC","transit":false,"distance":1109,"i_long":106.831114,"line":2},{"distance":2727,"i_long":106.819451,"line":2,"transit":false,"is_transit":false,"i_lat":-6.391065,"station_name":"Depokbaru","time":4,"station_id":"DPB"},{"line":2,"i_long":106.816926,"time":3,"station_name":"Depok","distance":1584,"station_id":"DP","is_transit":false,"transit":false,"i_lat":-6.405256},{"i_lat":-6.448811,"station_id":"CTA","line":2,"station_name":"Citayam","time":6,"distance":5084,"is_transit":true,"transit":true,"i_long":106.800298},{"i_long":106.824374,"station_id":"PDRG","distance":0,"station_name":"Pondok Rajeg","is_transit":false,"transit":false,"time":0,"i_lat":-6.460735,"line":21},{"i_long":106.851978,"time":0,"station_id":"CBN","transit":false,"i_lat":-6.46424,"distance":0,"line":21,"station_name":"Cibinong","is_transit":false}]]}