{"data":[[{"line":2,"distance":0,"transit":false,"station_id":"LNA","i_lat":-6.330363,"station_name":"Lenteng Agung","i_long":106.832616,"is_transit":false,"time":0},{"line":2,"is_transit":false,"station_id":"TNT","time":3,"transit":false,"i_lat":-6.3080680000000005,"station_name":"Tanjung Barat","i_long":106.838896,"distance":2671},{"station_id":"PSM","is_transit":false,"time":4,"transit":false,"station_name":"Pasar Minggu","distance":2820,"i_long":106.843999,"i_lat":-6.2842400000000005,"line":2},{"distance":2380,"station_id":"PSMB","station_name":"Pasar Minggu Baru","time":2,"i_long":106.851577,"is_transit":false,"i_lat":-6.263214,"transit":false,"line":2},{"i_long":106.85449,"station_id":"DRN","station_name":"Duren Kalibata","transit":false,"is_transit":false,"distance":824,"i_lat":-6.255332,"line":0,"time":2},{"station_id":"CW","time":3,"station_name":"Cawang","i_lat":-6.242512,"distance":1546,"line":0,"transit":false,"i_long":106.856607,"is_transit":false},{"time":2,"transit":false,"distance":1230,"i_lat":-6.226659,"station_name":"Tebet","station_id":"TEB","line":2,"is_transit":false,"i_long":106.857948},{"distance":2610,"station_name":"Manggarai","i_long":106.84912,"i_lat":-6.209883,"line":0,"time":4,"station_id":"MRI","is_transit":true,"transit":true},{"time":4,"distance":1590,"is_transit":false,"transit":false,"line":0,"station_name":"Cikini","station_id":"CKI","i_lat":-6.198556,"i_long":106.840169}],[{"i_lat":-6.330363,"transit":false,"line":2,"station_id":"LNA","is_transit":false,"station_name":"Lenteng Agung","time":0,"i_long":106.832616,"distance":0},{"i_long":106.838896,"line":2,"i_lat":-6.3080680000000005,"is_transit":false,"station_id":"TNT","transit":false,"time":3,"station_name":"Tanjung Barat","distance":2671},{"i_lat":-6.2842400000000005,"i_long":106.843999,"time":4,"distance":2820,"station_id":"PSM","is_transit":false,"station_name":"Pasar Minggu","line":2,"transit":false},{"distance":2380,"station_name":"Pasar Minggu Baru","i_lat":-6.263214,"is_transit":false,"i_long":106.851577,"line":2,"transit":false,"station_id":"PSMB","time":2},{"station_name":"Duren Kalibata","is_transit":false,"time":2,"transit":false,"station_id":"DRN","i_long":106.85449,"distance":824,"line":0,"i_lat":-6.255332},{"station_id":"CW","i_long":106.856607,"station_name":"Cawang","transit":false,"distance":1546,"is_transit":false,"i_lat":-6.242512,"line":0,"time":3},{"distance":1230,"station_id":"TEB","i_long":106.857948,"station_name":"Tebet","i_lat":-6.226659,"line":2,"is_transit":false,"time":2,"transit":false},{"i_long":106.84912,"distance":2610,"station_name":"Manggarai","is_transit":true,"time":4,"line":0,"station_id":"MRI","transit":true,"i_lat":-6.209883},{"time":4,"transit":false,"is_transit":false,"i_long":106.822649,"distance":3186,"station_id":"SUD","line":1,"i_lat":-6.202263,"station_name":"Sudirman"},{"line":1,"i_long":106.819881,"station_id":"SUDB","is_transit":false,"station_name":"Sudirman Baru","distance":280,"transit":false,"i_lat":-6.201433,"time":1},{"station_name":"Karet","is_transit":false,"transit":false,"i_long":106.816351,"i_lat":-6.20132,"distance":471,"time":1,"line":1,"station_id":"KAT"},{"transit":false,"i_long":106.811091,"i_lat":-6.185545,"line":1,"station_name":"Tanah Abang","station_id":"THB","is_transit":true,"time":5,"distance":2029},{"line":1,"i_long":106.800832,"transit":true,"distance":3632,"is_transit":true,"i_lat":-6.155215,"station_id":"DU","station_name":"Duri","time":8},{"i_lat":-6.144674,"i_long":106.79867,"time":4,"station_id":"AK","station_name":"Angke","distance":1230,"transit":false,"line":0,"is_transit":false},{"i_long":106.826365,"station_id":"KPB","station_name":"Kampung Bandan","time":9,"distance":4102,"transit":false,"i_lat":-6.132549,"line":0,"is_transit":true},{"station_name":"Jakarta Kota","distance":1364,"time":3,"i_lat":-6.137569,"line":0,"transit":true,"is_transit":true,"i_long":106.812439,"station_id":"JAKK"},{"station_name":"Jayakarta","station_id":"JAY","line":7,"transit":false,"distance":1264,"i_long":106.820901,"time":4,"i_lat":-6.141205,"is_transit":false},{"is_transit":false,"time":2,"transit":false,"station_name":"Manggabesar","station_id":"MGB","i_long":106.82482,"line":2,"i_lat":-6.149769,"distance":1080},{"line":2,"is_transit":false,"distance":906,"station_name":"Sawah Besar","i_lat":-6.160725,"station_id":"SW","time":2,"transit":false,"i_long":106.827103},{"transit":false,"time":2,"is_transit":false,"line":2,"i_lat":-6.166716,"i_long":106.828284,"station_name":"Juanda","station_id":"JUA","distance":1149},{"transit":false,"time":4,"station_name":"Gondangdia","i_lat":-6.186295,"line":2,"station_id":"GDD","distance":2015,"is_transit":false,"i_long":106.832183},{"time":3,"line":0,"transit":false,"i_lat":-6.198556,"i_long":106.840169,"station_name":"Cikini","distance":1750,"station_id":"CKI","is_transit":false}],[{"station_id":"LNA","is_transit":false,"i_long":106.832616,"station_name":"Lenteng Agung","time":0,"line":2,"i_lat":-6.330363,"distance":0,"transit":false},{"is_transit":false,"i_lat":-6.3080680000000005,"i_long":106.838896,"line":2,"station_id":"TNT","station_name":"Tanjung Barat","time":3,"distance":2671,"transit":false},{"line":2,"i_long":106.843999,"transit":false,"distance":2820,"time":4,"station_name":"Pasar Minggu","is_transit":false,"i_lat":-6.2842400000000005,"station_id":"PSM"},{"i_long":106.851577,"line":2,"transit":false,"i_lat":-6.263214,"is_transit":false,"distance":2380,"station_name":"Pasar Minggu Baru","station_id":"PSMB","time":2},{"distance":824,"station_name":"Duren Kalibata","transit":false,"station_id":"DRN","time":2,"is_transit":false,"i_lat":-6.255332,"line":0,"i_long":106.85449},{"transit":false,"is_transit":false,"station_id":"CW","time":3,"station_name":"Cawang","i_long":106.856607,"i_lat":-6.242512,"distance":1546,"line":0},{"distance":1230,"i_long":106.857948,"station_name":"Tebet","i_lat":-6.226659,"station_id":"TEB","time":2,"transit":false,"is_transit":false,"line":2},{"distance":2610,"line":0,"station_id":"MRI","transit":true,"is_transit":true,"i_lat":-6.209883,"station_name":"Manggarai","time":4,"i_long":106.84912},{"distance":1275,"i_lat":-6.212485,"transit":false,"station_id":"MTR","station_name":"Matraman","time":2,"line":1,"i_long":106.858896,"is_transit":false},{"station_id":"JNG","distance":1377,"i_lat":-6.215091,"station_name":"Jatinegara","time":8,"i_long":106.86807400000001,"line":0,"is_transit":true,"transit":true},{"transit":false,"i_lat":-6.209188,"line":11,"station_name":"Pondok Jati","distance":1236,"station_id":"POK","is_transit":false,"i_long":106.861737,"time":2},{"station_name":"Kramat","is_transit":false,"time":2,"station_id":"KMT","transit":false,"i_lat":-6.193792,"distance":1829,"i_long":106.855437,"line":11},{"station_id":"GST","i_long":106.850107,"i_lat":-6.185975,"time":1,"line":11,"is_transit":false,"station_name":"Gang Sentiong","distance":973,"transit":false},{"station_id":"PSE","i_lat":-6.174784,"transit":false,"station_name":"Pasar Senen","line":11,"time":8,"i_long":106.84368,"is_transit":false,"distance":1567},{"transit":false,"line":11,"i_lat":-6.161728,"distance":1436,"i_long":106.839204,"is_transit":false,"station_id":"KMO","station_name":"Kemayoran","time":4},{"transit":false,"i_lat":-6.14505,"time":5,"station_id":"RJW","line":11,"distance":1901,"is_transit":false,"station_name":"Rajawali","i_long":106.836569},{"is_transit":true,"transit":true,"distance":1444,"i_long":106.826365,"station_name":"Kampung Bandan","line":0,"time":3,"station_id":"KPB","i_lat":-6.132549},{"line":0,"station_id":"JAKK","is_transit":true,"i_lat":-6.137569,"time":3,"distance":1364,"transit":true,"i_long":106.812439,"station_name":"Jakarta Kota"},{"time":4,"station_id":"JAY","station_name":"Jayakarta","is_transit":false,"transit":false,"distance":1264,"i_long":106.820901,"line":7,"i_lat":-6.141205},{"station_name":"Manggabesar","i_long":106.82482,"station_id":"MGB","i_lat":-6.149769,"transit":false,"line":2,"is_transit":false,"time":2,"distance":1080},{"line":2,"distance":906,"i_lat":-6.160725,"is_transit":false,"station_name":"Sawah Besar","transit":false,"station_id":"SW","i_long":106.827103,"time":2},{"transit":false,"station_id":"JUA","time":2,"i_long":106.828284,"distance":1149,"station_name":"Juanda","line":2,"i_lat":-6.166716,"is_transit":false},{"distance":2015,"is_transit":false,"station_name":"Gondangdia","station_id":"GDD","transit":false,"i_lat":-6.186295,"line":2,"time":4,"i_long":106.832183},{"time":3,"station_id":"CKI","is_transit":false,"station_name":"Cikini","i_lat":-6.198556,"i_long":106.840169,"distance":1750,"line":0,"transit":false}]]}