{"data":[[{"line":2,"station_id":"LNA","distance":0,"station_name":"Lenteng Agung","i_lat":-6.330363,"time":0,"is_transit":false,"i_long":106.832616,"transit":false},{"distance":2671,"i_long":106.838896,"i_lat":-6.3080680000000005,"line":2,"time":3,"station_name":"Tanjung Barat","is_transit":false,"transit":false,"station_id":"TNT"},{"i_lat":-6.2842400000000005,"distance":2820,"station_id":"PSM","time":4,"is_transit":false,"i_long":106.843999,"line":2,"station_name":"Pasar Minggu","transit":false},{"time":2,"distance":2380,"transit":false,"i_lat":-6.263214,"station_id":"PSMB","is_transit":false,"station_name":"Pasar Minggu Baru","i_long":106.851577,"line":2},{"station_id":"DRN","distance":824,"line":2,"station_name":"Duren Kalibata","i_lat":-6.255332,"i_long":106.85449,"time":2,"is_transit":false,"transit":false},{"i_lat":-6.242512,"i_long":106.856607,"line":2,"station_name":"Cawang","station_id":"CW","is_transit":false,"distance":1546,"transit":false,"time":3},{"distance":1230,"transit":false,"station_id":"TEB","station_name":"Tebet","i_lat":-6.226659,"i_long":106.857948,"time":2,"is_transit":false,"line":2},{"line":2,"station_name":"Manggarai","time":4,"station_id":"MRI","is_transit":true,"i_long":106.84912,"distance":2610,"i_lat":-6.209883,"transit":true},{"i_lat":-6.202263,"station_id":"SUD","time":4,"station_name":"Sudirman","is_transit":false,"transit":false,"line":1,"distance":3186,"i_long":106.822649},{"transit":false,"i_long":106.819881,"line":1,"station_name":"Sudirman Baru","time":1,"distance":280,"i_lat":-6.201433,"is_transit":false,"station_id":"SUDB"},{"transit":false,"station_name":"Karet","distance":471,"time":1,"i_lat":-6.20132,"is_transit":false,"station_id":"KAT","i_long":106.816351,"line":1},{"transit":false,"i_lat":-6.185545,"i_long":106.811091,"time":5,"station_name":"Tanah Abang","distance":2029,"line":1,"is_transit":false,"station_id":"THB"},{"station_id":"DU","distance":3632,"station_name":"Duri","i_long":106.800832,"is_transit":true,"time":8,"i_lat":-6.155215,"line":1,"transit":true},{"station_name":"Grogol","distance":1700,"line":5,"is_transit":false,"time":3,"transit":false,"i_lat":-6.162021,"i_long":106.788277,"station_id":"GGL"},{"station_name":"Pesing","i_long":106.771379,"time":2,"i_lat":-6.161433,"station_id":"PSG","is_transit":false,"distance":2036,"transit":false,"line":5},{"distance":1614,"station_name":"Taman Kota","i_long":106.756522,"time":2,"is_transit":false,"transit":false,"line":5,"station_id":"TKO","i_lat":-6.1587309999999995},{"station_id":"BOI","i_long":106.737035,"line":5,"distance":2334,"is_transit":false,"station_name":"Bojongindah","i_lat":-6.159876,"time":2,"transit":false},{"time":4,"i_long":106.723064,"transit":false,"i_lat":-6.162758,"station_id":"RW","distance":1152,"station_name":"Rawa Buaya","is_transit":false,"line":5},{"is_transit":false,"station_name":"Kalideres","transit":false,"i_lat":-6.166068,"line":5,"station_id":"KDS","time":3,"distance":2504,"i_long":106.701612},{"i_lat":-6.169933,"distance":2548,"transit":false,"i_long":106.679458,"line":5,"station_id":"PI","is_transit":false,"time":3,"station_name":"Poris"},{"i_long":106.665036,"station_id":"BPR","station_name":"Batuceper","line":5,"transit":false,"i_lat":-6.171811,"is_transit":false,"time":3,"distance":1834},{"transit":false,"i_long":106.64657,"i_lat":-6.17331,"distance":2028,"time":3,"is_transit":false,"station_id":"TTI","station_name":"Tanah Tinggi","line":5},{"distance":1547,"station_name":"Tangerang","i_long":106.632761,"i_lat":-6.176583,"station_id":"TNG","line":5,"transit":false,"is_transit":false,"time":3}],[{"station_name":"Lenteng Agung","transit":false,"time":0,"distance":0,"station_id":"LNA","is_transit":false,"line":2,"i_lat":-6.330363,"i_long":106.832616},{"station_name":"Tanjung Barat","transit":false,"time":3,"station_id":"TNT","is_transit":false,"line":2,"i_lat":-6.3080680000000005,"distance":2671,"i_long":106.838896},{"station_name":"Pasar Minggu","station_id":"PSM","i_long":106.843999,"distance":2820,"time":4,"is_transit":false,"i_lat":-6.2842400000000005,"line":2,"transit":false},{"line":2,"distance":2380,"station_name":"Pasar Minggu Baru","is_transit":false,"transit":false,"station_id":"PSMB","time":2,"i_long":106.851577,"i_lat":-6.263214},{"station_name":"Duren Kalibata","transit":false,"i_long":106.85449,"line":2,"time":2,"station_id":"DRN","distance":824,"is_transit":false,"i_lat":-6.255332},{"line":2,"station_name":"Cawang","i_lat":-6.242512,"transit":false,"station_id":"CW","distance":1546,"is_transit":false,"time":3,"i_long":106.856607},{"transit":false,"i_lat":-6.226659,"is_transit":false,"time":2,"distance":1230,"i_long":106.857948,"line":2,"station_id":"TEB","station_name":"Tebet"},{"station_name":"Manggarai","is_transit":false,"transit":false,"i_long":106.84912,"line":2,"i_lat":-6.209883,"distance":2610,"time":4,"station_id":"MRI"},{"distance":1590,"transit":false,"station_name":"Cikini","i_lat":-6.198556,"is_transit":false,"line":2,"station_id":"CKI","time":4,"i_long":106.840169},{"is_transit":false,"line":2,"i_lat":-6.186295,"time":3,"transit":false,"distance":1750,"station_name":"Gondangdia","i_long":106.832183,"station_id":"GDD"},{"i_lat":-6.166716,"line":2,"station_name":"Juanda","time":4,"station_id":"JUA","transit":false,"is_transit":false,"distance":2015,"i_long":106.828284},{"time":2,"station_name":"Sawah Besar","transit":false,"is_transit":false,"i_lat":-6.160725,"i_long":106.827103,"line":2,"distance":1149,"station_id":"SW"},{"time":2,"station_id":"MGB","i_lat":-6.149769,"transit":false,"is_transit":false,"i_long":106.82482,"distance":906,"station_name":"Manggabesar","line":2},{"station_name":"Jayakarta","distance":1080,"i_lat":-6.141205,"i_long":106.820901,"line":2,"transit":false,"is_transit":false,"station_id":"JAY","time":2},{"i_long":106.812439,"distance":1264,"transit":true,"station_name":"Jakarta Kota","is_transit":true,"station_id":"JAKK","line":2,"i_lat":-6.137569,"time":4},{"line":4,"station_name":"Kampung Bandan","transit":true,"station_id":"KPB","i_lat":-6.132549,"is_transit":true,"distance":1364,"time":3,"i_long":106.826365},{"station_id":"AK","station_name":"Angke","is_transit":false,"time":9,"distance":4102,"i_lat":-6.144674,"transit":false,"line":1,"i_long":106.79867},{"is_transit":true,"i_long":106.800832,"time":4,"distance":1230,"i_lat":-6.155215,"line":1,"transit":true,"station_id":"DU","station_name":"Duri"},{"i_lat":-6.162021,"station_name":"Grogol","distance":1700,"is_transit":false,"i_long":106.788277,"station_id":"GGL","line":5,"time":3,"transit":false},{"transit":false,"i_long":106.771379,"station_name":"Pesing","is_transit":false,"time":2,"line":5,"station_id":"PSG","distance":2036,"i_lat":-6.161433},{"is_transit":false,"line":5,"i_long":106.756522,"time":2,"distance":1614,"transit":false,"station_id":"TKO","i_lat":-6.1587309999999995,"station_name":"Taman Kota"},{"distance":2334,"i_lat":-6.159876,"i_long":106.737035,"transit":false,"station_name":"Bojongindah","line":5,"station_id":"BOI","time":2,"is_transit":false},{"station_name":"Rawa Buaya","transit":false,"time":4,"distance":1152,"is_transit":false,"i_lat":-6.162758,"line":5,"i_long":106.723064,"station_id":"RW"},{"transit":false,"station_name":"Kalideres","time":3,"i_long":106.701612,"line":5,"i_lat":-6.166068,"distance":2504,"is_transit":false,"station_id":"KDS"},{"transit":false,"i_long":106.679458,"time":3,"line":5,"station_name":"Poris","is_transit":false,"i_lat":-6.169933,"station_id":"PI","distance":2548},{"line":5,"station_id":"BPR","distance":1834,"i_lat":-6.171811,"time":3,"station_name":"Batuceper","i_long":106.665036,"transit":false,"is_transit":false},{"distance":2028,"is_transit":false,"transit":false,"time":3,"station_name":"Tanah Tinggi","station_id":"TTI","i_long":106.64657,"line":5,"i_lat":-6.17331},{"i_long":106.632761,"station_name":"Tangerang","transit":false,"station_id":"TNG","time":3,"i_lat":-6.176583,"line":5,"distance":1547,"is_transit":false}],[{"line":2,"is_transit":false,"distance":0,"station_name":"Lenteng Agung","i_lat":-6.330363,"i_long":106.832616,"station_id":"LNA","transit":false,"time":0},{"station_name":"Tanjung Barat","transit":false,"i_long":106.838896,"line":2,"distance":2671,"i_lat":-6.3080680000000005,"station_id":"TNT","is_transit":false,"time":3},{"is_transit":false,"i_long":106.843999,"time":4,"station_id":"PSM","line":2,"station_name":"Pasar Minggu","transit":false,"i_lat":-6.2842400000000005,"distance":2820},{"i_long":106.851577,"station_id":"PSMB","time":2,"i_lat":-6.263214,"is_transit":false,"line":2,"transit":false,"station_name":"Pasar Minggu Baru","distance":2380},{"i_long":106.85449,"time":2,"is_transit":false,"station_name":"Duren Kalibata","line":2,"transit":false,"i_lat":-6.255332,"station_id":"DRN","distance":824},{"line":2,"distance":1546,"is_transit":false,"transit":false,"station_id":"CW","i_long":106.856607,"time":3,"station_name":"Cawang","i_lat":-6.242512},{"i_long":106.857948,"station_id":"TEB","line":2,"station_name":"Tebet","is_transit":false,"distance":1230,"transit":false,"time":2,"i_lat":-6.226659},{"station_id":"MRI","station_name":"Manggarai","distance":2610,"time":4,"is_transit":true,"transit":true,"i_lat":-6.209883,"i_long":106.84912,"line":2},{"station_id":"MTR","distance":1275,"i_long":106.858896,"time":2,"is_transit":false,"transit":false,"i_lat":-6.212485,"station_name":"Matraman","line":1},{"line":1,"distance":1377,"time":8,"is_transit":true,"transit":true,"i_lat":-6.215091,"station_name":"Jatinegara","i_long":106.86807400000001,"station_id":"JNG"},{"i_lat":-6.209188,"station_id":"POK","transit":false,"i_long":106.861737,"line":11,"time":2,"distance":1236,"is_transit":false,"station_name":"Pondok Jati"},{"transit":false,"distance":1829,"is_transit":false,"station_id":"KMT","time":2,"i_long":106.855437,"station_name":"Kramat","i_lat":-6.193792,"line":11},{"station_name":"Gang Sentiong","station_id":"GST","line":11,"distance":973,"i_lat":-6.185975,"transit":false,"time":1,"i_long":106.850107,"is_transit":false},{"distance":1567,"i_long":106.84368,"time":8,"is_transit":false,"station_name":"Pasar Senen","line":11,"station_id":"PSE","i_lat":-6.174784,"transit":false},{"time":4,"i_lat":-6.161728,"station_id":"KMO","line":11,"distance":1436,"transit":false,"station_name":"Kemayoran","is_transit":false,"i_long":106.839204},{"i_long":106.836569,"station_id":"RJW","distance":1901,"time":5,"station_name":"Rajawali","transit":false,"is_transit":false,"i_lat":-6.14505,"line":11},{"i_lat":-6.132549,"i_long":106.826365,"time":3,"distance":1444,"transit":true,"station_name":"Kampung Bandan","line":4,"station_id":"KPB","is_transit":true},{"is_transit":false,"transit":false,"line":1,"station_name":"Angke","time":9,"station_id":"AK","distance":4102,"i_lat":-6.144674,"i_long":106.79867},{"transit":true,"line":1,"i_lat":-6.155215,"station_id":"DU","station_name":"Duri","is_transit":true,"distance":1230,"time":4,"i_long":106.800832},{"station_id":"GGL","time":3,"distance":1700,"station_name":"Grogol","i_lat":-6.162021,"i_long":106.788277,"line":5,"transit":false,"is_transit":false},{"distance":2036,"time":2,"line":5,"station_name":"Pesing","station_id":"PSG","i_lat":-6.161433,"is_transit":false,"transit":false,"i_long":106.771379},{"line":5,"time":2,"station_id":"TKO","distance":1614,"station_name":"Taman Kota","is_transit":false,"i_lat":-6.1587309999999995,"i_long":106.756522,"transit":false},{"i_lat":-6.159876,"i_long":106.737035,"station_id":"BOI","time":2,"distance":2334,"transit":false,"line":5,"is_transit":false,"station_name":"Bojongindah"},{"station_id":"RW","station_name":"Rawa Buaya","time":4,"i_lat":-6.162758,"distance":1152,"i_long":106.723064,"transit":false,"is_transit":false,"line":5},{"i_long":106.701612,"line":5,"station_id":"KDS","is_transit":false,"time":3,"station_name":"Kalideres","transit":false,"distance":2504,"i_lat":-6.166068},{"distance":2548,"i_lat":-6.169933,"i_long":106.679458,"line":5,"is_transit":false,"time":3,"transit":false,"station_id":"PI","station_name":"Poris"},{"i_long":106.665036,"time":3,"station_id":"BPR","distance":1834,"station_name":"Batuceper","line":5,"is_transit":false,"transit":false,"i_lat":-6.171811},{"time":3,"i_lat":-6.17331,"line":5,"is_transit":false,"transit":false,"distance":2028,"station_name":"Tanah Tinggi","i_long":106.64657,"station_id":"TTI"},{"distance":1547,"i_lat":-6.176583,"time":3,"transit":false,"station_name":"Tangerang","station_id":"TNG","is_transit":false,"i_long":106.632761,"line":5}]]}