{"data":[[{"distance":0,"line":2,"station_id":"LNA","station_name":"Lenteng Agung","transit":false,"i_lat":-6.330363,"i_long":106.832616,"is_transit":false,"time":0},{"is_transit":false,"station_id":"TNT","station_name":"Tanjung Barat","line":2,"i_long":106.838896,"time":3,"i_lat":-6.3080680000000005,"transit":false,"distance":2671},{"i_lat":-6.2842400000000005,"time":4,"station_id":"PSM","i_long":106.843999,"line":2,"distance":2820,"station_name":"Pasar Minggu","transit":false,"is_transit":false},{"transit":false,"i_lat":-6.263214,"line":2,"i_long":106.851577,"distance":2380,"station_id":"PSMB","time":2,"is_transit":false,"station_name":"Pasar Minggu Baru"},{"distance":824,"time":2,"is_transit":false,"station_name":"Duren Kalibata","transit":false,"i_lat":-6.255332,"station_id":"DRN","i_long":106.85449,"line":2},{"time":3,"distance":1546,"station_name":"Cawang","station_id":"CW","is_transit":false,"i_long":106.856607,"line":2,"i_lat":-6.242512,"transit":false},{"station_id":"TEB","i_long":106.857948,"i_lat":-6.226659,"line":2,"time":2,"is_transit":false,"distance":1230,"transit":false,"station_name":"Tebet"},{"i_lat":-6.209883,"time":4,"distance":2610,"is_transit":false,"station_id":"MRI","station_name":"Manggarai","line":2,"i_long":106.84912,"transit":false},{"time":4,"distance":1590,"is_transit":false,"i_lat":-6.198556,"station_name":"Cikini","i_long":106.840169,"station_id":"CKI","transit":false,"line":2},{"station_name":"Gondangdia","i_lat":-6.186295,"is_transit":false,"time":3,"distance":1750,"line":2,"station_id":"GDD","i_long":106.832183,"transit":false},{"line":2,"time":4,"distance":2015,"i_long":106.828284,"is_transit":false,"station_id":"JUA","station_name":"Juanda","transit":false,"i_lat":-6.166716},{"station_id":"SW","distance":1149,"i_lat":-6.160725,"line":2,"station_name":"Sawah Besar","transit":false,"i_long":106.827103,"is_transit":false,"time":2},{"i_lat":-6.149769,"i_long":106.82482,"line":2,"transit":false,"is_transit":false,"time":2,"station_name":"Manggabesar","station_id":"MGB","distance":906},{"distance":1080,"is_transit":false,"station_id":"JAY","time":2,"i_lat":-6.141205,"station_name":"Jayakarta","i_long":106.820901,"line":2,"transit":false},{"distance":1264,"station_id":"JAKK","i_lat":-6.137569,"is_transit":false,"time":4,"i_long":106.812439,"station_name":"Jakarta Kota","transit":false,"line":2}],[{"station_id":"LNA","time":0,"i_long":106.832616,"line":2,"distance":0,"is_transit":false,"station_name":"Lenteng Agung","transit":false,"i_lat":-6.330363},{"distance":2671,"is_transit":false,"transit":false,"i_lat":-6.3080680000000005,"line":2,"i_long":106.838896,"station_id":"TNT","time":3,"station_name":"Tanjung Barat"},{"distance":2820,"station_name":"Pasar Minggu","station_id":"PSM","is_transit":false,"transit":false,"line":2,"i_lat":-6.2842400000000005,"time":4,"i_long":106.843999},{"line":2,"station_id":"PSMB","transit":false,"distance":2380,"is_transit":false,"i_long":106.851577,"station_name":"Pasar Minggu Baru","time":2,"i_lat":-6.263214},{"line":2,"station_name":"Duren Kalibata","transit":false,"distance":824,"station_id":"DRN","time":2,"is_transit":false,"i_lat":-6.255332,"i_long":106.85449},{"i_lat":-6.242512,"line":2,"distance":1546,"i_long":106.856607,"station_id":"CW","is_transit":false,"transit":false,"time":3,"station_name":"Cawang"},{"distance":1230,"i_lat":-6.226659,"station_name":"Tebet","is_transit":false,"i_long":106.857948,"line":2,"transit":false,"time":2,"station_id":"TEB"},{"station_name":"Manggarai","station_id":"MRI","i_lat":-6.209883,"transit":true,"time":4,"line":2,"i_long":106.84912,"distance":2610,"is_transit":true},{"time":4,"i_lat":-6.202263,"is_transit":false,"transit":false,"i_long":106.822649,"line":1,"distance":3186,"station_id":"SUD","station_name":"Sudirman"},{"distance":280,"station_name":"Sudirman Baru","line":1,"time":1,"station_id":"SUDB","i_long":106.819881,"transit":false,"i_lat":-6.201433,"is_transit":false},{"i_long":106.816351,"line":1,"transit":false,"distance":471,"station_name":"Karet","time":1,"station_id":"KAT","is_transit":false,"i_lat":-6.20132},{"distance":2029,"is_transit":false,"i_long":106.811091,"transit":false,"time":5,"i_lat":-6.185545,"line":1,"station_id":"THB","station_name":"Tanah Abang"},{"distance":3632,"is_transit":false,"time":8,"station_name":"Duri","i_long":106.800832,"station_id":"DU","transit":false,"line":1,"i_lat":-6.155215},{"is_transit":false,"distance":1230,"station_name":"Angke","i_lat":-6.144674,"i_long":106.79867,"transit":false,"line":1,"time":4,"station_id":"AK"},{"station_name":"Kampung Bandan","time":9,"transit":true,"distance":4102,"i_lat":-6.132549,"i_long":106.826365,"is_transit":true,"line":4,"station_id":"KPB"},{"is_transit":false,"time":3,"distance":1364,"station_name":"Jakarta Kota","transit":false,"i_lat":-6.137569,"i_long":106.812439,"line":2,"station_id":"JAKK"}],[{"i_long":106.832616,"time":0,"station_name":"Lenteng Agung","transit":false,"is_transit":false,"station_id":"LNA","distance":0,"i_lat":-6.330363,"line":2},{"i_long":106.838896,"station_id":"TNT","distance":2671,"station_name":"Tanjung Barat","time":3,"transit":false,"i_lat":-6.3080680000000005,"is_transit":false,"line":2},{"time":4,"station_name":"Pasar Minggu","i_lat":-6.2842400000000005,"distance":2820,"is_transit":false,"i_long":106.843999,"station_id":"PSM","line":2,"transit":false},{"line":2,"time":2,"station_name":"Pasar Minggu Baru","station_id":"PSMB","distance":2380,"i_lat":-6.263214,"is_transit":false,"transit":false,"i_long":106.851577},{"time":2,"line":2,"i_lat":-6.255332,"transit":false,"station_id":"DRN","i_long":106.85449,"station_name":"Duren Kalibata","is_transit":false,"distance":824},{"transit":false,"line":2,"distance":1546,"is_transit":false,"time":3,"station_id":"CW","i_lat":-6.242512,"station_name":"Cawang","i_long":106.856607},{"transit":false,"i_lat":-6.226659,"station_id":"TEB","station_name":"Tebet","distance":1230,"is_transit":false,"i_long":106.857948,"line":2,"time":2},{"time":4,"station_name":"Manggarai","transit":true,"i_long":106.84912,"distance":2610,"station_id":"MRI","is_transit":true,"i_lat":-6.209883,"line":2},{"i_lat":-6.212485,"station_id":"MTR","distance":1275,"time":2,"station_name":"Matraman","is_transit":false,"transit":false,"i_long":106.858896,"line":1},{"transit":true,"distance":1377,"is_transit":true,"i_long":106.86807400000001,"station_id":"JNG","station_name":"Jatinegara","i_lat":-6.215091,"time":8,"line":1},{"i_long":106.861737,"distance":1236,"i_lat":-6.209188,"transit":false,"time":2,"station_name":"Pondok Jati","station_id":"POK","line":11,"is_transit":false},{"is_transit":false,"i_lat":-6.193792,"i_long":106.855437,"line":11,"transit":false,"distance":1829,"time":2,"station_name":"Kramat","station_id":"KMT"},{"station_name":"Gang Sentiong","distance":973,"transit":false,"is_transit":false,"i_lat":-6.185975,"i_long":106.850107,"time":1,"line":11,"station_id":"GST"},{"station_name":"Pasar Senen","station_id":"PSE","is_transit":false,"time":8,"i_long":106.84368,"distance":1567,"transit":false,"line":11,"i_lat":-6.174784},{"is_transit":false,"distance":1436,"transit":false,"time":4,"i_lat":-6.161728,"line":11,"station_id":"KMO","station_name":"Kemayoran","i_long":106.839204},{"time":5,"distance":1901,"station_id":"RJW","transit":false,"is_transit":false,"i_long":106.836569,"line":11,"station_name":"Rajawali","i_lat":-6.14505},{"station_name":"Kampung Bandan","i_long":106.826365,"is_transit":true,"distance":1444,"line":4,"i_lat":-6.132549,"transit":true,"station_id":"KPB","time":3},{"is_transit":false,"distance":1364,"time":3,"station_id":"JAKK","i_lat":-6.137569,"transit":false,"station_name":"Jakarta Kota","i_long":106.812439,"line":2}]]}