{"data":[[{"i_long":106.832616,"i_lat":-6.330363,"is_transit":false,"time":0,"station_id":"LNA","line":2,"transit":false,"station_name":"Lenteng Agung","distance":0},{"i_lat":-6.3080680000000005,"distance":2671,"time":3,"line":2,"station_name":"Tanjung Barat","station_id":"TNT","transit":false,"i_long":106.838896,"is_transit":false},{"i_long":106.843999,"line":2,"i_lat":-6.2842400000000005,"station_id":"PSM","station_name":"Pasar Minggu","time":4,"distance":2820,"is_transit":false,"transit":false},{"is_transit":false,"distance":2380,"station_name":"Pasar Minggu Baru","line":2,"transit":false,"i_lat":-6.263214,"i_long":106.851577,"station_id":"PSMB","time":2},{"time":2,"station_name":"Duren Kalibata","i_long":106.85449,"i_lat":-6.255332,"transit":false,"is_transit":false,"station_id":"DRN","line":0,"distance":824},{"transit":false,"distance":1546,"is_transit":false,"i_long":106.856607,"station_id":"CW","i_lat":-6.242512,"station_name":"Cawang","time":3,"line":0},{"line":2,"is_transit":false,"distance":1230,"transit":false,"i_lat":-6.226659,"time":2,"i_long":106.857948,"station_id":"TEB","station_name":"Tebet"},{"is_transit":true,"i_long":106.84912,"line":0,"transit":true,"station_id":"MRI","distance":2610,"station_name":"Manggarai","i_lat":-6.209883,"time":4},{"i_long":106.822649,"station_id":"SUD","station_name":"Sudirman","time":4,"is_transit":false,"transit":false,"distance":3186,"i_lat":-6.202263,"line":1},{"is_transit":false,"i_long":106.819881,"transit":false,"time":1,"station_name":"Sudirman Baru","station_id":"SUDB","distance":280,"i_lat":-6.201433,"line":1},{"i_lat":-6.20132,"station_id":"KAT","i_long":106.816351,"time":1,"transit":false,"is_transit":false,"line":1,"distance":471,"station_name":"Karet"}],[{"time":0,"transit":false,"i_long":106.832616,"distance":0,"station_id":"LNA","station_name":"Lenteng Agung","is_transit":false,"line":2,"i_lat":-6.330363},{"distance":2671,"station_name":"Tanjung Barat","station_id":"TNT","i_long":106.838896,"time":3,"is_transit":false,"transit":false,"line":2,"i_lat":-6.3080680000000005},{"i_lat":-6.2842400000000005,"station_id":"PSM","distance":2820,"time":4,"station_name":"Pasar Minggu","is_transit":false,"transit":false,"line":2,"i_long":106.843999},{"i_lat":-6.263214,"transit":false,"line":2,"time":2,"is_transit":false,"station_id":"PSMB","distance":2380,"i_long":106.851577,"station_name":"Pasar Minggu Baru"},{"station_id":"DRN","line":0,"time":2,"i_lat":-6.255332,"is_transit":false,"station_name":"Duren Kalibata","transit":false,"i_long":106.85449,"distance":824},{"station_name":"Cawang","time":3,"i_lat":-6.242512,"i_long":106.856607,"is_transit":false,"distance":1546,"line":0,"station_id":"CW","transit":false},{"time":2,"station_name":"Tebet","transit":false,"i_lat":-6.226659,"line":2,"is_transit":false,"distance":1230,"i_long":106.857948,"station_id":"TEB"},{"line":0,"time":4,"station_id":"MRI","transit":true,"i_long":106.84912,"i_lat":-6.209883,"distance":2610,"station_name":"Manggarai","is_transit":true},{"i_lat":-6.198556,"line":0,"is_transit":false,"distance":1590,"time":4,"station_name":"Cikini","transit":false,"station_id":"CKI","i_long":106.840169},{"line":2,"station_name":"Gondangdia","distance":1750,"time":3,"station_id":"GDD","i_lat":-6.186295,"transit":false,"i_long":106.832183,"is_transit":false},{"i_lat":-6.166716,"i_long":106.828284,"distance":2015,"is_transit":false,"time":4,"station_id":"JUA","line":2,"station_name":"Juanda","transit":false},{"time":2,"i_lat":-6.160725,"i_long":106.827103,"is_transit":false,"distance":1149,"transit":false,"station_id":"SW","station_name":"Sawah Besar","line":2},{"station_name":"Manggabesar","time":2,"station_id":"MGB","is_transit":false,"i_lat":-6.149769,"transit":false,"line":2,"i_long":106.82482,"distance":906},{"time":2,"transit":false,"distance":1080,"line":7,"i_long":106.820901,"i_lat":-6.141205,"station_id":"JAY","station_name":"Jayakarta","is_transit":false},{"i_long":106.812439,"distance":1264,"line":0,"station_id":"JAKK","station_name":"Jakarta Kota","i_lat":-6.137569,"transit":true,"is_transit":true,"time":4},{"is_transit":true,"station_name":"Kampung Bandan","time":3,"distance":1364,"station_id":"KPB","i_lat":-6.132549,"line":0,"i_long":106.826365,"transit":false},{"station_id":"AK","station_name":"Angke","time":9,"transit":false,"distance":4102,"i_long":106.79867,"is_transit":false,"i_lat":-6.144674,"line":0},{"station_name":"Duri","distance":1230,"i_long":106.800832,"transit":true,"is_transit":true,"station_id":"DU","time":4,"i_lat":-6.155215,"line":1},{"distance":3632,"i_lat":-6.185545,"is_transit":true,"station_name":"Tanah Abang","station_id":"THB","time":8,"transit":false,"i_long":106.811091,"line":1},{"i_lat":-6.20132,"transit":false,"i_long":106.816351,"station_id":"KAT","is_transit":false,"line":1,"station_name":"Karet","time":5,"distance":2029}],[{"time":0,"i_long":106.832616,"station_name":"Lenteng Agung","i_lat":-6.330363,"distance":0,"transit":false,"station_id":"LNA","line":2,"is_transit":false},{"i_long":106.838896,"transit":false,"line":2,"distance":2671,"i_lat":-6.3080680000000005,"is_transit":false,"station_id":"TNT","time":3,"station_name":"Tanjung Barat"},{"station_id":"PSM","line":2,"time":4,"distance":2820,"i_lat":-6.2842400000000005,"i_long":106.843999,"station_name":"Pasar Minggu","is_transit":false,"transit":false},{"is_transit":false,"time":2,"station_id":"PSMB","i_long":106.851577,"station_name":"Pasar Minggu Baru","distance":2380,"line":2,"i_lat":-6.263214,"transit":false},{"transit":false,"i_long":106.85449,"line":0,"station_id":"DRN","station_name":"Duren Kalibata","i_lat":-6.255332,"is_transit":false,"distance":824,"time":2},{"is_transit":false,"station_name":"Cawang","station_id":"CW","distance":1546,"time":3,"i_long":106.856607,"transit":false,"i_lat":-6.242512,"line":0},{"i_lat":-6.226659,"station_name":"Tebet","is_transit":false,"time":2,"transit":false,"i_long":106.857948,"station_id":"TEB","line":2,"distance":1230},{"i_lat":-6.209883,"is_transit":true,"time":4,"station_id":"MRI","distance":2610,"station_name":"Manggarai","i_long":106.84912,"line":0,"transit":true},{"station_name":"Matraman","i_lat":-6.212485,"is_transit":false,"time":2,"distance":1275,"line":1,"station_id":"MTR","transit":false,"i_long":106.858896},{"transit":true,"i_long":106.86807400000001,"is_transit":true,"station_name":"Jatinegara","distance":1377,"i_lat":-6.215091,"line":0,"station_id":"JNG","time":8},{"i_lat":-6.209188,"is_transit":false,"time":2,"station_name":"Pondok Jati","distance":1236,"transit":false,"i_long":106.861737,"station_id":"POK","line":11},{"is_transit":false,"station_id":"KMT","time":2,"distance":1829,"i_lat":-6.193792,"i_long":106.855437,"station_name":"Kramat","line":11,"transit":false},{"station_name":"Gang Sentiong","station_id":"GST","transit":false,"time":1,"distance":973,"line":11,"is_transit":false,"i_lat":-6.185975,"i_long":106.850107},{"distance":1567,"is_transit":false,"i_lat":-6.174784,"line":11,"time":8,"transit":false,"i_long":106.84368,"station_id":"PSE","station_name":"Pasar Senen"},{"is_transit":false,"time":4,"i_long":106.839204,"i_lat":-6.161728,"distance":1436,"transit":false,"line":11,"station_name":"Kemayoran","station_id":"KMO"},{"station_name":"Rajawali","time":5,"i_lat":-6.14505,"is_transit":false,"transit":false,"i_long":106.836569,"line":11,"distance":1901,"station_id":"RJW"},{"i_lat":-6.132549,"i_long":106.826365,"is_transit":true,"station_name":"Kampung Bandan","line":0,"time":3,"distance":1444,"station_id":"KPB","transit":true},{"is_transit":false,"distance":4102,"transit":false,"i_lat":-6.144674,"i_long":106.79867,"line":0,"station_name":"Angke","time":9,"station_id":"AK"},{"i_long":106.800832,"time":4,"station_id":"DU","is_transit":true,"distance":1230,"i_lat":-6.155215,"station_name":"Duri","transit":true,"line":1},{"i_long":106.811091,"i_lat":-6.185545,"station_id":"THB","distance":3632,"line":1,"station_name":"Tanah Abang","transit":false,"time":8,"is_transit":true},{"line":1,"time":5,"i_long":106.816351,"station_id":"KAT","station_name":"Karet","transit":false,"i_lat":-6.20132,"is_transit":false,"distance":2029}]]}