{"data":[[{"i_lat":-6.330363,"i_long":106.832616,"is_transit":false,"distance":0,"time":0,"station_name":"Lenteng Agung","transit":false,"line":2,"station_id":"LNA"},{"line":2,"distance":2671,"time":3,"transit":false,"station_id":"TNT","is_transit":false,"i_long":106.838896,"station_name":"Tanjung Barat","i_lat":-6.3080680000000005},{"station_id":"PSM","is_transit":false,"time":4,"station_name":"Pasar Minggu","i_long":106.843999,"line":2,"transit":false,"distance":2820,"i_lat":-6.2842400000000005},{"station_name":"Pasar Minggu Baru","is_transit":false,"distance":2380,"station_id":"PSMB","line":2,"i_long":106.851577,"i_lat":-6.263214,"transit":false,"time":2},{"is_transit":false,"line":0,"time":2,"station_name":"Duren Kalibata","distance":824,"transit":false,"station_id":"DRN","i_long":106.85449,"i_lat":-6.255332},{"i_long":106.856607,"station_id":"CW","i_lat":-6.242512,"line":0,"station_name":"Cawang","is_transit":false,"transit":false,"distance":1546,"time":3},{"transit":false,"line":2,"distance":1230,"station_name":"Tebet","time":2,"is_transit":false,"i_long":106.857948,"station_id":"TEB","i_lat":-6.226659},{"is_transit":true,"i_long":106.84912,"distance":2610,"station_id":"MRI","transit":true,"station_name":"Manggarai","line":0,"time":4,"i_lat":-6.209883},{"time":4,"station_name":"Sudirman","distance":3186,"line":1,"station_id":"SUD","is_transit":false,"transit":false,"i_long":106.822649,"i_lat":-6.202263},{"time":1,"station_name":"Sudirman Baru","i_long":106.819881,"distance":280,"station_id":"SUDB","transit":false,"is_transit":false,"i_lat":-6.201433,"line":1},{"i_long":106.816351,"line":1,"station_id":"KAT","is_transit":false,"time":1,"transit":false,"i_lat":-6.20132,"station_name":"Karet","distance":471},{"transit":true,"i_lat":-6.185545,"line":1,"station_id":"THB","station_name":"Tanah Abang","time":5,"distance":2029,"is_transit":true,"i_long":106.811091},{"time":6,"is_transit":false,"station_id":"PLM","line":6,"i_lat":-6.207404,"station_name":"Palmerah","i_long":106.79689,"transit":false,"distance":3191},{"distance":3737,"station_name":"Kebayoran","line":6,"transit":false,"is_transit":false,"time":7,"i_lat":-6.237242,"station_id":"KBY","i_long":106.780334},{"station_id":"PDJ","line":6,"transit":false,"station_name":"Pondokranji","distance":6218,"is_transit":false,"time":8,"i_long":106.74273,"i_lat":-6.276362},{"distance":2179,"i_lat":-6.288927,"is_transit":false,"time":3,"station_id":"JMU","i_long":106.728916,"line":6,"transit":false,"station_name":"Jurangmangu"},{"distance":1994,"time":4,"transit":false,"i_long":106.712277,"i_lat":-6.296963,"station_id":"SDM","line":6,"station_name":"Sudimara","is_transit":false},{"time":6,"station_name":"Rawa Buntu","distance":4566,"is_transit":false,"line":6,"station_id":"RU","transit":false,"i_lat":-6.314823,"i_long":106.675475},{"time":4,"station_id":"SRP","i_lat":-6.319871,"distance":2413,"i_long":106.66566,"line":6,"station_name":"Serpong","transit":false,"is_transit":false},{"is_transit":false,"i_lat":-6.32484,"station_id":"CSK","time":4,"station_name":"Cisauk","distance":1784,"i_long":106.640411,"transit":false,"line":0},{"transit":false,"i_lat":-6.329547,"line":0,"i_long":106.617853,"distance":2519,"time":4,"is_transit":false,"station_id":"CC","station_name":"Cicayur"},{"line":6,"station_id":"PRP","station_name":"Parung Panjang","transit":false,"distance":5968,"time":8,"i_lat":-6.3441410000000005,"i_long":106.568863,"is_transit":false},{"distance":7025,"transit":false,"i_long":106.508482,"station_id":"CJT","station_name":"Cilejit","i_lat":-6.354349,"time":9,"is_transit":false,"line":0},{"transit":false,"i_long":106.491338,"line":0,"station_id":"DAR","distance":2675,"i_lat":-6.338021,"station_name":"Daru","is_transit":false,"time":6},{"station_name":"Tenjo","is_transit":false,"transit":false,"i_long":106.460812,"distance":3902,"line":6,"station_id":"TEJ","time":5,"i_lat":-6.327251},{"i_long":106.425991,"station_name":"Tigaraksa","is_transit":false,"distance":2974,"transit":false,"time":5,"i_lat":-6.328533,"station_id":"TGS","line":6},{"line":0,"distance":2651,"transit":false,"station_name":"Cikoya","is_transit":false,"time":3,"station_id":"CKY","i_long":106.411216,"i_lat":-6.33561},{"time":4,"i_lat":-6.332307,"line":6,"station_id":"MJ","station_name":"Maja","i_long":106.394373,"is_transit":false,"distance":1853,"transit":false},{"line":0,"station_name":"Citeras","time":10,"station_id":"CTR","is_transit":false,"distance":7293,"i_lat":-6.334892,"i_long":106.332092,"transit":false}],[{"distance":0,"i_long":106.832616,"line":2,"time":0,"transit":false,"station_id":"LNA","station_name":"Lenteng Agung","is_transit":false,"i_lat":-6.330363},{"transit":false,"station_id":"TNT","i_lat":-6.3080680000000005,"time":3,"distance":2671,"line":2,"i_long":106.838896,"station_name":"Tanjung Barat","is_transit":false},{"distance":2820,"i_long":106.843999,"station_id":"PSM","time":4,"i_lat":-6.2842400000000005,"station_name":"Pasar Minggu","line":2,"transit":false,"is_transit":false},{"station_id":"PSMB","i_lat":-6.263214,"station_name":"Pasar Minggu Baru","time":2,"is_transit":false,"transit":false,"line":2,"distance":2380,"i_long":106.851577},{"transit":false,"station_id":"DRN","station_name":"Duren Kalibata","i_lat":-6.255332,"i_long":106.85449,"line":0,"time":2,"is_transit":false,"distance":824},{"transit":false,"i_long":106.856607,"time":3,"line":0,"station_name":"Cawang","i_lat":-6.242512,"station_id":"CW","is_transit":false,"distance":1546},{"station_id":"TEB","is_transit":false,"transit":false,"time":2,"i_long":106.857948,"line":2,"i_lat":-6.226659,"distance":1230,"station_name":"Tebet"},{"station_id":"MRI","distance":2610,"station_name":"Manggarai","i_lat":-6.209883,"is_transit":true,"i_long":106.84912,"line":0,"time":4,"transit":true},{"i_long":106.840169,"station_name":"Cikini","i_lat":-6.198556,"station_id":"CKI","distance":1590,"transit":false,"time":4,"is_transit":false,"line":0},{"line":2,"station_id":"GDD","i_long":106.832183,"distance":1750,"transit":false,"station_name":"Gondangdia","is_transit":false,"i_lat":-6.186295,"time":3},{"transit":false,"line":2,"station_id":"JUA","time":4,"distance":2015,"station_name":"Juanda","i_long":106.828284,"is_transit":false,"i_lat":-6.166716},{"i_lat":-6.160725,"distance":1149,"line":2,"is_transit":false,"station_id":"SW","time":2,"station_name":"Sawah Besar","transit":false,"i_long":106.827103},{"i_long":106.82482,"station_name":"Manggabesar","is_transit":false,"distance":906,"transit":false,"station_id":"MGB","time":2,"line":2,"i_lat":-6.149769},{"time":2,"distance":1080,"line":7,"is_transit":false,"i_lat":-6.141205,"i_long":106.820901,"station_name":"Jayakarta","transit":false,"station_id":"JAY"},{"station_id":"JAKK","station_name":"Jakarta Kota","i_lat":-6.137569,"time":4,"line":0,"distance":1264,"transit":true,"i_long":106.812439,"is_transit":true},{"station_name":"Kampung Bandan","station_id":"KPB","distance":1364,"transit":false,"time":3,"i_long":106.826365,"is_transit":true,"i_lat":-6.132549,"line":0},{"transit":false,"i_lat":-6.144674,"i_long":106.79867,"line":0,"station_name":"Angke","station_id":"AK","time":9,"distance":4102,"is_transit":false},{"line":1,"time":4,"is_transit":true,"transit":true,"station_id":"DU","station_name":"Duri","distance":1230,"i_lat":-6.155215,"i_long":106.800832},{"time":8,"line":1,"is_transit":true,"distance":3632,"station_id":"THB","station_name":"Tanah Abang","transit":true,"i_lat":-6.185545,"i_long":106.811091},{"is_transit":false,"transit":false,"i_long":106.79689,"i_lat":-6.207404,"station_name":"Palmerah","distance":3191,"line":6,"time":6,"station_id":"PLM"},{"station_name":"Kebayoran","i_long":106.780334,"transit":false,"time":7,"line":6,"i_lat":-6.237242,"is_transit":false,"distance":3737,"station_id":"KBY"},{"transit":false,"i_lat":-6.276362,"line":6,"i_long":106.74273,"time":8,"station_name":"Pondokranji","is_transit":false,"distance":6218,"station_id":"PDJ"},{"time":3,"i_long":106.728916,"station_id":"JMU","transit":false,"distance":2179,"is_transit":false,"station_name":"Jurangmangu","line":6,"i_lat":-6.288927},{"i_long":106.712277,"station_id":"SDM","time":4,"distance":1994,"i_lat":-6.296963,"station_name":"Sudimara","line":6,"is_transit":false,"transit":false},{"line":6,"transit":false,"i_long":106.675475,"time":6,"distance":4566,"station_name":"Rawa Buntu","is_transit":false,"i_lat":-6.314823,"station_id":"RU"},{"line":6,"is_transit":false,"station_id":"SRP","station_name":"Serpong","distance":2413,"transit":false,"i_lat":-6.319871,"i_long":106.66566,"time":4},{"distance":1784,"is_transit":false,"time":4,"station_id":"CSK","i_lat":-6.32484,"station_name":"Cisauk","transit":false,"i_long":106.640411,"line":0},{"i_lat":-6.329547,"station_id":"CC","is_transit":false,"line":0,"station_name":"Cicayur","time":4,"distance":2519,"i_long":106.617853,"transit":false},{"distance":5968,"line":6,"i_lat":-6.3441410000000005,"transit":false,"is_transit":false,"station_id":"PRP","station_name":"Parung Panjang","time":8,"i_long":106.568863},{"line":0,"i_lat":-6.354349,"station_id":"CJT","transit":false,"station_name":"Cilejit","is_transit":false,"time":9,"distance":7025,"i_long":106.508482},{"i_long":106.491338,"is_transit":false,"distance":2675,"station_id":"DAR","transit":false,"station_name":"Daru","line":0,"i_lat":-6.338021,"time":6},{"is_transit":false,"transit":false,"i_lat":-6.327251,"line":6,"i_long":106.460812,"station_name":"Tenjo","distance":3902,"station_id":"TEJ","time":5},{"transit":false,"distance":2974,"is_transit":false,"time":5,"i_lat":-6.328533,"station_id":"TGS","station_name":"Tigaraksa","line":6,"i_long":106.425991},{"i_lat":-6.33561,"station_name":"Cikoya","is_transit":false,"line":0,"station_id":"CKY","i_long":106.411216,"distance":2651,"transit":false,"time":3},{"is_transit":false,"transit":false,"i_lat":-6.332307,"station_id":"MJ","time":4,"distance":1853,"station_name":"Maja","i_long":106.394373,"line":6},{"time":10,"transit":false,"is_transit":false,"distance":7293,"line":0,"i_lat":-6.334892,"i_long":106.332092,"station_id":"CTR","station_name":"Citeras"}],[{"station_id":"LNA","i_long":106.832616,"time":0,"i_lat":-6.330363,"line":2,"distance":0,"station_name":"Lenteng Agung","transit":false,"is_transit":false},{"distance":2671,"station_id":"TNT","time":3,"is_transit":false,"i_lat":-6.3080680000000005,"line":2,"station_name":"Tanjung Barat","i_long":106.838896,"transit":false},{"station_id":"PSM","station_name":"Pasar Minggu","is_transit":false,"distance":2820,"i_lat":-6.2842400000000005,"time":4,"i_long":106.843999,"transit":false,"line":2},{"line":2,"station_id":"PSMB","i_lat":-6.263214,"distance":2380,"is_transit":false,"time":2,"transit":false,"i_long":106.851577,"station_name":"Pasar Minggu Baru"},{"is_transit":false,"time":2,"station_id":"DRN","distance":824,"station_name":"Duren Kalibata","transit":false,"i_long":106.85449,"line":0,"i_lat":-6.255332},{"is_transit":false,"distance":1546,"transit":false,"i_lat":-6.242512,"station_name":"Cawang","line":0,"time":3,"station_id":"CW","i_long":106.856607},{"station_name":"Tebet","station_id":"TEB","is_transit":false,"distance":1230,"i_lat":-6.226659,"i_long":106.857948,"line":2,"time":2,"transit":false},{"line":0,"is_transit":true,"station_name":"Manggarai","transit":true,"i_lat":-6.209883,"time":4,"distance":2610,"station_id":"MRI","i_long":106.84912},{"distance":1275,"transit":false,"station_name":"Matraman","line":1,"i_lat":-6.212485,"time":2,"station_id":"MTR","i_long":106.858896,"is_transit":false},{"i_lat":-6.215091,"time":8,"i_long":106.86807400000001,"is_transit":true,"line":0,"transit":true,"station_id":"JNG","station_name":"Jatinegara","distance":1377},{"time":2,"distance":1236,"i_long":106.861737,"i_lat":-6.209188,"transit":false,"station_id":"POK","station_name":"Pondok Jati","is_transit":false,"line":11},{"time":2,"transit":false,"is_transit":false,"station_name":"Kramat","line":11,"distance":1829,"i_lat":-6.193792,"i_long":106.855437,"station_id":"KMT"},{"i_long":106.850107,"line":11,"transit":false,"is_transit":false,"station_id":"GST","time":1,"station_name":"Gang Sentiong","distance":973,"i_lat":-6.185975},{"i_lat":-6.174784,"time":8,"distance":1567,"station_id":"PSE","transit":false,"station_name":"Pasar Senen","is_transit":false,"line":11,"i_long":106.84368},{"time":4,"is_transit":false,"distance":1436,"i_lat":-6.161728,"line":11,"station_name":"Kemayoran","i_long":106.839204,"transit":false,"station_id":"KMO"},{"i_lat":-6.14505,"transit":false,"line":11,"station_name":"Rajawali","station_id":"RJW","time":5,"is_transit":false,"i_long":106.836569,"distance":1901},{"is_transit":true,"i_long":106.826365,"station_name":"Kampung Bandan","distance":1444,"line":0,"transit":true,"i_lat":-6.132549,"time":3,"station_id":"KPB"},{"is_transit":false,"time":9,"line":0,"station_id":"AK","transit":false,"station_name":"Angke","i_long":106.79867,"i_lat":-6.144674,"distance":4102},{"i_long":106.800832,"station_name":"Duri","time":4,"is_transit":true,"i_lat":-6.155215,"distance":1230,"line":1,"transit":true,"station_id":"DU"},{"transit":true,"line":1,"time":8,"station_name":"Tanah Abang","i_long":106.811091,"station_id":"THB","is_transit":true,"distance":3632,"i_lat":-6.185545},{"i_lat":-6.207404,"is_transit":false,"station_id":"PLM","distance":3191,"transit":false,"i_long":106.79689,"time":6,"line":6,"station_name":"Palmerah"},{"i_lat":-6.237242,"station_id":"KBY","i_long":106.780334,"distance":3737,"station_name":"Kebayoran","is_transit":false,"line":6,"time":7,"transit":false},{"line":6,"time":8,"transit":false,"i_long":106.74273,"is_transit":false,"station_id":"PDJ","i_lat":-6.276362,"station_name":"Pondokranji","distance":6218},{"time":3,"transit":false,"line":6,"station_name":"Jurangmangu","distance":2179,"i_lat":-6.288927,"station_id":"JMU","is_transit":false,"i_long":106.728916},{"station_id":"SDM","time":4,"distance":1994,"transit":false,"line":6,"is_transit":false,"i_long":106.712277,"i_lat":-6.296963,"station_name":"Sudimara"},{"time":6,"line":6,"distance":4566,"transit":false,"is_transit":false,"station_name":"Rawa Buntu","i_lat":-6.314823,"i_long":106.675475,"station_id":"RU"},{"station_name":"Serpong","is_transit":false,"distance":2413,"i_long":106.66566,"i_lat":-6.319871,"station_id":"SRP","time":4,"line":6,"transit":false},{"i_lat":-6.32484,"transit":false,"station_id":"CSK","distance":1784,"time":4,"i_long":106.640411,"station_name":"Cisauk","line":0,"is_transit":false},{"station_id":"CC","i_lat":-6.329547,"transit":false,"station_name":"Cicayur","i_long":106.617853,"time":4,"line":0,"is_transit":false,"distance":2519},{"i_lat":-6.3441410000000005,"station_id":"PRP","line":6,"is_transit":false,"transit":false,"station_name":"Parung Panjang","distance":5968,"time":8,"i_long":106.568863},{"transit":false,"station_name":"Cilejit","time":9,"line":0,"i_long":106.508482,"is_transit":false,"i_lat":-6.354349,"distance":7025,"station_id":"CJT"},{"station_name":"Daru","i_long":106.491338,"time":6,"station_id":"DAR","line":0,"is_transit":false,"distance":2675,"i_lat":-6.338021,"transit":false},{"station_id":"TEJ","station_name":"Tenjo","line":6,"distance":3902,"time":5,"i_lat":-6.327251,"i_long":106.460812,"is_transit":false,"transit":false},{"line":6,"is_transit":false,"distance":2974,"time":5,"transit":false,"station_name":"Tigaraksa","i_lat":-6.328533,"station_id":"TGS","i_long":106.425991},{"time":3,"i_lat":-6.33561,"station_name":"Cikoya","distance":2651,"i_long":106.411216,"station_id":"CKY","line":0,"transit":false,"is_transit":false},{"i_long":106.394373,"line":6,"time":4,"transit":false,"station_name":"Maja","is_transit":false,"distance":1853,"i_lat":-6.332307,"station_id":"MJ"},{"transit":false,"i_long":106.332092,"station_name":"Citeras","i_lat":-6.334892,"is_transit":false,"line":0,"station_id":"CTR","time":10,"distance":7293}]]}