{"data":[[{"transit":false,"station_name":"Lenteng Agung","time":0,"is_transit":false,"distance":0,"i_lat":-6.330363,"i_long":106.832616,"station_id":"LNA","line":2},{"station_id":"TNT","is_transit":false,"station_name":"Tanjung Barat","transit":false,"i_lat":-6.3080680000000005,"i_long":106.838896,"time":3,"distance":2671,"line":2},{"time":4,"distance":2820,"i_lat":-6.2842400000000005,"line":2,"station_id":"PSM","station_name":"Pasar Minggu","i_long":106.843999,"transit":false,"is_transit":false},{"transit":false,"station_id":"PSMB","distance":2380,"i_lat":-6.263214,"line":2,"time":2,"i_long":106.851577,"station_name":"Pasar Minggu Baru","is_transit":false},{"i_lat":-6.255332,"is_transit":false,"station_name":"Duren Kalibata","i_long":106.85449,"time":2,"transit":false,"distance":824,"line":2,"station_id":"DRN"},{"transit":false,"i_lat":-6.242512,"time":3,"station_id":"CW","distance":1546,"i_long":106.856607,"line":2,"is_transit":false,"station_name":"Cawang"},{"i_lat":-6.226659,"i_long":106.857948,"station_id":"TEB","time":2,"station_name":"Tebet","transit":false,"distance":1230,"line":2,"is_transit":false},{"distance":2610,"time":4,"station_id":"MRI","line":2,"i_long":106.84912,"is_transit":true,"transit":true,"station_name":"Manggarai","i_lat":-6.209883},{"line":1,"is_transit":false,"i_lat":-6.202263,"station_name":"Sudirman","time":4,"distance":3186,"i_long":106.822649,"transit":false,"station_id":"SUD"},{"station_id":"SUDB","i_long":106.819881,"time":1,"distance":280,"station_name":"Sudirman Baru","line":1,"transit":false,"is_transit":false,"i_lat":-6.201433},{"transit":false,"station_name":"Karet","line":1,"is_transit":false,"time":1,"i_lat":-6.20132,"station_id":"KAT","distance":471,"i_long":106.816351}],[{"line":2,"station_name":"Lenteng Agung","time":0,"i_lat":-6.330363,"transit":false,"station_id":"LNA","is_transit":false,"distance":0,"i_long":106.832616},{"station_name":"Tanjung Barat","is_transit":false,"i_lat":-6.3080680000000005,"station_id":"TNT","time":3,"distance":2671,"i_long":106.838896,"line":2,"transit":false},{"i_long":106.843999,"station_name":"Pasar Minggu","time":4,"distance":2820,"i_lat":-6.2842400000000005,"transit":false,"station_id":"PSM","is_transit":false,"line":2},{"transit":false,"i_lat":-6.263214,"time":2,"i_long":106.851577,"line":2,"station_id":"PSMB","station_name":"Pasar Minggu Baru","distance":2380,"is_transit":false},{"i_long":106.85449,"line":2,"transit":false,"distance":824,"time":2,"station_name":"Duren Kalibata","i_lat":-6.255332,"is_transit":false,"station_id":"DRN"},{"time":3,"station_id":"CW","line":2,"i_lat":-6.242512,"transit":false,"station_name":"Cawang","i_long":106.856607,"is_transit":false,"distance":1546},{"is_transit":false,"station_id":"TEB","time":2,"line":2,"transit":false,"i_lat":-6.226659,"i_long":106.857948,"distance":1230,"station_name":"Tebet"},{"station_name":"Manggarai","i_lat":-6.209883,"line":2,"distance":2610,"transit":false,"station_id":"MRI","is_transit":false,"time":4,"i_long":106.84912},{"i_lat":-6.198556,"station_id":"CKI","line":2,"distance":1590,"i_long":106.840169,"station_name":"Cikini","is_transit":false,"transit":false,"time":4},{"distance":1750,"transit":false,"i_lat":-6.186295,"station_name":"Gondangdia","line":2,"time":3,"i_long":106.832183,"station_id":"GDD","is_transit":false},{"transit":false,"is_transit":false,"i_long":106.828284,"time":4,"line":2,"distance":2015,"station_name":"Juanda","i_lat":-6.166716,"station_id":"JUA"},{"time":2,"transit":false,"i_lat":-6.160725,"line":2,"is_transit":false,"distance":1149,"station_id":"SW","station_name":"Sawah Besar","i_long":106.827103},{"transit":false,"station_name":"Manggabesar","i_lat":-6.149769,"distance":906,"i_long":106.82482,"station_id":"MGB","is_transit":false,"time":2,"line":2},{"station_name":"Jayakarta","line":2,"station_id":"JAY","i_lat":-6.141205,"i_long":106.820901,"is_transit":false,"time":2,"distance":1080,"transit":false},{"transit":true,"i_lat":-6.137569,"line":2,"is_transit":true,"distance":1264,"time":4,"station_id":"JAKK","i_long":106.812439,"station_name":"Jakarta Kota"},{"transit":true,"i_lat":-6.132549,"station_name":"Kampung Bandan","time":3,"is_transit":true,"line":4,"distance":1364,"i_long":106.826365,"station_id":"KPB"},{"distance":4102,"station_name":"Angke","time":9,"i_lat":-6.144674,"station_id":"AK","is_transit":false,"line":1,"transit":false,"i_long":106.79867},{"station_id":"DU","transit":false,"station_name":"Duri","i_long":106.800832,"line":1,"time":4,"i_lat":-6.155215,"distance":1230,"is_transit":false},{"line":1,"i_long":106.811091,"station_id":"THB","distance":3632,"time":8,"is_transit":false,"i_lat":-6.185545,"transit":false,"station_name":"Tanah Abang"},{"station_name":"Karet","is_transit":false,"transit":false,"i_lat":-6.20132,"station_id":"KAT","line":1,"distance":2029,"i_long":106.816351,"time":5}],[{"i_lat":-6.330363,"i_long":106.832616,"distance":0,"station_id":"LNA","is_transit":false,"time":0,"line":2,"station_name":"Lenteng Agung","transit":false},{"time":3,"is_transit":false,"station_id":"TNT","i_long":106.838896,"transit":false,"station_name":"Tanjung Barat","i_lat":-6.3080680000000005,"line":2,"distance":2671},{"transit":false,"i_long":106.843999,"i_lat":-6.2842400000000005,"time":4,"line":2,"distance":2820,"is_transit":false,"station_id":"PSM","station_name":"Pasar Minggu"},{"transit":false,"line":2,"time":2,"i_long":106.851577,"station_name":"Pasar Minggu Baru","i_lat":-6.263214,"station_id":"PSMB","distance":2380,"is_transit":false},{"station_id":"DRN","i_lat":-6.255332,"time":2,"line":2,"distance":824,"station_name":"Duren Kalibata","transit":false,"is_transit":false,"i_long":106.85449},{"station_name":"Cawang","i_lat":-6.242512,"line":2,"distance":1546,"time":3,"i_long":106.856607,"transit":false,"is_transit":false,"station_id":"CW"},{"is_transit":false,"station_name":"Tebet","i_lat":-6.226659,"station_id":"TEB","distance":1230,"transit":false,"time":2,"line":2,"i_long":106.857948},{"station_name":"Manggarai","time":4,"is_transit":true,"i_lat":-6.209883,"transit":true,"station_id":"MRI","distance":2610,"i_long":106.84912,"line":2},{"line":1,"station_id":"MTR","transit":false,"distance":1275,"time":2,"is_transit":false,"station_name":"Matraman","i_lat":-6.212485,"i_long":106.858896},{"is_transit":true,"station_id":"JNG","time":8,"station_name":"Jatinegara","transit":true,"i_lat":-6.215091,"distance":1377,"i_long":106.86807400000001,"line":1},{"distance":1236,"line":11,"is_transit":false,"transit":false,"station_name":"Pondok Jati","i_long":106.861737,"time":2,"i_lat":-6.209188,"station_id":"POK"},{"i_lat":-6.193792,"i_long":106.855437,"time":2,"line":11,"transit":false,"station_name":"Kramat","distance":1829,"is_transit":false,"station_id":"KMT"},{"line":11,"distance":973,"i_lat":-6.185975,"time":1,"i_long":106.850107,"station_name":"Gang Sentiong","station_id":"GST","transit":false,"is_transit":false},{"station_name":"Pasar Senen","time":8,"i_lat":-6.174784,"transit":false,"distance":1567,"station_id":"PSE","i_long":106.84368,"is_transit":false,"line":11},{"i_lat":-6.161728,"line":11,"distance":1436,"is_transit":false,"i_long":106.839204,"transit":false,"station_id":"KMO","time":4,"station_name":"Kemayoran"},{"i_lat":-6.14505,"is_transit":false,"i_long":106.836569,"station_name":"Rajawali","line":11,"transit":false,"station_id":"RJW","distance":1901,"time":5},{"i_long":106.826365,"is_transit":true,"transit":true,"station_name":"Kampung Bandan","station_id":"KPB","time":3,"line":4,"i_lat":-6.132549,"distance":1444},{"i_long":106.79867,"station_id":"AK","station_name":"Angke","i_lat":-6.144674,"time":9,"is_transit":false,"line":1,"transit":false,"distance":4102},{"is_transit":false,"station_id":"DU","distance":1230,"time":4,"i_long":106.800832,"line":1,"i_lat":-6.155215,"transit":false,"station_name":"Duri"},{"time":8,"i_lat":-6.185545,"station_id":"THB","i_long":106.811091,"transit":false,"line":1,"distance":3632,"station_name":"Tanah Abang","is_transit":false},{"i_lat":-6.20132,"is_transit":false,"i_long":106.816351,"station_id":"KAT","time":5,"distance":2029,"station_name":"Karet","transit":false,"line":1}]]}