{"data":[[{"station_id":"LNA","station_name":"Lenteng Agung","i_long":106.832616,"line":2,"distance":0,"is_transit":false,"transit":false,"time":0,"i_lat":-6.330363},{"i_long":106.838896,"line":2,"transit":false,"distance":2671,"station_id":"TNT","station_name":"Tanjung Barat","time":3,"i_lat":-6.3080680000000005,"is_transit":false},{"line":2,"time":4,"station_name":"Pasar Minggu","station_id":"PSM","distance":2820,"i_long":106.843999,"is_transit":false,"transit":false,"i_lat":-6.2842400000000005},{"is_transit":false,"time":2,"i_long":106.851577,"line":2,"transit":false,"station_name":"Pasar Minggu Baru","distance":2380,"station_id":"PSMB","i_lat":-6.263214},{"transit":false,"is_transit":false,"time":2,"station_id":"DRN","i_lat":-6.255332,"line":2,"station_name":"Duren Kalibata","i_long":106.85449,"distance":824},{"i_lat":-6.242512,"station_id":"CW","line":2,"station_name":"Cawang","time":3,"i_long":106.856607,"is_transit":false,"distance":1546,"transit":false},{"transit":false,"time":2,"station_name":"Tebet","i_lat":-6.226659,"station_id":"TEB","line":2,"is_transit":false,"distance":1230,"i_long":106.857948},{"transit":false,"station_id":"MRI","line":2,"distance":2610,"time":4,"is_transit":false,"station_name":"Manggarai","i_long":106.84912,"i_lat":-6.209883},{"i_lat":-6.198556,"line":2,"station_id":"CKI","station_name":"Cikini","i_long":106.840169,"transit":false,"is_transit":false,"time":4,"distance":1590}],[{"station_id":"LNA","i_long":106.832616,"station_name":"Lenteng Agung","line":2,"time":0,"transit":false,"i_lat":-6.330363,"is_transit":false,"distance":0},{"station_id":"TNT","line":2,"i_long":106.838896,"time":3,"i_lat":-6.3080680000000005,"station_name":"Tanjung Barat","distance":2671,"transit":false,"is_transit":false},{"station_id":"PSM","transit":false,"is_transit":false,"station_name":"Pasar Minggu","i_long":106.843999,"distance":2820,"line":2,"time":4,"i_lat":-6.2842400000000005},{"transit":false,"station_id":"PSMB","station_name":"Pasar Minggu Baru","is_transit":false,"distance":2380,"line":2,"i_long":106.851577,"time":2,"i_lat":-6.263214},{"is_transit":false,"transit":false,"station_name":"Duren Kalibata","i_lat":-6.255332,"line":2,"time":2,"distance":824,"i_long":106.85449,"station_id":"DRN"},{"station_id":"CW","time":3,"distance":1546,"i_lat":-6.242512,"is_transit":false,"line":2,"i_long":106.856607,"transit":false,"station_name":"Cawang"},{"transit":false,"line":2,"i_long":106.857948,"time":2,"station_name":"Tebet","i_lat":-6.226659,"station_id":"TEB","is_transit":false,"distance":1230},{"i_lat":-6.209883,"station_name":"Manggarai","line":2,"station_id":"MRI","distance":2610,"time":4,"i_long":106.84912,"transit":true,"is_transit":true},{"distance":3186,"i_lat":-6.202263,"transit":false,"is_transit":false,"time":4,"station_name":"Sudirman","i_long":106.822649,"station_id":"SUD","line":1},{"transit":false,"station_id":"SUDB","line":1,"station_name":"Sudirman Baru","time":1,"i_long":106.819881,"i_lat":-6.201433,"is_transit":false,"distance":280},{"is_transit":false,"transit":false,"distance":471,"station_name":"Karet","line":1,"time":1,"station_id":"KAT","i_long":106.816351,"i_lat":-6.20132},{"line":1,"time":5,"station_name":"Tanah Abang","i_lat":-6.185545,"distance":2029,"i_long":106.811091,"is_transit":false,"station_id":"THB","transit":false},{"transit":false,"time":8,"i_long":106.800832,"is_transit":false,"station_id":"DU","i_lat":-6.155215,"station_name":"Duri","distance":3632,"line":1},{"station_id":"AK","i_long":106.79867,"transit":false,"time":4,"i_lat":-6.144674,"line":1,"station_name":"Angke","is_transit":false,"distance":1230},{"line":4,"i_lat":-6.132549,"distance":4102,"transit":true,"is_transit":true,"station_id":"KPB","i_long":106.826365,"time":9,"station_name":"Kampung Bandan"},{"is_transit":true,"i_lat":-6.137569,"i_long":106.812439,"transit":true,"station_id":"JAKK","time":3,"station_name":"Jakarta Kota","line":2,"distance":1364},{"transit":false,"distance":1264,"is_transit":false,"station_name":"Jayakarta","time":4,"station_id":"JAY","line":2,"i_long":106.820901,"i_lat":-6.141205},{"transit":false,"station_name":"Manggabesar","distance":1080,"station_id":"MGB","i_long":106.82482,"line":2,"i_lat":-6.149769,"is_transit":false,"time":2},{"i_long":106.827103,"is_transit":false,"time":2,"i_lat":-6.160725,"station_id":"SW","distance":906,"line":2,"transit":false,"station_name":"Sawah Besar"},{"station_name":"Juanda","distance":1149,"i_long":106.828284,"i_lat":-6.166716,"transit":false,"line":2,"time":2,"is_transit":false,"station_id":"JUA"},{"i_long":106.832183,"distance":2015,"station_id":"GDD","transit":false,"line":2,"i_lat":-6.186295,"station_name":"Gondangdia","time":4,"is_transit":false},{"i_lat":-6.198556,"is_transit":false,"transit":false,"time":3,"distance":1750,"station_id":"CKI","station_name":"Cikini","i_long":106.840169,"line":2}],[{"line":2,"i_lat":-6.330363,"station_id":"LNA","is_transit":false,"time":0,"distance":0,"transit":false,"i_long":106.832616,"station_name":"Lenteng Agung"},{"transit":false,"i_long":106.838896,"station_name":"Tanjung Barat","distance":2671,"line":2,"i_lat":-6.3080680000000005,"time":3,"station_id":"TNT","is_transit":false},{"is_transit":false,"transit":false,"i_lat":-6.2842400000000005,"distance":2820,"line":2,"station_name":"Pasar Minggu","time":4,"station_id":"PSM","i_long":106.843999},{"station_name":"Pasar Minggu Baru","distance":2380,"time":2,"i_lat":-6.263214,"transit":false,"line":2,"station_id":"PSMB","is_transit":false,"i_long":106.851577},{"time":2,"station_name":"Duren Kalibata","is_transit":false,"station_id":"DRN","i_lat":-6.255332,"line":2,"transit":false,"i_long":106.85449,"distance":824},{"i_lat":-6.242512,"station_name":"Cawang","is_transit":false,"time":3,"transit":false,"station_id":"CW","distance":1546,"i_long":106.856607,"line":2},{"i_lat":-6.226659,"i_long":106.857948,"line":2,"is_transit":false,"station_name":"Tebet","station_id":"TEB","time":2,"transit":false,"distance":1230},{"line":2,"is_transit":true,"transit":true,"i_lat":-6.209883,"station_id":"MRI","time":4,"distance":2610,"i_long":106.84912,"station_name":"Manggarai"},{"station_id":"MTR","time":2,"i_lat":-6.212485,"i_long":106.858896,"line":1,"distance":1275,"station_name":"Matraman","is_transit":false,"transit":false},{"i_lat":-6.215091,"station_name":"Jatinegara","transit":true,"is_transit":true,"station_id":"JNG","i_long":106.86807400000001,"line":1,"time":8,"distance":1377},{"time":2,"station_id":"POK","i_long":106.861737,"distance":1236,"i_lat":-6.209188,"line":11,"is_transit":false,"station_name":"Pondok Jati","transit":false},{"transit":false,"distance":1829,"station_id":"KMT","is_transit":false,"station_name":"Kramat","i_lat":-6.193792,"i_long":106.855437,"time":2,"line":11},{"station_id":"GST","time":1,"transit":false,"distance":973,"line":11,"is_transit":false,"station_name":"Gang Sentiong","i_lat":-6.185975,"i_long":106.850107},{"is_transit":false,"station_name":"Pasar Senen","transit":false,"i_long":106.84368,"time":8,"distance":1567,"i_lat":-6.174784,"station_id":"PSE","line":11},{"i_lat":-6.161728,"line":11,"transit":false,"is_transit":false,"time":4,"station_id":"KMO","station_name":"Kemayoran","distance":1436,"i_long":106.839204},{"i_lat":-6.14505,"transit":false,"is_transit":false,"time":5,"distance":1901,"line":11,"i_long":106.836569,"station_name":"Rajawali","station_id":"RJW"},{"time":3,"line":4,"station_id":"KPB","distance":1444,"transit":true,"station_name":"Kampung Bandan","is_transit":true,"i_long":106.826365,"i_lat":-6.132549},{"time":3,"is_transit":true,"line":2,"distance":1364,"i_lat":-6.137569,"station_name":"Jakarta Kota","i_long":106.812439,"station_id":"JAKK","transit":true},{"i_long":106.820901,"is_transit":false,"distance":1264,"station_id":"JAY","line":2,"time":4,"transit":false,"station_name":"Jayakarta","i_lat":-6.141205},{"distance":1080,"time":2,"station_id":"MGB","i_lat":-6.149769,"station_name":"Manggabesar","is_transit":false,"transit":false,"i_long":106.82482,"line":2},{"transit":false,"distance":906,"line":2,"is_transit":false,"time":2,"station_name":"Sawah Besar","i_lat":-6.160725,"i_long":106.827103,"station_id":"SW"},{"is_transit":false,"i_long":106.828284,"distance":1149,"i_lat":-6.166716,"line":2,"transit":false,"station_name":"Juanda","time":2,"station_id":"JUA"},{"i_long":106.832183,"transit":false,"station_name":"Gondangdia","station_id":"GDD","time":4,"i_lat":-6.186295,"distance":2015,"is_transit":false,"line":2},{"transit":false,"station_id":"CKI","distance":1750,"time":3,"i_lat":-6.198556,"i_long":106.840169,"is_transit":false,"station_name":"Cikini","line":2}]]}