{"data":[[{"distance":0,"station_name":"Lenteng Agung","i_lat":-6.330363,"is_transit":false,"station_id":"LNA","i_long":106.832616,"line":2,"time":0,"transit":false},{"is_transit":false,"transit":false,"i_lat":-6.3080680000000005,"station_id":"TNT","line":2,"i_long":106.838896,"time":3,"station_name":"Tanjung Barat","distance":2671},{"i_lat":-6.2842400000000005,"line":2,"transit":false,"time":4,"station_name":"Pasar Minggu","distance":2820,"i_long":106.843999,"station_id":"PSM","is_transit":false},{"station_name":"Pasar Minggu Baru","i_lat":-6.263214,"transit":false,"line":2,"station_id":"PSMB","is_transit":false,"time":2,"distance":2380,"i_long":106.851577},{"line":2,"i_long":106.85449,"time":2,"is_transit":false,"distance":824,"station_name":"Duren Kalibata","station_id":"DRN","transit":false,"i_lat":-6.255332},{"time":3,"distance":1546,"station_id":"CW","i_long":106.856607,"line":2,"i_lat":-6.242512,"station_name":"Cawang","is_transit":false,"transit":false},{"is_transit":false,"i_lat":-6.226659,"i_long":106.857948,"time":2,"transit":false,"line":2,"station_id":"TEB","station_name":"Tebet","distance":1230},{"is_transit":true,"i_long":106.84912,"station_id":"MRI","station_name":"Manggarai","line":2,"i_lat":-6.209883,"time":4,"distance":2610,"transit":true},{"transit":false,"station_id":"SUD","i_lat":-6.202263,"station_name":"Sudirman","i_long":106.822649,"is_transit":false,"time":4,"distance":3186,"line":1},{"distance":280,"transit":false,"i_lat":-6.201433,"time":1,"is_transit":false,"i_long":106.819881,"station_name":"Sudirman Baru","station_id":"SUDB","line":1},{"transit":false,"station_id":"KAT","i_lat":-6.20132,"time":1,"line":1,"distance":471,"station_name":"Karet","is_transit":false,"i_long":106.816351},{"is_transit":true,"station_name":"Tanah Abang","i_long":106.811091,"distance":2029,"station_id":"THB","time":5,"transit":true,"i_lat":-6.185545,"line":1},{"line":6,"transit":false,"is_transit":false,"station_id":"PLM","distance":3191,"i_long":106.79689,"station_name":"Palmerah","i_lat":-6.207404,"time":6},{"i_long":106.780334,"station_id":"KBY","is_transit":false,"station_name":"Kebayoran","time":7,"line":6,"transit":false,"distance":3737,"i_lat":-6.237242},{"is_transit":false,"line":6,"distance":6218,"station_id":"PDJ","transit":false,"time":8,"station_name":"Pondokranji","i_lat":-6.276362,"i_long":106.74273},{"time":3,"distance":2179,"station_name":"Jurangmangu","line":6,"is_transit":false,"station_id":"JMU","i_long":106.728916,"i_lat":-6.288927,"transit":false}],[{"transit":false,"station_id":"LNA","i_lat":-6.330363,"is_transit":false,"i_long":106.832616,"distance":0,"time":0,"station_name":"Lenteng Agung","line":2},{"transit":false,"time":3,"station_name":"Tanjung Barat","i_long":106.838896,"is_transit":false,"station_id":"TNT","i_lat":-6.3080680000000005,"line":2,"distance":2671},{"i_long":106.843999,"i_lat":-6.2842400000000005,"station_id":"PSM","is_transit":false,"distance":2820,"transit":false,"line":2,"time":4,"station_name":"Pasar Minggu"},{"station_id":"PSMB","distance":2380,"i_long":106.851577,"is_transit":false,"time":2,"line":2,"i_lat":-6.263214,"transit":false,"station_name":"Pasar Minggu Baru"},{"i_long":106.85449,"time":2,"station_id":"DRN","distance":824,"line":2,"station_name":"Duren Kalibata","i_lat":-6.255332,"transit":false,"is_transit":false},{"distance":1546,"transit":false,"station_id":"CW","i_lat":-6.242512,"i_long":106.856607,"time":3,"line":2,"is_transit":false,"station_name":"Cawang"},{"station_name":"Tebet","i_long":106.857948,"station_id":"TEB","distance":1230,"line":2,"i_lat":-6.226659,"is_transit":false,"time":2,"transit":false},{"i_lat":-6.209883,"time":4,"station_name":"Manggarai","station_id":"MRI","i_long":106.84912,"distance":2610,"is_transit":false,"line":2,"transit":false},{"time":4,"transit":false,"line":2,"distance":1590,"is_transit":false,"station_id":"CKI","i_long":106.840169,"station_name":"Cikini","i_lat":-6.198556},{"time":3,"transit":false,"is_transit":false,"distance":1750,"station_name":"Gondangdia","station_id":"GDD","i_lat":-6.186295,"i_long":106.832183,"line":2},{"is_transit":false,"station_id":"JUA","line":2,"time":4,"distance":2015,"transit":false,"i_lat":-6.166716,"station_name":"Juanda","i_long":106.828284},{"line":2,"station_name":"Sawah Besar","transit":false,"distance":1149,"i_long":106.827103,"i_lat":-6.160725,"station_id":"SW","time":2,"is_transit":false},{"station_id":"MGB","is_transit":false,"transit":false,"i_lat":-6.149769,"distance":906,"station_name":"Manggabesar","line":2,"i_long":106.82482,"time":2},{"i_lat":-6.141205,"distance":1080,"station_name":"Jayakarta","is_transit":false,"i_long":106.820901,"line":2,"station_id":"JAY","time":2,"transit":false},{"station_name":"Jakarta Kota","distance":1264,"time":4,"transit":true,"i_lat":-6.137569,"i_long":106.812439,"line":2,"station_id":"JAKK","is_transit":true},{"i_long":106.826365,"i_lat":-6.132549,"station_id":"KPB","is_transit":true,"line":4,"distance":1364,"station_name":"Kampung Bandan","time":3,"transit":true},{"distance":4102,"station_id":"AK","i_long":106.79867,"is_transit":false,"time":9,"station_name":"Angke","transit":false,"i_lat":-6.144674,"line":1},{"i_lat":-6.155215,"time":4,"station_id":"DU","is_transit":false,"line":1,"i_long":106.800832,"transit":false,"distance":1230,"station_name":"Duri"},{"distance":3632,"i_long":106.811091,"transit":true,"i_lat":-6.185545,"station_name":"Tanah Abang","time":8,"station_id":"THB","is_transit":true,"line":1},{"station_name":"Palmerah","i_long":106.79689,"time":6,"station_id":"PLM","is_transit":false,"line":6,"i_lat":-6.207404,"transit":false,"distance":3191},{"transit":false,"time":7,"line":6,"distance":3737,"station_name":"Kebayoran","i_lat":-6.237242,"station_id":"KBY","is_transit":false,"i_long":106.780334},{"station_id":"PDJ","i_long":106.74273,"transit":false,"time":8,"i_lat":-6.276362,"line":6,"is_transit":false,"station_name":"Pondokranji","distance":6218},{"i_long":106.728916,"time":3,"distance":2179,"is_transit":false,"station_id":"JMU","line":6,"transit":false,"i_lat":-6.288927,"station_name":"Jurangmangu"}],[{"time":0,"i_long":106.832616,"station_id":"LNA","transit":false,"line":2,"distance":0,"i_lat":-6.330363,"is_transit":false,"station_name":"Lenteng Agung"},{"station_id":"TNT","transit":false,"is_transit":false,"distance":2671,"time":3,"station_name":"Tanjung Barat","line":2,"i_lat":-6.3080680000000005,"i_long":106.838896},{"distance":2820,"transit":false,"i_lat":-6.2842400000000005,"time":4,"is_transit":false,"station_name":"Pasar Minggu","station_id":"PSM","i_long":106.843999,"line":2},{"distance":2380,"station_name":"Pasar Minggu Baru","i_long":106.851577,"line":2,"time":2,"i_lat":-6.263214,"transit":false,"is_transit":false,"station_id":"PSMB"},{"i_long":106.85449,"transit":false,"line":2,"station_name":"Duren Kalibata","distance":824,"is_transit":false,"station_id":"DRN","i_lat":-6.255332,"time":2},{"i_long":106.856607,"time":3,"station_id":"CW","i_lat":-6.242512,"distance":1546,"transit":false,"station_name":"Cawang","is_transit":false,"line":2},{"distance":1230,"is_transit":false,"transit":false,"station_name":"Tebet","line":2,"time":2,"i_lat":-6.226659,"station_id":"TEB","i_long":106.857948},{"station_id":"MRI","i_long":106.84912,"is_transit":true,"distance":2610,"line":2,"transit":true,"i_lat":-6.209883,"station_name":"Manggarai","time":4},{"is_transit":false,"transit":false,"station_id":"MTR","station_name":"Matraman","i_lat":-6.212485,"line":1,"time":2,"i_long":106.858896,"distance":1275},{"is_transit":true,"transit":true,"distance":1377,"station_name":"Jatinegara","time":8,"station_id":"JNG","i_long":106.86807400000001,"line":1,"i_lat":-6.215091},{"is_transit":false,"transit":false,"station_id":"POK","i_lat":-6.209188,"i_long":106.861737,"distance":1236,"time":2,"station_name":"Pondok Jati","line":11},{"station_name":"Kramat","time":2,"transit":false,"i_long":106.855437,"line":11,"i_lat":-6.193792,"is_transit":false,"distance":1829,"station_id":"KMT"},{"time":1,"i_long":106.850107,"is_transit":false,"distance":973,"i_lat":-6.185975,"station_id":"GST","station_name":"Gang Sentiong","transit":false,"line":11},{"i_long":106.84368,"line":11,"station_name":"Pasar Senen","distance":1567,"transit":false,"time":8,"is_transit":false,"station_id":"PSE","i_lat":-6.174784},{"i_lat":-6.161728,"is_transit":false,"distance":1436,"transit":false,"station_id":"KMO","i_long":106.839204,"time":4,"line":11,"station_name":"Kemayoran"},{"transit":false,"i_long":106.836569,"distance":1901,"i_lat":-6.14505,"time":5,"line":11,"station_id":"RJW","station_name":"Rajawali","is_transit":false},{"transit":true,"is_transit":true,"station_id":"KPB","i_long":106.826365,"line":4,"time":3,"distance":1444,"station_name":"Kampung Bandan","i_lat":-6.132549},{"line":1,"station_name":"Angke","is_transit":false,"i_long":106.79867,"distance":4102,"time":9,"transit":false,"i_lat":-6.144674,"station_id":"AK"},{"i_long":106.800832,"station_name":"Duri","transit":false,"time":4,"is_transit":false,"i_lat":-6.155215,"line":1,"station_id":"DU","distance":1230},{"station_id":"THB","i_long":106.811091,"i_lat":-6.185545,"station_name":"Tanah Abang","distance":3632,"is_transit":true,"transit":true,"time":8,"line":1},{"time":6,"i_lat":-6.207404,"i_long":106.79689,"transit":false,"is_transit":false,"distance":3191,"station_id":"PLM","station_name":"Palmerah","line":6},{"is_transit":false,"line":6,"i_long":106.780334,"transit":false,"station_id":"KBY","time":7,"station_name":"Kebayoran","distance":3737,"i_lat":-6.237242},{"station_id":"PDJ","i_lat":-6.276362,"distance":6218,"transit":false,"line":6,"time":8,"is_transit":false,"i_long":106.74273,"station_name":"Pondokranji"},{"distance":2179,"is_transit":false,"time":3,"station_name":"Jurangmangu","i_lat":-6.288927,"station_id":"JMU","transit":false,"line":6,"i_long":106.728916}]]}