{"data":[[{"i_lat":-6.330363,"i_long":106.832616,"line":2,"transit":false,"distance":0,"station_id":"LNA","time":0,"is_transit":false,"station_name":"Lenteng Agung"},{"is_transit":false,"station_id":"TNT","station_name":"Tanjung Barat","distance":2671,"line":2,"time":3,"transit":false,"i_long":106.838896,"i_lat":-6.3080680000000005},{"station_id":"PSM","distance":2820,"line":2,"transit":false,"station_name":"Pasar Minggu","is_transit":false,"time":4,"i_lat":-6.2842400000000005,"i_long":106.843999},{"time":2,"is_transit":false,"i_long":106.851577,"station_name":"Pasar Minggu Baru","transit":false,"distance":2380,"line":2,"station_id":"PSMB","i_lat":-6.263214},{"time":2,"i_lat":-6.255332,"i_long":106.85449,"line":0,"station_name":"Duren Kalibata","is_transit":false,"station_id":"DRN","distance":824,"transit":false},{"is_transit":false,"transit":false,"i_long":106.856607,"time":3,"station_id":"CW","line":0,"distance":1546,"station_name":"Cawang","i_lat":-6.242512},{"station_id":"TEB","station_name":"Tebet","i_long":106.857948,"time":2,"i_lat":-6.226659,"is_transit":false,"distance":1230,"transit":false,"line":2},{"i_long":106.84912,"station_id":"MRI","time":4,"station_name":"Manggarai","is_transit":true,"line":0,"transit":true,"distance":2610,"i_lat":-6.209883},{"transit":false,"station_name":"Matraman","station_id":"MTR","is_transit":false,"time":2,"distance":1275,"i_long":106.858896,"line":1,"i_lat":-6.212485},{"i_long":106.86807400000001,"distance":1377,"i_lat":-6.215091,"line":0,"station_name":"Jatinegara","transit":false,"is_transit":true,"station_id":"JNG","time":8},{"distance":3395,"i_lat":-6.2135,"time":3,"is_transit":false,"i_long":106.899548,"station_id":"KLD","transit":false,"line":1,"station_name":"Klender"},{"station_name":"Buaran","i_long":106.922662,"time":2,"distance":3100,"station_id":"BUA","is_transit":false,"transit":false,"line":0,"i_lat":-6.215568},{"station_id":"KLDB","i_long":106.939679,"i_lat":-6.217455,"time":1,"station_name":"Klenderbaru","is_transit":false,"distance":1305,"transit":false,"line":1},{"is_transit":false,"time":8,"i_lat":-6.219053,"station_name":"Cakung","i_long":106.951283,"line":0,"station_id":"CUK","transit":false,"distance":1385}],[{"transit":false,"time":0,"i_lat":-6.330363,"i_long":106.832616,"line":2,"distance":0,"is_transit":false,"station_name":"Lenteng Agung","station_id":"LNA"},{"distance":2671,"is_transit":false,"time":3,"transit":false,"i_long":106.838896,"line":2,"i_lat":-6.3080680000000005,"station_id":"TNT","station_name":"Tanjung Barat"},{"is_transit":false,"station_name":"Pasar Minggu","transit":false,"line":2,"i_long":106.843999,"i_lat":-6.2842400000000005,"station_id":"PSM","distance":2820,"time":4},{"is_transit":false,"station_id":"PSMB","distance":2380,"transit":false,"line":2,"i_long":106.851577,"i_lat":-6.263214,"time":2,"station_name":"Pasar Minggu Baru"},{"time":2,"line":0,"station_id":"DRN","distance":824,"station_name":"Duren Kalibata","is_transit":false,"i_long":106.85449,"transit":false,"i_lat":-6.255332},{"station_name":"Cawang","station_id":"CW","time":3,"distance":1546,"transit":false,"line":0,"is_transit":false,"i_lat":-6.242512,"i_long":106.856607},{"i_long":106.857948,"station_id":"TEB","station_name":"Tebet","is_transit":false,"time":2,"transit":false,"i_lat":-6.226659,"distance":1230,"line":2},{"station_name":"Manggarai","transit":true,"i_lat":-6.209883,"distance":2610,"station_id":"MRI","i_long":106.84912,"is_transit":true,"line":0,"time":4},{"transit":false,"station_name":"Sudirman","i_long":106.822649,"station_id":"SUD","i_lat":-6.202263,"line":1,"time":4,"is_transit":false,"distance":3186},{"i_long":106.819881,"station_id":"SUDB","line":1,"station_name":"Sudirman Baru","is_transit":false,"i_lat":-6.201433,"time":1,"distance":280,"transit":false},{"is_transit":false,"distance":471,"i_lat":-6.20132,"i_long":106.816351,"line":1,"time":1,"transit":false,"station_id":"KAT","station_name":"Karet"},{"distance":2029,"station_id":"THB","is_transit":true,"transit":false,"i_long":106.811091,"time":5,"station_name":"Tanah Abang","line":1,"i_lat":-6.185545},{"i_lat":-6.155215,"transit":true,"distance":3632,"time":8,"i_long":106.800832,"station_name":"Duri","station_id":"DU","is_transit":true,"line":1},{"transit":false,"i_lat":-6.144674,"station_id":"AK","is_transit":false,"distance":1230,"station_name":"Angke","line":0,"time":4,"i_long":106.79867},{"time":9,"line":0,"distance":4102,"i_lat":-6.132549,"station_id":"KPB","is_transit":true,"station_name":"Kampung Bandan","i_long":106.826365,"transit":true},{"i_long":106.836569,"time":3,"is_transit":false,"line":11,"transit":false,"station_name":"Rajawali","i_lat":-6.14505,"station_id":"RJW","distance":1444},{"station_name":"Kemayoran","distance":1901,"i_lat":-6.161728,"line":11,"transit":false,"station_id":"KMO","is_transit":false,"time":5,"i_long":106.839204},{"i_long":106.84368,"time":4,"station_id":"PSE","i_lat":-6.174784,"distance":1436,"station_name":"Pasar Senen","line":11,"transit":false,"is_transit":false},{"station_id":"GST","distance":1567,"line":11,"transit":false,"i_lat":-6.185975,"station_name":"Gang Sentiong","time":8,"i_long":106.850107,"is_transit":false},{"is_transit":false,"station_id":"KMT","time":1,"i_lat":-6.193792,"line":11,"transit":false,"i_long":106.855437,"station_name":"Kramat","distance":973},{"transit":false,"i_long":106.861737,"station_name":"Pondok Jati","is_transit":false,"i_lat":-6.209188,"line":11,"distance":1829,"station_id":"POK","time":2},{"i_long":106.86807400000001,"i_lat":-6.215091,"station_name":"Jatinegara","time":9,"line":0,"station_id":"JNG","distance":1236,"transit":true,"is_transit":true},{"transit":false,"i_lat":-6.2135,"i_long":106.899548,"time":3,"station_name":"Klender","is_transit":false,"distance":3395,"line":1,"station_id":"KLD"},{"i_lat":-6.215568,"time":2,"distance":3100,"transit":false,"i_long":106.922662,"is_transit":false,"line":0,"station_id":"BUA","station_name":"Buaran"},{"station_id":"KLDB","station_name":"Klenderbaru","i_long":106.939679,"is_transit":false,"time":1,"distance":1305,"i_lat":-6.217455,"transit":false,"line":1},{"line":0,"is_transit":false,"distance":1385,"time":8,"station_name":"Cakung","transit":false,"i_lat":-6.219053,"i_long":106.951283,"station_id":"CUK"}],[{"distance":0,"i_lat":-6.330363,"i_long":106.832616,"station_id":"LNA","time":0,"transit":false,"line":2,"station_name":"Lenteng Agung","is_transit":false},{"time":3,"line":2,"i_long":106.838896,"transit":false,"station_name":"Tanjung Barat","distance":2671,"is_transit":false,"station_id":"TNT","i_lat":-6.3080680000000005},{"station_name":"Pasar Minggu","i_long":106.843999,"time":4,"line":2,"is_transit":false,"distance":2820,"i_lat":-6.2842400000000005,"transit":false,"station_id":"PSM"},{"time":2,"station_id":"PSMB","i_lat":-6.263214,"i_long":106.851577,"line":2,"station_name":"Pasar Minggu Baru","transit":false,"is_transit":false,"distance":2380},{"time":2,"distance":824,"line":0,"i_long":106.85449,"i_lat":-6.255332,"station_name":"Duren Kalibata","station_id":"DRN","transit":false,"is_transit":false},{"i_long":106.856607,"station_id":"CW","station_name":"Cawang","i_lat":-6.242512,"line":0,"distance":1546,"transit":false,"time":3,"is_transit":false},{"i_long":106.857948,"transit":false,"is_transit":false,"distance":1230,"station_id":"TEB","i_lat":-6.226659,"line":2,"station_name":"Tebet","time":2},{"transit":true,"time":4,"station_name":"Manggarai","i_long":106.84912,"line":0,"is_transit":true,"distance":2610,"station_id":"MRI","i_lat":-6.209883},{"distance":1590,"line":0,"station_name":"Cikini","time":4,"i_long":106.840169,"i_lat":-6.198556,"transit":false,"station_id":"CKI","is_transit":false},{"line":2,"station_name":"Gondangdia","station_id":"GDD","is_transit":false,"transit":false,"distance":1750,"i_lat":-6.186295,"i_long":106.832183,"time":3},{"i_lat":-6.166716,"transit":false,"station_name":"Juanda","station_id":"JUA","time":4,"is_transit":false,"distance":2015,"i_long":106.828284,"line":2},{"station_name":"Sawah Besar","time":2,"i_lat":-6.160725,"station_id":"SW","i_long":106.827103,"is_transit":false,"transit":false,"line":2,"distance":1149},{"station_name":"Manggabesar","i_long":106.82482,"line":2,"distance":906,"transit":false,"is_transit":false,"time":2,"station_id":"MGB","i_lat":-6.149769},{"station_id":"JAY","transit":false,"line":7,"distance":1080,"is_transit":false,"station_name":"Jayakarta","time":2,"i_long":106.820901,"i_lat":-6.141205},{"is_transit":true,"i_long":106.812439,"distance":1264,"time":4,"station_name":"Jakarta Kota","transit":true,"i_lat":-6.137569,"line":0,"station_id":"JAKK"},{"i_lat":-6.132549,"is_transit":true,"line":0,"distance":1364,"transit":true,"station_id":"KPB","station_name":"Kampung Bandan","time":3,"i_long":106.826365},{"i_lat":-6.14505,"is_transit":false,"station_id":"RJW","station_name":"Rajawali","transit":false,"time":3,"distance":1444,"i_long":106.836569,"line":11},{"i_lat":-6.161728,"is_transit":false,"i_long":106.839204,"line":11,"station_name":"Kemayoran","transit":false,"distance":1901,"station_id":"KMO","time":5},{"i_lat":-6.174784,"station_id":"PSE","line":11,"time":4,"i_long":106.84368,"is_transit":false,"distance":1436,"transit":false,"station_name":"Pasar Senen"},{"i_long":106.850107,"line":11,"station_name":"Gang Sentiong","transit":false,"i_lat":-6.185975,"is_transit":false,"time":8,"distance":1567,"station_id":"GST"},{"distance":973,"i_long":106.855437,"station_id":"KMT","line":11,"station_name":"Kramat","i_lat":-6.193792,"is_transit":false,"time":1,"transit":false},{"station_id":"POK","is_transit":false,"time":2,"transit":false,"line":11,"i_lat":-6.209188,"station_name":"Pondok Jati","distance":1829,"i_long":106.861737},{"i_long":106.86807400000001,"transit":true,"distance":1236,"i_lat":-6.215091,"station_id":"JNG","is_transit":true,"line":0,"station_name":"Jatinegara","time":9},{"i_lat":-6.2135,"i_long":106.899548,"transit":false,"station_name":"Klender","is_transit":false,"station_id":"KLD","line":1,"distance":3395,"time":3},{"i_long":106.922662,"i_lat":-6.215568,"line":0,"time":2,"station_name":"Buaran","distance":3100,"transit":false,"is_transit":false,"station_id":"BUA"},{"i_long":106.939679,"line":1,"time":1,"transit":false,"is_transit":false,"station_id":"KLDB","station_name":"Klenderbaru","i_lat":-6.217455,"distance":1305},{"is_transit":false,"line":0,"i_long":106.951283,"time":8,"transit":false,"i_lat":-6.219053,"station_name":"Cakung","station_id":"CUK","distance":1385}]]}