{"data":[[{"station_name":"Lenteng Agung","line":2,"time":0,"transit":false,"i_lat":-6.330363,"i_long":106.832616,"is_transit":false,"station_id":"LNA","distance":0},{"transit":false,"i_lat":-6.3080680000000005,"is_transit":false,"i_long":106.838896,"time":3,"distance":2671,"line":2,"station_name":"Tanjung Barat","station_id":"TNT"},{"transit":false,"i_lat":-6.2842400000000005,"is_transit":false,"station_name":"Pasar Minggu","station_id":"PSM","i_long":106.843999,"line":2,"distance":2820,"time":4},{"time":2,"line":2,"station_name":"Pasar Minggu Baru","distance":2380,"i_lat":-6.263214,"station_id":"PSMB","is_transit":false,"transit":false,"i_long":106.851577},{"time":2,"transit":false,"distance":824,"is_transit":false,"i_lat":-6.255332,"line":2,"station_id":"DRN","i_long":106.85449,"station_name":"Duren Kalibata"},{"distance":1546,"transit":false,"i_long":106.856607,"is_transit":false,"time":3,"station_name":"Cawang","i_lat":-6.242512,"station_id":"CW","line":2},{"is_transit":false,"station_name":"Tebet","time":2,"station_id":"TEB","transit":false,"i_long":106.857948,"distance":1230,"i_lat":-6.226659,"line":2},{"station_name":"Manggarai","time":4,"is_transit":true,"station_id":"MRI","i_lat":-6.209883,"distance":2610,"i_long":106.84912,"transit":true,"line":2},{"time":4,"station_id":"SUD","distance":3186,"i_lat":-6.202263,"line":1,"transit":false,"i_long":106.822649,"is_transit":false,"station_name":"Sudirman"},{"line":1,"i_long":106.819881,"distance":280,"is_transit":false,"i_lat":-6.201433,"time":1,"station_id":"SUDB","transit":false,"station_name":"Sudirman Baru"},{"distance":471,"i_lat":-6.20132,"line":1,"is_transit":false,"i_long":106.816351,"station_name":"Karet","time":1,"transit":false,"station_id":"KAT"},{"is_transit":true,"transit":true,"distance":2029,"station_name":"Tanah Abang","i_lat":-6.185545,"time":5,"station_id":"THB","i_long":106.811091,"line":1},{"line":6,"time":6,"i_lat":-6.207404,"station_id":"PLM","transit":false,"i_long":106.79689,"station_name":"Palmerah","is_transit":false,"distance":3191},{"i_lat":-6.237242,"station_id":"KBY","distance":3737,"is_transit":false,"station_name":"Kebayoran","time":7,"transit":false,"i_long":106.780334,"line":6},{"station_name":"Pondokranji","transit":false,"i_long":106.74273,"time":8,"station_id":"PDJ","distance":6218,"line":6,"i_lat":-6.276362,"is_transit":false},{"distance":2179,"is_transit":false,"i_long":106.728916,"transit":false,"station_id":"JMU","line":6,"i_lat":-6.288927,"station_name":"Jurangmangu","time":3},{"is_transit":false,"time":4,"transit":false,"station_name":"Sudimara","i_lat":-6.296963,"i_long":106.712277,"distance":1994,"station_id":"SDM","line":6},{"station_id":"RU","station_name":"Rawa Buntu","transit":false,"distance":4566,"time":6,"i_lat":-6.314823,"line":6,"is_transit":false,"i_long":106.675475},{"line":6,"i_long":106.66566,"is_transit":false,"station_name":"Serpong","station_id":"SRP","transit":false,"time":4,"distance":2413,"i_lat":-6.319871}],[{"is_transit":false,"line":2,"i_lat":-6.330363,"i_long":106.832616,"time":0,"station_id":"LNA","transit":false,"station_name":"Lenteng Agung","distance":0},{"i_long":106.838896,"line":2,"station_id":"TNT","is_transit":false,"station_name":"Tanjung Barat","transit":false,"distance":2671,"time":3,"i_lat":-6.3080680000000005},{"transit":false,"distance":2820,"i_lat":-6.2842400000000005,"station_name":"Pasar Minggu","station_id":"PSM","i_long":106.843999,"is_transit":false,"line":2,"time":4},{"station_name":"Pasar Minggu Baru","transit":false,"distance":2380,"is_transit":false,"i_long":106.851577,"time":2,"station_id":"PSMB","i_lat":-6.263214,"line":2},{"line":2,"time":2,"distance":824,"station_id":"DRN","i_long":106.85449,"i_lat":-6.255332,"is_transit":false,"transit":false,"station_name":"Duren Kalibata"},{"distance":1546,"station_name":"Cawang","transit":false,"is_transit":false,"i_lat":-6.242512,"i_long":106.856607,"line":2,"station_id":"CW","time":3},{"station_name":"Tebet","i_lat":-6.226659,"is_transit":false,"time":2,"transit":false,"distance":1230,"i_long":106.857948,"station_id":"TEB","line":2},{"transit":false,"station_name":"Manggarai","time":4,"line":2,"distance":2610,"is_transit":false,"station_id":"MRI","i_long":106.84912,"i_lat":-6.209883},{"is_transit":false,"time":4,"distance":1590,"station_name":"Cikini","station_id":"CKI","transit":false,"i_long":106.840169,"line":2,"i_lat":-6.198556},{"i_long":106.832183,"is_transit":false,"station_id":"GDD","time":3,"i_lat":-6.186295,"line":2,"distance":1750,"transit":false,"station_name":"Gondangdia"},{"time":4,"transit":false,"i_long":106.828284,"station_name":"Juanda","station_id":"JUA","distance":2015,"i_lat":-6.166716,"is_transit":false,"line":2},{"i_lat":-6.160725,"is_transit":false,"time":2,"line":2,"transit":false,"i_long":106.827103,"distance":1149,"station_name":"Sawah Besar","station_id":"SW"},{"transit":false,"i_long":106.82482,"station_name":"Manggabesar","time":2,"station_id":"MGB","i_lat":-6.149769,"line":2,"distance":906,"is_transit":false},{"time":2,"transit":false,"line":2,"i_lat":-6.141205,"distance":1080,"station_id":"JAY","station_name":"Jayakarta","i_long":106.820901,"is_transit":false},{"i_long":106.812439,"time":4,"is_transit":true,"station_name":"Jakarta Kota","distance":1264,"station_id":"JAKK","transit":true,"i_lat":-6.137569,"line":2},{"time":3,"station_name":"Kampung Bandan","station_id":"KPB","is_transit":true,"i_long":106.826365,"line":4,"distance":1364,"transit":true,"i_lat":-6.132549},{"transit":false,"distance":4102,"time":9,"station_id":"AK","line":1,"i_lat":-6.144674,"i_long":106.79867,"station_name":"Angke","is_transit":false},{"station_id":"DU","i_long":106.800832,"line":1,"distance":1230,"i_lat":-6.155215,"transit":false,"station_name":"Duri","is_transit":false,"time":4},{"line":1,"transit":true,"distance":3632,"time":8,"station_id":"THB","station_name":"Tanah Abang","i_lat":-6.185545,"i_long":106.811091,"is_transit":true},{"time":6,"station_name":"Palmerah","transit":false,"distance":3191,"station_id":"PLM","line":6,"i_lat":-6.207404,"i_long":106.79689,"is_transit":false},{"i_long":106.780334,"distance":3737,"is_transit":false,"station_name":"Kebayoran","station_id":"KBY","transit":false,"i_lat":-6.237242,"time":7,"line":6},{"is_transit":false,"time":8,"station_id":"PDJ","station_name":"Pondokranji","line":6,"transit":false,"distance":6218,"i_long":106.74273,"i_lat":-6.276362},{"i_long":106.728916,"i_lat":-6.288927,"is_transit":false,"station_name":"Jurangmangu","transit":false,"distance":2179,"line":6,"time":3,"station_id":"JMU"},{"station_id":"SDM","time":4,"is_transit":false,"station_name":"Sudimara","distance":1994,"i_lat":-6.296963,"transit":false,"i_long":106.712277,"line":6},{"station_id":"RU","station_name":"Rawa Buntu","time":6,"transit":false,"line":6,"i_long":106.675475,"i_lat":-6.314823,"distance":4566,"is_transit":false},{"station_name":"Serpong","transit":false,"time":4,"i_long":106.66566,"is_transit":false,"distance":2413,"station_id":"SRP","line":6,"i_lat":-6.319871}],[{"i_lat":-6.330363,"station_id":"LNA","transit":false,"i_long":106.832616,"line":2,"is_transit":false,"time":0,"station_name":"Lenteng Agung","distance":0},{"station_id":"TNT","distance":2671,"time":3,"station_name":"Tanjung Barat","i_lat":-6.3080680000000005,"i_long":106.838896,"is_transit":false,"transit":false,"line":2},{"is_transit":false,"time":4,"transit":false,"station_id":"PSM","i_lat":-6.2842400000000005,"i_long":106.843999,"line":2,"station_name":"Pasar Minggu","distance":2820},{"i_long":106.851577,"transit":false,"distance":2380,"time":2,"i_lat":-6.263214,"is_transit":false,"station_id":"PSMB","line":2,"station_name":"Pasar Minggu Baru"},{"transit":false,"i_long":106.85449,"line":2,"is_transit":false,"distance":824,"time":2,"station_id":"DRN","i_lat":-6.255332,"station_name":"Duren Kalibata"},{"distance":1546,"i_lat":-6.242512,"time":3,"i_long":106.856607,"line":2,"is_transit":false,"transit":false,"station_name":"Cawang","station_id":"CW"},{"is_transit":false,"i_long":106.857948,"i_lat":-6.226659,"time":2,"transit":false,"distance":1230,"station_id":"TEB","line":2,"station_name":"Tebet"},{"station_name":"Manggarai","distance":2610,"i_lat":-6.209883,"station_id":"MRI","i_long":106.84912,"line":2,"is_transit":true,"transit":true,"time":4},{"time":2,"distance":1275,"station_id":"MTR","i_long":106.858896,"line":1,"is_transit":false,"i_lat":-6.212485,"transit":false,"station_name":"Matraman"},{"distance":1377,"station_id":"JNG","line":1,"i_lat":-6.215091,"transit":true,"time":8,"i_long":106.86807400000001,"is_transit":true,"station_name":"Jatinegara"},{"time":2,"station_name":"Pondok Jati","i_long":106.861737,"station_id":"POK","transit":false,"i_lat":-6.209188,"line":11,"distance":1236,"is_transit":false},{"time":2,"station_id":"KMT","line":11,"station_name":"Kramat","distance":1829,"is_transit":false,"transit":false,"i_lat":-6.193792,"i_long":106.855437},{"station_name":"Gang Sentiong","distance":973,"i_lat":-6.185975,"station_id":"GST","i_long":106.850107,"line":11,"is_transit":false,"time":1,"transit":false},{"is_transit":false,"time":8,"i_long":106.84368,"i_lat":-6.174784,"distance":1567,"line":11,"station_name":"Pasar Senen","station_id":"PSE","transit":false},{"time":4,"i_lat":-6.161728,"line":11,"station_name":"Kemayoran","is_transit":false,"station_id":"KMO","i_long":106.839204,"distance":1436,"transit":false},{"distance":1901,"station_name":"Rajawali","i_lat":-6.14505,"is_transit":false,"i_long":106.836569,"time":5,"transit":false,"station_id":"RJW","line":11},{"transit":true,"i_lat":-6.132549,"line":4,"is_transit":true,"station_id":"KPB","i_long":106.826365,"time":3,"station_name":"Kampung Bandan","distance":1444},{"line":1,"is_transit":false,"transit":false,"distance":4102,"i_long":106.79867,"time":9,"station_name":"Angke","station_id":"AK","i_lat":-6.144674},{"is_transit":false,"i_lat":-6.155215,"i_long":106.800832,"line":1,"transit":false,"station_name":"Duri","station_id":"DU","distance":1230,"time":4},{"time":8,"distance":3632,"i_long":106.811091,"transit":true,"i_lat":-6.185545,"is_transit":true,"station_name":"Tanah Abang","line":1,"station_id":"THB"},{"station_name":"Palmerah","distance":3191,"i_lat":-6.207404,"i_long":106.79689,"line":6,"is_transit":false,"transit":false,"time":6,"station_id":"PLM"},{"i_lat":-6.237242,"station_id":"KBY","distance":3737,"transit":false,"i_long":106.780334,"is_transit":false,"time":7,"line":6,"station_name":"Kebayoran"},{"transit":false,"station_id":"PDJ","time":8,"i_lat":-6.276362,"is_transit":false,"distance":6218,"station_name":"Pondokranji","i_long":106.74273,"line":6},{"i_lat":-6.288927,"i_long":106.728916,"line":6,"time":3,"transit":false,"distance":2179,"is_transit":false,"station_name":"Jurangmangu","station_id":"JMU"},{"i_long":106.712277,"station_id":"SDM","line":6,"station_name":"Sudimara","distance":1994,"is_transit":false,"i_lat":-6.296963,"transit":false,"time":4},{"is_transit":false,"distance":4566,"station_id":"RU","time":6,"transit":false,"station_name":"Rawa Buntu","i_lat":-6.314823,"line":6,"i_long":106.675475},{"is_transit":false,"transit":false,"line":6,"distance":2413,"i_lat":-6.319871,"i_long":106.66566,"time":4,"station_id":"SRP","station_name":"Serpong"}]]}