{"data":[[{"is_transit":false,"station_name":"Lenteng Agung","transit":false,"station_id":"LNA","i_long":106.832616,"time":0,"distance":0,"line":2,"i_lat":-6.330363},{"line":2,"time":3,"station_name":"Tanjung Barat","is_transit":false,"i_lat":-6.3080680000000005,"transit":false,"distance":2671,"station_id":"TNT","i_long":106.838896},{"transit":false,"i_lat":-6.2842400000000005,"is_transit":false,"distance":2820,"time":4,"station_id":"PSM","i_long":106.843999,"station_name":"Pasar Minggu","line":2},{"distance":2380,"i_long":106.851577,"line":2,"time":2,"station_id":"PSMB","i_lat":-6.263214,"station_name":"Pasar Minggu Baru","is_transit":false,"transit":false},{"time":2,"distance":824,"station_name":"Duren Kalibata","line":2,"station_id":"DRN","i_lat":-6.255332,"i_long":106.85449,"transit":false,"is_transit":false},{"distance":1546,"line":2,"time":3,"transit":false,"station_id":"CW","i_long":106.856607,"is_transit":false,"i_lat":-6.242512,"station_name":"Cawang"},{"time":2,"distance":1230,"station_id":"TEB","station_name":"Tebet","line":2,"transit":false,"is_transit":false,"i_long":106.857948,"i_lat":-6.226659},{"time":4,"station_id":"MRI","distance":2610,"i_lat":-6.209883,"transit":true,"i_long":106.84912,"line":2,"is_transit":true,"station_name":"Manggarai"},{"station_name":"Sudirman","time":4,"is_transit":false,"distance":3186,"i_long":106.822649,"station_id":"SUD","line":1,"transit":false,"i_lat":-6.202263},{"i_long":106.819881,"transit":false,"time":1,"line":1,"station_name":"Sudirman Baru","distance":280,"is_transit":false,"i_lat":-6.201433,"station_id":"SUDB"},{"transit":false,"i_lat":-6.20132,"distance":471,"time":1,"line":1,"i_long":106.816351,"station_id":"KAT","is_transit":false,"station_name":"Karet"},{"distance":2029,"station_name":"Tanah Abang","i_lat":-6.185545,"line":1,"time":5,"transit":false,"station_id":"THB","i_long":106.811091,"is_transit":false},{"time":8,"distance":3632,"transit":true,"station_name":"Duri","is_transit":true,"i_lat":-6.155215,"i_long":106.800832,"line":1,"station_id":"DU"},{"is_transit":false,"transit":false,"station_name":"Grogol","line":5,"station_id":"GGL","time":3,"i_long":106.788277,"distance":1700,"i_lat":-6.162021}],[{"distance":0,"line":2,"station_name":"Lenteng Agung","is_transit":false,"i_lat":-6.330363,"station_id":"LNA","time":0,"i_long":106.832616,"transit":false},{"i_lat":-6.3080680000000005,"time":3,"station_id":"TNT","distance":2671,"i_long":106.838896,"line":2,"station_name":"Tanjung Barat","is_transit":false,"transit":false},{"station_name":"Pasar Minggu","time":4,"transit":false,"station_id":"PSM","i_lat":-6.2842400000000005,"line":2,"is_transit":false,"i_long":106.843999,"distance":2820},{"time":2,"station_name":"Pasar Minggu Baru","is_transit":false,"transit":false,"station_id":"PSMB","i_lat":-6.263214,"line":2,"distance":2380,"i_long":106.851577},{"station_name":"Duren Kalibata","line":2,"is_transit":false,"i_lat":-6.255332,"i_long":106.85449,"station_id":"DRN","time":2,"transit":false,"distance":824},{"line":2,"time":3,"distance":1546,"station_name":"Cawang","station_id":"CW","i_lat":-6.242512,"transit":false,"i_long":106.856607,"is_transit":false},{"i_long":106.857948,"line":2,"is_transit":false,"station_id":"TEB","time":2,"station_name":"Tebet","distance":1230,"transit":false,"i_lat":-6.226659},{"line":2,"is_transit":false,"distance":2610,"station_id":"MRI","time":4,"i_lat":-6.209883,"transit":false,"i_long":106.84912,"station_name":"Manggarai"},{"transit":false,"station_name":"Cikini","time":4,"distance":1590,"line":2,"i_long":106.840169,"i_lat":-6.198556,"is_transit":false,"station_id":"CKI"},{"station_id":"GDD","i_lat":-6.186295,"is_transit":false,"i_long":106.832183,"distance":1750,"time":3,"station_name":"Gondangdia","line":2,"transit":false},{"line":2,"station_name":"Juanda","time":4,"is_transit":false,"transit":false,"i_long":106.828284,"station_id":"JUA","i_lat":-6.166716,"distance":2015},{"is_transit":false,"station_id":"SW","i_lat":-6.160725,"i_long":106.827103,"time":2,"transit":false,"distance":1149,"station_name":"Sawah Besar","line":2},{"time":2,"station_id":"MGB","transit":false,"i_lat":-6.149769,"line":2,"station_name":"Manggabesar","is_transit":false,"distance":906,"i_long":106.82482},{"i_lat":-6.141205,"distance":1080,"line":2,"station_id":"JAY","station_name":"Jayakarta","is_transit":false,"time":2,"transit":false,"i_long":106.820901},{"station_name":"Jakarta Kota","time":4,"station_id":"JAKK","is_transit":true,"transit":true,"i_lat":-6.137569,"line":2,"distance":1264,"i_long":106.812439},{"transit":true,"time":3,"line":4,"i_lat":-6.132549,"station_name":"Kampung Bandan","is_transit":true,"distance":1364,"station_id":"KPB","i_long":106.826365},{"time":9,"station_id":"AK","i_long":106.79867,"i_lat":-6.144674,"line":1,"transit":false,"distance":4102,"is_transit":false,"station_name":"Angke"},{"transit":true,"distance":1230,"station_name":"Duri","i_long":106.800832,"is_transit":true,"line":1,"station_id":"DU","time":4,"i_lat":-6.155215},{"time":3,"i_lat":-6.162021,"i_long":106.788277,"line":5,"station_name":"Grogol","is_transit":false,"transit":false,"distance":1700,"station_id":"GGL"}],[{"distance":0,"station_name":"Lenteng Agung","is_transit":false,"station_id":"LNA","line":2,"i_lat":-6.330363,"i_long":106.832616,"time":0,"transit":false},{"line":2,"station_id":"TNT","i_long":106.838896,"is_transit":false,"time":3,"i_lat":-6.3080680000000005,"distance":2671,"transit":false,"station_name":"Tanjung Barat"},{"station_name":"Pasar Minggu","is_transit":false,"i_lat":-6.2842400000000005,"transit":false,"station_id":"PSM","i_long":106.843999,"time":4,"distance":2820,"line":2},{"transit":false,"i_lat":-6.263214,"line":2,"station_name":"Pasar Minggu Baru","time":2,"is_transit":false,"distance":2380,"station_id":"PSMB","i_long":106.851577},{"transit":false,"station_name":"Duren Kalibata","i_long":106.85449,"line":2,"station_id":"DRN","distance":824,"is_transit":false,"i_lat":-6.255332,"time":2},{"time":3,"station_id":"CW","i_long":106.856607,"station_name":"Cawang","transit":false,"distance":1546,"i_lat":-6.242512,"is_transit":false,"line":2},{"line":2,"is_transit":false,"transit":false,"distance":1230,"station_id":"TEB","i_lat":-6.226659,"i_long":106.857948,"time":2,"station_name":"Tebet"},{"station_name":"Manggarai","i_lat":-6.209883,"transit":true,"line":2,"i_long":106.84912,"distance":2610,"time":4,"station_id":"MRI","is_transit":true},{"i_long":106.858896,"is_transit":false,"station_id":"MTR","time":2,"transit":false,"distance":1275,"i_lat":-6.212485,"line":1,"station_name":"Matraman"},{"station_name":"Jatinegara","line":1,"station_id":"JNG","i_lat":-6.215091,"is_transit":true,"transit":true,"time":8,"distance":1377,"i_long":106.86807400000001},{"is_transit":false,"distance":1236,"station_id":"POK","line":11,"transit":false,"i_long":106.861737,"i_lat":-6.209188,"time":2,"station_name":"Pondok Jati"},{"i_long":106.855437,"station_name":"Kramat","distance":1829,"line":11,"time":2,"i_lat":-6.193792,"station_id":"KMT","is_transit":false,"transit":false},{"i_long":106.850107,"transit":false,"time":1,"i_lat":-6.185975,"line":11,"distance":973,"station_name":"Gang Sentiong","is_transit":false,"station_id":"GST"},{"is_transit":false,"transit":false,"station_id":"PSE","line":11,"station_name":"Pasar Senen","time":8,"distance":1567,"i_lat":-6.174784,"i_long":106.84368},{"i_lat":-6.161728,"time":4,"transit":false,"distance":1436,"station_name":"Kemayoran","station_id":"KMO","is_transit":false,"i_long":106.839204,"line":11},{"is_transit":false,"station_name":"Rajawali","transit":false,"i_lat":-6.14505,"i_long":106.836569,"line":11,"distance":1901,"station_id":"RJW","time":5},{"line":4,"i_lat":-6.132549,"time":3,"is_transit":true,"distance":1444,"i_long":106.826365,"station_id":"KPB","transit":true,"station_name":"Kampung Bandan"},{"is_transit":false,"station_name":"Angke","station_id":"AK","distance":4102,"i_lat":-6.144674,"transit":false,"i_long":106.79867,"line":1,"time":9},{"line":1,"station_name":"Duri","transit":true,"i_lat":-6.155215,"i_long":106.800832,"time":4,"is_transit":true,"station_id":"DU","distance":1230},{"time":3,"i_lat":-6.162021,"transit":false,"distance":1700,"station_id":"GGL","i_long":106.788277,"is_transit":false,"line":5,"station_name":"Grogol"}]]}