{"data":[[{"i_lat":-6.330363,"station_id":"LNA","time":0,"transit":false,"i_long":106.832616,"distance":0,"station_name":"Lenteng Agung","line":2,"is_transit":false},{"is_transit":false,"i_long":106.838896,"distance":2671,"time":3,"station_id":"TNT","transit":false,"i_lat":-6.3080680000000005,"line":2,"station_name":"Tanjung Barat"},{"i_lat":-6.2842400000000005,"i_long":106.843999,"transit":false,"time":4,"is_transit":false,"line":2,"distance":2820,"station_id":"PSM","station_name":"Pasar Minggu"},{"line":2,"transit":false,"is_transit":false,"station_name":"Pasar Minggu Baru","distance":2380,"i_long":106.851577,"time":2,"i_lat":-6.263214,"station_id":"PSMB"},{"transit":false,"time":2,"station_name":"Duren Kalibata","i_lat":-6.255332,"i_long":106.85449,"is_transit":false,"line":2,"station_id":"DRN","distance":824},{"is_transit":false,"transit":false,"station_name":"Cawang","line":2,"i_long":106.856607,"station_id":"CW","time":3,"distance":1546,"i_lat":-6.242512},{"station_id":"TEB","time":2,"transit":false,"i_long":106.857948,"distance":1230,"is_transit":false,"i_lat":-6.226659,"station_name":"Tebet","line":2},{"transit":true,"is_transit":true,"time":4,"station_name":"Manggarai","i_long":106.84912,"i_lat":-6.209883,"station_id":"MRI","distance":2610,"line":2},{"i_lat":-6.202263,"station_id":"SUD","time":4,"station_name":"Sudirman","line":1,"is_transit":false,"distance":3186,"transit":false,"i_long":106.822649},{"i_lat":-6.201433,"distance":280,"line":1,"is_transit":false,"station_name":"Sudirman Baru","i_long":106.819881,"time":1,"station_id":"SUDB","transit":false},{"distance":471,"transit":false,"i_long":106.816351,"station_name":"Karet","is_transit":false,"line":1,"time":1,"i_lat":-6.20132,"station_id":"KAT"},{"station_name":"Tanah Abang","distance":2029,"i_long":106.811091,"transit":true,"i_lat":-6.185545,"time":5,"station_id":"THB","is_transit":true,"line":1},{"time":6,"i_long":106.79689,"distance":3191,"line":6,"is_transit":false,"transit":false,"station_name":"Palmerah","i_lat":-6.207404,"station_id":"PLM"},{"station_name":"Kebayoran","i_long":106.780334,"station_id":"KBY","distance":3737,"is_transit":false,"line":6,"transit":false,"time":7,"i_lat":-6.237242},{"is_transit":false,"i_lat":-6.276362,"station_id":"PDJ","distance":6218,"line":6,"transit":false,"station_name":"Pondokranji","i_long":106.74273,"time":8},{"is_transit":false,"i_lat":-6.288927,"time":3,"i_long":106.728916,"station_id":"JMU","line":6,"distance":2179,"station_name":"Jurangmangu","transit":false},{"transit":false,"i_lat":-6.296963,"is_transit":false,"station_name":"Sudimara","time":4,"i_long":106.712277,"station_id":"SDM","line":6,"distance":1994},{"station_id":"RU","distance":4566,"is_transit":false,"line":6,"time":6,"i_lat":-6.314823,"transit":false,"i_long":106.675475,"station_name":"Rawa Buntu"},{"distance":2413,"transit":false,"i_lat":-6.319871,"i_long":106.66566,"line":6,"is_transit":false,"station_id":"SRP","time":4,"station_name":"Serpong"},{"is_transit":false,"i_long":106.640411,"time":4,"station_name":"Cisauk","line":3,"distance":1784,"station_id":"CSK","transit":false,"i_lat":-6.32484},{"time":4,"is_transit":false,"line":3,"distance":2519,"station_name":"Cicayur","station_id":"CC","transit":false,"i_lat":-6.329547,"i_long":106.617853},{"is_transit":false,"i_long":106.568863,"line":6,"distance":5968,"time":8,"station_name":"Parung Panjang","i_lat":-6.3441410000000005,"station_id":"PRP","transit":false},{"transit":false,"station_name":"Cilejit","distance":7025,"time":9,"line":3,"i_long":106.508482,"is_transit":false,"station_id":"CJT","i_lat":-6.354349}],[{"station_id":"LNA","distance":0,"is_transit":false,"i_lat":-6.330363,"i_long":106.832616,"time":0,"line":2,"station_name":"Lenteng Agung","transit":false},{"station_name":"Tanjung Barat","i_long":106.838896,"station_id":"TNT","distance":2671,"time":3,"i_lat":-6.3080680000000005,"is_transit":false,"transit":false,"line":2},{"line":2,"station_name":"Pasar Minggu","i_long":106.843999,"transit":false,"i_lat":-6.2842400000000005,"time":4,"is_transit":false,"station_id":"PSM","distance":2820},{"station_id":"PSMB","transit":false,"station_name":"Pasar Minggu Baru","is_transit":false,"i_long":106.851577,"time":2,"i_lat":-6.263214,"distance":2380,"line":2},{"line":2,"transit":false,"station_id":"DRN","is_transit":false,"i_lat":-6.255332,"station_name":"Duren Kalibata","time":2,"i_long":106.85449,"distance":824},{"time":3,"i_long":106.856607,"transit":false,"line":2,"is_transit":false,"station_id":"CW","distance":1546,"station_name":"Cawang","i_lat":-6.242512},{"time":2,"is_transit":false,"i_long":106.857948,"transit":false,"i_lat":-6.226659,"distance":1230,"line":2,"station_id":"TEB","station_name":"Tebet"},{"i_long":106.84912,"station_name":"Manggarai","time":4,"is_transit":false,"distance":2610,"line":2,"i_lat":-6.209883,"station_id":"MRI","transit":false},{"i_lat":-6.198556,"i_long":106.840169,"station_id":"CKI","time":4,"station_name":"Cikini","line":2,"distance":1590,"is_transit":false,"transit":false},{"station_name":"Gondangdia","is_transit":false,"i_lat":-6.186295,"distance":1750,"i_long":106.832183,"station_id":"GDD","time":3,"transit":false,"line":2},{"distance":2015,"time":4,"is_transit":false,"i_lat":-6.166716,"i_long":106.828284,"transit":false,"station_name":"Juanda","station_id":"JUA","line":2},{"i_long":106.827103,"time":2,"i_lat":-6.160725,"transit":false,"station_name":"Sawah Besar","is_transit":false,"distance":1149,"line":2,"station_id":"SW"},{"station_id":"MGB","line":2,"i_lat":-6.149769,"i_long":106.82482,"time":2,"distance":906,"is_transit":false,"transit":false,"station_name":"Manggabesar"},{"i_long":106.820901,"station_name":"Jayakarta","distance":1080,"i_lat":-6.141205,"station_id":"JAY","line":2,"time":2,"transit":false,"is_transit":false},{"station_id":"JAKK","station_name":"Jakarta Kota","time":4,"distance":1264,"i_lat":-6.137569,"transit":true,"is_transit":true,"line":2,"i_long":106.812439},{"time":3,"station_id":"KPB","distance":1364,"transit":true,"i_lat":-6.132549,"i_long":106.826365,"station_name":"Kampung Bandan","is_transit":true,"line":4},{"station_name":"Angke","line":1,"station_id":"AK","time":9,"i_lat":-6.144674,"transit":false,"i_long":106.79867,"distance":4102,"is_transit":false},{"i_long":106.800832,"line":1,"time":4,"distance":1230,"station_id":"DU","transit":false,"i_lat":-6.155215,"station_name":"Duri","is_transit":false},{"distance":3632,"is_transit":true,"station_id":"THB","i_lat":-6.185545,"i_long":106.811091,"time":8,"line":1,"station_name":"Tanah Abang","transit":true},{"line":6,"station_id":"PLM","time":6,"i_long":106.79689,"i_lat":-6.207404,"is_transit":false,"transit":false,"station_name":"Palmerah","distance":3191},{"time":7,"station_id":"KBY","station_name":"Kebayoran","line":6,"is_transit":false,"distance":3737,"i_lat":-6.237242,"i_long":106.780334,"transit":false},{"transit":false,"station_id":"PDJ","line":6,"i_lat":-6.276362,"time":8,"station_name":"Pondokranji","is_transit":false,"i_long":106.74273,"distance":6218},{"station_name":"Jurangmangu","station_id":"JMU","i_lat":-6.288927,"line":6,"time":3,"i_long":106.728916,"distance":2179,"is_transit":false,"transit":false},{"is_transit":false,"station_id":"SDM","distance":1994,"line":6,"transit":false,"i_lat":-6.296963,"time":4,"i_long":106.712277,"station_name":"Sudimara"},{"i_lat":-6.314823,"time":6,"line":6,"i_long":106.675475,"distance":4566,"station_name":"Rawa Buntu","station_id":"RU","transit":false,"is_transit":false},{"is_transit":false,"station_name":"Serpong","i_long":106.66566,"distance":2413,"i_lat":-6.319871,"station_id":"SRP","time":4,"transit":false,"line":6},{"station_id":"CSK","station_name":"Cisauk","i_lat":-6.32484,"line":3,"transit":false,"is_transit":false,"i_long":106.640411,"time":4,"distance":1784},{"is_transit":false,"station_id":"CC","distance":2519,"time":4,"transit":false,"i_lat":-6.329547,"i_long":106.617853,"station_name":"Cicayur","line":3},{"station_name":"Parung Panjang","i_long":106.568863,"i_lat":-6.3441410000000005,"transit":false,"is_transit":false,"line":6,"distance":5968,"time":8,"station_id":"PRP"},{"transit":false,"station_id":"CJT","station_name":"Cilejit","time":9,"line":3,"i_long":106.508482,"i_lat":-6.354349,"is_transit":false,"distance":7025}],[{"time":0,"i_lat":-6.330363,"transit":false,"distance":0,"i_long":106.832616,"line":2,"station_name":"Lenteng Agung","station_id":"LNA","is_transit":false},{"i_lat":-6.3080680000000005,"time":3,"station_id":"TNT","is_transit":false,"i_long":106.838896,"line":2,"transit":false,"station_name":"Tanjung Barat","distance":2671},{"distance":2820,"transit":false,"station_name":"Pasar Minggu","station_id":"PSM","line":2,"is_transit":false,"time":4,"i_long":106.843999,"i_lat":-6.2842400000000005},{"time":2,"transit":false,"station_name":"Pasar Minggu Baru","i_long":106.851577,"station_id":"PSMB","is_transit":false,"i_lat":-6.263214,"line":2,"distance":2380},{"distance":824,"time":2,"station_id":"DRN","transit":false,"is_transit":false,"station_name":"Duren Kalibata","i_long":106.85449,"line":2,"i_lat":-6.255332},{"station_name":"Cawang","i_lat":-6.242512,"is_transit":false,"station_id":"CW","distance":1546,"time":3,"i_long":106.856607,"transit":false,"line":2},{"transit":false,"distance":1230,"i_lat":-6.226659,"station_name":"Tebet","i_long":106.857948,"is_transit":false,"time":2,"station_id":"TEB","line":2},{"line":2,"station_id":"MRI","i_long":106.84912,"distance":2610,"transit":true,"station_name":"Manggarai","is_transit":true,"i_lat":-6.209883,"time":4},{"i_long":106.858896,"is_transit":false,"distance":1275,"i_lat":-6.212485,"station_id":"MTR","transit":false,"station_name":"Matraman","line":1,"time":2},{"is_transit":true,"time":8,"i_long":106.86807400000001,"line":1,"transit":true,"distance":1377,"station_name":"Jatinegara","i_lat":-6.215091,"station_id":"JNG"},{"time":2,"line":11,"station_id":"POK","distance":1236,"transit":false,"i_lat":-6.209188,"station_name":"Pondok Jati","is_transit":false,"i_long":106.861737},{"distance":1829,"line":11,"is_transit":false,"time":2,"station_id":"KMT","station_name":"Kramat","i_lat":-6.193792,"transit":false,"i_long":106.855437},{"i_lat":-6.185975,"distance":973,"transit":false,"time":1,"i_long":106.850107,"station_id":"GST","is_transit":false,"station_name":"Gang Sentiong","line":11},{"transit":false,"station_name":"Pasar Senen","is_transit":false,"station_id":"PSE","i_lat":-6.174784,"i_long":106.84368,"line":11,"distance":1567,"time":8},{"distance":1436,"i_long":106.839204,"line":11,"is_transit":false,"i_lat":-6.161728,"station_id":"KMO","time":4,"station_name":"Kemayoran","transit":false},{"line":11,"is_transit":false,"time":5,"i_lat":-6.14505,"station_id":"RJW","distance":1901,"i_long":106.836569,"transit":false,"station_name":"Rajawali"},{"i_long":106.826365,"time":3,"distance":1444,"station_name":"Kampung Bandan","is_transit":true,"i_lat":-6.132549,"line":4,"station_id":"KPB","transit":true},{"distance":4102,"i_lat":-6.144674,"transit":false,"line":1,"station_name":"Angke","i_long":106.79867,"time":9,"is_transit":false,"station_id":"AK"},{"transit":false,"time":4,"is_transit":false,"i_lat":-6.155215,"i_long":106.800832,"line":1,"station_name":"Duri","distance":1230,"station_id":"DU"},{"station_name":"Tanah Abang","is_transit":true,"transit":true,"i_lat":-6.185545,"i_long":106.811091,"line":1,"station_id":"THB","time":8,"distance":3632},{"station_id":"PLM","line":6,"station_name":"Palmerah","time":6,"distance":3191,"is_transit":false,"i_lat":-6.207404,"i_long":106.79689,"transit":false},{"distance":3737,"is_transit":false,"station_id":"KBY","i_lat":-6.237242,"time":7,"station_name":"Kebayoran","line":6,"transit":false,"i_long":106.780334},{"time":8,"transit":false,"i_long":106.74273,"line":6,"i_lat":-6.276362,"distance":6218,"station_id":"PDJ","station_name":"Pondokranji","is_transit":false},{"i_long":106.728916,"transit":false,"station_name":"Jurangmangu","distance":2179,"station_id":"JMU","is_transit":false,"i_lat":-6.288927,"line":6,"time":3},{"transit":false,"i_long":106.712277,"time":4,"station_id":"SDM","distance":1994,"station_name":"Sudimara","is_transit":false,"i_lat":-6.296963,"line":6},{"i_long":106.675475,"distance":4566,"is_transit":false,"transit":false,"station_name":"Rawa Buntu","i_lat":-6.314823,"station_id":"RU","time":6,"line":6},{"distance":2413,"line":6,"station_name":"Serpong","is_transit":false,"transit":false,"i_long":106.66566,"time":4,"station_id":"SRP","i_lat":-6.319871},{"station_id":"CSK","is_transit":false,"distance":1784,"i_long":106.640411,"line":3,"time":4,"station_name":"Cisauk","i_lat":-6.32484,"transit":false},{"is_transit":false,"i_lat":-6.329547,"time":4,"station_id":"CC","i_long":106.617853,"distance":2519,"transit":false,"station_name":"Cicayur","line":3},{"station_id":"PRP","line":6,"distance":5968,"station_name":"Parung Panjang","transit":false,"is_transit":false,"i_long":106.568863,"time":8,"i_lat":-6.3441410000000005},{"i_long":106.508482,"transit":false,"station_name":"Cilejit","line":3,"i_lat":-6.354349,"station_id":"CJT","distance":7025,"is_transit":false,"time":9}]]}