{"data":[[{"i_long":106.832616,"line":2,"station_name":"Lenteng Agung","time":0,"distance":0,"transit":false,"station_id":"LNA","is_transit":false,"i_lat":-6.330363},{"i_lat":-6.3080680000000005,"distance":2671,"line":2,"station_name":"Tanjung Barat","time":3,"transit":false,"i_long":106.838896,"is_transit":false,"station_id":"TNT"},{"time":4,"station_id":"PSM","i_lat":-6.2842400000000005,"station_name":"Pasar Minggu","transit":false,"line":2,"is_transit":false,"i_long":106.843999,"distance":2820},{"station_id":"PSMB","distance":2380,"station_name":"Pasar Minggu Baru","transit":false,"i_long":106.851577,"time":2,"line":2,"is_transit":false,"i_lat":-6.263214},{"station_id":"DRN","is_transit":false,"i_lat":-6.255332,"station_name":"Duren Kalibata","distance":824,"transit":false,"time":2,"line":2,"i_long":106.85449},{"time":3,"is_transit":false,"i_lat":-6.242512,"station_id":"CW","i_long":106.856607,"line":2,"station_name":"Cawang","distance":1546,"transit":false},{"line":2,"is_transit":false,"time":2,"distance":1230,"i_lat":-6.226659,"transit":false,"i_long":106.857948,"station_name":"Tebet","station_id":"TEB"},{"i_lat":-6.209883,"i_long":106.84912,"is_transit":true,"time":4,"transit":true,"station_name":"Manggarai","station_id":"MRI","line":2,"distance":2610},{"station_id":"SUD","time":4,"transit":false,"line":1,"distance":3186,"station_name":"Sudirman","is_transit":false,"i_lat":-6.202263,"i_long":106.822649},{"station_name":"Sudirman Baru","distance":280,"i_lat":-6.201433,"station_id":"SUDB","transit":false,"time":1,"is_transit":false,"i_long":106.819881,"line":1},{"i_long":106.816351,"station_name":"Karet","is_transit":false,"time":1,"i_lat":-6.20132,"transit":false,"distance":471,"station_id":"KAT","line":1},{"is_transit":false,"transit":false,"distance":2029,"line":1,"station_name":"Tanah Abang","i_lat":-6.185545,"station_id":"THB","time":5,"i_long":106.811091},{"distance":3632,"station_id":"DU","time":8,"i_long":106.800832,"transit":true,"station_name":"Duri","is_transit":true,"line":1,"i_lat":-6.155215},{"station_name":"Grogol","i_lat":-6.162021,"transit":false,"is_transit":false,"line":5,"station_id":"GGL","distance":1700,"i_long":106.788277,"time":3}],[{"station_id":"LNA","distance":0,"station_name":"Lenteng Agung","time":0,"i_long":106.832616,"is_transit":false,"transit":false,"i_lat":-6.330363,"line":2},{"station_name":"Tanjung Barat","i_lat":-6.3080680000000005,"station_id":"TNT","time":3,"transit":false,"line":2,"i_long":106.838896,"distance":2671,"is_transit":false},{"i_lat":-6.2842400000000005,"line":2,"station_name":"Pasar Minggu","station_id":"PSM","is_transit":false,"transit":false,"i_long":106.843999,"time":4,"distance":2820},{"transit":false,"is_transit":false,"i_long":106.851577,"time":2,"i_lat":-6.263214,"station_name":"Pasar Minggu Baru","station_id":"PSMB","line":2,"distance":2380},{"i_lat":-6.255332,"station_id":"DRN","transit":false,"time":2,"line":2,"i_long":106.85449,"station_name":"Duren Kalibata","distance":824,"is_transit":false},{"distance":1546,"i_lat":-6.242512,"is_transit":false,"line":2,"station_name":"Cawang","i_long":106.856607,"time":3,"station_id":"CW","transit":false},{"i_long":106.857948,"i_lat":-6.226659,"station_id":"TEB","time":2,"transit":false,"is_transit":false,"line":2,"distance":1230,"station_name":"Tebet"},{"i_long":106.84912,"transit":false,"station_id":"MRI","station_name":"Manggarai","i_lat":-6.209883,"line":2,"time":4,"is_transit":false,"distance":2610},{"line":2,"distance":1590,"transit":false,"station_id":"CKI","time":4,"i_long":106.840169,"i_lat":-6.198556,"station_name":"Cikini","is_transit":false},{"i_lat":-6.186295,"i_long":106.832183,"station_id":"GDD","transit":false,"station_name":"Gondangdia","time":3,"line":2,"is_transit":false,"distance":1750},{"i_long":106.828284,"station_name":"Juanda","time":4,"is_transit":false,"transit":false,"line":2,"station_id":"JUA","distance":2015,"i_lat":-6.166716},{"line":2,"time":2,"station_name":"Sawah Besar","i_long":106.827103,"distance":1149,"transit":false,"is_transit":false,"station_id":"SW","i_lat":-6.160725},{"station_id":"MGB","i_long":106.82482,"station_name":"Manggabesar","line":2,"is_transit":false,"time":2,"transit":false,"distance":906,"i_lat":-6.149769},{"station_name":"Jayakarta","distance":1080,"is_transit":false,"station_id":"JAY","line":2,"time":2,"i_lat":-6.141205,"transit":false,"i_long":106.820901},{"i_long":106.812439,"station_name":"Jakarta Kota","is_transit":true,"transit":true,"time":4,"line":2,"i_lat":-6.137569,"distance":1264,"station_id":"JAKK"},{"transit":true,"station_name":"Kampung Bandan","is_transit":true,"distance":1364,"line":4,"time":3,"i_lat":-6.132549,"i_long":106.826365,"station_id":"KPB"},{"time":9,"i_long":106.79867,"line":1,"i_lat":-6.144674,"is_transit":false,"station_name":"Angke","distance":4102,"station_id":"AK","transit":false},{"i_lat":-6.155215,"station_name":"Duri","is_transit":true,"station_id":"DU","time":4,"i_long":106.800832,"line":1,"distance":1230,"transit":true},{"i_lat":-6.162021,"line":5,"transit":false,"station_name":"Grogol","station_id":"GGL","is_transit":false,"time":3,"i_long":106.788277,"distance":1700}],[{"i_lat":-6.330363,"transit":false,"i_long":106.832616,"line":2,"station_id":"LNA","time":0,"station_name":"Lenteng Agung","is_transit":false,"distance":0},{"time":3,"distance":2671,"station_name":"Tanjung Barat","i_long":106.838896,"transit":false,"station_id":"TNT","i_lat":-6.3080680000000005,"is_transit":false,"line":2},{"station_id":"PSM","i_long":106.843999,"line":2,"transit":false,"is_transit":false,"station_name":"Pasar Minggu","i_lat":-6.2842400000000005,"distance":2820,"time":4},{"i_lat":-6.263214,"i_long":106.851577,"transit":false,"station_id":"PSMB","line":2,"time":2,"distance":2380,"is_transit":false,"station_name":"Pasar Minggu Baru"},{"transit":false,"line":2,"station_name":"Duren Kalibata","station_id":"DRN","distance":824,"i_long":106.85449,"is_transit":false,"time":2,"i_lat":-6.255332},{"distance":1546,"is_transit":false,"i_lat":-6.242512,"line":2,"station_name":"Cawang","time":3,"i_long":106.856607,"transit":false,"station_id":"CW"},{"station_id":"TEB","is_transit":false,"time":2,"station_name":"Tebet","i_lat":-6.226659,"line":2,"i_long":106.857948,"transit":false,"distance":1230},{"station_id":"MRI","line":2,"time":4,"is_transit":true,"distance":2610,"station_name":"Manggarai","i_lat":-6.209883,"i_long":106.84912,"transit":true},{"time":2,"station_id":"MTR","i_lat":-6.212485,"line":1,"is_transit":false,"transit":false,"distance":1275,"station_name":"Matraman","i_long":106.858896},{"is_transit":true,"station_id":"JNG","i_lat":-6.215091,"transit":true,"distance":1377,"line":1,"station_name":"Jatinegara","time":8,"i_long":106.86807400000001},{"i_lat":-6.209188,"transit":false,"distance":1236,"line":11,"i_long":106.861737,"station_id":"POK","station_name":"Pondok Jati","time":2,"is_transit":false},{"time":2,"is_transit":false,"transit":false,"line":11,"station_name":"Kramat","distance":1829,"station_id":"KMT","i_long":106.855437,"i_lat":-6.193792},{"is_transit":false,"line":11,"time":1,"station_id":"GST","distance":973,"station_name":"Gang Sentiong","i_lat":-6.185975,"i_long":106.850107,"transit":false},{"i_lat":-6.174784,"time":8,"distance":1567,"station_name":"Pasar Senen","is_transit":false,"station_id":"PSE","transit":false,"i_long":106.84368,"line":11},{"station_name":"Kemayoran","i_lat":-6.161728,"transit":false,"time":4,"line":11,"i_long":106.839204,"distance":1436,"is_transit":false,"station_id":"KMO"},{"station_id":"RJW","distance":1901,"line":11,"transit":false,"time":5,"i_long":106.836569,"i_lat":-6.14505,"is_transit":false,"station_name":"Rajawali"},{"line":4,"time":3,"transit":true,"station_name":"Kampung Bandan","station_id":"KPB","is_transit":true,"distance":1444,"i_lat":-6.132549,"i_long":106.826365},{"station_id":"AK","time":9,"i_lat":-6.144674,"distance":4102,"is_transit":false,"i_long":106.79867,"line":1,"transit":false,"station_name":"Angke"},{"station_name":"Duri","line":1,"is_transit":true,"i_lat":-6.155215,"time":4,"distance":1230,"transit":true,"i_long":106.800832,"station_id":"DU"},{"transit":false,"time":3,"distance":1700,"i_lat":-6.162021,"is_transit":false,"station_name":"Grogol","station_id":"GGL","line":5,"i_long":106.788277}]]}