{"data":[[{"distance":0,"station_name":"Lenteng Agung","is_transit":false,"transit":false,"i_long":106.832616,"i_lat":-6.330363,"line":2,"time":0,"station_id":"LNA"},{"station_name":"Tanjung Barat","i_lat":-6.3080680000000005,"i_long":106.838896,"line":2,"distance":2671,"is_transit":false,"time":3,"transit":false,"station_id":"TNT"},{"station_id":"PSM","distance":2820,"station_name":"Pasar Minggu","transit":false,"line":2,"is_transit":false,"i_lat":-6.2842400000000005,"time":4,"i_long":106.843999},{"station_id":"PSMB","time":2,"i_lat":-6.263214,"distance":2380,"i_long":106.851577,"line":2,"transit":false,"is_transit":false,"station_name":"Pasar Minggu Baru"},{"transit":false,"i_lat":-6.255332,"station_id":"DRN","is_transit":false,"distance":824,"i_long":106.85449,"line":2,"station_name":"Duren Kalibata","time":2}]]}