{"data":[[{"is_transit":false,"i_lat":-6.330363,"line":2,"transit":false,"distance":0,"station_name":"Lenteng Agung","time":0,"i_long":106.832616,"station_id":"LNA"},{"station_name":"Univ. Pancasila","is_transit":false,"station_id":"UP","transit":false,"i_long":106.834175,"line":2,"i_lat":-6.339291,"distance":1029,"time":2},{"distance":2264,"time":3,"line":2,"i_lat":-6.360749,"station_name":"Univ. Indonesia","transit":false,"is_transit":false,"station_id":"UI","i_long":106.831474},{"station_name":"Pondok Cina","i_long":106.831114,"is_transit":false,"station_id":"POC","distance":1109,"time":2,"i_lat":-6.369073,"transit":false,"line":2},{"i_lat":-6.391065,"distance":2727,"time":4,"i_long":106.819451,"transit":false,"line":2,"is_transit":false,"station_id":"DPB","station_name":"Depokbaru"},{"i_long":106.816926,"is_transit":false,"distance":1584,"i_lat":-6.405256,"line":2,"transit":false,"station_id":"DP","station_name":"Depok","time":3},{"distance":5084,"station_id":"CTA","is_transit":false,"station_name":"Citayam","i_long":106.800298,"time":6,"i_lat":-6.448811,"transit":false,"line":2},{"distance":5197,"i_long":106.792719,"time":5,"i_lat":-6.493243,"line":2,"station_id":"BJD","station_name":"Bojonggede","transit":false,"is_transit":false},{"i_lat":-6.530544,"transit":false,"distance":4331,"is_transit":false,"line":2,"station_name":"Cilebut","station_id":"CLT","i_long":106.800016,"time":5},{"time":9,"i_long":106.790574,"line":2,"station_id":"BOO","distance":7514,"transit":false,"is_transit":false,"i_lat":-6.594596,"station_name":"Bogor"}]]}