{"data":[[{"i_lat":-6.330363,"transit":false,"station_name":"Lenteng Agung","line":2,"i_long":106.832616,"distance":0,"is_transit":false,"station_id":"LNA","time":0},{"distance":2671,"transit":false,"i_lat":-6.3080680000000005,"i_long":106.838896,"is_transit":false,"station_id":"TNT","station_name":"Tanjung Barat","line":2,"time":3},{"station_name":"Pasar Minggu","distance":2820,"is_transit":false,"i_lat":-6.2842400000000005,"time":4,"transit":false,"i_long":106.843999,"station_id":"PSM","line":2},{"time":2,"transit":false,"distance":2380,"i_lat":-6.263214,"station_id":"PSMB","i_long":106.851577,"station_name":"Pasar Minggu Baru","is_transit":false,"line":2},{"station_name":"Duren Kalibata","is_transit":false,"i_lat":-6.255332,"transit":false,"distance":824,"time":2,"i_long":106.85449,"station_id":"DRN","line":2},{"distance":1546,"transit":false,"line":2,"is_transit":false,"station_id":"CW","time":3,"i_lat":-6.242512,"station_name":"Cawang","i_long":106.856607},{"station_name":"Tebet","transit":false,"i_lat":-6.226659,"i_long":106.857948,"is_transit":false,"distance":1230,"time":2,"line":2,"station_id":"TEB"},{"is_transit":true,"time":4,"distance":2610,"station_id":"MRI","i_long":106.84912,"station_name":"Manggarai","transit":true,"i_lat":-6.209883,"line":2},{"station_name":"Sudirman","station_id":"SUD","i_lat":-6.202263,"i_long":106.822649,"is_transit":false,"line":1,"transit":false,"distance":3186,"time":4},{"station_name":"Sudirman Baru","time":1,"station_id":"SUDB","is_transit":false,"i_lat":-6.201433,"transit":false,"distance":280,"i_long":106.819881,"line":1},{"station_name":"Karet","distance":471,"station_id":"KAT","is_transit":false,"i_lat":-6.20132,"i_long":106.816351,"transit":false,"time":1,"line":1},{"i_lat":-6.185545,"i_long":106.811091,"time":5,"transit":true,"is_transit":true,"station_id":"THB","line":1,"station_name":"Tanah Abang","distance":2029},{"distance":3191,"station_id":"PLM","i_lat":-6.207404,"i_long":106.79689,"station_name":"Palmerah","line":6,"is_transit":false,"transit":false,"time":6},{"station_id":"KBY","i_long":106.780334,"i_lat":-6.237242,"line":6,"station_name":"Kebayoran","is_transit":false,"transit":false,"time":7,"distance":3737},{"station_id":"PDJ","time":8,"i_lat":-6.276362,"i_long":106.74273,"station_name":"Pondokranji","is_transit":false,"transit":false,"line":6,"distance":6218},{"distance":2179,"i_long":106.728916,"station_name":"Jurangmangu","i_lat":-6.288927,"transit":false,"line":6,"station_id":"JMU","is_transit":false,"time":3},{"is_transit":false,"station_name":"Sudimara","time":4,"transit":false,"distance":1994,"i_lat":-6.296963,"station_id":"SDM","i_long":106.712277,"line":6},{"time":6,"i_long":106.675475,"transit":false,"station_id":"RU","is_transit":false,"distance":4566,"station_name":"Rawa Buntu","i_lat":-6.314823,"line":6},{"i_long":106.66566,"time":4,"station_id":"SRP","station_name":"Serpong","is_transit":false,"distance":2413,"line":6,"transit":false,"i_lat":-6.319871}],[{"line":2,"station_id":"LNA","time":0,"station_name":"Lenteng Agung","is_transit":false,"i_long":106.832616,"transit":false,"distance":0,"i_lat":-6.330363},{"line":2,"time":3,"i_long":106.838896,"i_lat":-6.3080680000000005,"station_name":"Tanjung Barat","transit":false,"station_id":"TNT","distance":2671,"is_transit":false},{"i_lat":-6.2842400000000005,"i_long":106.843999,"station_name":"Pasar Minggu","is_transit":false,"time":4,"station_id":"PSM","line":2,"transit":false,"distance":2820},{"distance":2380,"station_id":"PSMB","transit":false,"i_lat":-6.263214,"i_long":106.851577,"station_name":"Pasar Minggu Baru","is_transit":false,"time":2,"line":2},{"transit":false,"i_lat":-6.255332,"station_name":"Duren Kalibata","station_id":"DRN","distance":824,"line":2,"time":2,"i_long":106.85449,"is_transit":false},{"is_transit":false,"i_lat":-6.242512,"i_long":106.856607,"distance":1546,"line":2,"time":3,"station_name":"Cawang","station_id":"CW","transit":false},{"distance":1230,"station_name":"Tebet","time":2,"station_id":"TEB","is_transit":false,"line":2,"i_lat":-6.226659,"transit":false,"i_long":106.857948},{"station_id":"MRI","station_name":"Manggarai","distance":2610,"i_lat":-6.209883,"is_transit":false,"line":2,"time":4,"i_long":106.84912,"transit":false},{"i_long":106.840169,"station_name":"Cikini","distance":1590,"time":4,"transit":false,"is_transit":false,"station_id":"CKI","i_lat":-6.198556,"line":2},{"distance":1750,"time":3,"transit":false,"i_lat":-6.186295,"i_long":106.832183,"station_name":"Gondangdia","station_id":"GDD","line":2,"is_transit":false},{"i_long":106.828284,"distance":2015,"transit":false,"station_id":"JUA","i_lat":-6.166716,"is_transit":false,"line":2,"station_name":"Juanda","time":4},{"i_long":106.827103,"station_id":"SW","is_transit":false,"distance":1149,"time":2,"station_name":"Sawah Besar","transit":false,"i_lat":-6.160725,"line":2},{"distance":906,"station_id":"MGB","line":2,"station_name":"Manggabesar","is_transit":false,"i_lat":-6.149769,"i_long":106.82482,"transit":false,"time":2},{"i_long":106.820901,"transit":false,"station_name":"Jayakarta","time":2,"distance":1080,"is_transit":false,"station_id":"JAY","line":2,"i_lat":-6.141205},{"station_name":"Jakarta Kota","transit":true,"i_long":106.812439,"is_transit":true,"i_lat":-6.137569,"station_id":"JAKK","time":4,"distance":1264,"line":2},{"distance":1364,"is_transit":true,"transit":true,"station_name":"Kampung Bandan","time":3,"i_lat":-6.132549,"i_long":106.826365,"station_id":"KPB","line":4},{"time":9,"is_transit":false,"distance":4102,"i_long":106.79867,"line":1,"i_lat":-6.144674,"station_id":"AK","transit":false,"station_name":"Angke"},{"station_id":"DU","i_long":106.800832,"line":1,"i_lat":-6.155215,"is_transit":false,"time":4,"station_name":"Duri","transit":false,"distance":1230},{"line":1,"station_name":"Tanah Abang","time":8,"is_transit":true,"i_long":106.811091,"transit":true,"station_id":"THB","i_lat":-6.185545,"distance":3632},{"distance":3191,"line":6,"i_long":106.79689,"transit":false,"i_lat":-6.207404,"time":6,"station_name":"Palmerah","station_id":"PLM","is_transit":false},{"time":7,"station_id":"KBY","station_name":"Kebayoran","distance":3737,"i_long":106.780334,"is_transit":false,"line":6,"i_lat":-6.237242,"transit":false},{"transit":false,"i_lat":-6.276362,"line":6,"distance":6218,"time":8,"i_long":106.74273,"station_id":"PDJ","station_name":"Pondokranji","is_transit":false},{"is_transit":false,"station_name":"Jurangmangu","i_lat":-6.288927,"i_long":106.728916,"line":6,"time":3,"distance":2179,"station_id":"JMU","transit":false},{"i_lat":-6.296963,"station_id":"SDM","transit":false,"time":4,"distance":1994,"i_long":106.712277,"station_name":"Sudimara","is_transit":false,"line":6},{"distance":4566,"transit":false,"station_id":"RU","i_long":106.675475,"line":6,"i_lat":-6.314823,"station_name":"Rawa Buntu","time":6,"is_transit":false},{"time":4,"station_name":"Serpong","line":6,"distance":2413,"is_transit":false,"station_id":"SRP","transit":false,"i_long":106.66566,"i_lat":-6.319871}],[{"distance":0,"station_id":"LNA","i_long":106.832616,"is_transit":false,"i_lat":-6.330363,"line":2,"transit":false,"time":0,"station_name":"Lenteng Agung"},{"line":2,"i_lat":-6.3080680000000005,"station_name":"Tanjung Barat","distance":2671,"is_transit":false,"i_long":106.838896,"time":3,"station_id":"TNT","transit":false},{"transit":false,"station_id":"PSM","i_long":106.843999,"time":4,"station_name":"Pasar Minggu","is_transit":false,"i_lat":-6.2842400000000005,"distance":2820,"line":2},{"station_name":"Pasar Minggu Baru","time":2,"transit":false,"i_long":106.851577,"is_transit":false,"distance":2380,"station_id":"PSMB","i_lat":-6.263214,"line":2},{"is_transit":false,"i_long":106.85449,"distance":824,"station_id":"DRN","line":2,"station_name":"Duren Kalibata","transit":false,"time":2,"i_lat":-6.255332},{"station_id":"CW","transit":false,"is_transit":false,"i_long":106.856607,"time":3,"distance":1546,"station_name":"Cawang","i_lat":-6.242512,"line":2},{"station_name":"Tebet","is_transit":false,"i_long":106.857948,"line":2,"transit":false,"distance":1230,"time":2,"station_id":"TEB","i_lat":-6.226659},{"is_transit":true,"i_long":106.84912,"i_lat":-6.209883,"line":2,"time":4,"distance":2610,"transit":true,"station_id":"MRI","station_name":"Manggarai"},{"i_lat":-6.212485,"line":1,"i_long":106.858896,"distance":1275,"time":2,"station_id":"MTR","is_transit":false,"transit":false,"station_name":"Matraman"},{"time":8,"station_name":"Jatinegara","station_id":"JNG","distance":1377,"i_long":106.86807400000001,"i_lat":-6.215091,"is_transit":true,"transit":true,"line":1},{"station_name":"Pondok Jati","line":11,"i_lat":-6.209188,"is_transit":false,"time":2,"transit":false,"distance":1236,"i_long":106.861737,"station_id":"POK"},{"transit":false,"i_long":106.855437,"time":2,"line":11,"distance":1829,"station_id":"KMT","i_lat":-6.193792,"is_transit":false,"station_name":"Kramat"},{"station_name":"Gang Sentiong","station_id":"GST","line":11,"i_long":106.850107,"time":1,"transit":false,"distance":973,"i_lat":-6.185975,"is_transit":false},{"transit":false,"time":8,"i_lat":-6.174784,"is_transit":false,"station_name":"Pasar Senen","distance":1567,"i_long":106.84368,"station_id":"PSE","line":11},{"station_id":"KMO","time":4,"transit":false,"is_transit":false,"i_lat":-6.161728,"line":11,"station_name":"Kemayoran","distance":1436,"i_long":106.839204},{"distance":1901,"i_lat":-6.14505,"station_name":"Rajawali","i_long":106.836569,"station_id":"RJW","transit":false,"line":11,"is_transit":false,"time":5},{"i_long":106.826365,"time":3,"line":4,"transit":true,"station_name":"Kampung Bandan","station_id":"KPB","distance":1444,"is_transit":true,"i_lat":-6.132549},{"is_transit":false,"distance":4102,"line":1,"time":9,"i_long":106.79867,"i_lat":-6.144674,"station_name":"Angke","station_id":"AK","transit":false},{"time":4,"distance":1230,"transit":false,"is_transit":false,"station_id":"DU","i_lat":-6.155215,"station_name":"Duri","i_long":106.800832,"line":1},{"i_long":106.811091,"station_id":"THB","is_transit":true,"station_name":"Tanah Abang","i_lat":-6.185545,"distance":3632,"line":1,"transit":true,"time":8},{"line":6,"distance":3191,"time":6,"transit":false,"station_name":"Palmerah","i_lat":-6.207404,"i_long":106.79689,"is_transit":false,"station_id":"PLM"},{"distance":3737,"station_id":"KBY","station_name":"Kebayoran","i_lat":-6.237242,"is_transit":false,"transit":false,"time":7,"line":6,"i_long":106.780334},{"distance":6218,"time":8,"i_lat":-6.276362,"line":6,"station_name":"Pondokranji","is_transit":false,"transit":false,"station_id":"PDJ","i_long":106.74273},{"transit":false,"time":3,"station_name":"Jurangmangu","i_long":106.728916,"station_id":"JMU","i_lat":-6.288927,"line":6,"distance":2179,"is_transit":false},{"station_name":"Sudimara","is_transit":false,"i_long":106.712277,"time":4,"i_lat":-6.296963,"station_id":"SDM","distance":1994,"line":6,"transit":false},{"time":6,"transit":false,"station_name":"Rawa Buntu","i_long":106.675475,"line":6,"distance":4566,"is_transit":false,"i_lat":-6.314823,"station_id":"RU"},{"station_name":"Serpong","i_long":106.66566,"distance":2413,"i_lat":-6.319871,"line":6,"station_id":"SRP","transit":false,"is_transit":false,"time":4}]]}