{"data":[[{"is_transit":false,"time":0,"distance":0,"station_name":"Lenteng Agung","i_long":106.832616,"transit":false,"line":2,"station_id":"LNA","i_lat":-6.330363},{"i_lat":-6.3080680000000005,"is_transit":false,"i_long":106.838896,"line":2,"station_name":"Tanjung Barat","distance":2671,"transit":false,"time":3,"station_id":"TNT"},{"line":2,"distance":2820,"i_long":106.843999,"i_lat":-6.2842400000000005,"is_transit":false,"station_name":"Pasar Minggu","station_id":"PSM","transit":false,"time":4},{"station_id":"PSMB","i_long":106.851577,"station_name":"Pasar Minggu Baru","line":2,"transit":false,"is_transit":false,"time":2,"i_lat":-6.263214,"distance":2380},{"is_transit":false,"time":2,"station_id":"DRN","i_long":106.85449,"station_name":"Duren Kalibata","distance":824,"i_lat":-6.255332,"line":2,"transit":false},{"line":2,"is_transit":false,"i_lat":-6.242512,"station_name":"Cawang","distance":1546,"transit":false,"time":3,"station_id":"CW","i_long":106.856607},{"i_long":106.857948,"distance":1230,"line":2,"station_name":"Tebet","transit":false,"station_id":"TEB","is_transit":false,"time":2,"i_lat":-6.226659},{"station_name":"Manggarai","station_id":"MRI","is_transit":true,"line":2,"i_lat":-6.209883,"distance":2610,"i_long":106.84912,"transit":true,"time":4},{"line":1,"time":4,"i_lat":-6.202263,"transit":false,"station_name":"Sudirman","distance":3186,"is_transit":false,"i_long":106.822649,"station_id":"SUD"},{"time":1,"station_name":"Sudirman Baru","station_id":"SUDB","transit":false,"is_transit":false,"i_lat":-6.201433,"distance":280,"i_long":106.819881,"line":1},{"distance":471,"i_lat":-6.20132,"station_id":"KAT","transit":false,"is_transit":false,"i_long":106.816351,"station_name":"Karet","time":1,"line":1},{"time":5,"is_transit":false,"line":1,"station_name":"Tanah Abang","distance":2029,"station_id":"THB","i_lat":-6.185545,"transit":false,"i_long":106.811091},{"line":1,"i_long":106.800832,"station_name":"Duri","distance":3632,"is_transit":true,"time":8,"transit":true,"i_lat":-6.155215,"station_id":"DU"},{"line":5,"i_long":106.788277,"distance":1700,"time":3,"station_name":"Grogol","is_transit":false,"i_lat":-6.162021,"station_id":"GGL","transit":false},{"distance":2036,"station_id":"PSG","i_lat":-6.161433,"i_long":106.771379,"transit":false,"line":5,"time":2,"is_transit":false,"station_name":"Pesing"},{"i_lat":-6.1587309999999995,"time":2,"i_long":106.756522,"station_name":"Taman Kota","distance":1614,"line":5,"station_id":"TKO","transit":false,"is_transit":false}],[{"is_transit":false,"station_name":"Lenteng Agung","transit":false,"i_lat":-6.330363,"distance":0,"line":2,"i_long":106.832616,"station_id":"LNA","time":0},{"time":3,"line":2,"station_name":"Tanjung Barat","station_id":"TNT","i_lat":-6.3080680000000005,"is_transit":false,"distance":2671,"transit":false,"i_long":106.838896},{"i_lat":-6.2842400000000005,"i_long":106.843999,"line":2,"station_id":"PSM","station_name":"Pasar Minggu","is_transit":false,"time":4,"transit":false,"distance":2820},{"distance":2380,"station_name":"Pasar Minggu Baru","time":2,"i_long":106.851577,"is_transit":false,"transit":false,"i_lat":-6.263214,"line":2,"station_id":"PSMB"},{"i_long":106.85449,"line":2,"transit":false,"i_lat":-6.255332,"distance":824,"time":2,"station_id":"DRN","station_name":"Duren Kalibata","is_transit":false},{"line":2,"station_name":"Cawang","station_id":"CW","time":3,"is_transit":false,"distance":1546,"transit":false,"i_lat":-6.242512,"i_long":106.856607},{"line":2,"time":2,"station_id":"TEB","transit":false,"distance":1230,"i_lat":-6.226659,"is_transit":false,"i_long":106.857948,"station_name":"Tebet"},{"line":2,"station_id":"MRI","time":4,"station_name":"Manggarai","transit":false,"is_transit":false,"i_long":106.84912,"distance":2610,"i_lat":-6.209883},{"i_long":106.840169,"time":4,"line":2,"transit":false,"station_id":"CKI","distance":1590,"is_transit":false,"i_lat":-6.198556,"station_name":"Cikini"},{"distance":1750,"station_name":"Gondangdia","is_transit":false,"time":3,"station_id":"GDD","line":2,"transit":false,"i_lat":-6.186295,"i_long":106.832183},{"transit":false,"time":4,"i_lat":-6.166716,"station_id":"JUA","is_transit":false,"station_name":"Juanda","line":2,"i_long":106.828284,"distance":2015},{"station_id":"SW","distance":1149,"station_name":"Sawah Besar","i_long":106.827103,"line":2,"time":2,"i_lat":-6.160725,"transit":false,"is_transit":false},{"distance":906,"station_id":"MGB","line":2,"i_long":106.82482,"is_transit":false,"i_lat":-6.149769,"station_name":"Manggabesar","transit":false,"time":2},{"is_transit":false,"station_name":"Jayakarta","distance":1080,"i_long":106.820901,"line":2,"time":2,"transit":false,"i_lat":-6.141205,"station_id":"JAY"},{"i_long":106.812439,"i_lat":-6.137569,"station_id":"JAKK","station_name":"Jakarta Kota","distance":1264,"line":2,"transit":true,"is_transit":true,"time":4},{"i_lat":-6.132549,"is_transit":true,"station_name":"Kampung Bandan","distance":1364,"time":3,"line":4,"transit":true,"station_id":"KPB","i_long":106.826365},{"transit":false,"line":1,"station_name":"Angke","is_transit":false,"i_lat":-6.144674,"station_id":"AK","time":9,"i_long":106.79867,"distance":4102},{"time":4,"i_lat":-6.155215,"distance":1230,"line":1,"station_name":"Duri","transit":true,"i_long":106.800832,"is_transit":true,"station_id":"DU"},{"distance":1700,"transit":false,"time":3,"i_lat":-6.162021,"station_id":"GGL","line":5,"station_name":"Grogol","is_transit":false,"i_long":106.788277},{"is_transit":false,"transit":false,"i_lat":-6.161433,"line":5,"station_id":"PSG","station_name":"Pesing","time":2,"distance":2036,"i_long":106.771379},{"is_transit":false,"line":5,"i_long":106.756522,"distance":1614,"time":2,"station_name":"Taman Kota","i_lat":-6.1587309999999995,"station_id":"TKO","transit":false}],[{"i_long":106.832616,"line":2,"i_lat":-6.330363,"station_name":"Lenteng Agung","station_id":"LNA","time":0,"transit":false,"is_transit":false,"distance":0},{"i_long":106.838896,"distance":2671,"is_transit":false,"transit":false,"line":2,"time":3,"station_id":"TNT","i_lat":-6.3080680000000005,"station_name":"Tanjung Barat"},{"station_id":"PSM","i_long":106.843999,"time":4,"line":2,"station_name":"Pasar Minggu","transit":false,"distance":2820,"i_lat":-6.2842400000000005,"is_transit":false},{"transit":false,"distance":2380,"line":2,"is_transit":false,"time":2,"i_lat":-6.263214,"i_long":106.851577,"station_id":"PSMB","station_name":"Pasar Minggu Baru"},{"time":2,"i_lat":-6.255332,"i_long":106.85449,"line":2,"station_name":"Duren Kalibata","distance":824,"station_id":"DRN","transit":false,"is_transit":false},{"is_transit":false,"station_id":"CW","i_long":106.856607,"time":3,"i_lat":-6.242512,"distance":1546,"transit":false,"line":2,"station_name":"Cawang"},{"distance":1230,"station_id":"TEB","transit":false,"i_long":106.857948,"time":2,"i_lat":-6.226659,"line":2,"is_transit":false,"station_name":"Tebet"},{"is_transit":true,"line":2,"transit":true,"i_long":106.84912,"time":4,"station_id":"MRI","i_lat":-6.209883,"distance":2610,"station_name":"Manggarai"},{"i_long":106.858896,"station_id":"MTR","is_transit":false,"station_name":"Matraman","line":1,"i_lat":-6.212485,"time":2,"transit":false,"distance":1275},{"station_id":"JNG","is_transit":true,"i_lat":-6.215091,"station_name":"Jatinegara","distance":1377,"transit":true,"i_long":106.86807400000001,"time":8,"line":1},{"time":2,"station_name":"Pondok Jati","line":11,"i_lat":-6.209188,"distance":1236,"station_id":"POK","i_long":106.861737,"is_transit":false,"transit":false},{"is_transit":false,"time":2,"line":11,"station_name":"Kramat","transit":false,"i_long":106.855437,"distance":1829,"station_id":"KMT","i_lat":-6.193792},{"i_long":106.850107,"time":1,"distance":973,"line":11,"station_name":"Gang Sentiong","i_lat":-6.185975,"station_id":"GST","transit":false,"is_transit":false},{"station_name":"Pasar Senen","i_lat":-6.174784,"time":8,"is_transit":false,"distance":1567,"i_long":106.84368,"station_id":"PSE","line":11,"transit":false},{"distance":1436,"station_id":"KMO","line":11,"time":4,"station_name":"Kemayoran","i_lat":-6.161728,"is_transit":false,"transit":false,"i_long":106.839204},{"station_id":"RJW","distance":1901,"i_lat":-6.14505,"transit":false,"time":5,"i_long":106.836569,"station_name":"Rajawali","line":11,"is_transit":false},{"station_id":"KPB","distance":1444,"is_transit":true,"line":4,"transit":true,"time":3,"station_name":"Kampung Bandan","i_lat":-6.132549,"i_long":106.826365},{"distance":4102,"line":1,"station_name":"Angke","transit":false,"is_transit":false,"station_id":"AK","time":9,"i_long":106.79867,"i_lat":-6.144674},{"time":4,"station_id":"DU","station_name":"Duri","distance":1230,"is_transit":true,"line":1,"transit":true,"i_lat":-6.155215,"i_long":106.800832},{"transit":false,"time":3,"station_name":"Grogol","line":5,"station_id":"GGL","distance":1700,"is_transit":false,"i_long":106.788277,"i_lat":-6.162021},{"is_transit":false,"distance":2036,"transit":false,"line":5,"station_id":"PSG","station_name":"Pesing","time":2,"i_lat":-6.161433,"i_long":106.771379},{"station_id":"TKO","distance":1614,"line":5,"time":2,"i_long":106.756522,"is_transit":false,"i_lat":-6.1587309999999995,"station_name":"Taman Kota","transit":false}]]}