{"data":[[{"i_long":106.832616,"distance":0,"is_transit":false,"transit":false,"i_lat":-6.330363,"line":2,"station_name":"Lenteng Agung","station_id":"LNA","time":0},{"transit":false,"distance":2671,"i_lat":-6.3080680000000005,"station_id":"TNT","is_transit":false,"station_name":"Tanjung Barat","line":2,"time":3,"i_long":106.838896},{"i_lat":-6.2842400000000005,"time":4,"station_id":"PSM","is_transit":false,"i_long":106.843999,"station_name":"Pasar Minggu","transit":false,"distance":2820,"line":2},{"station_id":"PSMB","is_transit":false,"i_lat":-6.263214,"transit":false,"distance":2380,"line":2,"time":2,"station_name":"Pasar Minggu Baru","i_long":106.851577},{"distance":824,"i_lat":-6.255332,"time":2,"i_long":106.85449,"station_id":"DRN","line":2,"station_name":"Duren Kalibata","is_transit":false,"transit":false},{"station_name":"Cawang","i_long":106.856607,"i_lat":-6.242512,"time":3,"distance":1546,"line":2,"transit":false,"is_transit":false,"station_id":"CW"},{"distance":1230,"is_transit":false,"i_lat":-6.226659,"line":2,"transit":false,"time":2,"station_id":"TEB","station_name":"Tebet","i_long":106.857948},{"i_lat":-6.209883,"distance":2610,"is_transit":true,"transit":true,"i_long":106.84912,"station_name":"Manggarai","time":4,"station_id":"MRI","line":2},{"transit":false,"distance":1275,"line":1,"i_lat":-6.212485,"is_transit":false,"i_long":106.858896,"time":2,"station_name":"Matraman","station_id":"MTR"},{"station_id":"JNG","is_transit":false,"station_name":"Jatinegara","line":1,"transit":false,"distance":1377,"time":8,"i_lat":-6.215091,"i_long":106.86807400000001},{"distance":3395,"is_transit":false,"time":3,"transit":false,"line":1,"station_id":"KLD","i_long":106.899548,"i_lat":-6.2135,"station_name":"Klender"},{"station_id":"BUA","time":2,"station_name":"Buaran","i_long":106.922662,"transit":false,"distance":3100,"line":1,"is_transit":false,"i_lat":-6.215568},{"distance":1305,"station_id":"KLDB","i_lat":-6.217455,"is_transit":false,"station_name":"Klenderbaru","transit":false,"time":1,"line":1,"i_long":106.939679},{"i_lat":-6.219053,"time":8,"line":1,"i_long":106.951283,"station_id":"CUK","station_name":"Cakung","is_transit":false,"transit":false,"distance":1385}],[{"line":2,"transit":false,"i_long":106.832616,"station_id":"LNA","time":0,"distance":0,"station_name":"Lenteng Agung","is_transit":false,"i_lat":-6.330363},{"station_id":"TNT","time":3,"station_name":"Tanjung Barat","i_lat":-6.3080680000000005,"i_long":106.838896,"line":2,"is_transit":false,"distance":2671,"transit":false},{"i_long":106.843999,"time":4,"station_name":"Pasar Minggu","transit":false,"line":2,"i_lat":-6.2842400000000005,"distance":2820,"station_id":"PSM","is_transit":false},{"transit":false,"is_transit":false,"i_lat":-6.263214,"line":2,"distance":2380,"i_long":106.851577,"station_name":"Pasar Minggu Baru","station_id":"PSMB","time":2},{"i_lat":-6.255332,"station_id":"DRN","time":2,"is_transit":false,"line":2,"distance":824,"station_name":"Duren Kalibata","transit":false,"i_long":106.85449},{"station_name":"Cawang","station_id":"CW","time":3,"transit":false,"i_lat":-6.242512,"i_long":106.856607,"distance":1546,"line":2,"is_transit":false},{"station_id":"TEB","is_transit":false,"distance":1230,"i_lat":-6.226659,"line":2,"time":2,"station_name":"Tebet","i_long":106.857948,"transit":false},{"time":4,"i_long":106.84912,"is_transit":true,"i_lat":-6.209883,"distance":2610,"line":2,"station_id":"MRI","station_name":"Manggarai","transit":true},{"i_long":106.822649,"line":1,"time":4,"transit":false,"station_name":"Sudirman","station_id":"SUD","is_transit":false,"distance":3186,"i_lat":-6.202263},{"is_transit":false,"station_name":"Sudirman Baru","i_long":106.819881,"distance":280,"transit":false,"i_lat":-6.201433,"line":1,"station_id":"SUDB","time":1},{"i_lat":-6.20132,"is_transit":false,"transit":false,"line":1,"time":1,"station_name":"Karet","distance":471,"i_long":106.816351,"station_id":"KAT"},{"time":5,"transit":false,"i_long":106.811091,"station_id":"THB","station_name":"Tanah Abang","is_transit":false,"i_lat":-6.185545,"distance":2029,"line":1},{"i_long":106.800832,"time":8,"i_lat":-6.155215,"transit":false,"line":1,"is_transit":false,"distance":3632,"station_name":"Duri","station_id":"DU"},{"time":4,"transit":false,"station_name":"Angke","line":1,"i_long":106.79867,"i_lat":-6.144674,"distance":1230,"is_transit":false,"station_id":"AK"},{"distance":4102,"is_transit":true,"station_name":"Kampung Bandan","i_long":106.826365,"line":4,"transit":true,"time":9,"station_id":"KPB","i_lat":-6.132549},{"station_id":"RJW","distance":1444,"line":11,"station_name":"Rajawali","i_lat":-6.14505,"i_long":106.836569,"transit":false,"is_transit":false,"time":3},{"i_lat":-6.161728,"line":11,"is_transit":false,"i_long":106.839204,"station_id":"KMO","time":5,"distance":1901,"transit":false,"station_name":"Kemayoran"},{"transit":false,"distance":1436,"i_long":106.84368,"time":4,"i_lat":-6.174784,"station_name":"Pasar Senen","line":11,"is_transit":false,"station_id":"PSE"},{"distance":1567,"station_id":"GST","line":11,"i_lat":-6.185975,"transit":false,"station_name":"Gang Sentiong","time":8,"i_long":106.850107,"is_transit":false},{"is_transit":false,"time":1,"line":11,"distance":973,"i_lat":-6.193792,"station_name":"Kramat","transit":false,"station_id":"KMT","i_long":106.855437},{"i_lat":-6.209188,"i_long":106.861737,"is_transit":false,"distance":1829,"time":2,"transit":false,"station_name":"Pondok Jati","station_id":"POK","line":11},{"station_id":"JNG","line":1,"i_long":106.86807400000001,"i_lat":-6.215091,"station_name":"Jatinegara","transit":true,"distance":1236,"is_transit":true,"time":9},{"station_name":"Klender","i_long":106.899548,"time":3,"transit":false,"i_lat":-6.2135,"is_transit":false,"line":1,"distance":3395,"station_id":"KLD"},{"time":2,"line":1,"transit":false,"i_long":106.922662,"station_name":"Buaran","station_id":"BUA","distance":3100,"i_lat":-6.215568,"is_transit":false},{"time":1,"station_name":"Klenderbaru","i_lat":-6.217455,"distance":1305,"i_long":106.939679,"line":1,"station_id":"KLDB","transit":false,"is_transit":false},{"i_lat":-6.219053,"station_id":"CUK","line":1,"distance":1385,"i_long":106.951283,"is_transit":false,"time":8,"transit":false,"station_name":"Cakung"}],[{"station_id":"LNA","time":0,"distance":0,"station_name":"Lenteng Agung","transit":false,"is_transit":false,"i_long":106.832616,"line":2,"i_lat":-6.330363},{"is_transit":false,"time":3,"distance":2671,"station_name":"Tanjung Barat","station_id":"TNT","transit":false,"i_lat":-6.3080680000000005,"i_long":106.838896,"line":2},{"station_id":"PSM","i_lat":-6.2842400000000005,"is_transit":false,"i_long":106.843999,"transit":false,"distance":2820,"time":4,"line":2,"station_name":"Pasar Minggu"},{"time":2,"station_id":"PSMB","i_long":106.851577,"distance":2380,"transit":false,"line":2,"is_transit":false,"station_name":"Pasar Minggu Baru","i_lat":-6.263214},{"station_id":"DRN","i_long":106.85449,"time":2,"transit":false,"station_name":"Duren Kalibata","i_lat":-6.255332,"is_transit":false,"line":2,"distance":824},{"time":3,"transit":false,"station_name":"Cawang","station_id":"CW","is_transit":false,"i_lat":-6.242512,"distance":1546,"i_long":106.856607,"line":2},{"is_transit":false,"station_name":"Tebet","line":2,"station_id":"TEB","distance":1230,"time":2,"transit":false,"i_lat":-6.226659,"i_long":106.857948},{"i_long":106.84912,"is_transit":false,"time":4,"distance":2610,"i_lat":-6.209883,"transit":false,"station_id":"MRI","station_name":"Manggarai","line":2},{"station_name":"Cikini","time":4,"line":2,"station_id":"CKI","i_lat":-6.198556,"transit":false,"is_transit":false,"i_long":106.840169,"distance":1590},{"station_id":"GDD","i_lat":-6.186295,"i_long":106.832183,"line":2,"station_name":"Gondangdia","transit":false,"time":3,"distance":1750,"is_transit":false},{"station_id":"JUA","time":4,"distance":2015,"transit":false,"is_transit":false,"i_long":106.828284,"i_lat":-6.166716,"station_name":"Juanda","line":2},{"i_lat":-6.160725,"station_name":"Sawah Besar","line":2,"is_transit":false,"transit":false,"i_long":106.827103,"time":2,"station_id":"SW","distance":1149},{"i_lat":-6.149769,"line":2,"distance":906,"transit":false,"time":2,"station_name":"Manggabesar","station_id":"MGB","i_long":106.82482,"is_transit":false},{"station_name":"Jayakarta","time":2,"i_lat":-6.141205,"transit":false,"line":2,"is_transit":false,"i_long":106.820901,"distance":1080,"station_id":"JAY"},{"i_lat":-6.137569,"time":4,"distance":1264,"station_name":"Jakarta Kota","i_long":106.812439,"line":2,"station_id":"JAKK","transit":true,"is_transit":true},{"transit":true,"line":4,"distance":1364,"i_long":106.826365,"station_name":"Kampung Bandan","i_lat":-6.132549,"station_id":"KPB","time":3,"is_transit":true},{"line":11,"is_transit":false,"i_lat":-6.14505,"transit":false,"time":3,"station_id":"RJW","station_name":"Rajawali","i_long":106.836569,"distance":1444},{"is_transit":false,"i_lat":-6.161728,"transit":false,"station_name":"Kemayoran","time":5,"distance":1901,"line":11,"station_id":"KMO","i_long":106.839204},{"line":11,"station_name":"Pasar Senen","time":4,"distance":1436,"i_lat":-6.174784,"i_long":106.84368,"is_transit":false,"transit":false,"station_id":"PSE"},{"distance":1567,"station_id":"GST","is_transit":false,"i_lat":-6.185975,"station_name":"Gang Sentiong","time":8,"transit":false,"i_long":106.850107,"line":11},{"is_transit":false,"i_long":106.855437,"transit":false,"line":11,"distance":973,"station_name":"Kramat","station_id":"KMT","time":1,"i_lat":-6.193792},{"distance":1829,"transit":false,"station_name":"Pondok Jati","time":2,"i_lat":-6.209188,"line":11,"i_long":106.861737,"station_id":"POK","is_transit":false},{"station_name":"Jatinegara","time":9,"transit":true,"i_lat":-6.215091,"distance":1236,"line":1,"i_long":106.86807400000001,"station_id":"JNG","is_transit":true},{"transit":false,"line":1,"time":3,"distance":3395,"station_name":"Klender","i_lat":-6.2135,"station_id":"KLD","is_transit":false,"i_long":106.899548},{"i_lat":-6.215568,"i_long":106.922662,"line":1,"is_transit":false,"time":2,"distance":3100,"station_name":"Buaran","transit":false,"station_id":"BUA"},{"station_name":"Klenderbaru","time":1,"i_lat":-6.217455,"is_transit":false,"distance":1305,"transit":false,"line":1,"i_long":106.939679,"station_id":"KLDB"},{"time":8,"i_long":106.951283,"station_id":"CUK","station_name":"Cakung","is_transit":false,"distance":1385,"transit":false,"line":1,"i_lat":-6.219053}]]}