{"data":[[{"station_id":"LNA","transit":false,"line":2,"i_long":106.832616,"time":0,"distance":0,"is_transit":false,"i_lat":-6.330363,"station_name":"Lenteng Agung"},{"line":2,"is_transit":false,"transit":false,"station_name":"Univ. Pancasila","i_long":106.834175,"station_id":"UP","distance":1029,"time":2,"i_lat":-6.339291},{"i_lat":-6.360749,"i_long":106.831474,"time":3,"distance":2264,"station_name":"Univ. Indonesia","station_id":"UI","line":2,"transit":false,"is_transit":false},{"time":2,"i_lat":-6.369073,"transit":false,"line":2,"i_long":106.831114,"station_id":"POC","distance":1109,"station_name":"Pondok Cina","is_transit":false},{"i_long":106.819451,"line":2,"i_lat":-6.391065,"time":4,"transit":false,"distance":2727,"station_name":"Depokbaru","is_transit":false,"station_id":"DPB"},{"i_lat":-6.405256,"station_id":"DP","is_transit":false,"transit":false,"station_name":"Depok","time":3,"distance":1584,"i_long":106.816926,"line":2},{"line":2,"station_name":"Citayam","time":6,"distance":5084,"transit":false,"i_long":106.800298,"is_transit":false,"i_lat":-6.448811,"station_id":"CTA"},{"distance":5197,"station_id":"BJD","is_transit":false,"line":2,"i_lat":-6.493243,"station_name":"Bojonggede","i_long":106.792719,"transit":false,"time":5},{"is_transit":false,"time":5,"distance":4331,"line":2,"station_id":"CLT","station_name":"Cilebut","transit":false,"i_lat":-6.530544,"i_long":106.800016},{"i_long":106.790574,"transit":false,"distance":7514,"station_id":"BOO","station_name":"Bogor","is_transit":false,"time":9,"i_lat":-6.594596,"line":2}]]}