{"data":[[{"line":2,"i_long":106.832616,"station_name":"Lenteng Agung","distance":0,"transit":false,"station_id":"LNA","i_lat":-6.330363,"is_transit":false,"time":0},{"is_transit":false,"transit":false,"time":3,"line":2,"station_name":"Tanjung Barat","station_id":"TNT","i_lat":-6.3080680000000005,"distance":2671,"i_long":106.838896},{"line":2,"transit":false,"i_long":106.843999,"time":4,"distance":2820,"i_lat":-6.2842400000000005,"station_id":"PSM","is_transit":false,"station_name":"Pasar Minggu"},{"station_name":"Pasar Minggu Baru","line":2,"time":2,"is_transit":false,"distance":2380,"transit":false,"station_id":"PSMB","i_long":106.851577,"i_lat":-6.263214},{"station_id":"DRN","station_name":"Duren Kalibata","line":2,"i_lat":-6.255332,"is_transit":false,"transit":false,"i_long":106.85449,"time":2,"distance":824}]]}