{"data":[[{"station_id":"LNA","station_name":"Lenteng Agung","time":0,"distance":0,"transit":false,"is_transit":false,"i_lat":-6.330363,"i_long":106.832616,"line":2},{"transit":false,"station_id":"TNT","is_transit":false,"time":3,"distance":2671,"station_name":"Tanjung Barat","i_lat":-6.3080680000000005,"i_long":106.838896,"line":2},{"station_id":"PSM","i_lat":-6.2842400000000005,"i_long":106.843999,"is_transit":false,"distance":2820,"station_name":"Pasar Minggu","time":4,"line":2,"transit":false},{"time":2,"station_name":"Pasar Minggu Baru","transit":false,"distance":2380,"is_transit":false,"i_lat":-6.263214,"station_id":"PSMB","i_long":106.851577,"line":2},{"station_name":"Duren Kalibata","line":2,"station_id":"DRN","time":2,"distance":824,"transit":false,"is_transit":false,"i_long":106.85449,"i_lat":-6.255332},{"transit":false,"i_lat":-6.242512,"i_long":106.856607,"distance":1546,"is_transit":false,"station_name":"Cawang","station_id":"CW","time":3,"line":2},{"transit":false,"is_transit":false,"i_lat":-6.226659,"i_long":106.857948,"line":2,"distance":1230,"station_name":"Tebet","station_id":"TEB","time":2},{"station_id":"MRI","time":4,"station_name":"Manggarai","distance":2610,"i_long":106.84912,"line":2,"i_lat":-6.209883,"is_transit":true,"transit":true},{"transit":false,"i_long":106.822649,"station_id":"SUD","station_name":"Sudirman","distance":3186,"i_lat":-6.202263,"line":1,"is_transit":false,"time":4},{"transit":false,"i_long":106.819881,"is_transit":false,"distance":280,"station_name":"Sudirman Baru","time":1,"i_lat":-6.201433,"line":1,"station_id":"SUDB"},{"line":1,"i_long":106.816351,"time":1,"station_id":"KAT","station_name":"Karet","distance":471,"transit":false,"is_transit":false,"i_lat":-6.20132},{"station_name":"Tanah Abang","distance":2029,"station_id":"THB","is_transit":true,"line":1,"transit":true,"i_long":106.811091,"i_lat":-6.185545,"time":5},{"transit":false,"time":6,"line":6,"i_lat":-6.207404,"is_transit":false,"i_long":106.79689,"station_name":"Palmerah","station_id":"PLM","distance":3191},{"station_name":"Kebayoran","distance":3737,"is_transit":false,"station_id":"KBY","time":7,"i_lat":-6.237242,"line":6,"i_long":106.780334,"transit":false},{"i_lat":-6.276362,"time":8,"is_transit":false,"station_id":"PDJ","distance":6218,"transit":false,"line":6,"station_name":"Pondokranji","i_long":106.74273},{"is_transit":false,"line":6,"i_lat":-6.288927,"station_id":"JMU","distance":2179,"i_long":106.728916,"station_name":"Jurangmangu","time":3,"transit":false},{"line":6,"distance":1994,"station_name":"Sudimara","i_long":106.712277,"transit":false,"i_lat":-6.296963,"time":4,"is_transit":false,"station_id":"SDM"},{"station_name":"Rawa Buntu","time":6,"is_transit":false,"line":6,"i_lat":-6.314823,"i_long":106.675475,"distance":4566,"transit":false,"station_id":"RU"},{"transit":false,"is_transit":false,"station_name":"Serpong","time":4,"i_lat":-6.319871,"distance":2413,"line":6,"i_long":106.66566,"station_id":"SRP"}],[{"distance":0,"station_name":"Lenteng Agung","transit":false,"time":0,"line":2,"station_id":"LNA","is_transit":false,"i_long":106.832616,"i_lat":-6.330363},{"station_name":"Tanjung Barat","i_lat":-6.3080680000000005,"time":3,"i_long":106.838896,"distance":2671,"is_transit":false,"station_id":"TNT","line":2,"transit":false},{"i_lat":-6.2842400000000005,"station_id":"PSM","transit":false,"time":4,"line":2,"is_transit":false,"distance":2820,"station_name":"Pasar Minggu","i_long":106.843999},{"station_name":"Pasar Minggu Baru","time":2,"transit":false,"is_transit":false,"i_lat":-6.263214,"station_id":"PSMB","distance":2380,"i_long":106.851577,"line":2},{"station_id":"DRN","is_transit":false,"line":2,"transit":false,"time":2,"distance":824,"i_lat":-6.255332,"station_name":"Duren Kalibata","i_long":106.85449},{"station_name":"Cawang","i_lat":-6.242512,"station_id":"CW","i_long":106.856607,"transit":false,"distance":1546,"time":3,"is_transit":false,"line":2},{"distance":1230,"time":2,"i_lat":-6.226659,"station_name":"Tebet","is_transit":false,"line":2,"station_id":"TEB","transit":false,"i_long":106.857948},{"is_transit":false,"distance":2610,"i_long":106.84912,"line":2,"time":4,"station_name":"Manggarai","i_lat":-6.209883,"transit":false,"station_id":"MRI"},{"i_lat":-6.198556,"time":4,"station_name":"Cikini","i_long":106.840169,"line":2,"distance":1590,"is_transit":false,"station_id":"CKI","transit":false},{"distance":1750,"transit":false,"station_id":"GDD","i_lat":-6.186295,"i_long":106.832183,"is_transit":false,"line":2,"station_name":"Gondangdia","time":3},{"distance":2015,"station_name":"Juanda","station_id":"JUA","i_long":106.828284,"line":2,"i_lat":-6.166716,"transit":false,"is_transit":false,"time":4},{"distance":1149,"station_name":"Sawah Besar","time":2,"is_transit":false,"i_long":106.827103,"i_lat":-6.160725,"line":2,"transit":false,"station_id":"SW"},{"station_id":"MGB","time":2,"is_transit":false,"i_lat":-6.149769,"line":2,"station_name":"Manggabesar","i_long":106.82482,"distance":906,"transit":false},{"line":2,"transit":false,"i_long":106.820901,"station_name":"Jayakarta","station_id":"JAY","i_lat":-6.141205,"is_transit":false,"distance":1080,"time":2},{"time":4,"station_name":"Jakarta Kota","transit":true,"i_lat":-6.137569,"station_id":"JAKK","line":2,"distance":1264,"is_transit":true,"i_long":106.812439},{"station_name":"Kampung Bandan","station_id":"KPB","is_transit":true,"i_lat":-6.132549,"line":4,"transit":true,"i_long":106.826365,"time":3,"distance":1364},{"station_id":"AK","is_transit":false,"i_lat":-6.144674,"station_name":"Angke","i_long":106.79867,"transit":false,"distance":4102,"line":1,"time":9},{"station_id":"DU","transit":false,"distance":1230,"station_name":"Duri","is_transit":false,"i_long":106.800832,"i_lat":-6.155215,"time":4,"line":1},{"station_name":"Tanah Abang","transit":true,"is_transit":true,"i_lat":-6.185545,"distance":3632,"station_id":"THB","i_long":106.811091,"line":1,"time":8},{"line":6,"i_lat":-6.207404,"time":6,"distance":3191,"station_name":"Palmerah","transit":false,"station_id":"PLM","i_long":106.79689,"is_transit":false},{"station_name":"Kebayoran","transit":false,"is_transit":false,"i_lat":-6.237242,"time":7,"distance":3737,"station_id":"KBY","i_long":106.780334,"line":6},{"is_transit":false,"i_lat":-6.276362,"time":8,"distance":6218,"station_id":"PDJ","line":6,"i_long":106.74273,"station_name":"Pondokranji","transit":false},{"station_name":"Jurangmangu","station_id":"JMU","i_lat":-6.288927,"time":3,"i_long":106.728916,"distance":2179,"transit":false,"is_transit":false,"line":6},{"line":6,"time":4,"distance":1994,"i_long":106.712277,"transit":false,"station_name":"Sudimara","station_id":"SDM","is_transit":false,"i_lat":-6.296963},{"transit":false,"i_lat":-6.314823,"i_long":106.675475,"station_id":"RU","time":6,"is_transit":false,"distance":4566,"line":6,"station_name":"Rawa Buntu"},{"distance":2413,"station_id":"SRP","is_transit":false,"time":4,"i_lat":-6.319871,"i_long":106.66566,"station_name":"Serpong","transit":false,"line":6}],[{"i_lat":-6.330363,"transit":false,"time":0,"station_id":"LNA","i_long":106.832616,"distance":0,"station_name":"Lenteng Agung","is_transit":false,"line":2},{"station_name":"Tanjung Barat","time":3,"station_id":"TNT","line":2,"i_lat":-6.3080680000000005,"transit":false,"is_transit":false,"i_long":106.838896,"distance":2671},{"i_lat":-6.2842400000000005,"station_id":"PSM","time":4,"line":2,"distance":2820,"station_name":"Pasar Minggu","i_long":106.843999,"is_transit":false,"transit":false},{"time":2,"line":2,"i_lat":-6.263214,"is_transit":false,"transit":false,"i_long":106.851577,"distance":2380,"station_id":"PSMB","station_name":"Pasar Minggu Baru"},{"i_long":106.85449,"distance":824,"i_lat":-6.255332,"line":2,"is_transit":false,"time":2,"station_name":"Duren Kalibata","transit":false,"station_id":"DRN"},{"time":3,"is_transit":false,"distance":1546,"station_name":"Cawang","i_lat":-6.242512,"transit":false,"line":2,"station_id":"CW","i_long":106.856607},{"station_id":"TEB","time":2,"is_transit":false,"i_long":106.857948,"transit":false,"distance":1230,"i_lat":-6.226659,"line":2,"station_name":"Tebet"},{"time":4,"transit":true,"i_long":106.84912,"distance":2610,"is_transit":true,"line":2,"station_id":"MRI","i_lat":-6.209883,"station_name":"Manggarai"},{"line":1,"station_name":"Matraman","i_lat":-6.212485,"station_id":"MTR","i_long":106.858896,"transit":false,"distance":1275,"time":2,"is_transit":false},{"station_name":"Jatinegara","distance":1377,"is_transit":true,"i_lat":-6.215091,"transit":true,"i_long":106.86807400000001,"station_id":"JNG","time":8,"line":1},{"station_id":"POK","is_transit":false,"line":11,"i_lat":-6.209188,"i_long":106.861737,"station_name":"Pondok Jati","time":2,"distance":1236,"transit":false},{"station_id":"KMT","line":11,"transit":false,"station_name":"Kramat","time":2,"i_lat":-6.193792,"distance":1829,"i_long":106.855437,"is_transit":false},{"station_id":"GST","i_long":106.850107,"transit":false,"distance":973,"i_lat":-6.185975,"time":1,"station_name":"Gang Sentiong","is_transit":false,"line":11},{"i_long":106.84368,"line":11,"station_id":"PSE","i_lat":-6.174784,"station_name":"Pasar Senen","is_transit":false,"distance":1567,"transit":false,"time":8},{"i_long":106.839204,"distance":1436,"transit":false,"line":11,"i_lat":-6.161728,"station_id":"KMO","station_name":"Kemayoran","time":4,"is_transit":false},{"station_name":"Rajawali","time":5,"line":11,"transit":false,"i_long":106.836569,"is_transit":false,"station_id":"RJW","i_lat":-6.14505,"distance":1901},{"i_lat":-6.132549,"station_name":"Kampung Bandan","distance":1444,"station_id":"KPB","is_transit":true,"transit":true,"i_long":106.826365,"line":4,"time":3},{"station_name":"Angke","station_id":"AK","is_transit":false,"transit":false,"line":1,"distance":4102,"time":9,"i_lat":-6.144674,"i_long":106.79867},{"line":1,"i_long":106.800832,"time":4,"is_transit":false,"station_name":"Duri","transit":false,"station_id":"DU","distance":1230,"i_lat":-6.155215},{"is_transit":true,"station_name":"Tanah Abang","distance":3632,"line":1,"i_lat":-6.185545,"transit":true,"station_id":"THB","i_long":106.811091,"time":8},{"station_id":"PLM","line":6,"is_transit":false,"distance":3191,"i_long":106.79689,"station_name":"Palmerah","time":6,"transit":false,"i_lat":-6.207404},{"transit":false,"distance":3737,"station_id":"KBY","station_name":"Kebayoran","time":7,"i_long":106.780334,"line":6,"i_lat":-6.237242,"is_transit":false},{"station_name":"Pondokranji","time":8,"line":6,"distance":6218,"i_lat":-6.276362,"i_long":106.74273,"station_id":"PDJ","transit":false,"is_transit":false},{"time":3,"station_name":"Jurangmangu","station_id":"JMU","distance":2179,"is_transit":false,"i_lat":-6.288927,"transit":false,"line":6,"i_long":106.728916},{"is_transit":false,"line":6,"station_id":"SDM","time":4,"distance":1994,"transit":false,"i_lat":-6.296963,"i_long":106.712277,"station_name":"Sudimara"},{"distance":4566,"i_lat":-6.314823,"line":6,"is_transit":false,"transit":false,"time":6,"i_long":106.675475,"station_name":"Rawa Buntu","station_id":"RU"},{"distance":2413,"transit":false,"station_id":"SRP","i_lat":-6.319871,"is_transit":false,"line":6,"time":4,"i_long":106.66566,"station_name":"Serpong"}]]}