{"data":[[{"station_id":"LNA","transit":false,"is_transit":false,"distance":0,"line":2,"time":0,"i_long":106.832616,"station_name":"Lenteng Agung","i_lat":-6.330363},{"distance":1029,"station_name":"Univ. Pancasila","is_transit":false,"i_lat":-6.339291,"time":2,"transit":false,"line":2,"i_long":106.834175,"station_id":"UP"},{"line":2,"i_lat":-6.360749,"distance":2264,"station_name":"Univ. Indonesia","station_id":"UI","transit":false,"is_transit":false,"time":3,"i_long":106.831474},{"i_long":106.831114,"transit":false,"is_transit":false,"time":2,"station_id":"POC","i_lat":-6.369073,"station_name":"Pondok Cina","line":2,"distance":1109},{"transit":false,"is_transit":false,"i_long":106.819451,"i_lat":-6.391065,"distance":2727,"station_name":"Depokbaru","station_id":"DPB","line":2,"time":4},{"time":3,"distance":1584,"line":2,"station_id":"DP","station_name":"Depok","is_transit":false,"transit":false,"i_lat":-6.405256,"i_long":106.816926},{"transit":true,"line":2,"is_transit":true,"station_name":"Citayam","i_lat":-6.448811,"station_id":"CTA","i_long":106.800298,"time":6,"distance":5084},{"i_lat":-6.460735,"i_long":106.824374,"time":0,"line":21,"transit":false,"is_transit":false,"station_id":"PDRG","distance":0,"station_name":"Pondok Rajeg"},{"station_name":"Cibinong","i_lat":-6.46424,"line":21,"distance":0,"time":0,"transit":false,"station_id":"CBN","i_long":106.851978,"is_transit":false}]]}