{"data":[[{"time":0,"distance":0,"station_name":"Lenteng Agung","i_long":106.832616,"line":2,"is_transit":false,"station_id":"LNA","i_lat":-6.330363,"transit":false},{"station_name":"Tanjung Barat","is_transit":false,"line":2,"i_lat":-6.3080680000000005,"station_id":"TNT","i_long":106.838896,"transit":false,"distance":2671,"time":3},{"station_id":"PSM","i_lat":-6.2842400000000005,"i_long":106.843999,"is_transit":false,"line":2,"station_name":"Pasar Minggu","distance":2820,"transit":false,"time":4},{"transit":false,"i_lat":-6.263214,"distance":2380,"is_transit":false,"time":2,"station_name":"Pasar Minggu Baru","line":2,"station_id":"PSMB","i_long":106.851577},{"station_name":"Duren Kalibata","distance":824,"i_lat":-6.255332,"i_long":106.85449,"station_id":"DRN","is_transit":false,"line":2,"transit":false,"time":2},{"distance":1546,"transit":false,"time":3,"i_long":106.856607,"is_transit":false,"i_lat":-6.242512,"station_id":"CW","station_name":"Cawang","line":2},{"i_long":106.857948,"line":2,"transit":false,"i_lat":-6.226659,"is_transit":false,"distance":1230,"station_id":"TEB","time":2,"station_name":"Tebet"},{"i_lat":-6.209883,"i_long":106.84912,"is_transit":true,"transit":true,"station_name":"Manggarai","station_id":"MRI","distance":2610,"line":2,"time":4},{"distance":3186,"is_transit":false,"line":1,"station_id":"SUD","transit":false,"time":4,"station_name":"Sudirman","i_lat":-6.202263,"i_long":106.822649},{"is_transit":false,"time":1,"i_long":106.819881,"i_lat":-6.201433,"distance":280,"transit":false,"line":1,"station_name":"Sudirman Baru","station_id":"SUDB"},{"station_name":"Karet","transit":false,"i_lat":-6.20132,"distance":471,"station_id":"KAT","i_long":106.816351,"is_transit":false,"time":1,"line":1},{"is_transit":true,"distance":2029,"i_long":106.811091,"time":5,"i_lat":-6.185545,"station_id":"THB","station_name":"Tanah Abang","transit":true,"line":1},{"i_lat":-6.207404,"station_id":"PLM","distance":3191,"i_long":106.79689,"time":6,"station_name":"Palmerah","is_transit":false,"line":6,"transit":false},{"is_transit":false,"time":7,"line":6,"station_name":"Kebayoran","i_lat":-6.237242,"station_id":"KBY","i_long":106.780334,"transit":false,"distance":3737},{"time":8,"i_long":106.74273,"line":6,"distance":6218,"station_name":"Pondokranji","station_id":"PDJ","is_transit":false,"i_lat":-6.276362,"transit":false},{"station_id":"JMU","line":6,"time":3,"distance":2179,"transit":false,"station_name":"Jurangmangu","is_transit":false,"i_lat":-6.288927,"i_long":106.728916},{"station_id":"SDM","station_name":"Sudimara","transit":false,"line":6,"i_lat":-6.296963,"i_long":106.712277,"distance":1994,"time":4,"is_transit":false},{"is_transit":false,"i_lat":-6.314823,"time":6,"station_name":"Rawa Buntu","transit":false,"line":6,"distance":4566,"station_id":"RU","i_long":106.675475},{"i_long":106.66566,"line":6,"is_transit":false,"time":4,"distance":2413,"station_id":"SRP","station_name":"Serpong","i_lat":-6.319871,"transit":false},{"station_id":"CSK","transit":false,"distance":1784,"line":3,"i_lat":-6.32484,"is_transit":false,"time":4,"i_long":106.640411,"station_name":"Cisauk"},{"line":3,"is_transit":false,"distance":2519,"i_long":106.617853,"station_name":"Cicayur","time":4,"i_lat":-6.329547,"station_id":"CC","transit":false},{"station_name":"Parung Panjang","is_transit":false,"transit":false,"i_long":106.568863,"line":6,"i_lat":-6.3441410000000005,"distance":5968,"station_id":"PRP","time":8},{"i_long":106.508482,"line":3,"transit":false,"time":9,"distance":7025,"station_id":"CJT","station_name":"Cilejit","is_transit":false,"i_lat":-6.354349}],[{"i_long":106.832616,"i_lat":-6.330363,"is_transit":false,"line":2,"time":0,"distance":0,"station_id":"LNA","transit":false,"station_name":"Lenteng Agung"},{"transit":false,"is_transit":false,"station_id":"TNT","i_lat":-6.3080680000000005,"distance":2671,"station_name":"Tanjung Barat","i_long":106.838896,"time":3,"line":2},{"station_id":"PSM","transit":false,"time":4,"station_name":"Pasar Minggu","distance":2820,"i_lat":-6.2842400000000005,"is_transit":false,"i_long":106.843999,"line":2},{"i_long":106.851577,"station_id":"PSMB","transit":false,"station_name":"Pasar Minggu Baru","line":2,"time":2,"distance":2380,"i_lat":-6.263214,"is_transit":false},{"station_id":"DRN","i_lat":-6.255332,"line":2,"time":2,"is_transit":false,"distance":824,"transit":false,"i_long":106.85449,"station_name":"Duren Kalibata"},{"transit":false,"station_id":"CW","i_long":106.856607,"distance":1546,"time":3,"station_name":"Cawang","i_lat":-6.242512,"is_transit":false,"line":2},{"station_id":"TEB","is_transit":false,"distance":1230,"station_name":"Tebet","i_long":106.857948,"i_lat":-6.226659,"line":2,"transit":false,"time":2},{"station_id":"MRI","is_transit":false,"i_lat":-6.209883,"distance":2610,"i_long":106.84912,"line":2,"time":4,"transit":false,"station_name":"Manggarai"},{"station_id":"CKI","station_name":"Cikini","time":4,"line":2,"distance":1590,"i_long":106.840169,"i_lat":-6.198556,"transit":false,"is_transit":false},{"time":3,"distance":1750,"station_name":"Gondangdia","i_long":106.832183,"line":2,"transit":false,"is_transit":false,"i_lat":-6.186295,"station_id":"GDD"},{"time":4,"i_lat":-6.166716,"distance":2015,"station_id":"JUA","i_long":106.828284,"is_transit":false,"line":2,"station_name":"Juanda","transit":false},{"is_transit":false,"time":2,"station_id":"SW","distance":1149,"transit":false,"station_name":"Sawah Besar","i_long":106.827103,"i_lat":-6.160725,"line":2},{"distance":906,"i_long":106.82482,"station_id":"MGB","station_name":"Manggabesar","i_lat":-6.149769,"transit":false,"line":2,"time":2,"is_transit":false},{"distance":1080,"transit":false,"time":2,"is_transit":false,"station_name":"Jayakarta","i_long":106.820901,"line":2,"i_lat":-6.141205,"station_id":"JAY"},{"line":2,"i_long":106.812439,"transit":true,"station_id":"JAKK","i_lat":-6.137569,"time":4,"is_transit":true,"station_name":"Jakarta Kota","distance":1264},{"distance":1364,"is_transit":true,"station_name":"Kampung Bandan","i_long":106.826365,"station_id":"KPB","i_lat":-6.132549,"time":3,"transit":true,"line":4},{"is_transit":false,"i_long":106.79867,"transit":false,"station_id":"AK","time":9,"i_lat":-6.144674,"distance":4102,"station_name":"Angke","line":1},{"i_long":106.800832,"distance":1230,"station_id":"DU","station_name":"Duri","is_transit":false,"time":4,"transit":false,"i_lat":-6.155215,"line":1},{"transit":true,"i_long":106.811091,"distance":3632,"is_transit":true,"station_name":"Tanah Abang","time":8,"station_id":"THB","i_lat":-6.185545,"line":1},{"station_name":"Palmerah","time":6,"line":6,"station_id":"PLM","distance":3191,"is_transit":false,"i_long":106.79689,"i_lat":-6.207404,"transit":false},{"is_transit":false,"line":6,"i_lat":-6.237242,"station_id":"KBY","transit":false,"station_name":"Kebayoran","distance":3737,"time":7,"i_long":106.780334},{"i_long":106.74273,"distance":6218,"is_transit":false,"transit":false,"station_id":"PDJ","time":8,"i_lat":-6.276362,"line":6,"station_name":"Pondokranji"},{"time":3,"i_lat":-6.288927,"line":6,"station_id":"JMU","distance":2179,"station_name":"Jurangmangu","transit":false,"is_transit":false,"i_long":106.728916},{"station_name":"Sudimara","i_long":106.712277,"distance":1994,"transit":false,"i_lat":-6.296963,"station_id":"SDM","line":6,"time":4,"is_transit":false},{"i_lat":-6.314823,"transit":false,"time":6,"station_name":"Rawa Buntu","distance":4566,"i_long":106.675475,"line":6,"station_id":"RU","is_transit":false},{"station_name":"Serpong","time":4,"distance":2413,"transit":false,"line":6,"station_id":"SRP","is_transit":false,"i_lat":-6.319871,"i_long":106.66566},{"line":3,"is_transit":false,"time":4,"distance":1784,"station_name":"Cisauk","i_lat":-6.32484,"i_long":106.640411,"transit":false,"station_id":"CSK"},{"is_transit":false,"transit":false,"i_lat":-6.329547,"station_id":"CC","distance":2519,"time":4,"station_name":"Cicayur","i_long":106.617853,"line":3},{"i_lat":-6.3441410000000005,"distance":5968,"is_transit":false,"station_name":"Parung Panjang","i_long":106.568863,"transit":false,"station_id":"PRP","time":8,"line":6},{"i_lat":-6.354349,"station_name":"Cilejit","i_long":106.508482,"is_transit":false,"transit":false,"line":3,"distance":7025,"station_id":"CJT","time":9}],[{"time":0,"station_name":"Lenteng Agung","i_lat":-6.330363,"is_transit":false,"i_long":106.832616,"transit":false,"station_id":"LNA","line":2,"distance":0},{"time":3,"i_lat":-6.3080680000000005,"is_transit":false,"station_id":"TNT","distance":2671,"i_long":106.838896,"line":2,"transit":false,"station_name":"Tanjung Barat"},{"distance":2820,"i_lat":-6.2842400000000005,"i_long":106.843999,"line":2,"time":4,"station_name":"Pasar Minggu","station_id":"PSM","transit":false,"is_transit":false},{"is_transit":false,"station_id":"PSMB","transit":false,"distance":2380,"time":2,"station_name":"Pasar Minggu Baru","i_long":106.851577,"line":2,"i_lat":-6.263214},{"i_lat":-6.255332,"i_long":106.85449,"line":2,"transit":false,"station_id":"DRN","distance":824,"station_name":"Duren Kalibata","is_transit":false,"time":2},{"distance":1546,"station_id":"CW","is_transit":false,"i_long":106.856607,"station_name":"Cawang","time":3,"transit":false,"i_lat":-6.242512,"line":2},{"distance":1230,"station_id":"TEB","transit":false,"station_name":"Tebet","line":2,"i_lat":-6.226659,"is_transit":false,"i_long":106.857948,"time":2},{"station_name":"Manggarai","i_long":106.84912,"is_transit":true,"line":2,"time":4,"distance":2610,"transit":true,"station_id":"MRI","i_lat":-6.209883},{"station_name":"Matraman","i_lat":-6.212485,"i_long":106.858896,"is_transit":false,"line":1,"distance":1275,"transit":false,"station_id":"MTR","time":2},{"distance":1377,"station_id":"JNG","i_lat":-6.215091,"transit":true,"i_long":106.86807400000001,"is_transit":true,"line":1,"station_name":"Jatinegara","time":8},{"i_lat":-6.209188,"transit":false,"i_long":106.861737,"line":11,"time":2,"distance":1236,"is_transit":false,"station_id":"POK","station_name":"Pondok Jati"},{"station_name":"Kramat","is_transit":false,"time":2,"i_long":106.855437,"line":11,"distance":1829,"station_id":"KMT","i_lat":-6.193792,"transit":false},{"distance":973,"station_name":"Gang Sentiong","i_lat":-6.185975,"i_long":106.850107,"station_id":"GST","transit":false,"is_transit":false,"time":1,"line":11},{"is_transit":false,"time":8,"station_name":"Pasar Senen","distance":1567,"station_id":"PSE","line":11,"transit":false,"i_lat":-6.174784,"i_long":106.84368},{"line":11,"station_id":"KMO","is_transit":false,"i_long":106.839204,"distance":1436,"time":4,"i_lat":-6.161728,"transit":false,"station_name":"Kemayoran"},{"station_id":"RJW","line":11,"is_transit":false,"station_name":"Rajawali","distance":1901,"transit":false,"time":5,"i_long":106.836569,"i_lat":-6.14505},{"line":4,"i_long":106.826365,"i_lat":-6.132549,"is_transit":true,"distance":1444,"transit":true,"time":3,"station_name":"Kampung Bandan","station_id":"KPB"},{"transit":false,"time":9,"is_transit":false,"station_name":"Angke","i_long":106.79867,"line":1,"station_id":"AK","i_lat":-6.144674,"distance":4102},{"station_name":"Duri","time":4,"station_id":"DU","i_lat":-6.155215,"i_long":106.800832,"transit":false,"is_transit":false,"line":1,"distance":1230},{"transit":true,"station_name":"Tanah Abang","time":8,"station_id":"THB","i_lat":-6.185545,"distance":3632,"line":1,"is_transit":true,"i_long":106.811091},{"is_transit":false,"time":6,"transit":false,"distance":3191,"station_name":"Palmerah","i_lat":-6.207404,"station_id":"PLM","i_long":106.79689,"line":6},{"i_long":106.780334,"line":6,"time":7,"station_id":"KBY","i_lat":-6.237242,"is_transit":false,"distance":3737,"station_name":"Kebayoran","transit":false},{"time":8,"station_id":"PDJ","transit":false,"i_long":106.74273,"i_lat":-6.276362,"line":6,"is_transit":false,"station_name":"Pondokranji","distance":6218},{"i_long":106.728916,"line":6,"distance":2179,"station_id":"JMU","station_name":"Jurangmangu","time":3,"transit":false,"is_transit":false,"i_lat":-6.288927},{"i_lat":-6.296963,"transit":false,"time":4,"station_id":"SDM","station_name":"Sudimara","is_transit":false,"i_long":106.712277,"line":6,"distance":1994},{"i_lat":-6.314823,"i_long":106.675475,"distance":4566,"time":6,"station_id":"RU","line":6,"transit":false,"is_transit":false,"station_name":"Rawa Buntu"},{"i_long":106.66566,"line":6,"distance":2413,"station_id":"SRP","is_transit":false,"transit":false,"station_name":"Serpong","time":4,"i_lat":-6.319871},{"station_name":"Cisauk","transit":false,"line":3,"i_lat":-6.32484,"i_long":106.640411,"is_transit":false,"distance":1784,"station_id":"CSK","time":4},{"station_id":"CC","station_name":"Cicayur","is_transit":false,"distance":2519,"transit":false,"time":4,"i_lat":-6.329547,"i_long":106.617853,"line":3},{"line":6,"distance":5968,"i_long":106.568863,"time":8,"i_lat":-6.3441410000000005,"station_id":"PRP","is_transit":false,"station_name":"Parung Panjang","transit":false},{"i_lat":-6.354349,"i_long":106.508482,"is_transit":false,"time":9,"line":3,"transit":false,"station_name":"Cilejit","distance":7025,"station_id":"CJT"}]]}