{"data":[[{"station_id":"LNA","i_lat":-6.330363,"distance":0,"line":2,"station_name":"Lenteng Agung","transit":false,"time":0,"i_long":106.832616,"is_transit":false},{"line":2,"time":3,"i_long":106.838896,"is_transit":false,"transit":false,"i_lat":-6.3080680000000005,"station_name":"Tanjung Barat","station_id":"TNT","distance":2671},{"distance":2820,"station_name":"Pasar Minggu","i_lat":-6.2842400000000005,"time":4,"line":2,"station_id":"PSM","is_transit":false,"transit":false,"i_long":106.843999},{"i_lat":-6.263214,"is_transit":false,"distance":2380,"time":2,"station_id":"PSMB","station_name":"Pasar Minggu Baru","i_long":106.851577,"transit":false,"line":2},{"i_long":106.85449,"line":0,"time":2,"station_id":"DRN","station_name":"Duren Kalibata","is_transit":false,"transit":false,"distance":824,"i_lat":-6.255332},{"i_lat":-6.242512,"i_long":106.856607,"station_name":"Cawang","distance":1546,"line":0,"transit":false,"station_id":"CW","is_transit":false,"time":3},{"distance":1230,"line":2,"station_name":"Tebet","station_id":"TEB","transit":false,"i_lat":-6.226659,"time":2,"is_transit":false,"i_long":106.857948},{"station_id":"MRI","transit":true,"line":0,"distance":2610,"i_lat":-6.209883,"time":4,"i_long":106.84912,"station_name":"Manggarai","is_transit":true},{"station_id":"CKI","station_name":"Cikini","line":0,"time":4,"i_lat":-6.198556,"i_long":106.840169,"is_transit":false,"distance":1590,"transit":false},{"is_transit":false,"station_name":"Gondangdia","transit":false,"time":3,"i_lat":-6.186295,"line":2,"i_long":106.832183,"distance":1750,"station_id":"GDD"},{"transit":false,"i_long":106.828284,"line":2,"distance":2015,"station_name":"Juanda","station_id":"JUA","is_transit":false,"time":4,"i_lat":-6.166716}],[{"line":2,"i_long":106.832616,"distance":0,"station_name":"Lenteng Agung","is_transit":false,"station_id":"LNA","time":0,"transit":false,"i_lat":-6.330363},{"time":3,"i_lat":-6.3080680000000005,"station_id":"TNT","distance":2671,"i_long":106.838896,"is_transit":false,"line":2,"station_name":"Tanjung Barat","transit":false},{"i_lat":-6.2842400000000005,"line":2,"time":4,"transit":false,"i_long":106.843999,"is_transit":false,"station_id":"PSM","station_name":"Pasar Minggu","distance":2820},{"line":2,"transit":false,"i_lat":-6.263214,"i_long":106.851577,"time":2,"station_id":"PSMB","station_name":"Pasar Minggu Baru","distance":2380,"is_transit":false},{"station_name":"Duren Kalibata","time":2,"transit":false,"i_long":106.85449,"distance":824,"station_id":"DRN","i_lat":-6.255332,"line":0,"is_transit":false},{"time":3,"distance":1546,"station_id":"CW","is_transit":false,"i_lat":-6.242512,"station_name":"Cawang","i_long":106.856607,"line":0,"transit":false},{"distance":1230,"time":2,"station_id":"TEB","is_transit":false,"i_long":106.857948,"line":2,"i_lat":-6.226659,"station_name":"Tebet","transit":false},{"is_transit":true,"i_long":106.84912,"line":0,"time":4,"i_lat":-6.209883,"distance":2610,"station_id":"MRI","station_name":"Manggarai","transit":true},{"line":1,"distance":3186,"is_transit":false,"i_long":106.822649,"i_lat":-6.202263,"time":4,"station_name":"Sudirman","station_id":"SUD","transit":false},{"transit":false,"i_long":106.819881,"is_transit":false,"i_lat":-6.201433,"line":1,"time":1,"distance":280,"station_name":"Sudirman Baru","station_id":"SUDB"},{"line":1,"i_long":106.816351,"station_id":"KAT","transit":false,"distance":471,"time":1,"i_lat":-6.20132,"station_name":"Karet","is_transit":false},{"transit":false,"station_id":"THB","time":5,"i_lat":-6.185545,"is_transit":true,"i_long":106.811091,"distance":2029,"line":1,"station_name":"Tanah Abang"},{"i_long":106.800832,"station_id":"DU","line":1,"time":8,"station_name":"Duri","distance":3632,"i_lat":-6.155215,"is_transit":true,"transit":true},{"i_long":106.79867,"distance":1230,"transit":false,"line":0,"is_transit":false,"i_lat":-6.144674,"time":4,"station_name":"Angke","station_id":"AK"},{"line":0,"time":9,"station_name":"Kampung Bandan","is_transit":true,"distance":4102,"station_id":"KPB","transit":false,"i_lat":-6.132549,"i_long":106.826365},{"is_transit":true,"transit":true,"i_long":106.812439,"i_lat":-6.137569,"line":0,"distance":1364,"time":3,"station_name":"Jakarta Kota","station_id":"JAKK"},{"time":4,"i_long":106.820901,"transit":false,"line":7,"station_id":"JAY","distance":1264,"i_lat":-6.141205,"is_transit":false,"station_name":"Jayakarta"},{"distance":1080,"line":2,"i_lat":-6.149769,"station_id":"MGB","time":2,"is_transit":false,"station_name":"Manggabesar","transit":false,"i_long":106.82482},{"transit":false,"i_lat":-6.160725,"is_transit":false,"station_name":"Sawah Besar","time":2,"station_id":"SW","distance":906,"i_long":106.827103,"line":2},{"time":2,"distance":1149,"i_long":106.828284,"i_lat":-6.166716,"station_id":"JUA","transit":false,"line":2,"is_transit":false,"station_name":"Juanda"}],[{"distance":0,"time":0,"station_id":"LNA","is_transit":false,"station_name":"Lenteng Agung","i_long":106.832616,"line":2,"i_lat":-6.330363,"transit":false},{"i_lat":-6.3080680000000005,"distance":2671,"line":2,"station_name":"Tanjung Barat","station_id":"TNT","is_transit":false,"time":3,"i_long":106.838896,"transit":false},{"station_name":"Pasar Minggu","i_long":106.843999,"is_transit":false,"i_lat":-6.2842400000000005,"station_id":"PSM","distance":2820,"line":2,"time":4,"transit":false},{"line":2,"station_id":"PSMB","distance":2380,"i_lat":-6.263214,"transit":false,"i_long":106.851577,"time":2,"is_transit":false,"station_name":"Pasar Minggu Baru"},{"is_transit":false,"station_name":"Duren Kalibata","distance":824,"i_lat":-6.255332,"station_id":"DRN","line":0,"time":2,"transit":false,"i_long":106.85449},{"is_transit":false,"station_name":"Cawang","distance":1546,"time":3,"i_lat":-6.242512,"station_id":"CW","i_long":106.856607,"transit":false,"line":0},{"i_long":106.857948,"distance":1230,"time":2,"station_name":"Tebet","is_transit":false,"i_lat":-6.226659,"station_id":"TEB","line":2,"transit":false},{"is_transit":true,"distance":2610,"line":0,"i_lat":-6.209883,"i_long":106.84912,"transit":true,"station_name":"Manggarai","station_id":"MRI","time":4},{"is_transit":false,"distance":1275,"time":2,"i_lat":-6.212485,"i_long":106.858896,"station_name":"Matraman","station_id":"MTR","line":1,"transit":false},{"is_transit":true,"station_name":"Jatinegara","time":8,"distance":1377,"line":0,"station_id":"JNG","i_lat":-6.215091,"transit":true,"i_long":106.86807400000001},{"line":11,"i_long":106.861737,"is_transit":false,"distance":1236,"transit":false,"station_id":"POK","station_name":"Pondok Jati","time":2,"i_lat":-6.209188},{"time":2,"station_id":"KMT","distance":1829,"transit":false,"i_lat":-6.193792,"i_long":106.855437,"line":11,"is_transit":false,"station_name":"Kramat"},{"i_lat":-6.185975,"station_name":"Gang Sentiong","transit":false,"is_transit":false,"i_long":106.850107,"time":1,"station_id":"GST","distance":973,"line":11},{"distance":1567,"i_long":106.84368,"station_id":"PSE","i_lat":-6.174784,"line":11,"time":8,"is_transit":false,"transit":false,"station_name":"Pasar Senen"},{"station_id":"KMO","station_name":"Kemayoran","is_transit":false,"transit":false,"i_long":106.839204,"line":11,"time":4,"distance":1436,"i_lat":-6.161728},{"i_lat":-6.14505,"line":11,"station_id":"RJW","transit":false,"time":5,"station_name":"Rajawali","distance":1901,"is_transit":false,"i_long":106.836569},{"station_name":"Kampung Bandan","station_id":"KPB","is_transit":true,"i_lat":-6.132549,"i_long":106.826365,"time":3,"distance":1444,"transit":true,"line":0},{"station_id":"JAKK","station_name":"Jakarta Kota","is_transit":true,"distance":1364,"i_lat":-6.137569,"time":3,"i_long":106.812439,"transit":true,"line":0},{"line":7,"station_id":"JAY","i_lat":-6.141205,"distance":1264,"is_transit":false,"time":4,"transit":false,"i_long":106.820901,"station_name":"Jayakarta"},{"is_transit":false,"time":2,"station_id":"MGB","distance":1080,"station_name":"Manggabesar","transit":false,"i_long":106.82482,"line":2,"i_lat":-6.149769},{"is_transit":false,"distance":906,"transit":false,"i_lat":-6.160725,"station_name":"Sawah Besar","line":2,"time":2,"station_id":"SW","i_long":106.827103},{"station_name":"Juanda","station_id":"JUA","is_transit":false,"distance":1149,"i_lat":-6.166716,"i_long":106.828284,"line":2,"time":2,"transit":false}]]}