{"data":[[{"distance":0,"transit":false,"is_transit":false,"i_lat":-6.330363,"station_id":"LNA","i_long":106.832616,"time":0,"line":2,"station_name":"Lenteng Agung"},{"station_name":"Tanjung Barat","distance":2671,"i_lat":-6.3080680000000005,"line":2,"is_transit":false,"time":3,"transit":false,"station_id":"TNT","i_long":106.838896},{"i_long":106.843999,"transit":false,"station_id":"PSM","is_transit":false,"i_lat":-6.2842400000000005,"distance":2820,"time":4,"line":2,"station_name":"Pasar Minggu"},{"i_lat":-6.263214,"line":2,"transit":false,"distance":2380,"time":2,"i_long":106.851577,"station_id":"PSMB","station_name":"Pasar Minggu Baru","is_transit":false},{"time":2,"station_name":"Duren Kalibata","station_id":"DRN","transit":false,"i_long":106.85449,"is_transit":false,"distance":824,"i_lat":-6.255332,"line":2},{"i_long":106.856607,"time":3,"line":2,"station_id":"CW","distance":1546,"station_name":"Cawang","transit":false,"i_lat":-6.242512,"is_transit":false},{"is_transit":false,"transit":false,"station_name":"Tebet","i_lat":-6.226659,"station_id":"TEB","distance":1230,"i_long":106.857948,"line":2,"time":2},{"is_transit":true,"station_name":"Manggarai","station_id":"MRI","time":4,"distance":2610,"i_long":106.84912,"i_lat":-6.209883,"line":2,"transit":true},{"time":4,"is_transit":false,"station_id":"SUD","i_lat":-6.202263,"transit":false,"station_name":"Sudirman","distance":3186,"i_long":106.822649,"line":1},{"transit":false,"distance":280,"i_long":106.819881,"station_name":"Sudirman Baru","is_transit":false,"time":1,"i_lat":-6.201433,"line":1,"station_id":"SUDB"},{"station_id":"KAT","time":1,"line":1,"distance":471,"station_name":"Karet","transit":false,"i_lat":-6.20132,"is_transit":false,"i_long":106.816351}],[{"is_transit":false,"station_name":"Lenteng Agung","distance":0,"i_lat":-6.330363,"i_long":106.832616,"line":2,"transit":false,"time":0,"station_id":"LNA"},{"transit":false,"time":3,"station_name":"Tanjung Barat","i_long":106.838896,"i_lat":-6.3080680000000005,"station_id":"TNT","line":2,"is_transit":false,"distance":2671},{"line":2,"is_transit":false,"time":4,"i_lat":-6.2842400000000005,"distance":2820,"i_long":106.843999,"transit":false,"station_name":"Pasar Minggu","station_id":"PSM"},{"is_transit":false,"line":2,"station_id":"PSMB","time":2,"i_long":106.851577,"station_name":"Pasar Minggu Baru","transit":false,"distance":2380,"i_lat":-6.263214},{"i_long":106.85449,"distance":824,"i_lat":-6.255332,"transit":false,"station_id":"DRN","is_transit":false,"station_name":"Duren Kalibata","time":2,"line":2},{"time":3,"station_id":"CW","is_transit":false,"i_lat":-6.242512,"transit":false,"distance":1546,"i_long":106.856607,"line":2,"station_name":"Cawang"},{"transit":false,"is_transit":false,"time":2,"i_long":106.857948,"line":2,"station_name":"Tebet","distance":1230,"station_id":"TEB","i_lat":-6.226659},{"is_transit":false,"station_id":"MRI","time":4,"i_long":106.84912,"line":2,"station_name":"Manggarai","distance":2610,"transit":false,"i_lat":-6.209883},{"i_long":106.840169,"station_id":"CKI","line":2,"distance":1590,"transit":false,"station_name":"Cikini","time":4,"is_transit":false,"i_lat":-6.198556},{"time":3,"is_transit":false,"i_long":106.832183,"line":2,"station_id":"GDD","i_lat":-6.186295,"distance":1750,"transit":false,"station_name":"Gondangdia"},{"station_name":"Juanda","i_long":106.828284,"station_id":"JUA","line":2,"transit":false,"is_transit":false,"time":4,"distance":2015,"i_lat":-6.166716},{"transit":false,"station_name":"Sawah Besar","station_id":"SW","is_transit":false,"i_lat":-6.160725,"i_long":106.827103,"distance":1149,"time":2,"line":2},{"station_name":"Manggabesar","station_id":"MGB","is_transit":false,"time":2,"i_lat":-6.149769,"i_long":106.82482,"distance":906,"transit":false,"line":2},{"is_transit":false,"distance":1080,"station_id":"JAY","i_long":106.820901,"line":2,"time":2,"i_lat":-6.141205,"transit":false,"station_name":"Jayakarta"},{"station_id":"JAKK","station_name":"Jakarta Kota","is_transit":true,"i_long":106.812439,"line":2,"distance":1264,"transit":true,"time":4,"i_lat":-6.137569},{"line":4,"i_long":106.826365,"transit":true,"station_name":"Kampung Bandan","time":3,"is_transit":true,"distance":1364,"i_lat":-6.132549,"station_id":"KPB"},{"station_name":"Angke","time":9,"i_long":106.79867,"i_lat":-6.144674,"line":1,"station_id":"AK","is_transit":false,"transit":false,"distance":4102},{"station_name":"Duri","station_id":"DU","i_long":106.800832,"time":4,"transit":false,"is_transit":false,"distance":1230,"line":1,"i_lat":-6.155215},{"time":8,"is_transit":false,"i_lat":-6.185545,"distance":3632,"transit":false,"station_id":"THB","line":1,"station_name":"Tanah Abang","i_long":106.811091},{"transit":false,"station_name":"Karet","distance":2029,"time":5,"station_id":"KAT","i_lat":-6.20132,"is_transit":false,"i_long":106.816351,"line":1}],[{"line":2,"time":0,"station_name":"Lenteng Agung","transit":false,"distance":0,"i_lat":-6.330363,"station_id":"LNA","is_transit":false,"i_long":106.832616},{"station_name":"Tanjung Barat","i_lat":-6.3080680000000005,"line":2,"distance":2671,"is_transit":false,"station_id":"TNT","time":3,"transit":false,"i_long":106.838896},{"station_id":"PSM","distance":2820,"is_transit":false,"transit":false,"line":2,"i_long":106.843999,"station_name":"Pasar Minggu","i_lat":-6.2842400000000005,"time":4},{"station_name":"Pasar Minggu Baru","station_id":"PSMB","i_lat":-6.263214,"distance":2380,"transit":false,"is_transit":false,"time":2,"i_long":106.851577,"line":2},{"distance":824,"i_lat":-6.255332,"station_id":"DRN","is_transit":false,"time":2,"line":2,"station_name":"Duren Kalibata","i_long":106.85449,"transit":false},{"time":3,"transit":false,"station_id":"CW","station_name":"Cawang","is_transit":false,"i_lat":-6.242512,"distance":1546,"line":2,"i_long":106.856607},{"time":2,"distance":1230,"station_name":"Tebet","i_lat":-6.226659,"station_id":"TEB","i_long":106.857948,"line":2,"transit":false,"is_transit":false},{"transit":true,"station_name":"Manggarai","i_long":106.84912,"time":4,"distance":2610,"station_id":"MRI","i_lat":-6.209883,"is_transit":true,"line":2},{"distance":1275,"time":2,"i_lat":-6.212485,"i_long":106.858896,"is_transit":false,"station_name":"Matraman","line":1,"station_id":"MTR","transit":false},{"time":8,"i_lat":-6.215091,"is_transit":true,"station_id":"JNG","line":1,"distance":1377,"i_long":106.86807400000001,"transit":true,"station_name":"Jatinegara"},{"time":2,"station_id":"POK","transit":false,"i_long":106.861737,"line":11,"i_lat":-6.209188,"station_name":"Pondok Jati","is_transit":false,"distance":1236},{"line":11,"time":2,"station_name":"Kramat","i_long":106.855437,"station_id":"KMT","transit":false,"is_transit":false,"distance":1829,"i_lat":-6.193792},{"transit":false,"time":1,"station_name":"Gang Sentiong","distance":973,"i_long":106.850107,"is_transit":false,"i_lat":-6.185975,"line":11,"station_id":"GST"},{"station_id":"PSE","line":11,"i_long":106.84368,"time":8,"is_transit":false,"i_lat":-6.174784,"station_name":"Pasar Senen","distance":1567,"transit":false},{"i_lat":-6.161728,"station_id":"KMO","i_long":106.839204,"line":11,"distance":1436,"station_name":"Kemayoran","transit":false,"time":4,"is_transit":false},{"time":5,"distance":1901,"transit":false,"is_transit":false,"station_id":"RJW","i_long":106.836569,"station_name":"Rajawali","line":11,"i_lat":-6.14505},{"line":4,"is_transit":true,"transit":true,"time":3,"i_long":106.826365,"i_lat":-6.132549,"station_name":"Kampung Bandan","station_id":"KPB","distance":1444},{"station_name":"Angke","transit":false,"station_id":"AK","distance":4102,"i_lat":-6.144674,"i_long":106.79867,"time":9,"line":1,"is_transit":false},{"i_lat":-6.155215,"time":4,"i_long":106.800832,"transit":false,"station_id":"DU","is_transit":false,"line":1,"station_name":"Duri","distance":1230},{"i_lat":-6.185545,"i_long":106.811091,"time":8,"station_id":"THB","is_transit":false,"line":1,"transit":false,"station_name":"Tanah Abang","distance":3632},{"transit":false,"time":5,"station_id":"KAT","i_lat":-6.20132,"is_transit":false,"i_long":106.816351,"line":1,"station_name":"Karet","distance":2029}]]}