{"data":[[{"station_name":"Lenteng Agung","i_lat":-6.330363,"distance":0,"is_transit":false,"i_long":106.832616,"transit":false,"line":2,"station_id":"LNA","time":0},{"station_id":"TNT","time":3,"is_transit":false,"distance":2671,"i_long":106.838896,"line":2,"transit":false,"station_name":"Tanjung Barat","i_lat":-6.3080680000000005},{"line":2,"station_id":"PSM","station_name":"Pasar Minggu","time":4,"i_lat":-6.2842400000000005,"i_long":106.843999,"is_transit":false,"transit":false,"distance":2820},{"station_id":"PSMB","station_name":"Pasar Minggu Baru","i_lat":-6.263214,"distance":2380,"transit":false,"is_transit":false,"line":2,"i_long":106.851577,"time":2},{"time":2,"distance":824,"station_id":"DRN","transit":false,"i_long":106.85449,"line":0,"i_lat":-6.255332,"station_name":"Duren Kalibata","is_transit":false},{"station_id":"CW","i_lat":-6.242512,"transit":false,"time":3,"distance":1546,"i_long":106.856607,"station_name":"Cawang","is_transit":false,"line":0},{"is_transit":false,"i_lat":-6.226659,"time":2,"station_name":"Tebet","line":2,"distance":1230,"station_id":"TEB","i_long":106.857948,"transit":false},{"i_lat":-6.209883,"i_long":106.84912,"is_transit":true,"station_id":"MRI","distance":2610,"station_name":"Manggarai","transit":true,"time":4,"line":0},{"station_id":"SUD","distance":3186,"is_transit":false,"transit":false,"time":4,"i_lat":-6.202263,"line":1,"station_name":"Sudirman","i_long":106.822649},{"i_long":106.819881,"time":1,"distance":280,"line":1,"station_id":"SUDB","i_lat":-6.201433,"transit":false,"station_name":"Sudirman Baru","is_transit":false},{"station_name":"Karet","i_long":106.816351,"time":1,"distance":471,"station_id":"KAT","transit":false,"is_transit":false,"i_lat":-6.20132,"line":1},{"time":5,"is_transit":true,"transit":false,"line":1,"station_id":"THB","distance":2029,"station_name":"Tanah Abang","i_long":106.811091,"i_lat":-6.185545},{"i_lat":-6.155215,"station_name":"Duri","station_id":"DU","distance":3632,"is_transit":true,"i_long":106.800832,"time":8,"line":1,"transit":true},{"i_lat":-6.162021,"time":3,"station_name":"Grogol","is_transit":false,"station_id":"GGL","distance":1700,"i_long":106.788277,"transit":false,"line":5},{"i_long":106.771379,"transit":false,"station_id":"PSG","distance":2036,"i_lat":-6.161433,"is_transit":false,"line":5,"time":2,"station_name":"Pesing"},{"station_name":"Taman Kota","is_transit":false,"transit":false,"time":2,"line":5,"station_id":"TKO","i_long":106.756522,"distance":1614,"i_lat":-6.1587309999999995}],[{"time":0,"station_id":"LNA","i_lat":-6.330363,"is_transit":false,"line":2,"i_long":106.832616,"station_name":"Lenteng Agung","transit":false,"distance":0},{"transit":false,"is_transit":false,"i_long":106.838896,"line":2,"i_lat":-6.3080680000000005,"station_id":"TNT","station_name":"Tanjung Barat","distance":2671,"time":3},{"i_lat":-6.2842400000000005,"is_transit":false,"transit":false,"station_name":"Pasar Minggu","line":2,"station_id":"PSM","time":4,"i_long":106.843999,"distance":2820},{"line":2,"distance":2380,"station_id":"PSMB","time":2,"i_long":106.851577,"transit":false,"station_name":"Pasar Minggu Baru","i_lat":-6.263214,"is_transit":false},{"time":2,"distance":824,"i_long":106.85449,"i_lat":-6.255332,"transit":false,"station_id":"DRN","is_transit":false,"line":0,"station_name":"Duren Kalibata"},{"time":3,"station_id":"CW","transit":false,"is_transit":false,"distance":1546,"i_lat":-6.242512,"station_name":"Cawang","i_long":106.856607,"line":0},{"is_transit":false,"i_lat":-6.226659,"i_long":106.857948,"time":2,"distance":1230,"station_name":"Tebet","transit":false,"line":2,"station_id":"TEB"},{"transit":true,"distance":2610,"station_name":"Manggarai","i_long":106.84912,"line":0,"time":4,"is_transit":true,"station_id":"MRI","i_lat":-6.209883},{"station_id":"CKI","i_lat":-6.198556,"time":4,"transit":false,"line":0,"distance":1590,"is_transit":false,"station_name":"Cikini","i_long":106.840169},{"is_transit":false,"station_id":"GDD","transit":false,"line":2,"time":3,"i_lat":-6.186295,"i_long":106.832183,"distance":1750,"station_name":"Gondangdia"},{"station_name":"Juanda","i_lat":-6.166716,"i_long":106.828284,"line":2,"time":4,"is_transit":false,"station_id":"JUA","transit":false,"distance":2015},{"line":2,"distance":1149,"time":2,"is_transit":false,"i_lat":-6.160725,"station_name":"Sawah Besar","i_long":106.827103,"station_id":"SW","transit":false},{"station_name":"Manggabesar","time":2,"distance":906,"station_id":"MGB","line":2,"is_transit":false,"i_lat":-6.149769,"i_long":106.82482,"transit":false},{"distance":1080,"transit":false,"line":7,"station_name":"Jayakarta","station_id":"JAY","i_lat":-6.141205,"is_transit":false,"i_long":106.820901,"time":2},{"line":0,"station_name":"Jakarta Kota","time":4,"i_lat":-6.137569,"is_transit":true,"transit":true,"i_long":106.812439,"station_id":"JAKK","distance":1264},{"transit":false,"i_long":106.826365,"is_transit":true,"line":0,"station_id":"KPB","time":3,"distance":1364,"i_lat":-6.132549,"station_name":"Kampung Bandan"},{"station_name":"Angke","station_id":"AK","time":9,"is_transit":false,"i_long":106.79867,"i_lat":-6.144674,"transit":false,"distance":4102,"line":0},{"station_name":"Duri","line":1,"i_lat":-6.155215,"station_id":"DU","time":4,"transit":true,"distance":1230,"is_transit":true,"i_long":106.800832},{"transit":false,"time":3,"line":5,"station_id":"GGL","station_name":"Grogol","is_transit":false,"i_lat":-6.162021,"distance":1700,"i_long":106.788277},{"is_transit":false,"line":5,"transit":false,"i_long":106.771379,"i_lat":-6.161433,"station_id":"PSG","distance":2036,"station_name":"Pesing","time":2},{"line":5,"station_name":"Taman Kota","station_id":"TKO","i_lat":-6.1587309999999995,"transit":false,"distance":1614,"time":2,"is_transit":false,"i_long":106.756522}],[{"i_long":106.832616,"i_lat":-6.330363,"distance":0,"time":0,"line":2,"is_transit":false,"station_name":"Lenteng Agung","transit":false,"station_id":"LNA"},{"distance":2671,"station_name":"Tanjung Barat","i_long":106.838896,"transit":false,"i_lat":-6.3080680000000005,"is_transit":false,"time":3,"line":2,"station_id":"TNT"},{"transit":false,"station_name":"Pasar Minggu","line":2,"distance":2820,"time":4,"i_lat":-6.2842400000000005,"i_long":106.843999,"is_transit":false,"station_id":"PSM"},{"time":2,"is_transit":false,"distance":2380,"station_name":"Pasar Minggu Baru","i_lat":-6.263214,"line":2,"station_id":"PSMB","transit":false,"i_long":106.851577},{"station_id":"DRN","transit":false,"is_transit":false,"i_long":106.85449,"station_name":"Duren Kalibata","time":2,"line":0,"distance":824,"i_lat":-6.255332},{"i_long":106.856607,"line":0,"station_id":"CW","station_name":"Cawang","distance":1546,"is_transit":false,"time":3,"transit":false,"i_lat":-6.242512},{"station_id":"TEB","distance":1230,"time":2,"is_transit":false,"line":2,"station_name":"Tebet","i_long":106.857948,"i_lat":-6.226659,"transit":false},{"is_transit":true,"station_name":"Manggarai","i_long":106.84912,"station_id":"MRI","i_lat":-6.209883,"transit":true,"distance":2610,"line":0,"time":4},{"line":1,"time":2,"i_lat":-6.212485,"station_id":"MTR","station_name":"Matraman","is_transit":false,"i_long":106.858896,"transit":false,"distance":1275},{"time":8,"line":0,"i_long":106.86807400000001,"transit":true,"station_name":"Jatinegara","i_lat":-6.215091,"station_id":"JNG","distance":1377,"is_transit":true},{"time":2,"is_transit":false,"line":11,"station_id":"POK","station_name":"Pondok Jati","transit":false,"distance":1236,"i_lat":-6.209188,"i_long":106.861737},{"distance":1829,"i_lat":-6.193792,"line":11,"station_id":"KMT","station_name":"Kramat","transit":false,"time":2,"i_long":106.855437,"is_transit":false},{"distance":973,"line":11,"i_lat":-6.185975,"i_long":106.850107,"station_name":"Gang Sentiong","time":1,"transit":false,"is_transit":false,"station_id":"GST"},{"i_lat":-6.174784,"is_transit":false,"distance":1567,"i_long":106.84368,"transit":false,"station_id":"PSE","station_name":"Pasar Senen","time":8,"line":11},{"transit":false,"time":4,"station_id":"KMO","station_name":"Kemayoran","is_transit":false,"i_long":106.839204,"i_lat":-6.161728,"line":11,"distance":1436},{"transit":false,"station_name":"Rajawali","line":11,"i_lat":-6.14505,"distance":1901,"time":5,"is_transit":false,"station_id":"RJW","i_long":106.836569},{"station_id":"KPB","line":0,"transit":true,"distance":1444,"station_name":"Kampung Bandan","time":3,"is_transit":true,"i_lat":-6.132549,"i_long":106.826365},{"transit":false,"time":9,"station_id":"AK","i_lat":-6.144674,"station_name":"Angke","i_long":106.79867,"is_transit":false,"line":0,"distance":4102},{"station_id":"DU","transit":true,"station_name":"Duri","is_transit":true,"i_lat":-6.155215,"i_long":106.800832,"time":4,"distance":1230,"line":1},{"time":3,"station_id":"GGL","is_transit":false,"i_long":106.788277,"transit":false,"distance":1700,"station_name":"Grogol","i_lat":-6.162021,"line":5},{"i_lat":-6.161433,"distance":2036,"station_name":"Pesing","time":2,"i_long":106.771379,"line":5,"is_transit":false,"transit":false,"station_id":"PSG"},{"transit":false,"station_name":"Taman Kota","i_long":106.756522,"station_id":"TKO","time":2,"is_transit":false,"line":5,"distance":1614,"i_lat":-6.1587309999999995}]]}