{"data":[[{"time":0,"station_id":"LNA","station_name":"Lenteng Agung","i_long":106.832616,"distance":0,"transit":false,"i_lat":-6.330363,"is_transit":false,"line":2},{"transit":false,"line":2,"station_id":"TNT","station_name":"Tanjung Barat","time":3,"is_transit":false,"distance":2671,"i_lat":-6.3080680000000005,"i_long":106.838896},{"time":4,"transit":false,"i_long":106.843999,"distance":2820,"station_name":"Pasar Minggu","is_transit":false,"station_id":"PSM","line":2,"i_lat":-6.2842400000000005},{"station_id":"PSMB","time":2,"station_name":"Pasar Minggu Baru","distance":2380,"i_long":106.851577,"line":2,"is_transit":false,"i_lat":-6.263214,"transit":false},{"station_name":"Duren Kalibata","transit":false,"i_lat":-6.255332,"station_id":"DRN","is_transit":false,"line":0,"i_long":106.85449,"time":2,"distance":824},{"transit":false,"i_long":106.856607,"distance":1546,"station_id":"CW","i_lat":-6.242512,"is_transit":false,"station_name":"Cawang","time":3,"line":0},{"distance":1230,"station_id":"TEB","line":2,"station_name":"Tebet","i_long":106.857948,"is_transit":false,"time":2,"transit":false,"i_lat":-6.226659},{"i_lat":-6.209883,"i_long":106.84912,"time":4,"line":0,"transit":true,"station_name":"Manggarai","is_transit":true,"station_id":"MRI","distance":2610},{"i_lat":-6.202263,"line":1,"i_long":106.822649,"transit":false,"station_name":"Sudirman","time":4,"is_transit":false,"station_id":"SUD","distance":3186},{"distance":280,"station_name":"Sudirman Baru","station_id":"SUDB","time":1,"i_lat":-6.201433,"i_long":106.819881,"transit":false,"line":1,"is_transit":false},{"station_name":"Karet","station_id":"KAT","time":1,"line":1,"is_transit":false,"i_long":106.816351,"transit":false,"distance":471,"i_lat":-6.20132},{"line":1,"is_transit":true,"distance":2029,"transit":true,"station_name":"Tanah Abang","station_id":"THB","i_lat":-6.185545,"time":5,"i_long":106.811091},{"line":6,"distance":3191,"transit":false,"is_transit":false,"time":6,"i_long":106.79689,"station_id":"PLM","i_lat":-6.207404,"station_name":"Palmerah"},{"is_transit":false,"line":6,"distance":3737,"station_name":"Kebayoran","time":7,"transit":false,"i_lat":-6.237242,"i_long":106.780334,"station_id":"KBY"},{"i_lat":-6.276362,"i_long":106.74273,"transit":false,"station_name":"Pondokranji","time":8,"line":6,"station_id":"PDJ","is_transit":false,"distance":6218},{"distance":2179,"time":3,"station_id":"JMU","station_name":"Jurangmangu","transit":false,"i_lat":-6.288927,"i_long":106.728916,"is_transit":false,"line":6}],[{"station_name":"Lenteng Agung","i_long":106.832616,"line":2,"is_transit":false,"distance":0,"transit":false,"time":0,"station_id":"LNA","i_lat":-6.330363},{"is_transit":false,"distance":2671,"transit":false,"station_name":"Tanjung Barat","time":3,"i_lat":-6.3080680000000005,"i_long":106.838896,"line":2,"station_id":"TNT"},{"line":2,"transit":false,"station_id":"PSM","station_name":"Pasar Minggu","is_transit":false,"i_lat":-6.2842400000000005,"distance":2820,"i_long":106.843999,"time":4},{"transit":false,"distance":2380,"line":2,"time":2,"i_lat":-6.263214,"station_name":"Pasar Minggu Baru","station_id":"PSMB","is_transit":false,"i_long":106.851577},{"station_name":"Duren Kalibata","time":2,"transit":false,"i_lat":-6.255332,"i_long":106.85449,"station_id":"DRN","line":0,"is_transit":false,"distance":824},{"station_id":"CW","station_name":"Cawang","is_transit":false,"time":3,"distance":1546,"i_lat":-6.242512,"i_long":106.856607,"line":0,"transit":false},{"i_lat":-6.226659,"i_long":106.857948,"time":2,"station_name":"Tebet","line":2,"is_transit":false,"transit":false,"distance":1230,"station_id":"TEB"},{"line":0,"is_transit":true,"i_lat":-6.209883,"i_long":106.84912,"time":4,"station_id":"MRI","station_name":"Manggarai","distance":2610,"transit":true},{"i_lat":-6.198556,"time":4,"line":0,"is_transit":false,"i_long":106.840169,"distance":1590,"station_name":"Cikini","station_id":"CKI","transit":false},{"i_long":106.832183,"station_name":"Gondangdia","transit":false,"is_transit":false,"i_lat":-6.186295,"line":2,"station_id":"GDD","distance":1750,"time":3},{"line":2,"station_id":"JUA","transit":false,"i_lat":-6.166716,"distance":2015,"time":4,"station_name":"Juanda","i_long":106.828284,"is_transit":false},{"time":2,"station_id":"SW","station_name":"Sawah Besar","i_lat":-6.160725,"is_transit":false,"transit":false,"distance":1149,"i_long":106.827103,"line":2},{"time":2,"is_transit":false,"distance":906,"station_id":"MGB","transit":false,"station_name":"Manggabesar","i_lat":-6.149769,"line":2,"i_long":106.82482},{"distance":1080,"transit":false,"line":7,"station_id":"JAY","is_transit":false,"i_long":106.820901,"time":2,"i_lat":-6.141205,"station_name":"Jayakarta"},{"is_transit":true,"transit":true,"distance":1264,"line":0,"station_name":"Jakarta Kota","i_lat":-6.137569,"station_id":"JAKK","i_long":106.812439,"time":4},{"time":3,"distance":1364,"line":0,"i_lat":-6.132549,"station_name":"Kampung Bandan","station_id":"KPB","i_long":106.826365,"transit":false,"is_transit":true},{"i_long":106.79867,"time":9,"distance":4102,"line":0,"is_transit":false,"transit":false,"station_name":"Angke","i_lat":-6.144674,"station_id":"AK"},{"i_lat":-6.155215,"station_name":"Duri","station_id":"DU","time":4,"is_transit":true,"distance":1230,"transit":true,"line":1,"i_long":106.800832},{"station_id":"THB","time":8,"line":1,"distance":3632,"station_name":"Tanah Abang","transit":true,"i_long":106.811091,"i_lat":-6.185545,"is_transit":true},{"station_name":"Palmerah","transit":false,"station_id":"PLM","i_long":106.79689,"line":6,"distance":3191,"time":6,"is_transit":false,"i_lat":-6.207404},{"transit":false,"i_long":106.780334,"i_lat":-6.237242,"station_name":"Kebayoran","line":6,"time":7,"station_id":"KBY","is_transit":false,"distance":3737},{"line":6,"station_id":"PDJ","station_name":"Pondokranji","is_transit":false,"i_long":106.74273,"transit":false,"distance":6218,"i_lat":-6.276362,"time":8},{"time":3,"transit":false,"i_lat":-6.288927,"line":6,"station_id":"JMU","is_transit":false,"distance":2179,"i_long":106.728916,"station_name":"Jurangmangu"}],[{"i_lat":-6.330363,"station_id":"LNA","transit":false,"station_name":"Lenteng Agung","distance":0,"time":0,"line":2,"is_transit":false,"i_long":106.832616},{"i_lat":-6.3080680000000005,"transit":false,"i_long":106.838896,"line":2,"time":3,"distance":2671,"station_name":"Tanjung Barat","station_id":"TNT","is_transit":false},{"line":2,"is_transit":false,"transit":false,"station_id":"PSM","station_name":"Pasar Minggu","time":4,"distance":2820,"i_lat":-6.2842400000000005,"i_long":106.843999},{"distance":2380,"transit":false,"i_long":106.851577,"time":2,"line":2,"i_lat":-6.263214,"station_id":"PSMB","station_name":"Pasar Minggu Baru","is_transit":false},{"station_name":"Duren Kalibata","time":2,"distance":824,"i_lat":-6.255332,"line":0,"i_long":106.85449,"transit":false,"station_id":"DRN","is_transit":false},{"distance":1546,"transit":false,"station_name":"Cawang","i_lat":-6.242512,"station_id":"CW","is_transit":false,"time":3,"line":0,"i_long":106.856607},{"line":2,"i_lat":-6.226659,"is_transit":false,"distance":1230,"station_id":"TEB","time":2,"i_long":106.857948,"station_name":"Tebet","transit":false},{"i_long":106.84912,"line":0,"station_name":"Manggarai","is_transit":true,"station_id":"MRI","time":4,"i_lat":-6.209883,"transit":true,"distance":2610},{"station_id":"MTR","transit":false,"is_transit":false,"i_long":106.858896,"time":2,"i_lat":-6.212485,"distance":1275,"station_name":"Matraman","line":1},{"distance":1377,"line":0,"i_long":106.86807400000001,"i_lat":-6.215091,"transit":true,"station_id":"JNG","is_transit":true,"station_name":"Jatinegara","time":8},{"station_name":"Pondok Jati","i_lat":-6.209188,"line":11,"i_long":106.861737,"distance":1236,"station_id":"POK","is_transit":false,"transit":false,"time":2},{"station_name":"Kramat","time":2,"distance":1829,"is_transit":false,"i_long":106.855437,"transit":false,"station_id":"KMT","i_lat":-6.193792,"line":11},{"is_transit":false,"station_name":"Gang Sentiong","i_long":106.850107,"line":11,"transit":false,"time":1,"distance":973,"i_lat":-6.185975,"station_id":"GST"},{"time":8,"station_name":"Pasar Senen","i_long":106.84368,"distance":1567,"is_transit":false,"i_lat":-6.174784,"line":11,"transit":false,"station_id":"PSE"},{"station_name":"Kemayoran","is_transit":false,"i_long":106.839204,"time":4,"distance":1436,"station_id":"KMO","i_lat":-6.161728,"transit":false,"line":11},{"i_lat":-6.14505,"i_long":106.836569,"distance":1901,"transit":false,"is_transit":false,"station_id":"RJW","station_name":"Rajawali","time":5,"line":11},{"i_lat":-6.132549,"station_id":"KPB","station_name":"Kampung Bandan","distance":1444,"transit":true,"line":0,"i_long":106.826365,"is_transit":true,"time":3},{"transit":false,"distance":4102,"is_transit":false,"time":9,"i_lat":-6.144674,"i_long":106.79867,"line":0,"station_id":"AK","station_name":"Angke"},{"time":4,"station_id":"DU","station_name":"Duri","transit":true,"i_lat":-6.155215,"i_long":106.800832,"line":1,"is_transit":true,"distance":1230},{"station_name":"Tanah Abang","i_lat":-6.185545,"is_transit":true,"line":1,"station_id":"THB","i_long":106.811091,"time":8,"distance":3632,"transit":true},{"line":6,"i_long":106.79689,"transit":false,"station_id":"PLM","station_name":"Palmerah","is_transit":false,"distance":3191,"time":6,"i_lat":-6.207404},{"distance":3737,"is_transit":false,"station_id":"KBY","i_long":106.780334,"transit":false,"line":6,"i_lat":-6.237242,"time":7,"station_name":"Kebayoran"},{"i_long":106.74273,"time":8,"is_transit":false,"transit":false,"i_lat":-6.276362,"distance":6218,"station_id":"PDJ","line":6,"station_name":"Pondokranji"},{"line":6,"transit":false,"distance":2179,"i_lat":-6.288927,"is_transit":false,"station_name":"Jurangmangu","time":3,"station_id":"JMU","i_long":106.728916}]]}