{"data":[[{"i_lat":-6.330363,"distance":0,"i_long":106.832616,"is_transit":false,"time":0,"station_name":"Lenteng Agung","station_id":"LNA","transit":false,"line":2},{"distance":2671,"time":3,"station_id":"TNT","i_lat":-6.3080680000000005,"is_transit":false,"transit":false,"station_name":"Tanjung Barat","i_long":106.838896,"line":2},{"i_long":106.843999,"distance":2820,"station_id":"PSM","time":4,"line":2,"station_name":"Pasar Minggu","transit":false,"i_lat":-6.2842400000000005,"is_transit":false},{"i_lat":-6.263214,"line":2,"i_long":106.851577,"distance":2380,"time":2,"station_name":"Pasar Minggu Baru","station_id":"PSMB","is_transit":false,"transit":false},{"transit":false,"is_transit":false,"i_long":106.85449,"distance":824,"line":2,"station_name":"Duren Kalibata","station_id":"DRN","time":2,"i_lat":-6.255332},{"i_long":106.856607,"time":3,"station_name":"Cawang","distance":1546,"i_lat":-6.242512,"transit":false,"line":2,"station_id":"CW","is_transit":false},{"i_lat":-6.226659,"transit":false,"is_transit":false,"station_name":"Tebet","station_id":"TEB","i_long":106.857948,"time":2,"distance":1230,"line":2},{"is_transit":true,"distance":2610,"i_long":106.84912,"line":2,"station_id":"MRI","transit":true,"i_lat":-6.209883,"time":4,"station_name":"Manggarai"},{"i_lat":-6.212485,"time":2,"i_long":106.858896,"is_transit":false,"station_name":"Matraman","distance":1275,"line":1,"station_id":"MTR","transit":false},{"line":1,"distance":1377,"station_name":"Jatinegara","is_transit":false,"i_lat":-6.215091,"i_long":106.86807400000001,"time":8,"station_id":"JNG","transit":false},{"time":3,"i_lat":-6.2135,"station_id":"KLD","is_transit":false,"i_long":106.899548,"distance":3395,"transit":false,"line":1,"station_name":"Klender"},{"is_transit":false,"line":1,"station_name":"Buaran","i_long":106.922662,"time":2,"distance":3100,"station_id":"BUA","transit":false,"i_lat":-6.215568},{"is_transit":false,"i_lat":-6.217455,"transit":false,"station_id":"KLDB","i_long":106.939679,"distance":1305,"line":1,"station_name":"Klenderbaru","time":1},{"i_lat":-6.219053,"is_transit":false,"distance":1385,"station_id":"CUK","i_long":106.951283,"line":1,"transit":false,"station_name":"Cakung","time":8}],[{"is_transit":false,"distance":0,"i_long":106.832616,"transit":false,"line":2,"station_name":"Lenteng Agung","time":0,"i_lat":-6.330363,"station_id":"LNA"},{"station_id":"TNT","is_transit":false,"station_name":"Tanjung Barat","line":2,"i_lat":-6.3080680000000005,"distance":2671,"time":3,"transit":false,"i_long":106.838896},{"is_transit":false,"station_id":"PSM","distance":2820,"transit":false,"i_long":106.843999,"time":4,"station_name":"Pasar Minggu","i_lat":-6.2842400000000005,"line":2},{"line":2,"station_name":"Pasar Minggu Baru","transit":false,"distance":2380,"i_lat":-6.263214,"time":2,"is_transit":false,"station_id":"PSMB","i_long":106.851577},{"station_name":"Duren Kalibata","line":2,"is_transit":false,"distance":824,"time":2,"station_id":"DRN","transit":false,"i_lat":-6.255332,"i_long":106.85449},{"station_name":"Cawang","station_id":"CW","i_long":106.856607,"distance":1546,"line":2,"transit":false,"is_transit":false,"time":3,"i_lat":-6.242512},{"i_lat":-6.226659,"distance":1230,"is_transit":false,"i_long":106.857948,"station_name":"Tebet","line":2,"station_id":"TEB","transit":false,"time":2},{"station_id":"MRI","line":2,"i_lat":-6.209883,"is_transit":true,"transit":true,"station_name":"Manggarai","time":4,"i_long":106.84912,"distance":2610},{"i_long":106.822649,"time":4,"station_id":"SUD","is_transit":false,"distance":3186,"i_lat":-6.202263,"line":1,"station_name":"Sudirman","transit":false},{"i_lat":-6.201433,"time":1,"line":1,"transit":false,"station_id":"SUDB","is_transit":false,"station_name":"Sudirman Baru","distance":280,"i_long":106.819881},{"station_name":"Karet","is_transit":false,"distance":471,"i_lat":-6.20132,"i_long":106.816351,"time":1,"line":1,"station_id":"KAT","transit":false},{"i_long":106.811091,"is_transit":false,"transit":false,"station_name":"Tanah Abang","distance":2029,"i_lat":-6.185545,"line":1,"station_id":"THB","time":5},{"station_id":"DU","line":1,"i_lat":-6.155215,"time":8,"distance":3632,"transit":false,"i_long":106.800832,"station_name":"Duri","is_transit":false},{"i_long":106.79867,"station_name":"Angke","i_lat":-6.144674,"distance":1230,"is_transit":false,"line":1,"station_id":"AK","time":4,"transit":false},{"station_id":"KPB","distance":4102,"time":9,"transit":true,"i_lat":-6.132549,"i_long":106.826365,"line":4,"is_transit":true,"station_name":"Kampung Bandan"},{"line":11,"station_name":"Rajawali","is_transit":false,"i_lat":-6.14505,"distance":1444,"i_long":106.836569,"time":3,"station_id":"RJW","transit":false},{"station_name":"Kemayoran","is_transit":false,"transit":false,"i_lat":-6.161728,"line":11,"distance":1901,"time":5,"i_long":106.839204,"station_id":"KMO"},{"time":4,"distance":1436,"transit":false,"i_long":106.84368,"station_id":"PSE","i_lat":-6.174784,"station_name":"Pasar Senen","line":11,"is_transit":false},{"station_name":"Gang Sentiong","transit":false,"i_long":106.850107,"i_lat":-6.185975,"is_transit":false,"station_id":"GST","line":11,"distance":1567,"time":8},{"station_id":"KMT","station_name":"Kramat","time":1,"i_long":106.855437,"is_transit":false,"line":11,"i_lat":-6.193792,"distance":973,"transit":false},{"line":11,"is_transit":false,"station_name":"Pondok Jati","i_lat":-6.209188,"time":2,"transit":false,"distance":1829,"station_id":"POK","i_long":106.861737},{"station_id":"JNG","station_name":"Jatinegara","time":9,"is_transit":true,"i_long":106.86807400000001,"line":1,"transit":true,"distance":1236,"i_lat":-6.215091},{"is_transit":false,"distance":3395,"station_id":"KLD","station_name":"Klender","time":3,"transit":false,"i_lat":-6.2135,"i_long":106.899548,"line":1},{"is_transit":false,"time":2,"line":1,"station_name":"Buaran","i_long":106.922662,"i_lat":-6.215568,"distance":3100,"transit":false,"station_id":"BUA"},{"line":1,"i_long":106.939679,"transit":false,"is_transit":false,"i_lat":-6.217455,"distance":1305,"station_name":"Klenderbaru","station_id":"KLDB","time":1},{"time":8,"distance":1385,"station_id":"CUK","i_lat":-6.219053,"line":1,"station_name":"Cakung","transit":false,"i_long":106.951283,"is_transit":false}],[{"is_transit":false,"transit":false,"station_name":"Lenteng Agung","station_id":"LNA","i_long":106.832616,"line":2,"distance":0,"time":0,"i_lat":-6.330363},{"station_name":"Tanjung Barat","line":2,"is_transit":false,"distance":2671,"time":3,"i_lat":-6.3080680000000005,"station_id":"TNT","transit":false,"i_long":106.838896},{"line":2,"is_transit":false,"station_name":"Pasar Minggu","transit":false,"distance":2820,"time":4,"i_long":106.843999,"i_lat":-6.2842400000000005,"station_id":"PSM"},{"time":2,"i_lat":-6.263214,"line":2,"transit":false,"station_name":"Pasar Minggu Baru","station_id":"PSMB","i_long":106.851577,"is_transit":false,"distance":2380},{"time":2,"is_transit":false,"station_id":"DRN","station_name":"Duren Kalibata","i_long":106.85449,"transit":false,"line":2,"distance":824,"i_lat":-6.255332},{"i_lat":-6.242512,"distance":1546,"transit":false,"line":2,"is_transit":false,"station_name":"Cawang","i_long":106.856607,"time":3,"station_id":"CW"},{"distance":1230,"transit":false,"i_long":106.857948,"time":2,"i_lat":-6.226659,"is_transit":false,"station_id":"TEB","station_name":"Tebet","line":2},{"i_long":106.84912,"distance":2610,"line":2,"is_transit":false,"station_id":"MRI","transit":false,"i_lat":-6.209883,"station_name":"Manggarai","time":4},{"is_transit":false,"distance":1590,"station_id":"CKI","transit":false,"time":4,"line":2,"i_lat":-6.198556,"i_long":106.840169,"station_name":"Cikini"},{"time":3,"station_name":"Gondangdia","distance":1750,"transit":false,"is_transit":false,"i_lat":-6.186295,"line":2,"station_id":"GDD","i_long":106.832183},{"station_name":"Juanda","i_lat":-6.166716,"distance":2015,"i_long":106.828284,"line":2,"is_transit":false,"station_id":"JUA","time":4,"transit":false},{"station_id":"SW","i_long":106.827103,"station_name":"Sawah Besar","line":2,"distance":1149,"is_transit":false,"time":2,"transit":false,"i_lat":-6.160725},{"station_name":"Manggabesar","line":2,"time":2,"station_id":"MGB","is_transit":false,"i_lat":-6.149769,"distance":906,"transit":false,"i_long":106.82482},{"i_lat":-6.141205,"distance":1080,"is_transit":false,"time":2,"line":2,"transit":false,"i_long":106.820901,"station_id":"JAY","station_name":"Jayakarta"},{"transit":true,"distance":1264,"station_name":"Jakarta Kota","station_id":"JAKK","line":2,"time":4,"is_transit":true,"i_lat":-6.137569,"i_long":106.812439},{"transit":true,"i_lat":-6.132549,"distance":1364,"is_transit":true,"i_long":106.826365,"line":4,"station_name":"Kampung Bandan","station_id":"KPB","time":3},{"is_transit":false,"time":3,"i_long":106.836569,"line":11,"station_name":"Rajawali","distance":1444,"transit":false,"station_id":"RJW","i_lat":-6.14505},{"line":11,"transit":false,"station_id":"KMO","time":5,"i_lat":-6.161728,"station_name":"Kemayoran","i_long":106.839204,"distance":1901,"is_transit":false},{"line":11,"i_long":106.84368,"is_transit":false,"time":4,"station_id":"PSE","distance":1436,"i_lat":-6.174784,"transit":false,"station_name":"Pasar Senen"},{"distance":1567,"time":8,"station_id":"GST","station_name":"Gang Sentiong","i_long":106.850107,"i_lat":-6.185975,"line":11,"is_transit":false,"transit":false},{"is_transit":false,"time":1,"distance":973,"i_long":106.855437,"station_name":"Kramat","line":11,"i_lat":-6.193792,"transit":false,"station_id":"KMT"},{"transit":false,"station_id":"POK","i_lat":-6.209188,"station_name":"Pondok Jati","distance":1829,"time":2,"line":11,"i_long":106.861737,"is_transit":false},{"time":9,"transit":true,"line":1,"i_long":106.86807400000001,"i_lat":-6.215091,"station_name":"Jatinegara","is_transit":true,"station_id":"JNG","distance":1236},{"station_id":"KLD","station_name":"Klender","time":3,"transit":false,"i_long":106.899548,"is_transit":false,"i_lat":-6.2135,"distance":3395,"line":1},{"line":1,"time":2,"transit":false,"is_transit":false,"distance":3100,"station_id":"BUA","i_lat":-6.215568,"station_name":"Buaran","i_long":106.922662},{"station_id":"KLDB","i_lat":-6.217455,"i_long":106.939679,"distance":1305,"line":1,"transit":false,"is_transit":false,"time":1,"station_name":"Klenderbaru"},{"station_id":"CUK","station_name":"Cakung","is_transit":false,"time":8,"line":1,"i_lat":-6.219053,"transit":false,"distance":1385,"i_long":106.951283}]]}