{"data":[[{"i_lat":-6.330363,"station_name":"Lenteng Agung","transit":false,"is_transit":false,"time":0,"line":2,"station_id":"LNA","i_long":106.832616,"distance":0},{"time":3,"i_long":106.838896,"line":2,"is_transit":false,"i_lat":-6.3080680000000005,"transit":false,"station_name":"Tanjung Barat","distance":2671,"station_id":"TNT"},{"is_transit":false,"line":2,"distance":2820,"transit":false,"time":4,"station_id":"PSM","i_lat":-6.2842400000000005,"i_long":106.843999,"station_name":"Pasar Minggu"},{"transit":false,"line":2,"station_id":"PSMB","distance":2380,"i_long":106.851577,"station_name":"Pasar Minggu Baru","time":2,"is_transit":false,"i_lat":-6.263214},{"time":2,"i_long":106.85449,"station_id":"DRN","is_transit":false,"station_name":"Duren Kalibata","transit":false,"i_lat":-6.255332,"line":2,"distance":824},{"i_long":106.856607,"station_name":"Cawang","is_transit":false,"transit":false,"time":3,"line":2,"station_id":"CW","i_lat":-6.242512,"distance":1546},{"transit":false,"distance":1230,"i_long":106.857948,"line":2,"station_name":"Tebet","is_transit":false,"i_lat":-6.226659,"station_id":"TEB","time":2},{"is_transit":true,"transit":true,"i_long":106.84912,"station_id":"MRI","line":2,"distance":2610,"i_lat":-6.209883,"time":4,"station_name":"Manggarai"},{"i_lat":-6.202263,"time":4,"i_long":106.822649,"line":1,"transit":false,"is_transit":false,"station_name":"Sudirman","station_id":"SUD","distance":3186},{"station_name":"Sudirman Baru","time":1,"transit":false,"i_lat":-6.201433,"i_long":106.819881,"station_id":"SUDB","is_transit":false,"line":1,"distance":280},{"station_id":"KAT","is_transit":false,"transit":false,"i_long":106.816351,"line":1,"time":1,"i_lat":-6.20132,"distance":471,"station_name":"Karet"},{"station_name":"Tanah Abang","time":5,"is_transit":true,"transit":true,"station_id":"THB","i_lat":-6.185545,"i_long":106.811091,"distance":2029,"line":1},{"distance":3191,"time":6,"station_name":"Palmerah","transit":false,"station_id":"PLM","i_long":106.79689,"line":6,"i_lat":-6.207404,"is_transit":false},{"distance":3737,"transit":false,"is_transit":false,"time":7,"i_long":106.780334,"line":6,"station_name":"Kebayoran","i_lat":-6.237242,"station_id":"KBY"},{"time":8,"station_id":"PDJ","i_long":106.74273,"is_transit":false,"line":6,"i_lat":-6.276362,"transit":false,"station_name":"Pondokranji","distance":6218},{"station_name":"Jurangmangu","line":6,"i_lat":-6.288927,"time":3,"distance":2179,"transit":false,"i_long":106.728916,"station_id":"JMU","is_transit":false},{"line":6,"transit":false,"i_lat":-6.296963,"i_long":106.712277,"time":4,"distance":1994,"station_name":"Sudimara","is_transit":false,"station_id":"SDM"},{"distance":4566,"time":6,"transit":false,"line":6,"i_lat":-6.314823,"i_long":106.675475,"station_id":"RU","station_name":"Rawa Buntu","is_transit":false},{"station_id":"SRP","station_name":"Serpong","transit":false,"line":6,"is_transit":false,"i_long":106.66566,"i_lat":-6.319871,"time":4,"distance":2413},{"is_transit":false,"i_long":106.640411,"distance":1784,"transit":false,"station_name":"Cisauk","station_id":"CSK","line":3,"i_lat":-6.32484,"time":4},{"is_transit":false,"transit":false,"i_lat":-6.329547,"i_long":106.617853,"time":4,"station_id":"CC","station_name":"Cicayur","distance":2519,"line":3},{"line":6,"is_transit":false,"i_lat":-6.3441410000000005,"i_long":106.568863,"station_id":"PRP","distance":5968,"station_name":"Parung Panjang","time":8,"transit":false},{"station_id":"CJT","is_transit":false,"transit":false,"i_long":106.508482,"station_name":"Cilejit","i_lat":-6.354349,"line":3,"distance":7025,"time":9},{"i_lat":-6.338021,"line":0,"i_long":106.491338,"distance":2675,"is_transit":false,"station_name":"Daru","time":6,"station_id":"DAR","transit":false},{"is_transit":false,"transit":false,"time":5,"station_id":"TEJ","line":6,"station_name":"Tenjo","i_lat":-6.327251,"distance":3902,"i_long":106.460812},{"station_id":"TGS","station_name":"Tigaraksa","time":5,"distance":2974,"i_long":106.425991,"transit":false,"i_lat":-6.328533,"line":6,"is_transit":false},{"i_lat":-6.33561,"i_long":106.411216,"distance":2651,"transit":false,"line":3,"is_transit":false,"time":3,"station_id":"CKY","station_name":"Cikoya"},{"is_transit":false,"distance":1853,"i_lat":-6.332307,"line":6,"time":4,"i_long":106.394373,"station_id":"MJ","transit":false,"station_name":"Maja"},{"i_lat":-6.334892,"i_long":106.332092,"line":3,"time":10,"station_name":"Citeras","station_id":"CTR","distance":7293,"is_transit":false,"transit":false}],[{"is_transit":false,"station_id":"LNA","time":0,"i_lat":-6.330363,"line":2,"station_name":"Lenteng Agung","distance":0,"transit":false,"i_long":106.832616},{"distance":2671,"i_long":106.838896,"i_lat":-6.3080680000000005,"line":2,"transit":false,"is_transit":false,"station_id":"TNT","station_name":"Tanjung Barat","time":3},{"time":4,"transit":false,"distance":2820,"station_id":"PSM","i_long":106.843999,"is_transit":false,"line":2,"i_lat":-6.2842400000000005,"station_name":"Pasar Minggu"},{"time":2,"line":2,"is_transit":false,"i_long":106.851577,"station_name":"Pasar Minggu Baru","i_lat":-6.263214,"transit":false,"station_id":"PSMB","distance":2380},{"is_transit":false,"i_long":106.85449,"transit":false,"distance":824,"i_lat":-6.255332,"station_name":"Duren Kalibata","line":2,"station_id":"DRN","time":2},{"is_transit":false,"station_name":"Cawang","distance":1546,"i_lat":-6.242512,"station_id":"CW","i_long":106.856607,"time":3,"transit":false,"line":2},{"i_long":106.857948,"station_id":"TEB","distance":1230,"i_lat":-6.226659,"is_transit":false,"line":2,"transit":false,"station_name":"Tebet","time":2},{"distance":2610,"i_long":106.84912,"line":2,"time":4,"transit":false,"station_id":"MRI","station_name":"Manggarai","is_transit":false,"i_lat":-6.209883},{"line":2,"station_id":"CKI","station_name":"Cikini","i_long":106.840169,"time":4,"distance":1590,"is_transit":false,"transit":false,"i_lat":-6.198556},{"transit":false,"i_long":106.832183,"is_transit":false,"line":2,"distance":1750,"station_name":"Gondangdia","station_id":"GDD","time":3,"i_lat":-6.186295},{"station_name":"Juanda","i_long":106.828284,"is_transit":false,"i_lat":-6.166716,"time":4,"distance":2015,"transit":false,"line":2,"station_id":"JUA"},{"i_lat":-6.160725,"line":2,"distance":1149,"i_long":106.827103,"time":2,"is_transit":false,"station_name":"Sawah Besar","transit":false,"station_id":"SW"},{"distance":906,"transit":false,"station_id":"MGB","i_lat":-6.149769,"i_long":106.82482,"station_name":"Manggabesar","line":2,"is_transit":false,"time":2},{"transit":false,"i_lat":-6.141205,"station_name":"Jayakarta","station_id":"JAY","line":2,"time":2,"is_transit":false,"i_long":106.820901,"distance":1080},{"is_transit":true,"transit":true,"line":2,"distance":1264,"i_lat":-6.137569,"station_name":"Jakarta Kota","station_id":"JAKK","i_long":106.812439,"time":4},{"line":4,"distance":1364,"station_id":"KPB","i_lat":-6.132549,"i_long":106.826365,"station_name":"Kampung Bandan","time":3,"is_transit":true,"transit":true},{"line":1,"i_lat":-6.144674,"transit":false,"time":9,"station_name":"Angke","is_transit":false,"i_long":106.79867,"station_id":"AK","distance":4102},{"line":1,"i_long":106.800832,"is_transit":false,"time":4,"transit":false,"distance":1230,"station_id":"DU","i_lat":-6.155215,"station_name":"Duri"},{"distance":3632,"line":1,"station_name":"Tanah Abang","transit":true,"is_transit":true,"time":8,"station_id":"THB","i_lat":-6.185545,"i_long":106.811091},{"distance":3191,"is_transit":false,"i_long":106.79689,"station_name":"Palmerah","i_lat":-6.207404,"transit":false,"line":6,"station_id":"PLM","time":6},{"is_transit":false,"transit":false,"time":7,"line":6,"i_long":106.780334,"distance":3737,"station_name":"Kebayoran","station_id":"KBY","i_lat":-6.237242},{"is_transit":false,"transit":false,"i_long":106.74273,"distance":6218,"station_name":"Pondokranji","time":8,"line":6,"station_id":"PDJ","i_lat":-6.276362},{"i_long":106.728916,"time":3,"line":6,"station_id":"JMU","distance":2179,"i_lat":-6.288927,"station_name":"Jurangmangu","transit":false,"is_transit":false},{"time":4,"i_lat":-6.296963,"i_long":106.712277,"transit":false,"station_name":"Sudimara","is_transit":false,"station_id":"SDM","line":6,"distance":1994},{"line":6,"transit":false,"distance":4566,"is_transit":false,"station_id":"RU","station_name":"Rawa Buntu","i_lat":-6.314823,"i_long":106.675475,"time":6},{"i_long":106.66566,"line":6,"is_transit":false,"station_id":"SRP","distance":2413,"time":4,"transit":false,"i_lat":-6.319871,"station_name":"Serpong"},{"station_name":"Cisauk","distance":1784,"transit":false,"station_id":"CSK","is_transit":false,"i_lat":-6.32484,"i_long":106.640411,"line":3,"time":4},{"line":3,"station_name":"Cicayur","i_long":106.617853,"station_id":"CC","time":4,"is_transit":false,"transit":false,"distance":2519,"i_lat":-6.329547},{"is_transit":false,"station_name":"Parung Panjang","time":8,"station_id":"PRP","distance":5968,"transit":false,"i_long":106.568863,"line":6,"i_lat":-6.3441410000000005},{"is_transit":false,"distance":7025,"i_lat":-6.354349,"station_name":"Cilejit","line":3,"i_long":106.508482,"time":9,"transit":false,"station_id":"CJT"},{"is_transit":false,"station_id":"DAR","i_lat":-6.338021,"distance":2675,"time":6,"i_long":106.491338,"line":0,"station_name":"Daru","transit":false},{"line":6,"is_transit":false,"transit":false,"i_long":106.460812,"i_lat":-6.327251,"station_id":"TEJ","station_name":"Tenjo","time":5,"distance":3902},{"station_id":"TGS","is_transit":false,"i_long":106.425991,"line":6,"transit":false,"station_name":"Tigaraksa","distance":2974,"time":5,"i_lat":-6.328533},{"transit":false,"i_long":106.411216,"line":3,"is_transit":false,"station_name":"Cikoya","station_id":"CKY","i_lat":-6.33561,"time":3,"distance":2651},{"time":4,"is_transit":false,"station_name":"Maja","distance":1853,"i_lat":-6.332307,"i_long":106.394373,"line":6,"station_id":"MJ","transit":false},{"station_name":"Citeras","transit":false,"time":10,"i_lat":-6.334892,"is_transit":false,"i_long":106.332092,"station_id":"CTR","line":3,"distance":7293}],[{"i_lat":-6.330363,"is_transit":false,"time":0,"transit":false,"distance":0,"station_id":"LNA","line":2,"station_name":"Lenteng Agung","i_long":106.832616},{"distance":2671,"time":3,"i_long":106.838896,"is_transit":false,"station_name":"Tanjung Barat","transit":false,"station_id":"TNT","line":2,"i_lat":-6.3080680000000005},{"station_name":"Pasar Minggu","line":2,"i_long":106.843999,"is_transit":false,"station_id":"PSM","transit":false,"i_lat":-6.2842400000000005,"time":4,"distance":2820},{"i_lat":-6.263214,"time":2,"line":2,"distance":2380,"station_id":"PSMB","station_name":"Pasar Minggu Baru","is_transit":false,"i_long":106.851577,"transit":false},{"i_lat":-6.255332,"time":2,"station_name":"Duren Kalibata","i_long":106.85449,"distance":824,"line":2,"transit":false,"station_id":"DRN","is_transit":false},{"line":2,"station_id":"CW","station_name":"Cawang","transit":false,"time":3,"i_long":106.856607,"is_transit":false,"distance":1546,"i_lat":-6.242512},{"is_transit":false,"time":2,"station_id":"TEB","i_long":106.857948,"i_lat":-6.226659,"distance":1230,"line":2,"station_name":"Tebet","transit":false},{"i_lat":-6.209883,"transit":true,"station_id":"MRI","is_transit":true,"time":4,"station_name":"Manggarai","distance":2610,"i_long":106.84912,"line":2},{"distance":1275,"station_id":"MTR","transit":false,"i_long":106.858896,"i_lat":-6.212485,"time":2,"is_transit":false,"station_name":"Matraman","line":1},{"time":8,"transit":true,"station_id":"JNG","station_name":"Jatinegara","line":1,"is_transit":true,"i_lat":-6.215091,"i_long":106.86807400000001,"distance":1377},{"distance":1236,"station_name":"Pondok Jati","line":11,"transit":false,"i_lat":-6.209188,"is_transit":false,"station_id":"POK","time":2,"i_long":106.861737},{"line":11,"i_lat":-6.193792,"station_name":"Kramat","distance":1829,"is_transit":false,"station_id":"KMT","time":2,"transit":false,"i_long":106.855437},{"is_transit":false,"time":1,"transit":false,"station_name":"Gang Sentiong","line":11,"distance":973,"i_lat":-6.185975,"i_long":106.850107,"station_id":"GST"},{"is_transit":false,"station_id":"PSE","i_long":106.84368,"time":8,"line":11,"transit":false,"station_name":"Pasar Senen","distance":1567,"i_lat":-6.174784},{"line":11,"station_id":"KMO","i_long":106.839204,"transit":false,"is_transit":false,"distance":1436,"station_name":"Kemayoran","time":4,"i_lat":-6.161728},{"i_long":106.836569,"station_id":"RJW","transit":false,"line":11,"is_transit":false,"station_name":"Rajawali","i_lat":-6.14505,"time":5,"distance":1901},{"time":3,"distance":1444,"line":4,"i_long":106.826365,"is_transit":true,"station_id":"KPB","i_lat":-6.132549,"station_name":"Kampung Bandan","transit":true},{"time":9,"line":1,"is_transit":false,"station_name":"Angke","i_long":106.79867,"station_id":"AK","i_lat":-6.144674,"transit":false,"distance":4102},{"line":1,"is_transit":false,"transit":false,"distance":1230,"station_name":"Duri","i_lat":-6.155215,"i_long":106.800832,"time":4,"station_id":"DU"},{"station_name":"Tanah Abang","i_lat":-6.185545,"distance":3632,"line":1,"transit":true,"is_transit":true,"time":8,"station_id":"THB","i_long":106.811091},{"transit":false,"i_long":106.79689,"time":6,"is_transit":false,"station_name":"Palmerah","distance":3191,"station_id":"PLM","i_lat":-6.207404,"line":6},{"is_transit":false,"line":6,"i_lat":-6.237242,"station_name":"Kebayoran","i_long":106.780334,"transit":false,"time":7,"distance":3737,"station_id":"KBY"},{"i_long":106.74273,"station_name":"Pondokranji","time":8,"station_id":"PDJ","line":6,"is_transit":false,"i_lat":-6.276362,"transit":false,"distance":6218},{"i_lat":-6.288927,"i_long":106.728916,"is_transit":false,"time":3,"station_id":"JMU","line":6,"transit":false,"station_name":"Jurangmangu","distance":2179},{"distance":1994,"transit":false,"station_id":"SDM","line":6,"i_lat":-6.296963,"is_transit":false,"i_long":106.712277,"time":4,"station_name":"Sudimara"},{"time":6,"transit":false,"station_id":"RU","distance":4566,"i_lat":-6.314823,"station_name":"Rawa Buntu","is_transit":false,"i_long":106.675475,"line":6},{"i_long":106.66566,"distance":2413,"station_id":"SRP","station_name":"Serpong","i_lat":-6.319871,"time":4,"line":6,"transit":false,"is_transit":false},{"line":3,"station_name":"Cisauk","time":4,"i_long":106.640411,"station_id":"CSK","transit":false,"is_transit":false,"distance":1784,"i_lat":-6.32484},{"time":4,"distance":2519,"is_transit":false,"station_name":"Cicayur","transit":false,"station_id":"CC","i_lat":-6.329547,"i_long":106.617853,"line":3},{"line":6,"transit":false,"i_long":106.568863,"station_name":"Parung Panjang","distance":5968,"time":8,"i_lat":-6.3441410000000005,"is_transit":false,"station_id":"PRP"},{"station_id":"CJT","i_long":106.508482,"is_transit":false,"distance":7025,"station_name":"Cilejit","line":3,"time":9,"transit":false,"i_lat":-6.354349},{"transit":false,"i_lat":-6.338021,"time":6,"line":0,"i_long":106.491338,"distance":2675,"station_id":"DAR","station_name":"Daru","is_transit":false},{"is_transit":false,"station_id":"TEJ","i_lat":-6.327251,"station_name":"Tenjo","transit":false,"distance":3902,"time":5,"i_long":106.460812,"line":6},{"station_id":"TGS","time":5,"distance":2974,"transit":false,"i_lat":-6.328533,"station_name":"Tigaraksa","is_transit":false,"line":6,"i_long":106.425991},{"transit":false,"station_id":"CKY","i_lat":-6.33561,"i_long":106.411216,"distance":2651,"time":3,"station_name":"Cikoya","is_transit":false,"line":3},{"i_long":106.394373,"station_name":"Maja","time":4,"distance":1853,"is_transit":false,"station_id":"MJ","transit":false,"line":6,"i_lat":-6.332307},{"i_long":106.332092,"station_id":"CTR","is_transit":false,"station_name":"Citeras","distance":7293,"line":3,"time":10,"transit":false,"i_lat":-6.334892}]]}