{"data":[[{"line":2,"station_id":"LNA","transit":false,"station_name":"Lenteng Agung","time":0,"i_lat":-6.330363,"i_long":106.832616,"is_transit":false,"distance":0},{"line":2,"station_name":"Tanjung Barat","is_transit":false,"transit":false,"distance":2671,"station_id":"TNT","time":3,"i_lat":-6.3080680000000005,"i_long":106.838896},{"station_name":"Pasar Minggu","i_long":106.843999,"time":4,"distance":2820,"line":2,"station_id":"PSM","i_lat":-6.2842400000000005,"is_transit":false,"transit":false},{"is_transit":false,"i_lat":-6.263214,"i_long":106.851577,"time":2,"station_id":"PSMB","transit":false,"line":2,"distance":2380,"station_name":"Pasar Minggu Baru"},{"time":2,"transit":false,"i_lat":-6.255332,"is_transit":false,"distance":824,"i_long":106.85449,"station_id":"DRN","station_name":"Duren Kalibata","line":2},{"distance":1546,"is_transit":false,"transit":false,"line":2,"time":3,"i_lat":-6.242512,"station_id":"CW","station_name":"Cawang","i_long":106.856607},{"time":2,"station_name":"Tebet","is_transit":false,"transit":false,"i_lat":-6.226659,"distance":1230,"line":2,"i_long":106.857948,"station_id":"TEB"},{"time":4,"station_name":"Manggarai","is_transit":true,"transit":true,"line":2,"i_lat":-6.209883,"distance":2610,"station_id":"MRI","i_long":106.84912},{"station_id":"SUD","distance":3186,"transit":false,"station_name":"Sudirman","i_lat":-6.202263,"is_transit":false,"time":4,"i_long":106.822649,"line":1},{"time":1,"transit":false,"is_transit":false,"i_long":106.819881,"station_name":"Sudirman Baru","distance":280,"i_lat":-6.201433,"line":1,"station_id":"SUDB"},{"i_lat":-6.20132,"transit":false,"line":1,"i_long":106.816351,"station_id":"KAT","time":1,"station_name":"Karet","is_transit":false,"distance":471},{"time":5,"station_name":"Tanah Abang","transit":false,"i_lat":-6.185545,"distance":2029,"line":1,"station_id":"THB","is_transit":false,"i_long":106.811091},{"station_id":"DU","distance":3632,"station_name":"Duri","time":8,"is_transit":true,"transit":true,"i_long":106.800832,"line":1,"i_lat":-6.155215},{"time":3,"i_lat":-6.162021,"i_long":106.788277,"station_id":"GGL","is_transit":false,"line":5,"transit":false,"station_name":"Grogol","distance":1700},{"is_transit":false,"station_name":"Pesing","line":5,"transit":false,"i_lat":-6.161433,"time":2,"station_id":"PSG","i_long":106.771379,"distance":2036},{"station_id":"TKO","distance":1614,"station_name":"Taman Kota","is_transit":false,"time":2,"transit":false,"i_long":106.756522,"line":5,"i_lat":-6.1587309999999995}],[{"line":2,"i_long":106.832616,"i_lat":-6.330363,"time":0,"transit":false,"station_id":"LNA","is_transit":false,"distance":0,"station_name":"Lenteng Agung"},{"transit":false,"station_name":"Tanjung Barat","i_lat":-6.3080680000000005,"i_long":106.838896,"line":2,"time":3,"is_transit":false,"distance":2671,"station_id":"TNT"},{"station_id":"PSM","is_transit":false,"distance":2820,"time":4,"transit":false,"i_lat":-6.2842400000000005,"i_long":106.843999,"station_name":"Pasar Minggu","line":2},{"station_name":"Pasar Minggu Baru","i_long":106.851577,"time":2,"is_transit":false,"transit":false,"distance":2380,"station_id":"PSMB","i_lat":-6.263214,"line":2},{"station_name":"Duren Kalibata","i_long":106.85449,"is_transit":false,"time":2,"i_lat":-6.255332,"line":2,"distance":824,"station_id":"DRN","transit":false},{"station_name":"Cawang","i_long":106.856607,"station_id":"CW","transit":false,"i_lat":-6.242512,"distance":1546,"is_transit":false,"time":3,"line":2},{"station_name":"Tebet","station_id":"TEB","transit":false,"line":2,"distance":1230,"time":2,"i_lat":-6.226659,"is_transit":false,"i_long":106.857948},{"time":4,"station_name":"Manggarai","i_lat":-6.209883,"station_id":"MRI","is_transit":false,"line":2,"transit":false,"distance":2610,"i_long":106.84912},{"distance":1590,"line":2,"station_id":"CKI","station_name":"Cikini","time":4,"i_long":106.840169,"i_lat":-6.198556,"is_transit":false,"transit":false},{"station_id":"GDD","is_transit":false,"transit":false,"time":3,"distance":1750,"i_lat":-6.186295,"i_long":106.832183,"station_name":"Gondangdia","line":2},{"i_lat":-6.166716,"i_long":106.828284,"station_id":"JUA","time":4,"transit":false,"station_name":"Juanda","distance":2015,"is_transit":false,"line":2},{"i_long":106.827103,"line":2,"transit":false,"is_transit":false,"i_lat":-6.160725,"station_name":"Sawah Besar","distance":1149,"station_id":"SW","time":2},{"i_long":106.82482,"station_name":"Manggabesar","is_transit":false,"distance":906,"transit":false,"station_id":"MGB","time":2,"i_lat":-6.149769,"line":2},{"station_name":"Jayakarta","distance":1080,"line":2,"station_id":"JAY","is_transit":false,"i_long":106.820901,"time":2,"transit":false,"i_lat":-6.141205},{"transit":true,"time":4,"i_lat":-6.137569,"station_name":"Jakarta Kota","distance":1264,"i_long":106.812439,"station_id":"JAKK","line":2,"is_transit":true},{"line":4,"station_name":"Kampung Bandan","time":3,"distance":1364,"transit":true,"i_lat":-6.132549,"station_id":"KPB","is_transit":true,"i_long":106.826365},{"transit":false,"station_name":"Angke","station_id":"AK","is_transit":false,"distance":4102,"i_lat":-6.144674,"line":1,"i_long":106.79867,"time":9},{"station_name":"Duri","i_long":106.800832,"transit":true,"line":1,"distance":1230,"station_id":"DU","is_transit":true,"i_lat":-6.155215,"time":4},{"distance":1700,"i_lat":-6.162021,"line":5,"is_transit":false,"i_long":106.788277,"transit":false,"station_id":"GGL","station_name":"Grogol","time":3},{"i_long":106.771379,"station_name":"Pesing","time":2,"station_id":"PSG","transit":false,"i_lat":-6.161433,"is_transit":false,"line":5,"distance":2036},{"is_transit":false,"i_lat":-6.1587309999999995,"station_id":"TKO","time":2,"station_name":"Taman Kota","i_long":106.756522,"line":5,"distance":1614,"transit":false}],[{"time":0,"station_id":"LNA","station_name":"Lenteng Agung","i_long":106.832616,"line":2,"distance":0,"is_transit":false,"i_lat":-6.330363,"transit":false},{"is_transit":false,"line":2,"transit":false,"distance":2671,"station_id":"TNT","station_name":"Tanjung Barat","i_lat":-6.3080680000000005,"i_long":106.838896,"time":3},{"transit":false,"station_id":"PSM","i_lat":-6.2842400000000005,"i_long":106.843999,"station_name":"Pasar Minggu","time":4,"is_transit":false,"line":2,"distance":2820},{"is_transit":false,"station_id":"PSMB","distance":2380,"line":2,"transit":false,"station_name":"Pasar Minggu Baru","i_lat":-6.263214,"i_long":106.851577,"time":2},{"transit":false,"is_transit":false,"station_id":"DRN","i_long":106.85449,"station_name":"Duren Kalibata","time":2,"line":2,"distance":824,"i_lat":-6.255332},{"i_lat":-6.242512,"i_long":106.856607,"is_transit":false,"transit":false,"station_name":"Cawang","time":3,"station_id":"CW","distance":1546,"line":2},{"distance":1230,"line":2,"station_name":"Tebet","is_transit":false,"i_long":106.857948,"transit":false,"station_id":"TEB","i_lat":-6.226659,"time":2},{"i_lat":-6.209883,"station_name":"Manggarai","line":2,"time":4,"is_transit":true,"distance":2610,"station_id":"MRI","transit":true,"i_long":106.84912},{"transit":false,"station_name":"Matraman","i_long":106.858896,"time":2,"distance":1275,"station_id":"MTR","i_lat":-6.212485,"line":1,"is_transit":false},{"is_transit":true,"i_long":106.86807400000001,"transit":true,"i_lat":-6.215091,"time":8,"station_id":"JNG","distance":1377,"station_name":"Jatinegara","line":1},{"i_lat":-6.209188,"i_long":106.861737,"line":11,"station_name":"Pondok Jati","is_transit":false,"time":2,"distance":1236,"station_id":"POK","transit":false},{"time":2,"line":11,"transit":false,"station_id":"KMT","station_name":"Kramat","i_lat":-6.193792,"is_transit":false,"distance":1829,"i_long":106.855437},{"line":11,"is_transit":false,"distance":973,"transit":false,"time":1,"station_name":"Gang Sentiong","station_id":"GST","i_long":106.850107,"i_lat":-6.185975},{"station_name":"Pasar Senen","is_transit":false,"distance":1567,"time":8,"transit":false,"station_id":"PSE","i_lat":-6.174784,"i_long":106.84368,"line":11},{"time":4,"station_name":"Kemayoran","i_lat":-6.161728,"is_transit":false,"line":11,"station_id":"KMO","distance":1436,"transit":false,"i_long":106.839204},{"station_name":"Rajawali","transit":false,"is_transit":false,"station_id":"RJW","time":5,"distance":1901,"i_lat":-6.14505,"i_long":106.836569,"line":11},{"i_long":106.826365,"station_id":"KPB","station_name":"Kampung Bandan","line":4,"distance":1444,"transit":true,"time":3,"is_transit":true,"i_lat":-6.132549},{"distance":4102,"line":1,"i_lat":-6.144674,"station_id":"AK","transit":false,"i_long":106.79867,"station_name":"Angke","is_transit":false,"time":9},{"time":4,"distance":1230,"i_long":106.800832,"transit":true,"station_id":"DU","station_name":"Duri","is_transit":true,"i_lat":-6.155215,"line":1},{"transit":false,"i_lat":-6.162021,"i_long":106.788277,"time":3,"station_id":"GGL","distance":1700,"station_name":"Grogol","line":5,"is_transit":false},{"i_long":106.771379,"is_transit":false,"line":5,"transit":false,"time":2,"station_id":"PSG","distance":2036,"station_name":"Pesing","i_lat":-6.161433},{"line":5,"time":2,"station_name":"Taman Kota","station_id":"TKO","is_transit":false,"distance":1614,"transit":false,"i_lat":-6.1587309999999995,"i_long":106.756522}]]}