{"data":[[{"line":2,"transit":false,"station_id":"LNA","i_lat":-6.330363,"station_name":"Lenteng Agung","i_long":106.832616,"is_transit":false,"time":0,"distance":0},{"distance":1029,"station_name":"Univ. Pancasila","time":2,"line":2,"station_id":"UP","transit":false,"i_long":106.834175,"i_lat":-6.339291,"is_transit":false},{"i_long":106.831474,"station_id":"UI","distance":2264,"station_name":"Univ. Indonesia","transit":false,"line":2,"time":3,"is_transit":false,"i_lat":-6.360749},{"is_transit":false,"station_name":"Pondok Cina","station_id":"POC","transit":false,"i_lat":-6.369073,"i_long":106.831114,"line":2,"time":2,"distance":1109},{"station_id":"DPB","i_lat":-6.391065,"distance":2727,"i_long":106.819451,"line":2,"station_name":"Depokbaru","is_transit":false,"transit":false,"time":4},{"i_long":106.816926,"station_id":"DP","line":2,"transit":false,"time":3,"station_name":"Depok","is_transit":false,"distance":1584,"i_lat":-6.405256},{"transit":true,"i_long":106.800298,"is_transit":true,"time":6,"station_name":"Citayam","distance":5084,"line":2,"station_id":"CTA","i_lat":-6.448811},{"station_name":"Pondok Rajeg","station_id":"PDRG","distance":0,"transit":false,"i_long":106.824374,"i_lat":-6.460735,"is_transit":false,"time":0,"line":21},{"station_name":"Cibinong","distance":0,"time":0,"i_lat":-6.46424,"transit":false,"station_id":"CBN","line":21,"is_transit":false,"i_long":106.851978}]]}