{"data":[[{"i_lat":-6.330363,"i_long":106.832616,"is_transit":false,"transit":false,"station_name":"Lenteng Agung","station_id":"LNA","time":0,"distance":0,"line":2},{"is_transit":false,"i_long":106.838896,"line":2,"distance":2671,"i_lat":-6.3080680000000005,"transit":false,"station_id":"TNT","time":3,"station_name":"Tanjung Barat"},{"transit":false,"distance":2820,"i_long":106.843999,"time":4,"line":2,"i_lat":-6.2842400000000005,"is_transit":false,"station_name":"Pasar Minggu","station_id":"PSM"},{"time":2,"station_id":"PSMB","i_long":106.851577,"station_name":"Pasar Minggu Baru","line":2,"is_transit":false,"distance":2380,"i_lat":-6.263214,"transit":false},{"station_name":"Duren Kalibata","i_lat":-6.255332,"line":2,"time":2,"distance":824,"is_transit":false,"i_long":106.85449,"station_id":"DRN","transit":false},{"distance":1546,"time":3,"i_long":106.856607,"station_id":"CW","line":2,"is_transit":false,"transit":false,"i_lat":-6.242512,"station_name":"Cawang"},{"line":2,"distance":1230,"is_transit":false,"time":2,"station_id":"TEB","i_long":106.857948,"transit":false,"i_lat":-6.226659,"station_name":"Tebet"},{"i_long":106.84912,"station_name":"Manggarai","i_lat":-6.209883,"transit":true,"station_id":"MRI","line":2,"distance":2610,"is_transit":true,"time":4},{"transit":false,"is_transit":false,"line":1,"station_id":"SUD","i_lat":-6.202263,"distance":3186,"time":4,"i_long":106.822649,"station_name":"Sudirman"},{"is_transit":false,"distance":280,"i_lat":-6.201433,"i_long":106.819881,"line":1,"transit":false,"station_name":"Sudirman Baru","time":1,"station_id":"SUDB"},{"is_transit":false,"transit":false,"i_lat":-6.20132,"line":1,"station_name":"Karet","i_long":106.816351,"station_id":"KAT","distance":471,"time":1},{"line":1,"i_lat":-6.185545,"i_long":106.811091,"station_id":"THB","transit":true,"time":5,"station_name":"Tanah Abang","distance":2029,"is_transit":true},{"distance":3191,"i_lat":-6.207404,"i_long":106.79689,"station_name":"Palmerah","station_id":"PLM","is_transit":false,"line":6,"transit":false,"time":6}],[{"time":0,"station_name":"Lenteng Agung","is_transit":false,"distance":0,"transit":false,"i_lat":-6.330363,"i_long":106.832616,"station_id":"LNA","line":2},{"distance":2671,"i_lat":-6.3080680000000005,"station_name":"Tanjung Barat","transit":false,"i_long":106.838896,"station_id":"TNT","is_transit":false,"line":2,"time":3},{"time":4,"i_lat":-6.2842400000000005,"station_name":"Pasar Minggu","station_id":"PSM","distance":2820,"transit":false,"i_long":106.843999,"line":2,"is_transit":false},{"station_id":"PSMB","station_name":"Pasar Minggu Baru","is_transit":false,"line":2,"transit":false,"distance":2380,"i_long":106.851577,"i_lat":-6.263214,"time":2},{"time":2,"distance":824,"station_name":"Duren Kalibata","i_long":106.85449,"line":2,"station_id":"DRN","i_lat":-6.255332,"transit":false,"is_transit":false},{"station_id":"CW","time":3,"is_transit":false,"i_long":106.856607,"i_lat":-6.242512,"line":2,"distance":1546,"transit":false,"station_name":"Cawang"},{"time":2,"i_long":106.857948,"line":2,"transit":false,"i_lat":-6.226659,"distance":1230,"station_name":"Tebet","station_id":"TEB","is_transit":false},{"is_transit":false,"line":2,"time":4,"distance":2610,"i_lat":-6.209883,"station_id":"MRI","station_name":"Manggarai","i_long":106.84912,"transit":false},{"distance":1590,"transit":false,"station_id":"CKI","station_name":"Cikini","is_transit":false,"time":4,"i_lat":-6.198556,"i_long":106.840169,"line":2},{"time":3,"i_long":106.832183,"station_id":"GDD","station_name":"Gondangdia","i_lat":-6.186295,"is_transit":false,"transit":false,"distance":1750,"line":2},{"is_transit":false,"i_lat":-6.166716,"i_long":106.828284,"line":2,"station_id":"JUA","station_name":"Juanda","transit":false,"time":4,"distance":2015},{"i_lat":-6.160725,"i_long":106.827103,"time":2,"line":2,"is_transit":false,"station_id":"SW","transit":false,"station_name":"Sawah Besar","distance":1149},{"line":2,"is_transit":false,"transit":false,"i_long":106.82482,"station_id":"MGB","distance":906,"time":2,"i_lat":-6.149769,"station_name":"Manggabesar"},{"transit":false,"station_name":"Jayakarta","is_transit":false,"distance":1080,"i_long":106.820901,"line":2,"time":2,"station_id":"JAY","i_lat":-6.141205},{"station_id":"JAKK","distance":1264,"i_lat":-6.137569,"station_name":"Jakarta Kota","line":2,"time":4,"is_transit":true,"i_long":106.812439,"transit":true},{"is_transit":true,"i_long":106.826365,"station_id":"KPB","distance":1364,"i_lat":-6.132549,"line":4,"station_name":"Kampung Bandan","time":3,"transit":true},{"distance":4102,"i_lat":-6.144674,"station_id":"AK","is_transit":false,"time":9,"i_long":106.79867,"station_name":"Angke","line":1,"transit":false},{"i_long":106.800832,"time":4,"distance":1230,"station_id":"DU","station_name":"Duri","line":1,"is_transit":false,"transit":false,"i_lat":-6.155215},{"station_id":"THB","is_transit":true,"distance":3632,"station_name":"Tanah Abang","line":1,"i_lat":-6.185545,"i_long":106.811091,"transit":true,"time":8},{"line":6,"distance":3191,"time":6,"station_name":"Palmerah","i_lat":-6.207404,"station_id":"PLM","i_long":106.79689,"is_transit":false,"transit":false}],[{"line":2,"distance":0,"station_id":"LNA","i_lat":-6.330363,"transit":false,"i_long":106.832616,"time":0,"is_transit":false,"station_name":"Lenteng Agung"},{"time":3,"station_id":"TNT","i_long":106.838896,"distance":2671,"station_name":"Tanjung Barat","line":2,"is_transit":false,"transit":false,"i_lat":-6.3080680000000005},{"time":4,"i_lat":-6.2842400000000005,"i_long":106.843999,"station_name":"Pasar Minggu","line":2,"transit":false,"station_id":"PSM","is_transit":false,"distance":2820},{"i_lat":-6.263214,"line":2,"station_id":"PSMB","time":2,"i_long":106.851577,"station_name":"Pasar Minggu Baru","distance":2380,"is_transit":false,"transit":false},{"transit":false,"station_id":"DRN","distance":824,"i_long":106.85449,"time":2,"is_transit":false,"station_name":"Duren Kalibata","i_lat":-6.255332,"line":2},{"station_name":"Cawang","i_long":106.856607,"is_transit":false,"time":3,"line":2,"transit":false,"distance":1546,"i_lat":-6.242512,"station_id":"CW"},{"transit":false,"i_long":106.857948,"time":2,"station_id":"TEB","line":2,"distance":1230,"station_name":"Tebet","is_transit":false,"i_lat":-6.226659},{"i_long":106.84912,"is_transit":true,"transit":true,"station_id":"MRI","line":2,"distance":2610,"i_lat":-6.209883,"time":4,"station_name":"Manggarai"},{"transit":false,"station_id":"MTR","station_name":"Matraman","line":1,"is_transit":false,"i_lat":-6.212485,"i_long":106.858896,"distance":1275,"time":2},{"time":8,"is_transit":true,"station_id":"JNG","i_long":106.86807400000001,"transit":true,"line":1,"distance":1377,"station_name":"Jatinegara","i_lat":-6.215091},{"is_transit":false,"station_id":"POK","i_long":106.861737,"distance":1236,"transit":false,"time":2,"station_name":"Pondok Jati","i_lat":-6.209188,"line":11},{"distance":1829,"i_long":106.855437,"station_id":"KMT","is_transit":false,"time":2,"i_lat":-6.193792,"transit":false,"station_name":"Kramat","line":11},{"station_name":"Gang Sentiong","i_lat":-6.185975,"distance":973,"is_transit":false,"station_id":"GST","i_long":106.850107,"time":1,"line":11,"transit":false},{"distance":1567,"transit":false,"time":8,"line":11,"station_id":"PSE","station_name":"Pasar Senen","i_lat":-6.174784,"is_transit":false,"i_long":106.84368},{"is_transit":false,"i_long":106.839204,"station_name":"Kemayoran","i_lat":-6.161728,"time":4,"line":11,"distance":1436,"transit":false,"station_id":"KMO"},{"time":5,"i_lat":-6.14505,"is_transit":false,"i_long":106.836569,"line":11,"station_name":"Rajawali","station_id":"RJW","transit":false,"distance":1901},{"i_lat":-6.132549,"distance":1444,"i_long":106.826365,"line":4,"station_id":"KPB","is_transit":true,"time":3,"transit":true,"station_name":"Kampung Bandan"},{"transit":false,"i_long":106.79867,"station_name":"Angke","i_lat":-6.144674,"line":1,"distance":4102,"is_transit":false,"time":9,"station_id":"AK"},{"station_name":"Duri","i_lat":-6.155215,"time":4,"is_transit":false,"transit":false,"station_id":"DU","distance":1230,"line":1,"i_long":106.800832},{"distance":3632,"time":8,"i_lat":-6.185545,"line":1,"is_transit":true,"i_long":106.811091,"transit":true,"station_name":"Tanah Abang","station_id":"THB"},{"distance":3191,"station_name":"Palmerah","i_long":106.79689,"station_id":"PLM","line":6,"time":6,"i_lat":-6.207404,"is_transit":false,"transit":false}]]}