{"data":[[{"i_lat":-6.330363,"time":0,"line":2,"station_id":"LNA","transit":false,"is_transit":false,"distance":0,"i_long":106.832616,"station_name":"Lenteng Agung"},{"station_id":"TNT","station_name":"Tanjung Barat","distance":2671,"i_lat":-6.3080680000000005,"line":2,"transit":false,"is_transit":false,"i_long":106.838896,"time":3},{"is_transit":false,"i_lat":-6.2842400000000005,"i_long":106.843999,"station_id":"PSM","line":2,"station_name":"Pasar Minggu","transit":false,"time":4,"distance":2820},{"is_transit":false,"distance":2380,"line":2,"time":2,"i_lat":-6.263214,"station_id":"PSMB","i_long":106.851577,"station_name":"Pasar Minggu Baru","transit":false},{"i_long":106.85449,"time":2,"line":2,"transit":false,"station_name":"Duren Kalibata","i_lat":-6.255332,"distance":824,"station_id":"DRN","is_transit":false},{"i_lat":-6.242512,"transit":false,"time":3,"line":2,"distance":1546,"station_id":"CW","station_name":"Cawang","i_long":106.856607,"is_transit":false},{"transit":false,"i_lat":-6.226659,"line":2,"station_id":"TEB","station_name":"Tebet","i_long":106.857948,"distance":1230,"time":2,"is_transit":false},{"transit":true,"station_name":"Manggarai","time":4,"station_id":"MRI","is_transit":true,"distance":2610,"i_lat":-6.209883,"i_long":106.84912,"line":2},{"time":4,"transit":false,"is_transit":false,"station_name":"Sudirman","distance":3186,"station_id":"SUD","i_lat":-6.202263,"line":1,"i_long":106.822649},{"transit":false,"is_transit":false,"time":1,"station_id":"SUDB","distance":280,"i_lat":-6.201433,"i_long":106.819881,"line":1,"station_name":"Sudirman Baru"},{"transit":false,"time":1,"line":1,"is_transit":false,"i_lat":-6.20132,"station_name":"Karet","station_id":"KAT","distance":471,"i_long":106.816351},{"station_id":"THB","station_name":"Tanah Abang","distance":2029,"transit":false,"time":5,"i_lat":-6.185545,"i_long":106.811091,"is_transit":false,"line":1},{"time":8,"transit":true,"is_transit":true,"line":1,"station_id":"DU","station_name":"Duri","distance":3632,"i_lat":-6.155215,"i_long":106.800832},{"i_long":106.788277,"station_name":"Grogol","station_id":"GRG","is_transit":false,"transit":false,"distance":1700,"i_lat":-6.162021,"line":5,"time":3},{"is_transit":false,"time":2,"distance":2036,"i_lat":-6.161433,"i_long":106.771379,"station_id":"PSG","line":5,"transit":false,"station_name":"Pesing"}],[{"distance":0,"i_lat":-6.330363,"i_long":106.832616,"time":0,"station_name":"Lenteng Agung","is_transit":false,"station_id":"LNA","transit":false,"line":2},{"i_long":106.838896,"is_transit":false,"line":2,"time":3,"i_lat":-6.3080680000000005,"station_name":"Tanjung Barat","distance":2671,"transit":false,"station_id":"TNT"},{"i_lat":-6.2842400000000005,"transit":false,"station_name":"Pasar Minggu","station_id":"PSM","time":4,"is_transit":false,"i_long":106.843999,"line":2,"distance":2820},{"is_transit":false,"line":2,"transit":false,"distance":2380,"time":2,"station_id":"PSMB","station_name":"Pasar Minggu Baru","i_lat":-6.263214,"i_long":106.851577},{"i_lat":-6.255332,"distance":824,"station_name":"Duren Kalibata","time":2,"station_id":"DRN","transit":false,"line":2,"is_transit":false,"i_long":106.85449},{"station_name":"Cawang","is_transit":false,"i_lat":-6.242512,"line":2,"time":3,"i_long":106.856607,"distance":1546,"transit":false,"station_id":"CW"},{"station_name":"Tebet","i_long":106.857948,"station_id":"TEB","transit":false,"line":2,"time":2,"is_transit":false,"i_lat":-6.226659,"distance":1230},{"i_long":106.84912,"station_id":"MRI","station_name":"Manggarai","is_transit":false,"distance":2610,"line":2,"transit":false,"time":4,"i_lat":-6.209883},{"i_lat":-6.198556,"station_name":"Cikini","i_long":106.840169,"is_transit":false,"transit":false,"distance":1590,"line":2,"station_id":"CKI","time":4},{"transit":false,"time":3,"i_long":106.832183,"station_name":"Gondangdia","distance":1750,"station_id":"GDD","line":2,"i_lat":-6.186295,"is_transit":false},{"line":2,"i_long":106.828284,"i_lat":-6.166716,"transit":false,"time":4,"station_id":"JUA","station_name":"Juanda","is_transit":false,"distance":2015},{"transit":false,"i_long":106.827103,"station_name":"Sawah Besar","station_id":"SW","i_lat":-6.160725,"time":2,"is_transit":false,"line":2,"distance":1149},{"line":2,"is_transit":false,"i_lat":-6.149769,"i_long":106.82482,"distance":906,"transit":false,"time":2,"station_id":"MGB","station_name":"Manggabesar"},{"is_transit":false,"time":2,"distance":1080,"i_long":106.820901,"i_lat":-6.141205,"line":2,"transit":false,"station_id":"JAY","station_name":"Jayakarta"},{"station_name":"Jakarta Kota","line":2,"is_transit":true,"time":4,"i_lat":-6.137569,"transit":true,"i_long":106.812439,"distance":1264,"station_id":"JAKK"},{"i_long":106.826365,"time":3,"line":4,"transit":true,"is_transit":true,"station_id":"KPB","station_name":"Kampung Bandan","distance":1364,"i_lat":-6.132549},{"i_lat":-6.144674,"i_long":106.79867,"distance":4102,"station_id":"AK","time":9,"is_transit":false,"transit":false,"station_name":"Angke","line":1},{"time":4,"station_id":"DU","i_long":106.800832,"transit":true,"line":1,"i_lat":-6.155215,"station_name":"Duri","distance":1230,"is_transit":true},{"line":5,"is_transit":false,"transit":false,"distance":1700,"station_id":"GRG","i_long":106.788277,"station_name":"Grogol","time":3,"i_lat":-6.162021},{"is_transit":false,"i_lat":-6.161433,"i_long":106.771379,"transit":false,"time":2,"distance":2036,"line":5,"station_name":"Pesing","station_id":"PSG"}],[{"is_transit":false,"distance":0,"station_name":"Lenteng Agung","i_lat":-6.330363,"station_id":"LNA","transit":false,"line":2,"i_long":106.832616,"time":0},{"i_lat":-6.3080680000000005,"i_long":106.838896,"is_transit":false,"transit":false,"station_name":"Tanjung Barat","time":3,"distance":2671,"line":2,"station_id":"TNT"},{"transit":false,"distance":2820,"i_long":106.843999,"station_name":"Pasar Minggu","i_lat":-6.2842400000000005,"time":4,"is_transit":false,"station_id":"PSM","line":2},{"line":2,"time":2,"transit":false,"i_long":106.851577,"distance":2380,"station_id":"PSMB","station_name":"Pasar Minggu Baru","is_transit":false,"i_lat":-6.263214},{"time":2,"line":2,"is_transit":false,"distance":824,"i_long":106.85449,"station_id":"DRN","station_name":"Duren Kalibata","i_lat":-6.255332,"transit":false},{"time":3,"station_id":"CW","transit":false,"is_transit":false,"i_lat":-6.242512,"line":2,"i_long":106.856607,"station_name":"Cawang","distance":1546},{"distance":1230,"time":2,"i_lat":-6.226659,"is_transit":false,"i_long":106.857948,"station_id":"TEB","transit":false,"line":2,"station_name":"Tebet"},{"i_long":106.84912,"i_lat":-6.209883,"station_name":"Manggarai","station_id":"MRI","distance":2610,"transit":true,"time":4,"line":2,"is_transit":true},{"transit":false,"time":2,"station_id":"MTR","is_transit":false,"station_name":"Matraman","distance":1275,"i_lat":-6.212485,"i_long":106.858896,"line":1},{"station_id":"JNG","i_long":106.86807400000001,"line":1,"is_transit":true,"time":8,"distance":1377,"i_lat":-6.215091,"transit":true,"station_name":"Jatinegara"},{"transit":false,"time":2,"station_id":"POK","line":11,"distance":1236,"is_transit":false,"i_lat":-6.209188,"i_long":106.861737,"station_name":"Pondok Jati"},{"station_name":"Kramat","time":2,"i_lat":-6.193792,"is_transit":false,"station_id":"KMT","transit":false,"distance":1829,"line":11,"i_long":106.855437},{"station_id":"GST","station_name":"Gang Sentiong","transit":false,"distance":973,"i_lat":-6.185975,"line":11,"is_transit":false,"i_long":106.850107,"time":1},{"station_name":"Pasar Senen","transit":false,"i_long":106.84368,"is_transit":false,"i_lat":-6.174784,"line":11,"time":8,"distance":1567,"station_id":"PSE"},{"i_lat":-6.161728,"i_long":106.839204,"station_id":"KMO","line":11,"is_transit":false,"station_name":"Kemayoran","distance":1436,"transit":false,"time":4},{"station_name":"Rajawali","station_id":"RJW","i_lat":-6.14505,"transit":false,"is_transit":false,"time":5,"i_long":106.836569,"distance":1901,"line":11},{"station_name":"Kampung Bandan","distance":1444,"is_transit":true,"time":3,"transit":true,"station_id":"KPB","i_lat":-6.132549,"i_long":106.826365,"line":4},{"is_transit":false,"i_lat":-6.144674,"station_id":"AK","i_long":106.79867,"station_name":"Angke","transit":false,"line":1,"distance":4102,"time":9},{"station_id":"DU","transit":true,"station_name":"Duri","is_transit":true,"time":4,"distance":1230,"i_lat":-6.155215,"i_long":106.800832,"line":1},{"i_lat":-6.162021,"line":5,"time":3,"distance":1700,"station_id":"GRG","station_name":"Grogol","is_transit":false,"i_long":106.788277,"transit":false},{"station_id":"PSG","i_long":106.771379,"station_name":"Pesing","is_transit":false,"distance":2036,"transit":false,"line":5,"time":2,"i_lat":-6.161433}]]}