{"data":[[{"time":0,"distance":0,"station_name":"Lenteng Agung","is_transit":false,"line":2,"station_id":"LNA","transit":false,"i_lat":-6.330363,"i_long":106.832616},{"station_name":"Univ. Pancasila","i_long":106.834175,"time":2,"station_id":"UP","line":2,"transit":false,"is_transit":false,"distance":1029,"i_lat":-6.339291},{"station_id":"UI","i_lat":-6.360749,"distance":2264,"time":3,"i_long":106.831474,"transit":false,"station_name":"Univ. Indonesia","line":2,"is_transit":false},{"station_id":"POC","i_lat":-6.369073,"is_transit":false,"transit":false,"distance":1109,"i_long":106.831114,"station_name":"Pondok Cina","line":2,"time":2},{"time":4,"station_id":"DPB","i_long":106.819451,"i_lat":-6.391065,"line":0,"station_name":"Depokbaru","is_transit":false,"distance":2727,"transit":false},{"i_lat":-6.405256,"i_long":106.816926,"station_id":"DP","is_transit":false,"distance":1584,"time":3,"transit":false,"line":0,"station_name":"Depok"},{"line":1,"station_name":"Citayam","transit":false,"i_long":106.800298,"time":6,"station_id":"CTA","is_transit":true,"distance":5084,"i_lat":-6.448811},{"line":0,"is_transit":false,"i_lat":-6.493243,"station_id":"BJD","transit":false,"time":5,"station_name":"Bojonggede","distance":5197,"i_long":106.792719},{"i_lat":-6.530544,"time":5,"station_name":"Cilebut","distance":4331,"i_long":106.800016,"line":0,"is_transit":false,"transit":false,"station_id":"CLT"},{"line":1,"transit":false,"is_transit":true,"time":9,"i_long":106.790574,"i_lat":-6.594596,"station_name":"Bogor","distance":7514,"station_id":"BOO"}]]}