{"data":[[{"line":2,"i_long":106.832616,"transit":false,"station_id":"LNA","is_transit":false,"distance":0,"station_name":"Lenteng Agung","time":0,"i_lat":-6.330363},{"is_transit":false,"time":3,"station_name":"Tanjung Barat","transit":false,"i_lat":-6.3080680000000005,"distance":2671,"line":2,"i_long":106.838896,"station_id":"TNT"},{"station_id":"PSM","line":2,"i_lat":-6.2842400000000005,"is_transit":false,"transit":false,"station_name":"Pasar Minggu","time":4,"distance":2820,"i_long":106.843999},{"is_transit":false,"station_id":"PSMB","transit":false,"station_name":"Pasar Minggu Baru","distance":2380,"i_lat":-6.263214,"line":2,"i_long":106.851577,"time":2},{"station_name":"Duren Kalibata","is_transit":false,"time":2,"i_lat":-6.255332,"i_long":106.85449,"line":2,"transit":false,"station_id":"DRN","distance":824},{"station_name":"Cawang","distance":1546,"i_long":106.856607,"line":2,"station_id":"CW","is_transit":false,"time":3,"i_lat":-6.242512,"transit":false},{"i_lat":-6.226659,"distance":1230,"is_transit":false,"transit":false,"station_name":"Tebet","time":2,"line":2,"i_long":106.857948,"station_id":"TEB"},{"transit":false,"station_id":"MRI","time":4,"line":2,"is_transit":false,"distance":2610,"i_long":106.84912,"station_name":"Manggarai","i_lat":-6.209883},{"station_id":"CKI","i_long":106.840169,"is_transit":false,"time":4,"i_lat":-6.198556,"line":2,"transit":false,"distance":1590,"station_name":"Cikini"},{"i_lat":-6.186295,"station_id":"GDD","transit":false,"distance":1750,"is_transit":false,"time":3,"station_name":"Gondangdia","i_long":106.832183,"line":2}],[{"transit":false,"time":0,"i_long":106.832616,"is_transit":false,"i_lat":-6.330363,"station_name":"Lenteng Agung","station_id":"LNA","line":2,"distance":0},{"time":3,"distance":2671,"transit":false,"i_lat":-6.3080680000000005,"i_long":106.838896,"station_id":"TNT","station_name":"Tanjung Barat","line":2,"is_transit":false},{"i_long":106.843999,"station_id":"PSM","line":2,"transit":false,"i_lat":-6.2842400000000005,"is_transit":false,"time":4,"station_name":"Pasar Minggu","distance":2820},{"i_long":106.851577,"is_transit":false,"time":2,"i_lat":-6.263214,"distance":2380,"line":2,"transit":false,"station_id":"PSMB","station_name":"Pasar Minggu Baru"},{"i_lat":-6.255332,"is_transit":false,"time":2,"station_name":"Duren Kalibata","station_id":"DRN","line":2,"transit":false,"i_long":106.85449,"distance":824},{"is_transit":false,"transit":false,"distance":1546,"station_id":"CW","time":3,"station_name":"Cawang","line":2,"i_lat":-6.242512,"i_long":106.856607},{"i_lat":-6.226659,"is_transit":false,"i_long":106.857948,"station_id":"TEB","transit":false,"station_name":"Tebet","time":2,"distance":1230,"line":2},{"is_transit":true,"i_long":106.84912,"time":4,"line":2,"i_lat":-6.209883,"distance":2610,"transit":true,"station_name":"Manggarai","station_id":"MRI"},{"line":1,"time":4,"station_name":"Sudirman","distance":3186,"station_id":"SUD","is_transit":false,"i_lat":-6.202263,"i_long":106.822649,"transit":false},{"is_transit":false,"station_name":"Sudirman Baru","i_long":106.819881,"station_id":"SUDB","time":1,"transit":false,"line":1,"distance":280,"i_lat":-6.201433},{"station_id":"KAT","distance":471,"i_long":106.816351,"transit":false,"time":1,"i_lat":-6.20132,"line":1,"station_name":"Karet","is_transit":false},{"is_transit":false,"i_long":106.811091,"station_id":"THB","time":5,"distance":2029,"transit":false,"station_name":"Tanah Abang","line":1,"i_lat":-6.185545},{"i_long":106.800832,"line":1,"i_lat":-6.155215,"station_name":"Duri","is_transit":false,"transit":false,"distance":3632,"station_id":"DU","time":8},{"i_lat":-6.144674,"transit":false,"station_id":"AK","i_long":106.79867,"distance":1230,"station_name":"Angke","line":1,"time":4,"is_transit":false},{"time":9,"distance":4102,"i_lat":-6.132549,"station_name":"Kampung Bandan","i_long":106.826365,"transit":true,"line":4,"is_transit":true,"station_id":"KPB"},{"station_name":"Jakarta Kota","time":3,"distance":1364,"is_transit":true,"i_lat":-6.137569,"station_id":"JAKK","i_long":106.812439,"line":2,"transit":true},{"i_long":106.820901,"station_name":"Jayakarta","i_lat":-6.141205,"line":2,"is_transit":false,"transit":false,"time":4,"station_id":"JAY","distance":1264},{"i_long":106.82482,"is_transit":false,"line":2,"time":2,"station_name":"Manggabesar","station_id":"MGB","distance":1080,"i_lat":-6.149769,"transit":false},{"i_long":106.827103,"is_transit":false,"line":2,"transit":false,"station_name":"Sawah Besar","station_id":"SW","distance":906,"time":2,"i_lat":-6.160725},{"station_id":"JUA","station_name":"Juanda","distance":1149,"transit":false,"i_lat":-6.166716,"i_long":106.828284,"is_transit":false,"time":2,"line":2},{"station_id":"GDD","transit":false,"station_name":"Gondangdia","time":4,"distance":2015,"i_lat":-6.186295,"line":2,"i_long":106.832183,"is_transit":false}],[{"station_id":"LNA","i_long":106.832616,"line":2,"is_transit":false,"time":0,"i_lat":-6.330363,"distance":0,"transit":false,"station_name":"Lenteng Agung"},{"is_transit":false,"transit":false,"distance":2671,"i_long":106.838896,"i_lat":-6.3080680000000005,"time":3,"station_name":"Tanjung Barat","station_id":"TNT","line":2},{"transit":false,"station_name":"Pasar Minggu","station_id":"PSM","is_transit":false,"i_long":106.843999,"line":2,"time":4,"i_lat":-6.2842400000000005,"distance":2820},{"i_long":106.851577,"station_id":"PSMB","transit":false,"i_lat":-6.263214,"is_transit":false,"distance":2380,"station_name":"Pasar Minggu Baru","line":2,"time":2},{"station_name":"Duren Kalibata","line":2,"time":2,"station_id":"DRN","distance":824,"transit":false,"is_transit":false,"i_lat":-6.255332,"i_long":106.85449},{"is_transit":false,"i_long":106.856607,"transit":false,"station_name":"Cawang","line":2,"distance":1546,"station_id":"CW","i_lat":-6.242512,"time":3},{"station_id":"TEB","distance":1230,"transit":false,"is_transit":false,"time":2,"station_name":"Tebet","i_long":106.857948,"line":2,"i_lat":-6.226659},{"station_id":"MRI","is_transit":true,"time":4,"transit":true,"distance":2610,"station_name":"Manggarai","i_long":106.84912,"line":2,"i_lat":-6.209883},{"line":1,"station_id":"MTR","transit":false,"is_transit":false,"time":2,"station_name":"Matraman","distance":1275,"i_long":106.858896,"i_lat":-6.212485},{"station_id":"JNG","is_transit":true,"i_long":106.86807400000001,"station_name":"Jatinegara","time":8,"line":1,"distance":1377,"i_lat":-6.215091,"transit":true},{"station_name":"Pondok Jati","line":11,"i_long":106.861737,"is_transit":false,"distance":1236,"time":2,"transit":false,"station_id":"POK","i_lat":-6.209188},{"station_id":"KMT","i_long":106.855437,"line":11,"distance":1829,"is_transit":false,"time":2,"transit":false,"i_lat":-6.193792,"station_name":"Kramat"},{"is_transit":false,"station_name":"Gang Sentiong","i_long":106.850107,"line":11,"transit":false,"station_id":"GST","time":1,"distance":973,"i_lat":-6.185975},{"i_long":106.84368,"distance":1567,"transit":false,"station_name":"Pasar Senen","is_transit":false,"station_id":"PSE","time":8,"line":11,"i_lat":-6.174784},{"station_id":"KMO","line":11,"is_transit":false,"time":4,"distance":1436,"i_lat":-6.161728,"station_name":"Kemayoran","transit":false,"i_long":106.839204},{"i_lat":-6.14505,"station_name":"Rajawali","i_long":106.836569,"time":5,"transit":false,"station_id":"RJW","line":11,"is_transit":false,"distance":1901},{"time":3,"line":4,"distance":1444,"station_id":"KPB","i_lat":-6.132549,"i_long":106.826365,"station_name":"Kampung Bandan","is_transit":true,"transit":true},{"i_lat":-6.137569,"line":2,"time":3,"station_id":"JAKK","transit":true,"is_transit":true,"distance":1364,"station_name":"Jakarta Kota","i_long":106.812439},{"line":2,"is_transit":false,"i_lat":-6.141205,"station_id":"JAY","distance":1264,"transit":false,"i_long":106.820901,"time":4,"station_name":"Jayakarta"},{"station_name":"Manggabesar","is_transit":false,"time":2,"station_id":"MGB","transit":false,"i_lat":-6.149769,"i_long":106.82482,"line":2,"distance":1080},{"transit":false,"distance":906,"is_transit":false,"i_lat":-6.160725,"time":2,"i_long":106.827103,"station_id":"SW","station_name":"Sawah Besar","line":2},{"transit":false,"i_long":106.828284,"time":2,"distance":1149,"station_name":"Juanda","station_id":"JUA","is_transit":false,"i_lat":-6.166716,"line":2},{"station_name":"Gondangdia","station_id":"GDD","time":4,"i_lat":-6.186295,"line":2,"is_transit":false,"distance":2015,"i_long":106.832183,"transit":false}]]}