{"data":[[{"i_long":106.832616,"is_transit":false,"station_name":"Lenteng Agung","transit":false,"line":2,"i_lat":-6.330363,"station_id":"LNA","distance":0,"time":0},{"time":3,"i_long":106.838896,"is_transit":false,"transit":false,"line":2,"distance":2671,"station_name":"Tanjung Barat","i_lat":-6.3080680000000005,"station_id":"TNT"},{"transit":false,"distance":2820,"time":4,"station_id":"PSM","i_long":106.843999,"line":2,"i_lat":-6.2842400000000005,"is_transit":false,"station_name":"Pasar Minggu"},{"station_name":"Pasar Minggu Baru","station_id":"PSMB","is_transit":false,"line":2,"i_long":106.851577,"transit":false,"time":2,"distance":2380,"i_lat":-6.263214},{"station_id":"DRN","i_long":106.85449,"line":0,"i_lat":-6.255332,"station_name":"Duren Kalibata","is_transit":false,"transit":false,"time":2,"distance":824},{"station_id":"CW","distance":1546,"i_lat":-6.242512,"i_long":106.856607,"is_transit":false,"station_name":"Cawang","transit":false,"line":0,"time":3},{"transit":false,"is_transit":false,"station_id":"TEB","station_name":"Tebet","i_long":106.857948,"line":2,"time":2,"distance":1230,"i_lat":-6.226659},{"station_name":"Manggarai","i_long":106.84912,"station_id":"MRI","distance":2610,"transit":true,"time":4,"i_lat":-6.209883,"line":0,"is_transit":true},{"transit":false,"time":4,"station_name":"Sudirman","i_lat":-6.202263,"line":1,"i_long":106.822649,"station_id":"SUD","is_transit":false,"distance":3186},{"line":1,"is_transit":false,"i_long":106.819881,"time":1,"station_id":"SUDB","station_name":"Sudirman Baru","i_lat":-6.201433,"distance":280,"transit":false},{"transit":false,"i_long":106.816351,"time":1,"is_transit":false,"i_lat":-6.20132,"line":1,"distance":471,"station_id":"KAT","station_name":"Karet"},{"is_transit":true,"distance":2029,"transit":false,"i_lat":-6.185545,"station_id":"THB","line":1,"station_name":"Tanah Abang","time":5,"i_long":106.811091},{"station_name":"Duri","is_transit":true,"transit":true,"distance":3632,"i_lat":-6.155215,"line":1,"station_id":"DU","time":8,"i_long":106.800832},{"distance":1700,"time":3,"station_id":"GGL","is_transit":false,"station_name":"Grogol","i_long":106.788277,"line":5,"transit":false,"i_lat":-6.162021},{"is_transit":false,"transit":false,"i_long":106.771379,"distance":2036,"station_name":"Pesing","line":5,"time":2,"station_id":"PSG","i_lat":-6.161433}],[{"line":2,"station_name":"Lenteng Agung","i_lat":-6.330363,"is_transit":false,"station_id":"LNA","distance":0,"i_long":106.832616,"time":0,"transit":false},{"station_name":"Tanjung Barat","line":2,"i_lat":-6.3080680000000005,"transit":false,"i_long":106.838896,"station_id":"TNT","is_transit":false,"distance":2671,"time":3},{"station_id":"PSM","time":4,"i_long":106.843999,"distance":2820,"station_name":"Pasar Minggu","is_transit":false,"line":2,"i_lat":-6.2842400000000005,"transit":false},{"station_id":"PSMB","time":2,"distance":2380,"i_lat":-6.263214,"i_long":106.851577,"transit":false,"station_name":"Pasar Minggu Baru","is_transit":false,"line":2},{"station_id":"DRN","i_lat":-6.255332,"is_transit":false,"time":2,"i_long":106.85449,"transit":false,"distance":824,"line":0,"station_name":"Duren Kalibata"},{"i_long":106.856607,"station_id":"CW","transit":false,"is_transit":false,"time":3,"line":0,"i_lat":-6.242512,"distance":1546,"station_name":"Cawang"},{"time":2,"i_lat":-6.226659,"station_name":"Tebet","is_transit":false,"distance":1230,"station_id":"TEB","i_long":106.857948,"line":2,"transit":false},{"station_id":"MRI","time":4,"line":0,"i_long":106.84912,"is_transit":true,"transit":true,"distance":2610,"i_lat":-6.209883,"station_name":"Manggarai"},{"station_name":"Cikini","is_transit":false,"i_lat":-6.198556,"station_id":"CKI","transit":false,"line":0,"distance":1590,"i_long":106.840169,"time":4},{"is_transit":false,"station_name":"Gondangdia","time":3,"i_long":106.832183,"station_id":"GDD","line":2,"i_lat":-6.186295,"transit":false,"distance":1750},{"transit":false,"station_name":"Juanda","i_lat":-6.166716,"distance":2015,"time":4,"station_id":"JUA","i_long":106.828284,"line":2,"is_transit":false},{"station_id":"SW","is_transit":false,"station_name":"Sawah Besar","i_long":106.827103,"distance":1149,"transit":false,"time":2,"i_lat":-6.160725,"line":2},{"i_long":106.82482,"transit":false,"i_lat":-6.149769,"is_transit":false,"station_name":"Manggabesar","line":2,"time":2,"distance":906,"station_id":"MGB"},{"station_id":"JAY","distance":1080,"line":7,"i_lat":-6.141205,"station_name":"Jayakarta","transit":false,"time":2,"is_transit":false,"i_long":106.820901},{"line":0,"i_long":106.812439,"station_name":"Jakarta Kota","transit":true,"distance":1264,"i_lat":-6.137569,"station_id":"JAKK","is_transit":true,"time":4},{"transit":false,"i_lat":-6.132549,"line":0,"is_transit":true,"distance":1364,"station_name":"Kampung Bandan","time":3,"i_long":106.826365,"station_id":"KPB"},{"line":0,"distance":4102,"i_long":106.79867,"station_id":"AK","is_transit":false,"station_name":"Angke","transit":false,"time":9,"i_lat":-6.144674},{"transit":true,"station_id":"DU","station_name":"Duri","distance":1230,"i_lat":-6.155215,"line":1,"time":4,"is_transit":true,"i_long":106.800832},{"time":3,"line":5,"i_lat":-6.162021,"distance":1700,"station_name":"Grogol","station_id":"GGL","i_long":106.788277,"transit":false,"is_transit":false},{"distance":2036,"line":5,"i_lat":-6.161433,"station_name":"Pesing","station_id":"PSG","i_long":106.771379,"is_transit":false,"time":2,"transit":false}],[{"time":0,"station_name":"Lenteng Agung","station_id":"LNA","i_lat":-6.330363,"i_long":106.832616,"line":2,"transit":false,"is_transit":false,"distance":0},{"i_lat":-6.3080680000000005,"line":2,"transit":false,"distance":2671,"station_name":"Tanjung Barat","is_transit":false,"time":3,"station_id":"TNT","i_long":106.838896},{"line":2,"transit":false,"station_id":"PSM","is_transit":false,"distance":2820,"i_lat":-6.2842400000000005,"time":4,"i_long":106.843999,"station_name":"Pasar Minggu"},{"station_id":"PSMB","i_long":106.851577,"is_transit":false,"line":2,"distance":2380,"transit":false,"time":2,"i_lat":-6.263214,"station_name":"Pasar Minggu Baru"},{"transit":false,"time":2,"station_name":"Duren Kalibata","is_transit":false,"line":0,"i_lat":-6.255332,"station_id":"DRN","distance":824,"i_long":106.85449},{"station_name":"Cawang","transit":false,"time":3,"i_long":106.856607,"is_transit":false,"station_id":"CW","i_lat":-6.242512,"line":0,"distance":1546},{"transit":false,"line":2,"station_name":"Tebet","i_lat":-6.226659,"i_long":106.857948,"is_transit":false,"station_id":"TEB","distance":1230,"time":2},{"distance":2610,"i_lat":-6.209883,"i_long":106.84912,"time":4,"station_name":"Manggarai","transit":true,"is_transit":true,"station_id":"MRI","line":0},{"transit":false,"time":2,"i_long":106.858896,"i_lat":-6.212485,"station_id":"MTR","station_name":"Matraman","line":1,"is_transit":false,"distance":1275},{"line":0,"station_id":"JNG","i_lat":-6.215091,"i_long":106.86807400000001,"distance":1377,"station_name":"Jatinegara","transit":true,"time":8,"is_transit":true},{"transit":false,"is_transit":false,"line":11,"i_long":106.861737,"time":2,"i_lat":-6.209188,"station_id":"POK","station_name":"Pondok Jati","distance":1236},{"i_lat":-6.193792,"i_long":106.855437,"distance":1829,"station_name":"Kramat","time":2,"line":11,"is_transit":false,"station_id":"KMT","transit":false},{"station_name":"Gang Sentiong","time":1,"line":11,"distance":973,"station_id":"GST","transit":false,"i_long":106.850107,"i_lat":-6.185975,"is_transit":false},{"station_name":"Pasar Senen","is_transit":false,"time":8,"station_id":"PSE","transit":false,"i_lat":-6.174784,"line":11,"i_long":106.84368,"distance":1567},{"station_id":"KMO","transit":false,"line":11,"i_long":106.839204,"time":4,"station_name":"Kemayoran","i_lat":-6.161728,"is_transit":false,"distance":1436},{"time":5,"i_lat":-6.14505,"i_long":106.836569,"distance":1901,"transit":false,"station_id":"RJW","line":11,"is_transit":false,"station_name":"Rajawali"},{"station_name":"Kampung Bandan","i_long":106.826365,"i_lat":-6.132549,"station_id":"KPB","line":0,"transit":true,"is_transit":true,"distance":1444,"time":3},{"i_long":106.79867,"transit":false,"distance":4102,"i_lat":-6.144674,"station_name":"Angke","is_transit":false,"time":9,"line":0,"station_id":"AK"},{"distance":1230,"station_name":"Duri","i_long":106.800832,"station_id":"DU","is_transit":true,"time":4,"i_lat":-6.155215,"transit":true,"line":1},{"distance":1700,"i_long":106.788277,"transit":false,"time":3,"line":5,"is_transit":false,"station_id":"GGL","i_lat":-6.162021,"station_name":"Grogol"},{"distance":2036,"station_id":"PSG","transit":false,"time":2,"is_transit":false,"station_name":"Pesing","i_long":106.771379,"i_lat":-6.161433,"line":5}]]}