{"data":[[{"transit":false,"i_lat":-6.330363,"distance":0,"line":2,"i_long":106.832616,"time":0,"station_name":"Lenteng Agung","is_transit":false,"station_id":"LNA"},{"station_id":"TNT","is_transit":false,"distance":2671,"time":3,"line":2,"transit":false,"station_name":"Tanjung Barat","i_long":106.838896,"i_lat":-6.3080680000000005},{"station_id":"PSM","i_lat":-6.2842400000000005,"line":2,"i_long":106.843999,"time":4,"station_name":"Pasar Minggu","is_transit":false,"distance":2820,"transit":false},{"time":2,"distance":2380,"station_name":"Pasar Minggu Baru","transit":false,"is_transit":false,"i_long":106.851577,"i_lat":-6.263214,"station_id":"PSMB","line":2},{"station_id":"DRN","station_name":"Duren Kalibata","transit":false,"i_lat":-6.255332,"distance":824,"i_long":106.85449,"line":2,"is_transit":false,"time":2},{"station_id":"CW","station_name":"Cawang","distance":1546,"i_long":106.856607,"line":2,"i_lat":-6.242512,"transit":false,"is_transit":false,"time":3},{"station_id":"TEB","time":2,"is_transit":false,"i_lat":-6.226659,"station_name":"Tebet","transit":false,"distance":1230,"i_long":106.857948,"line":2},{"transit":false,"distance":2610,"time":4,"station_name":"Manggarai","i_lat":-6.209883,"line":2,"station_id":"MRI","is_transit":false,"i_long":106.84912},{"station_name":"Cikini","distance":1590,"is_transit":false,"line":2,"i_long":106.840169,"time":4,"i_lat":-6.198556,"transit":false,"station_id":"CKI"}],[{"time":0,"transit":false,"station_id":"LNA","i_lat":-6.330363,"is_transit":false,"distance":0,"i_long":106.832616,"line":2,"station_name":"Lenteng Agung"},{"i_lat":-6.3080680000000005,"transit":false,"station_name":"Tanjung Barat","station_id":"TNT","line":2,"distance":2671,"is_transit":false,"time":3,"i_long":106.838896},{"distance":2820,"i_lat":-6.2842400000000005,"transit":false,"line":2,"time":4,"station_id":"PSM","station_name":"Pasar Minggu","is_transit":false,"i_long":106.843999},{"time":2,"line":2,"is_transit":false,"i_long":106.851577,"distance":2380,"transit":false,"station_name":"Pasar Minggu Baru","i_lat":-6.263214,"station_id":"PSMB"},{"transit":false,"time":2,"line":2,"i_lat":-6.255332,"station_name":"Duren Kalibata","station_id":"DRN","is_transit":false,"distance":824,"i_long":106.85449},{"line":2,"transit":false,"is_transit":false,"i_long":106.856607,"station_id":"CW","distance":1546,"station_name":"Cawang","time":3,"i_lat":-6.242512},{"line":2,"station_name":"Tebet","transit":false,"is_transit":false,"station_id":"TEB","distance":1230,"i_lat":-6.226659,"time":2,"i_long":106.857948},{"station_id":"MRI","station_name":"Manggarai","transit":true,"is_transit":true,"distance":2610,"time":4,"i_lat":-6.209883,"line":2,"i_long":106.84912},{"transit":false,"line":1,"is_transit":false,"station_name":"Sudirman","time":4,"station_id":"SUD","distance":3186,"i_lat":-6.202263,"i_long":106.822649},{"time":1,"distance":280,"station_id":"SUDB","is_transit":false,"i_lat":-6.201433,"line":1,"i_long":106.819881,"station_name":"Sudirman Baru","transit":false},{"distance":471,"is_transit":false,"i_long":106.816351,"i_lat":-6.20132,"station_id":"KAT","line":1,"time":1,"station_name":"Karet","transit":false},{"i_lat":-6.185545,"time":5,"i_long":106.811091,"is_transit":false,"distance":2029,"station_name":"Tanah Abang","line":1,"transit":false,"station_id":"THB"},{"distance":3632,"line":1,"i_lat":-6.155215,"is_transit":false,"station_id":"DU","i_long":106.800832,"transit":false,"station_name":"Duri","time":8},{"is_transit":false,"line":1,"transit":false,"station_id":"AK","i_long":106.79867,"station_name":"Angke","i_lat":-6.144674,"distance":1230,"time":4},{"line":4,"station_id":"KPB","time":9,"is_transit":true,"i_long":106.826365,"transit":true,"station_name":"Kampung Bandan","i_lat":-6.132549,"distance":4102},{"station_name":"Jakarta Kota","line":2,"i_lat":-6.137569,"station_id":"JAKK","transit":true,"is_transit":true,"distance":1364,"time":3,"i_long":106.812439},{"i_lat":-6.141205,"distance":1264,"i_long":106.820901,"line":2,"is_transit":false,"station_name":"Jayakarta","transit":false,"station_id":"JAY","time":4},{"time":2,"station_name":"Manggabesar","distance":1080,"i_lat":-6.149769,"station_id":"MGB","transit":false,"i_long":106.82482,"line":2,"is_transit":false},{"time":2,"i_long":106.827103,"transit":false,"station_id":"SW","distance":906,"station_name":"Sawah Besar","is_transit":false,"line":2,"i_lat":-6.160725},{"is_transit":false,"transit":false,"distance":1149,"i_long":106.828284,"i_lat":-6.166716,"line":2,"time":2,"station_name":"Juanda","station_id":"JUA"},{"is_transit":false,"station_name":"Gondangdia","station_id":"GDD","time":4,"distance":2015,"i_long":106.832183,"transit":false,"line":2,"i_lat":-6.186295},{"time":3,"i_long":106.840169,"line":2,"transit":false,"distance":1750,"i_lat":-6.198556,"station_id":"CKI","station_name":"Cikini","is_transit":false}],[{"station_id":"LNA","distance":0,"i_lat":-6.330363,"line":2,"time":0,"transit":false,"i_long":106.832616,"station_name":"Lenteng Agung","is_transit":false},{"transit":false,"distance":2671,"i_lat":-6.3080680000000005,"station_name":"Tanjung Barat","i_long":106.838896,"is_transit":false,"station_id":"TNT","time":3,"line":2},{"time":4,"i_long":106.843999,"is_transit":false,"i_lat":-6.2842400000000005,"station_id":"PSM","line":2,"transit":false,"station_name":"Pasar Minggu","distance":2820},{"time":2,"line":2,"i_lat":-6.263214,"transit":false,"is_transit":false,"distance":2380,"station_name":"Pasar Minggu Baru","i_long":106.851577,"station_id":"PSMB"},{"line":2,"i_lat":-6.255332,"i_long":106.85449,"time":2,"is_transit":false,"transit":false,"station_name":"Duren Kalibata","station_id":"DRN","distance":824},{"station_id":"CW","station_name":"Cawang","line":2,"time":3,"is_transit":false,"distance":1546,"i_long":106.856607,"transit":false,"i_lat":-6.242512},{"station_name":"Tebet","station_id":"TEB","is_transit":false,"i_lat":-6.226659,"i_long":106.857948,"transit":false,"time":2,"line":2,"distance":1230},{"station_id":"MRI","time":4,"is_transit":true,"i_lat":-6.209883,"i_long":106.84912,"station_name":"Manggarai","distance":2610,"transit":true,"line":2},{"station_name":"Matraman","transit":false,"line":1,"i_long":106.858896,"distance":1275,"station_id":"MTR","is_transit":false,"i_lat":-6.212485,"time":2},{"is_transit":true,"transit":true,"distance":1377,"time":8,"i_lat":-6.215091,"i_long":106.86807400000001,"station_id":"JNG","line":1,"station_name":"Jatinegara"},{"transit":false,"station_name":"Pondok Jati","i_long":106.861737,"i_lat":-6.209188,"station_id":"POK","time":2,"is_transit":false,"distance":1236,"line":11},{"station_name":"Kramat","transit":false,"is_transit":false,"i_lat":-6.193792,"i_long":106.855437,"distance":1829,"station_id":"KMT","time":2,"line":11},{"station_id":"GST","i_long":106.850107,"distance":973,"time":1,"line":11,"is_transit":false,"i_lat":-6.185975,"station_name":"Gang Sentiong","transit":false},{"station_name":"Pasar Senen","i_long":106.84368,"transit":false,"i_lat":-6.174784,"line":11,"station_id":"PSE","distance":1567,"is_transit":false,"time":8},{"i_lat":-6.161728,"station_name":"Kemayoran","station_id":"KMO","time":4,"is_transit":false,"line":11,"distance":1436,"transit":false,"i_long":106.839204},{"is_transit":false,"time":5,"station_name":"Rajawali","i_lat":-6.14505,"i_long":106.836569,"line":11,"distance":1901,"station_id":"RJW","transit":false},{"distance":1444,"time":3,"station_name":"Kampung Bandan","i_lat":-6.132549,"is_transit":true,"line":4,"i_long":106.826365,"station_id":"KPB","transit":true},{"i_lat":-6.137569,"station_id":"JAKK","transit":true,"line":2,"i_long":106.812439,"distance":1364,"station_name":"Jakarta Kota","time":3,"is_transit":true},{"transit":false,"line":2,"distance":1264,"i_lat":-6.141205,"is_transit":false,"station_name":"Jayakarta","time":4,"i_long":106.820901,"station_id":"JAY"},{"i_long":106.82482,"transit":false,"i_lat":-6.149769,"is_transit":false,"distance":1080,"line":2,"station_name":"Manggabesar","station_id":"MGB","time":2},{"i_long":106.827103,"line":2,"station_id":"SW","is_transit":false,"distance":906,"time":2,"transit":false,"i_lat":-6.160725,"station_name":"Sawah Besar"},{"is_transit":false,"time":2,"i_lat":-6.166716,"distance":1149,"transit":false,"i_long":106.828284,"line":2,"station_name":"Juanda","station_id":"JUA"},{"time":4,"station_name":"Gondangdia","i_long":106.832183,"i_lat":-6.186295,"line":2,"distance":2015,"station_id":"GDD","is_transit":false,"transit":false},{"station_id":"CKI","is_transit":false,"distance":1750,"time":3,"i_lat":-6.198556,"transit":false,"station_name":"Cikini","i_long":106.840169,"line":2}]]}