{"data":[[{"time":0,"distance":0,"line":2,"i_long":106.832616,"is_transit":false,"station_id":"LNA","transit":false,"i_lat":-6.330363,"station_name":"Lenteng Agung"},{"is_transit":false,"line":2,"station_name":"Tanjung Barat","station_id":"TNT","distance":2671,"i_long":106.838896,"i_lat":-6.3080680000000005,"time":3,"transit":false},{"station_id":"PSM","i_long":106.843999,"line":2,"time":4,"station_name":"Pasar Minggu","transit":false,"is_transit":false,"i_lat":-6.2842400000000005,"distance":2820},{"transit":false,"time":2,"distance":2380,"line":2,"station_name":"Pasar Minggu Baru","station_id":"PSMB","is_transit":false,"i_lat":-6.263214,"i_long":106.851577},{"is_transit":false,"station_id":"DRN","i_long":106.85449,"i_lat":-6.255332,"transit":false,"station_name":"Duren Kalibata","line":2,"time":2,"distance":824},{"is_transit":false,"i_lat":-6.242512,"i_long":106.856607,"line":2,"time":3,"transit":false,"station_name":"Cawang","station_id":"CW","distance":1546},{"is_transit":false,"time":2,"transit":false,"i_lat":-6.226659,"i_long":106.857948,"station_name":"Tebet","station_id":"TEB","line":2,"distance":1230},{"is_transit":true,"i_lat":-6.209883,"time":4,"i_long":106.84912,"transit":true,"distance":2610,"station_name":"Manggarai","line":2,"station_id":"MRI"},{"i_long":106.822649,"station_id":"SUD","station_name":"Sudirman","time":4,"line":1,"distance":3186,"i_lat":-6.202263,"transit":false,"is_transit":false},{"i_lat":-6.201433,"distance":280,"line":1,"time":1,"transit":false,"station_name":"Sudirman Baru","i_long":106.819881,"is_transit":false,"station_id":"SUDB"},{"line":1,"distance":471,"station_name":"Karet","time":1,"i_long":106.816351,"i_lat":-6.20132,"is_transit":false,"transit":false,"station_id":"KAT"},{"i_lat":-6.185545,"line":1,"time":5,"distance":2029,"is_transit":true,"transit":true,"i_long":106.811091,"station_name":"Tanah Abang","station_id":"THB"},{"time":6,"is_transit":false,"station_id":"PLM","i_lat":-6.207404,"distance":3191,"line":6,"transit":false,"station_name":"Palmerah","i_long":106.79689},{"is_transit":false,"time":7,"distance":3737,"i_lat":-6.237242,"i_long":106.780334,"transit":false,"station_id":"KBY","station_name":"Kebayoran","line":6},{"i_long":106.74273,"transit":false,"is_transit":false,"distance":6218,"line":6,"time":8,"i_lat":-6.276362,"station_id":"PDJ","station_name":"Pondokranji"},{"transit":false,"is_transit":false,"time":3,"line":6,"distance":2179,"station_name":"Jurangmangu","i_long":106.728916,"i_lat":-6.288927,"station_id":"JMU"},{"station_id":"SDM","i_long":106.712277,"time":4,"is_transit":false,"line":6,"station_name":"Sudimara","distance":1994,"transit":false,"i_lat":-6.296963},{"time":6,"distance":4566,"station_id":"RU","line":6,"is_transit":false,"transit":false,"station_name":"Rawa Buntu","i_lat":-6.314823,"i_long":106.675475},{"station_name":"Serpong","distance":2413,"is_transit":false,"line":6,"transit":false,"i_lat":-6.319871,"i_long":106.66566,"station_id":"SRP","time":4},{"station_id":"CSK","station_name":"Cisauk","transit":false,"is_transit":false,"time":4,"distance":1784,"i_lat":-6.32484,"i_long":106.640411,"line":3},{"station_name":"Cicayur","line":3,"distance":2519,"is_transit":false,"time":4,"i_lat":-6.329547,"i_long":106.617853,"transit":false,"station_id":"CC"},{"station_id":"PRP","is_transit":false,"transit":false,"i_long":106.568863,"distance":5968,"i_lat":-6.3441410000000005,"line":6,"station_name":"Parung Panjang","time":8},{"transit":false,"time":9,"line":3,"i_long":106.508482,"i_lat":-6.354349,"station_name":"Cilejit","is_transit":false,"distance":7025,"station_id":"CJT"},{"i_lat":-6.338021,"transit":false,"time":6,"station_id":"DAR","station_name":"Daru","distance":2675,"i_long":106.491338,"line":0,"is_transit":false},{"is_transit":false,"station_name":"Tenjo","i_long":106.460812,"transit":false,"time":5,"i_lat":-6.327251,"line":6,"distance":3902,"station_id":"TEJ"},{"time":5,"line":6,"distance":2974,"i_lat":-6.328533,"station_name":"Tigaraksa","station_id":"TGS","i_long":106.425991,"is_transit":false,"transit":false}],[{"line":2,"station_id":"LNA","is_transit":false,"distance":0,"i_lat":-6.330363,"i_long":106.832616,"transit":false,"station_name":"Lenteng Agung","time":0},{"station_id":"TNT","station_name":"Tanjung Barat","distance":2671,"transit":false,"i_lat":-6.3080680000000005,"time":3,"i_long":106.838896,"line":2,"is_transit":false},{"station_id":"PSM","station_name":"Pasar Minggu","is_transit":false,"distance":2820,"line":2,"i_lat":-6.2842400000000005,"i_long":106.843999,"transit":false,"time":4},{"time":2,"distance":2380,"i_lat":-6.263214,"line":2,"transit":false,"station_name":"Pasar Minggu Baru","i_long":106.851577,"is_transit":false,"station_id":"PSMB"},{"distance":824,"is_transit":false,"time":2,"station_name":"Duren Kalibata","i_lat":-6.255332,"i_long":106.85449,"station_id":"DRN","transit":false,"line":2},{"i_lat":-6.242512,"line":2,"i_long":106.856607,"time":3,"station_name":"Cawang","station_id":"CW","is_transit":false,"distance":1546,"transit":false},{"is_transit":false,"line":2,"station_id":"TEB","i_lat":-6.226659,"station_name":"Tebet","distance":1230,"transit":false,"time":2,"i_long":106.857948},{"transit":false,"distance":2610,"station_name":"Manggarai","is_transit":false,"time":4,"station_id":"MRI","i_lat":-6.209883,"i_long":106.84912,"line":2},{"transit":false,"is_transit":false,"time":4,"station_name":"Cikini","i_long":106.840169,"i_lat":-6.198556,"line":2,"station_id":"CKI","distance":1590},{"station_name":"Gondangdia","distance":1750,"i_lat":-6.186295,"is_transit":false,"transit":false,"i_long":106.832183,"line":2,"time":3,"station_id":"GDD"},{"distance":2015,"transit":false,"is_transit":false,"i_long":106.828284,"station_id":"JUA","i_lat":-6.166716,"line":2,"time":4,"station_name":"Juanda"},{"i_long":106.827103,"station_id":"SW","i_lat":-6.160725,"time":2,"transit":false,"distance":1149,"is_transit":false,"line":2,"station_name":"Sawah Besar"},{"transit":false,"station_name":"Manggabesar","is_transit":false,"distance":906,"i_lat":-6.149769,"time":2,"station_id":"MGB","i_long":106.82482,"line":2},{"line":2,"time":2,"i_long":106.820901,"is_transit":false,"transit":false,"i_lat":-6.141205,"station_name":"Jayakarta","distance":1080,"station_id":"JAY"},{"station_name":"Jakarta Kota","station_id":"JAKK","is_transit":true,"i_lat":-6.137569,"time":4,"distance":1264,"i_long":106.812439,"transit":true,"line":2},{"line":4,"transit":true,"distance":1364,"time":3,"station_name":"Kampung Bandan","station_id":"KPB","is_transit":true,"i_lat":-6.132549,"i_long":106.826365},{"i_lat":-6.144674,"i_long":106.79867,"transit":false,"station_name":"Angke","line":1,"is_transit":false,"station_id":"AK","time":9,"distance":4102},{"transit":false,"line":1,"station_name":"Duri","time":4,"i_long":106.800832,"distance":1230,"i_lat":-6.155215,"station_id":"DU","is_transit":false},{"is_transit":true,"distance":3632,"station_name":"Tanah Abang","line":1,"transit":true,"station_id":"THB","i_long":106.811091,"time":8,"i_lat":-6.185545},{"time":6,"i_lat":-6.207404,"station_id":"PLM","station_name":"Palmerah","distance":3191,"i_long":106.79689,"is_transit":false,"line":6,"transit":false},{"station_id":"KBY","is_transit":false,"station_name":"Kebayoran","i_lat":-6.237242,"line":6,"distance":3737,"time":7,"transit":false,"i_long":106.780334},{"is_transit":false,"time":8,"line":6,"transit":false,"distance":6218,"i_long":106.74273,"station_name":"Pondokranji","i_lat":-6.276362,"station_id":"PDJ"},{"line":6,"station_id":"JMU","is_transit":false,"station_name":"Jurangmangu","transit":false,"time":3,"i_lat":-6.288927,"distance":2179,"i_long":106.728916},{"time":4,"distance":1994,"i_lat":-6.296963,"transit":false,"station_name":"Sudimara","is_transit":false,"line":6,"station_id":"SDM","i_long":106.712277},{"distance":4566,"i_long":106.675475,"station_name":"Rawa Buntu","station_id":"RU","is_transit":false,"time":6,"i_lat":-6.314823,"transit":false,"line":6},{"i_lat":-6.319871,"transit":false,"is_transit":false,"distance":2413,"i_long":106.66566,"station_id":"SRP","time":4,"line":6,"station_name":"Serpong"},{"line":3,"station_id":"CSK","time":4,"distance":1784,"i_lat":-6.32484,"station_name":"Cisauk","is_transit":false,"transit":false,"i_long":106.640411},{"time":4,"distance":2519,"i_lat":-6.329547,"station_name":"Cicayur","station_id":"CC","i_long":106.617853,"transit":false,"line":3,"is_transit":false},{"distance":5968,"time":8,"line":6,"station_id":"PRP","transit":false,"i_lat":-6.3441410000000005,"station_name":"Parung Panjang","i_long":106.568863,"is_transit":false},{"transit":false,"i_long":106.508482,"is_transit":false,"distance":7025,"station_id":"CJT","i_lat":-6.354349,"line":3,"station_name":"Cilejit","time":9},{"distance":2675,"station_id":"DAR","line":0,"is_transit":false,"time":6,"transit":false,"i_long":106.491338,"i_lat":-6.338021,"station_name":"Daru"},{"transit":false,"is_transit":false,"i_lat":-6.327251,"distance":3902,"i_long":106.460812,"station_name":"Tenjo","time":5,"station_id":"TEJ","line":6},{"line":6,"station_id":"TGS","transit":false,"time":5,"distance":2974,"station_name":"Tigaraksa","i_lat":-6.328533,"i_long":106.425991,"is_transit":false}],[{"transit":false,"line":2,"station_name":"Lenteng Agung","is_transit":false,"time":0,"distance":0,"i_long":106.832616,"station_id":"LNA","i_lat":-6.330363},{"transit":false,"i_lat":-6.3080680000000005,"station_id":"TNT","station_name":"Tanjung Barat","distance":2671,"i_long":106.838896,"time":3,"line":2,"is_transit":false},{"i_lat":-6.2842400000000005,"line":2,"station_name":"Pasar Minggu","time":4,"i_long":106.843999,"station_id":"PSM","transit":false,"is_transit":false,"distance":2820},{"i_lat":-6.263214,"transit":false,"station_name":"Pasar Minggu Baru","time":2,"station_id":"PSMB","distance":2380,"is_transit":false,"i_long":106.851577,"line":2},{"distance":824,"is_transit":false,"transit":false,"station_id":"DRN","station_name":"Duren Kalibata","time":2,"i_long":106.85449,"i_lat":-6.255332,"line":2},{"line":2,"is_transit":false,"time":3,"i_long":106.856607,"station_id":"CW","i_lat":-6.242512,"station_name":"Cawang","transit":false,"distance":1546},{"i_long":106.857948,"transit":false,"station_name":"Tebet","is_transit":false,"i_lat":-6.226659,"station_id":"TEB","distance":1230,"line":2,"time":2},{"station_name":"Manggarai","time":4,"i_long":106.84912,"transit":true,"distance":2610,"is_transit":true,"station_id":"MRI","i_lat":-6.209883,"line":2},{"time":2,"i_long":106.858896,"transit":false,"i_lat":-6.212485,"line":1,"station_id":"MTR","station_name":"Matraman","distance":1275,"is_transit":false},{"time":8,"transit":true,"is_transit":true,"station_id":"JNG","i_lat":-6.215091,"line":1,"station_name":"Jatinegara","distance":1377,"i_long":106.86807400000001},{"time":2,"station_id":"POK","station_name":"Pondok Jati","i_long":106.861737,"distance":1236,"line":11,"transit":false,"i_lat":-6.209188,"is_transit":false},{"is_transit":false,"i_long":106.855437,"line":11,"time":2,"transit":false,"distance":1829,"i_lat":-6.193792,"station_id":"KMT","station_name":"Kramat"},{"i_long":106.850107,"line":11,"transit":false,"i_lat":-6.185975,"station_name":"Gang Sentiong","station_id":"GST","is_transit":false,"time":1,"distance":973},{"station_name":"Pasar Senen","is_transit":false,"line":11,"i_lat":-6.174784,"time":8,"i_long":106.84368,"transit":false,"distance":1567,"station_id":"PSE"},{"station_id":"KMO","station_name":"Kemayoran","time":4,"transit":false,"is_transit":false,"i_long":106.839204,"distance":1436,"i_lat":-6.161728,"line":11},{"distance":1901,"is_transit":false,"time":5,"i_long":106.836569,"station_name":"Rajawali","i_lat":-6.14505,"transit":false,"station_id":"RJW","line":11},{"station_name":"Kampung Bandan","is_transit":true,"i_long":106.826365,"station_id":"KPB","time":3,"line":4,"transit":true,"distance":1444,"i_lat":-6.132549},{"distance":4102,"i_long":106.79867,"i_lat":-6.144674,"transit":false,"is_transit":false,"time":9,"line":1,"station_id":"AK","station_name":"Angke"},{"transit":false,"station_name":"Duri","i_lat":-6.155215,"line":1,"station_id":"DU","i_long":106.800832,"distance":1230,"is_transit":false,"time":4},{"is_transit":true,"transit":true,"station_name":"Tanah Abang","i_long":106.811091,"line":1,"i_lat":-6.185545,"time":8,"station_id":"THB","distance":3632},{"i_lat":-6.207404,"line":6,"i_long":106.79689,"distance":3191,"is_transit":false,"station_id":"PLM","transit":false,"station_name":"Palmerah","time":6},{"transit":false,"station_id":"KBY","is_transit":false,"station_name":"Kebayoran","distance":3737,"i_long":106.780334,"time":7,"line":6,"i_lat":-6.237242},{"is_transit":false,"time":8,"distance":6218,"i_long":106.74273,"transit":false,"station_name":"Pondokranji","station_id":"PDJ","i_lat":-6.276362,"line":6},{"is_transit":false,"station_id":"JMU","line":6,"time":3,"i_lat":-6.288927,"station_name":"Jurangmangu","distance":2179,"i_long":106.728916,"transit":false},{"line":6,"is_transit":false,"i_lat":-6.296963,"i_long":106.712277,"station_id":"SDM","station_name":"Sudimara","time":4,"distance":1994,"transit":false},{"is_transit":false,"transit":false,"station_name":"Rawa Buntu","station_id":"RU","i_long":106.675475,"distance":4566,"time":6,"i_lat":-6.314823,"line":6},{"distance":2413,"station_name":"Serpong","is_transit":false,"line":6,"transit":false,"i_lat":-6.319871,"station_id":"SRP","time":4,"i_long":106.66566},{"transit":false,"i_lat":-6.32484,"line":3,"distance":1784,"station_name":"Cisauk","i_long":106.640411,"time":4,"is_transit":false,"station_id":"CSK"},{"station_id":"CC","i_long":106.617853,"distance":2519,"transit":false,"i_lat":-6.329547,"is_transit":false,"line":3,"station_name":"Cicayur","time":4},{"i_lat":-6.3441410000000005,"time":8,"i_long":106.568863,"distance":5968,"station_id":"PRP","line":6,"is_transit":false,"station_name":"Parung Panjang","transit":false},{"time":9,"distance":7025,"i_lat":-6.354349,"transit":false,"line":3,"is_transit":false,"station_id":"CJT","i_long":106.508482,"station_name":"Cilejit"},{"is_transit":false,"station_id":"DAR","distance":2675,"line":0,"i_lat":-6.338021,"time":6,"station_name":"Daru","transit":false,"i_long":106.491338},{"i_long":106.460812,"i_lat":-6.327251,"station_name":"Tenjo","transit":false,"station_id":"TEJ","is_transit":false,"time":5,"distance":3902,"line":6},{"i_long":106.425991,"i_lat":-6.328533,"station_name":"Tigaraksa","is_transit":false,"distance":2974,"time":5,"line":6,"station_id":"TGS","transit":false}]]}