{"data":[[{"line":2,"station_id":"LNA","i_lat":-6.330363,"i_long":106.832616,"transit":false,"station_name":"Lenteng Agung","is_transit":false,"time":0,"distance":0},{"time":3,"transit":false,"i_lat":-6.3080680000000005,"i_long":106.838896,"line":2,"distance":2671,"station_name":"Tanjung Barat","station_id":"TNT","is_transit":false},{"is_transit":false,"station_id":"PSM","i_long":106.843999,"station_name":"Pasar Minggu","line":2,"time":4,"distance":2820,"transit":false,"i_lat":-6.2842400000000005},{"distance":2380,"station_id":"PSMB","time":2,"transit":false,"is_transit":false,"line":2,"i_lat":-6.263214,"i_long":106.851577,"station_name":"Pasar Minggu Baru"},{"is_transit":false,"time":2,"station_name":"Duren Kalibata","distance":824,"line":0,"transit":false,"station_id":"DRN","i_lat":-6.255332,"i_long":106.85449},{"distance":1546,"station_name":"Cawang","station_id":"CW","is_transit":false,"time":3,"transit":false,"i_lat":-6.242512,"i_long":106.856607,"line":0},{"station_id":"TEB","transit":false,"distance":1230,"line":2,"time":2,"i_long":106.857948,"i_lat":-6.226659,"station_name":"Tebet","is_transit":false},{"i_long":106.84912,"transit":true,"i_lat":-6.209883,"line":0,"is_transit":true,"distance":2610,"station_id":"MRI","station_name":"Manggarai","time":4},{"station_id":"SUD","transit":false,"is_transit":false,"line":1,"station_name":"Sudirman","i_lat":-6.202263,"time":4,"i_long":106.822649,"distance":3186},{"station_name":"Sudirman Baru","time":1,"transit":false,"i_lat":-6.201433,"line":1,"is_transit":false,"i_long":106.819881,"distance":280,"station_id":"SUDB"},{"line":1,"station_id":"KAT","transit":false,"i_lat":-6.20132,"station_name":"Karet","time":1,"is_transit":false,"distance":471,"i_long":106.816351},{"i_lat":-6.185545,"transit":true,"distance":2029,"i_long":106.811091,"station_id":"THB","station_name":"Tanah Abang","is_transit":true,"line":1,"time":5},{"is_transit":false,"time":6,"station_id":"PLM","distance":3191,"transit":false,"i_lat":-6.207404,"i_long":106.79689,"station_name":"Palmerah","line":6},{"i_lat":-6.237242,"station_name":"Kebayoran","station_id":"KBY","distance":3737,"transit":false,"i_long":106.780334,"is_transit":false,"time":7,"line":6},{"distance":6218,"transit":false,"line":6,"is_transit":false,"station_name":"Pondokranji","station_id":"PDJ","time":8,"i_long":106.74273,"i_lat":-6.276362},{"station_id":"JMU","transit":false,"i_lat":-6.288927,"station_name":"Jurangmangu","i_long":106.728916,"line":6,"is_transit":false,"time":3,"distance":2179},{"i_long":106.712277,"transit":false,"i_lat":-6.296963,"line":6,"station_id":"SDM","station_name":"Sudimara","time":4,"is_transit":false,"distance":1994},{"transit":false,"i_lat":-6.314823,"line":6,"distance":4566,"time":6,"is_transit":false,"station_id":"RU","i_long":106.675475,"station_name":"Rawa Buntu"},{"distance":2413,"line":6,"i_long":106.66566,"i_lat":-6.319871,"station_id":"SRP","station_name":"Serpong","time":4,"transit":false,"is_transit":false},{"station_id":"CSK","distance":1784,"time":4,"transit":false,"i_lat":-6.32484,"i_long":106.640411,"line":0,"station_name":"Cisauk","is_transit":false},{"transit":false,"i_long":106.617853,"station_id":"CC","i_lat":-6.329547,"station_name":"Cicayur","time":4,"distance":2519,"line":0,"is_transit":false},{"distance":5968,"i_long":106.568863,"station_id":"PRP","is_transit":false,"time":8,"station_name":"Parung Panjang","transit":false,"line":6,"i_lat":-6.3441410000000005},{"line":0,"is_transit":false,"distance":7025,"transit":false,"station_id":"CJT","time":9,"i_lat":-6.354349,"i_long":106.508482,"station_name":"Cilejit"}],[{"i_lat":-6.330363,"station_id":"LNA","station_name":"Lenteng Agung","i_long":106.832616,"distance":0,"line":2,"transit":false,"is_transit":false,"time":0},{"time":3,"i_long":106.838896,"transit":false,"line":2,"is_transit":false,"i_lat":-6.3080680000000005,"station_name":"Tanjung Barat","station_id":"TNT","distance":2671},{"time":4,"transit":false,"i_lat":-6.2842400000000005,"distance":2820,"is_transit":false,"station_name":"Pasar Minggu","line":2,"i_long":106.843999,"station_id":"PSM"},{"i_lat":-6.263214,"station_name":"Pasar Minggu Baru","station_id":"PSMB","is_transit":false,"i_long":106.851577,"distance":2380,"time":2,"transit":false,"line":2},{"distance":824,"transit":false,"is_transit":false,"station_id":"DRN","i_lat":-6.255332,"i_long":106.85449,"station_name":"Duren Kalibata","line":0,"time":2},{"station_name":"Cawang","station_id":"CW","i_lat":-6.242512,"i_long":106.856607,"line":0,"distance":1546,"time":3,"transit":false,"is_transit":false},{"line":2,"i_long":106.857948,"time":2,"transit":false,"station_id":"TEB","station_name":"Tebet","distance":1230,"i_lat":-6.226659,"is_transit":false},{"is_transit":true,"transit":true,"distance":2610,"station_name":"Manggarai","line":0,"station_id":"MRI","i_long":106.84912,"i_lat":-6.209883,"time":4},{"transit":false,"line":0,"i_lat":-6.198556,"station_name":"Cikini","distance":1590,"station_id":"CKI","is_transit":false,"time":4,"i_long":106.840169},{"time":3,"distance":1750,"station_id":"GDD","transit":false,"i_lat":-6.186295,"line":2,"station_name":"Gondangdia","is_transit":false,"i_long":106.832183},{"transit":false,"i_long":106.828284,"station_id":"JUA","is_transit":false,"distance":2015,"time":4,"line":2,"station_name":"Juanda","i_lat":-6.166716},{"i_long":106.827103,"time":2,"distance":1149,"line":2,"station_name":"Sawah Besar","transit":false,"i_lat":-6.160725,"station_id":"SW","is_transit":false},{"i_long":106.82482,"time":2,"station_id":"MGB","distance":906,"station_name":"Manggabesar","is_transit":false,"i_lat":-6.149769,"transit":false,"line":2},{"station_id":"JAY","i_long":106.820901,"i_lat":-6.141205,"transit":false,"station_name":"Jayakarta","is_transit":false,"distance":1080,"time":2,"line":7},{"is_transit":true,"station_name":"Jakarta Kota","distance":1264,"station_id":"JAKK","line":0,"time":4,"transit":true,"i_lat":-6.137569,"i_long":106.812439},{"distance":1364,"i_long":106.826365,"time":3,"line":0,"station_id":"KPB","i_lat":-6.132549,"is_transit":true,"station_name":"Kampung Bandan","transit":false},{"line":0,"transit":false,"distance":4102,"station_name":"Angke","i_long":106.79867,"is_transit":false,"time":9,"station_id":"AK","i_lat":-6.144674},{"station_id":"DU","transit":true,"i_lat":-6.155215,"i_long":106.800832,"time":4,"station_name":"Duri","is_transit":true,"line":1,"distance":1230},{"i_long":106.811091,"station_name":"Tanah Abang","line":1,"is_transit":true,"transit":true,"time":8,"distance":3632,"station_id":"THB","i_lat":-6.185545},{"station_id":"PLM","i_lat":-6.207404,"i_long":106.79689,"transit":false,"time":6,"is_transit":false,"station_name":"Palmerah","line":6,"distance":3191},{"line":6,"time":7,"i_long":106.780334,"i_lat":-6.237242,"is_transit":false,"distance":3737,"station_id":"KBY","station_name":"Kebayoran","transit":false},{"i_lat":-6.276362,"station_id":"PDJ","is_transit":false,"time":8,"transit":false,"i_long":106.74273,"line":6,"station_name":"Pondokranji","distance":6218},{"station_id":"JMU","distance":2179,"i_long":106.728916,"line":6,"time":3,"transit":false,"station_name":"Jurangmangu","is_transit":false,"i_lat":-6.288927},{"time":4,"distance":1994,"transit":false,"station_id":"SDM","station_name":"Sudimara","is_transit":false,"i_lat":-6.296963,"i_long":106.712277,"line":6},{"line":6,"is_transit":false,"station_name":"Rawa Buntu","time":6,"station_id":"RU","distance":4566,"i_long":106.675475,"transit":false,"i_lat":-6.314823},{"distance":2413,"i_lat":-6.319871,"transit":false,"i_long":106.66566,"line":6,"is_transit":false,"station_id":"SRP","station_name":"Serpong","time":4},{"line":0,"time":4,"i_long":106.640411,"station_id":"CSK","station_name":"Cisauk","is_transit":false,"distance":1784,"transit":false,"i_lat":-6.32484},{"distance":2519,"i_long":106.617853,"time":4,"station_id":"CC","i_lat":-6.329547,"transit":false,"line":0,"is_transit":false,"station_name":"Cicayur"},{"station_id":"PRP","time":8,"distance":5968,"station_name":"Parung Panjang","is_transit":false,"transit":false,"i_long":106.568863,"i_lat":-6.3441410000000005,"line":6},{"distance":7025,"time":9,"station_id":"CJT","station_name":"Cilejit","is_transit":false,"transit":false,"i_lat":-6.354349,"line":0,"i_long":106.508482}],[{"station_id":"LNA","station_name":"Lenteng Agung","time":0,"transit":false,"i_long":106.832616,"distance":0,"i_lat":-6.330363,"line":2,"is_transit":false},{"line":2,"station_name":"Tanjung Barat","is_transit":false,"transit":false,"i_lat":-6.3080680000000005,"i_long":106.838896,"time":3,"distance":2671,"station_id":"TNT"},{"time":4,"i_long":106.843999,"is_transit":false,"station_name":"Pasar Minggu","distance":2820,"i_lat":-6.2842400000000005,"transit":false,"line":2,"station_id":"PSM"},{"distance":2380,"transit":false,"i_lat":-6.263214,"line":2,"is_transit":false,"station_id":"PSMB","time":2,"station_name":"Pasar Minggu Baru","i_long":106.851577},{"time":2,"transit":false,"i_long":106.85449,"station_id":"DRN","i_lat":-6.255332,"distance":824,"line":0,"is_transit":false,"station_name":"Duren Kalibata"},{"station_id":"CW","distance":1546,"i_lat":-6.242512,"i_long":106.856607,"time":3,"is_transit":false,"line":0,"station_name":"Cawang","transit":false},{"station_id":"TEB","distance":1230,"i_lat":-6.226659,"transit":false,"i_long":106.857948,"time":2,"line":2,"is_transit":false,"station_name":"Tebet"},{"time":4,"station_name":"Manggarai","distance":2610,"transit":true,"line":0,"i_lat":-6.209883,"i_long":106.84912,"station_id":"MRI","is_transit":true},{"station_name":"Matraman","distance":1275,"i_long":106.858896,"time":2,"line":1,"i_lat":-6.212485,"is_transit":false,"station_id":"MTR","transit":false},{"i_long":106.86807400000001,"is_transit":true,"time":8,"station_id":"JNG","distance":1377,"transit":true,"i_lat":-6.215091,"station_name":"Jatinegara","line":0},{"time":2,"line":11,"distance":1236,"transit":false,"i_lat":-6.209188,"is_transit":false,"station_id":"POK","station_name":"Pondok Jati","i_long":106.861737},{"i_lat":-6.193792,"station_id":"KMT","line":11,"time":2,"transit":false,"distance":1829,"i_long":106.855437,"station_name":"Kramat","is_transit":false},{"time":1,"i_long":106.850107,"station_name":"Gang Sentiong","station_id":"GST","distance":973,"i_lat":-6.185975,"line":11,"is_transit":false,"transit":false},{"i_lat":-6.174784,"i_long":106.84368,"transit":false,"line":11,"is_transit":false,"time":8,"station_name":"Pasar Senen","distance":1567,"station_id":"PSE"},{"line":11,"is_transit":false,"i_lat":-6.161728,"time":4,"station_id":"KMO","distance":1436,"transit":false,"station_name":"Kemayoran","i_long":106.839204},{"distance":1901,"transit":false,"station_id":"RJW","station_name":"Rajawali","time":5,"i_lat":-6.14505,"i_long":106.836569,"line":11,"is_transit":false},{"station_name":"Kampung Bandan","time":3,"transit":true,"line":0,"is_transit":true,"i_lat":-6.132549,"station_id":"KPB","i_long":106.826365,"distance":1444},{"time":9,"station_name":"Angke","i_long":106.79867,"line":0,"distance":4102,"is_transit":false,"transit":false,"station_id":"AK","i_lat":-6.144674},{"i_long":106.800832,"station_name":"Duri","line":1,"i_lat":-6.155215,"transit":true,"distance":1230,"station_id":"DU","is_transit":true,"time":4},{"line":1,"time":8,"transit":true,"station_name":"Tanah Abang","is_transit":true,"distance":3632,"station_id":"THB","i_long":106.811091,"i_lat":-6.185545},{"line":6,"time":6,"i_lat":-6.207404,"is_transit":false,"i_long":106.79689,"station_id":"PLM","distance":3191,"station_name":"Palmerah","transit":false},{"station_id":"KBY","station_name":"Kebayoran","i_lat":-6.237242,"line":6,"i_long":106.780334,"time":7,"distance":3737,"is_transit":false,"transit":false},{"is_transit":false,"station_id":"PDJ","transit":false,"distance":6218,"i_long":106.74273,"station_name":"Pondokranji","time":8,"i_lat":-6.276362,"line":6},{"transit":false,"distance":2179,"station_name":"Jurangmangu","i_lat":-6.288927,"line":6,"i_long":106.728916,"station_id":"JMU","time":3,"is_transit":false},{"i_long":106.712277,"time":4,"station_name":"Sudimara","distance":1994,"station_id":"SDM","line":6,"transit":false,"is_transit":false,"i_lat":-6.296963},{"station_name":"Rawa Buntu","i_lat":-6.314823,"station_id":"RU","i_long":106.675475,"is_transit":false,"time":6,"distance":4566,"transit":false,"line":6},{"i_lat":-6.319871,"station_name":"Serpong","is_transit":false,"i_long":106.66566,"station_id":"SRP","distance":2413,"transit":false,"time":4,"line":6},{"line":0,"i_lat":-6.32484,"station_name":"Cisauk","station_id":"CSK","transit":false,"i_long":106.640411,"time":4,"distance":1784,"is_transit":false},{"station_id":"CC","is_transit":false,"i_lat":-6.329547,"station_name":"Cicayur","distance":2519,"transit":false,"line":0,"i_long":106.617853,"time":4},{"line":6,"transit":false,"i_lat":-6.3441410000000005,"station_id":"PRP","is_transit":false,"i_long":106.568863,"distance":5968,"time":8,"station_name":"Parung Panjang"},{"distance":7025,"line":0,"is_transit":false,"time":9,"i_lat":-6.354349,"transit":false,"station_name":"Cilejit","i_long":106.508482,"station_id":"CJT"}]]}