{"data":[[{"distance":0,"is_transit":false,"time":0,"line":2,"station_name":"Lenteng Agung","transit":false,"i_long":106.832616,"station_id":"LNA","i_lat":-6.330363},{"time":3,"distance":2671,"i_long":106.838896,"is_transit":false,"i_lat":-6.3080680000000005,"transit":false,"line":2,"station_id":"TNT","station_name":"Tanjung Barat"},{"i_long":106.843999,"line":2,"station_id":"PSM","station_name":"Pasar Minggu","transit":false,"distance":2820,"time":4,"is_transit":false,"i_lat":-6.2842400000000005},{"station_id":"PSMB","i_lat":-6.263214,"station_name":"Pasar Minggu Baru","is_transit":false,"distance":2380,"transit":false,"time":2,"i_long":106.851577,"line":2},{"is_transit":false,"station_id":"DRN","line":2,"distance":824,"i_lat":-6.255332,"i_long":106.85449,"station_name":"Duren Kalibata","time":2,"transit":false},{"distance":1546,"time":3,"transit":false,"station_name":"Cawang","i_lat":-6.242512,"i_long":106.856607,"line":2,"station_id":"CW","is_transit":false},{"transit":false,"i_long":106.857948,"distance":1230,"station_name":"Tebet","is_transit":false,"time":2,"i_lat":-6.226659,"line":2,"station_id":"TEB"},{"is_transit":true,"distance":2610,"i_lat":-6.209883,"i_long":106.84912,"line":2,"transit":true,"station_name":"Manggarai","time":4,"station_id":"MRI"},{"time":4,"station_id":"SUD","station_name":"Sudirman","distance":3186,"is_transit":false,"i_lat":-6.202263,"i_long":106.822649,"line":1,"transit":false},{"station_name":"Sudirman Baru","line":1,"distance":280,"time":1,"is_transit":false,"transit":false,"i_long":106.819881,"i_lat":-6.201433,"station_id":"SUDB"},{"is_transit":false,"i_lat":-6.20132,"transit":false,"station_name":"Karet","line":1,"time":1,"station_id":"KAT","distance":471,"i_long":106.816351},{"station_id":"THB","station_name":"Tanah Abang","distance":2029,"i_long":106.811091,"transit":false,"is_transit":false,"line":1,"time":5,"i_lat":-6.185545},{"station_name":"Duri","time":8,"i_lat":-6.155215,"is_transit":true,"transit":true,"line":1,"distance":3632,"station_id":"DU","i_long":106.800832},{"i_lat":-6.162021,"transit":false,"station_id":"GGL","station_name":"Grogol","distance":1700,"time":3,"is_transit":false,"line":5,"i_long":106.788277},{"line":5,"station_id":"PSG","is_transit":false,"distance":2036,"transit":false,"time":2,"i_long":106.771379,"i_lat":-6.161433,"station_name":"Pesing"}],[{"transit":false,"i_lat":-6.330363,"i_long":106.832616,"line":2,"station_name":"Lenteng Agung","is_transit":false,"time":0,"station_id":"LNA","distance":0},{"time":3,"i_long":106.838896,"distance":2671,"line":2,"is_transit":false,"transit":false,"station_name":"Tanjung Barat","i_lat":-6.3080680000000005,"station_id":"TNT"},{"time":4,"distance":2820,"station_id":"PSM","is_transit":false,"transit":false,"station_name":"Pasar Minggu","i_long":106.843999,"i_lat":-6.2842400000000005,"line":2},{"i_long":106.851577,"line":2,"station_id":"PSMB","transit":false,"distance":2380,"station_name":"Pasar Minggu Baru","i_lat":-6.263214,"is_transit":false,"time":2},{"station_id":"DRN","is_transit":false,"transit":false,"i_long":106.85449,"time":2,"distance":824,"i_lat":-6.255332,"line":2,"station_name":"Duren Kalibata"},{"distance":1546,"station_id":"CW","is_transit":false,"i_lat":-6.242512,"i_long":106.856607,"transit":false,"station_name":"Cawang","line":2,"time":3},{"time":2,"distance":1230,"is_transit":false,"i_lat":-6.226659,"station_id":"TEB","station_name":"Tebet","transit":false,"line":2,"i_long":106.857948},{"i_lat":-6.209883,"i_long":106.84912,"distance":2610,"line":2,"time":4,"transit":false,"station_id":"MRI","is_transit":false,"station_name":"Manggarai"},{"station_name":"Cikini","time":4,"distance":1590,"is_transit":false,"station_id":"CKI","i_long":106.840169,"transit":false,"i_lat":-6.198556,"line":2},{"time":3,"transit":false,"i_lat":-6.186295,"station_name":"Gondangdia","distance":1750,"is_transit":false,"i_long":106.832183,"line":2,"station_id":"GDD"},{"transit":false,"distance":2015,"station_id":"JUA","is_transit":false,"i_lat":-6.166716,"time":4,"i_long":106.828284,"station_name":"Juanda","line":2},{"transit":false,"station_id":"SW","time":2,"line":2,"is_transit":false,"distance":1149,"station_name":"Sawah Besar","i_lat":-6.160725,"i_long":106.827103},{"transit":false,"is_transit":false,"distance":906,"line":2,"station_name":"Manggabesar","station_id":"MGB","time":2,"i_lat":-6.149769,"i_long":106.82482},{"is_transit":false,"time":2,"station_id":"JAY","i_lat":-6.141205,"i_long":106.820901,"distance":1080,"transit":false,"station_name":"Jayakarta","line":2},{"transit":true,"station_name":"Jakarta Kota","i_long":106.812439,"i_lat":-6.137569,"line":2,"is_transit":true,"time":4,"station_id":"JAKK","distance":1264},{"is_transit":true,"transit":true,"time":3,"line":4,"station_id":"KPB","distance":1364,"station_name":"Kampung Bandan","i_lat":-6.132549,"i_long":106.826365},{"transit":false,"i_long":106.79867,"line":1,"station_id":"AK","distance":4102,"time":9,"station_name":"Angke","i_lat":-6.144674,"is_transit":false},{"i_lat":-6.155215,"transit":true,"time":4,"line":1,"station_id":"DU","distance":1230,"station_name":"Duri","i_long":106.800832,"is_transit":true},{"is_transit":false,"time":3,"distance":1700,"transit":false,"i_lat":-6.162021,"station_name":"Grogol","i_long":106.788277,"line":5,"station_id":"GGL"},{"transit":false,"i_lat":-6.161433,"is_transit":false,"distance":2036,"time":2,"i_long":106.771379,"line":5,"station_id":"PSG","station_name":"Pesing"}],[{"distance":0,"station_name":"Lenteng Agung","time":0,"transit":false,"i_lat":-6.330363,"i_long":106.832616,"line":2,"station_id":"LNA","is_transit":false},{"station_id":"TNT","distance":2671,"station_name":"Tanjung Barat","i_lat":-6.3080680000000005,"i_long":106.838896,"time":3,"transit":false,"line":2,"is_transit":false},{"transit":false,"i_lat":-6.2842400000000005,"line":2,"distance":2820,"is_transit":false,"time":4,"station_name":"Pasar Minggu","station_id":"PSM","i_long":106.843999},{"is_transit":false,"transit":false,"station_name":"Pasar Minggu Baru","i_lat":-6.263214,"station_id":"PSMB","time":2,"i_long":106.851577,"line":2,"distance":2380},{"time":2,"station_id":"DRN","distance":824,"i_lat":-6.255332,"is_transit":false,"station_name":"Duren Kalibata","line":2,"i_long":106.85449,"transit":false},{"i_lat":-6.242512,"is_transit":false,"line":2,"transit":false,"station_id":"CW","station_name":"Cawang","time":3,"distance":1546,"i_long":106.856607},{"station_id":"TEB","is_transit":false,"i_long":106.857948,"time":2,"transit":false,"station_name":"Tebet","i_lat":-6.226659,"line":2,"distance":1230},{"station_id":"MRI","transit":true,"i_long":106.84912,"distance":2610,"time":4,"i_lat":-6.209883,"line":2,"is_transit":true,"station_name":"Manggarai"},{"station_id":"MTR","distance":1275,"transit":false,"i_lat":-6.212485,"i_long":106.858896,"line":1,"station_name":"Matraman","time":2,"is_transit":false},{"i_long":106.86807400000001,"line":1,"i_lat":-6.215091,"transit":true,"station_name":"Jatinegara","distance":1377,"time":8,"is_transit":true,"station_id":"JNG"},{"distance":1236,"is_transit":false,"i_long":106.861737,"station_id":"POK","i_lat":-6.209188,"line":11,"transit":false,"station_name":"Pondok Jati","time":2},{"i_lat":-6.193792,"station_name":"Kramat","time":2,"i_long":106.855437,"distance":1829,"line":11,"is_transit":false,"station_id":"KMT","transit":false},{"i_lat":-6.185975,"transit":false,"distance":973,"i_long":106.850107,"station_id":"GST","time":1,"station_name":"Gang Sentiong","line":11,"is_transit":false},{"distance":1567,"station_name":"Pasar Senen","i_lat":-6.174784,"is_transit":false,"line":11,"station_id":"PSE","transit":false,"i_long":106.84368,"time":8},{"distance":1436,"station_id":"KMO","is_transit":false,"time":4,"station_name":"Kemayoran","i_lat":-6.161728,"i_long":106.839204,"transit":false,"line":11},{"time":5,"station_id":"RJW","station_name":"Rajawali","i_long":106.836569,"transit":false,"i_lat":-6.14505,"line":11,"distance":1901,"is_transit":false},{"is_transit":true,"i_long":106.826365,"line":4,"station_name":"Kampung Bandan","transit":true,"distance":1444,"station_id":"KPB","time":3,"i_lat":-6.132549},{"is_transit":false,"station_name":"Angke","i_lat":-6.144674,"i_long":106.79867,"line":1,"time":9,"distance":4102,"transit":false,"station_id":"AK"},{"distance":1230,"station_id":"DU","is_transit":true,"i_long":106.800832,"station_name":"Duri","line":1,"i_lat":-6.155215,"transit":true,"time":4},{"transit":false,"distance":1700,"i_long":106.788277,"line":5,"station_name":"Grogol","station_id":"GGL","i_lat":-6.162021,"is_transit":false,"time":3},{"distance":2036,"transit":false,"station_id":"PSG","is_transit":false,"i_long":106.771379,"station_name":"Pesing","line":5,"i_lat":-6.161433,"time":2}]]}