{"data":[[{"is_transit":false,"transit":false,"station_name":"Lenteng Agung","time":0,"i_long":106.832616,"i_lat":-6.330363,"distance":0,"line":2,"station_id":"LNA"},{"is_transit":false,"time":3,"i_lat":-6.3080680000000005,"transit":false,"i_long":106.838896,"line":2,"station_id":"TNT","distance":2671,"station_name":"Tanjung Barat"},{"is_transit":false,"distance":2820,"transit":false,"i_long":106.843999,"time":4,"line":2,"station_name":"Pasar Minggu","station_id":"PSM","i_lat":-6.2842400000000005},{"transit":false,"line":2,"time":2,"station_id":"PSMB","distance":2380,"i_lat":-6.263214,"i_long":106.851577,"station_name":"Pasar Minggu Baru","is_transit":false},{"i_lat":-6.255332,"is_transit":false,"station_id":"DRN","line":0,"station_name":"Duren Kalibata","transit":false,"i_long":106.85449,"time":2,"distance":824},{"transit":false,"time":3,"is_transit":false,"station_name":"Cawang","i_lat":-6.242512,"line":0,"station_id":"CW","i_long":106.856607,"distance":1546},{"i_long":106.857948,"time":2,"station_id":"TEB","distance":1230,"transit":false,"line":2,"is_transit":false,"station_name":"Tebet","i_lat":-6.226659},{"is_transit":true,"i_lat":-6.209883,"station_name":"Manggarai","line":0,"station_id":"MRI","i_long":106.84912,"time":4,"distance":2610,"transit":true},{"is_transit":false,"time":4,"station_name":"Sudirman","i_long":106.822649,"transit":false,"line":1,"i_lat":-6.202263,"distance":3186,"station_id":"SUD"},{"station_id":"SUDB","transit":false,"station_name":"Sudirman Baru","line":1,"time":1,"distance":280,"i_lat":-6.201433,"i_long":106.819881,"is_transit":false},{"station_name":"Karet","station_id":"KAT","distance":471,"time":1,"i_lat":-6.20132,"line":1,"transit":false,"i_long":106.816351,"is_transit":false},{"transit":true,"i_lat":-6.185545,"time":5,"station_name":"Tanah Abang","i_long":106.811091,"line":1,"station_id":"THB","distance":2029,"is_transit":true},{"transit":false,"i_lat":-6.207404,"station_name":"Palmerah","is_transit":false,"line":6,"time":6,"station_id":"PLM","i_long":106.79689,"distance":3191},{"transit":false,"station_id":"KBY","line":6,"distance":3737,"i_long":106.780334,"i_lat":-6.237242,"station_name":"Kebayoran","is_transit":false,"time":7},{"time":8,"is_transit":false,"station_name":"Pondokranji","line":6,"i_lat":-6.276362,"i_long":106.74273,"distance":6218,"station_id":"PDJ","transit":false},{"transit":false,"is_transit":false,"station_id":"JMU","distance":2179,"i_lat":-6.288927,"time":3,"line":6,"i_long":106.728916,"station_name":"Jurangmangu"},{"station_id":"SDM","is_transit":false,"distance":1994,"transit":false,"station_name":"Sudimara","line":6,"i_long":106.712277,"time":4,"i_lat":-6.296963},{"distance":4566,"line":6,"station_id":"RU","is_transit":false,"i_lat":-6.314823,"station_name":"Rawa Buntu","transit":false,"time":6,"i_long":106.675475},{"transit":false,"i_lat":-6.319871,"station_name":"Serpong","distance":2413,"station_id":"SRP","time":4,"i_long":106.66566,"line":6,"is_transit":false},{"station_id":"CSK","i_long":106.640411,"is_transit":false,"transit":false,"station_name":"Cisauk","i_lat":-6.32484,"distance":1784,"time":4,"line":0},{"i_lat":-6.329547,"i_long":106.617853,"is_transit":false,"distance":2519,"line":0,"station_id":"CC","station_name":"Cicayur","time":4,"transit":false},{"i_long":106.568863,"i_lat":-6.3441410000000005,"station_name":"Parung Panjang","time":8,"station_id":"PRP","transit":false,"distance":5968,"is_transit":false,"line":6},{"station_id":"CJT","distance":7025,"is_transit":false,"i_lat":-6.354349,"time":9,"i_long":106.508482,"transit":false,"station_name":"Cilejit","line":0},{"i_lat":-6.338021,"station_name":"Daru","i_long":106.491338,"line":0,"transit":false,"time":6,"station_id":"DAR","is_transit":false,"distance":2675},{"transit":false,"time":5,"i_lat":-6.327251,"is_transit":false,"station_id":"TEJ","i_long":106.460812,"line":6,"distance":3902,"station_name":"Tenjo"},{"time":5,"line":6,"is_transit":false,"transit":false,"station_id":"TGS","distance":2974,"i_long":106.425991,"i_lat":-6.328533,"station_name":"Tigaraksa"}],[{"line":2,"distance":0,"station_name":"Lenteng Agung","transit":false,"i_lat":-6.330363,"time":0,"station_id":"LNA","is_transit":false,"i_long":106.832616},{"distance":2671,"i_lat":-6.3080680000000005,"station_id":"TNT","station_name":"Tanjung Barat","transit":false,"i_long":106.838896,"is_transit":false,"line":2,"time":3},{"i_lat":-6.2842400000000005,"is_transit":false,"time":4,"transit":false,"i_long":106.843999,"line":2,"station_id":"PSM","station_name":"Pasar Minggu","distance":2820},{"transit":false,"is_transit":false,"station_id":"PSMB","i_long":106.851577,"station_name":"Pasar Minggu Baru","time":2,"i_lat":-6.263214,"distance":2380,"line":2},{"time":2,"transit":false,"distance":824,"is_transit":false,"i_long":106.85449,"station_name":"Duren Kalibata","station_id":"DRN","i_lat":-6.255332,"line":0},{"line":0,"distance":1546,"transit":false,"station_id":"CW","station_name":"Cawang","i_lat":-6.242512,"i_long":106.856607,"time":3,"is_transit":false},{"time":2,"transit":false,"is_transit":false,"station_id":"TEB","i_long":106.857948,"distance":1230,"line":2,"station_name":"Tebet","i_lat":-6.226659},{"i_long":106.84912,"is_transit":true,"i_lat":-6.209883,"station_name":"Manggarai","time":4,"distance":2610,"station_id":"MRI","transit":true,"line":0},{"i_lat":-6.198556,"is_transit":false,"station_id":"CKI","transit":false,"distance":1590,"station_name":"Cikini","line":0,"i_long":106.840169,"time":4},{"line":2,"distance":1750,"i_long":106.832183,"station_name":"Gondangdia","is_transit":false,"i_lat":-6.186295,"transit":false,"station_id":"GDD","time":3},{"transit":false,"i_long":106.828284,"is_transit":false,"distance":2015,"station_name":"Juanda","station_id":"JUA","time":4,"i_lat":-6.166716,"line":2},{"i_lat":-6.160725,"distance":1149,"station_id":"SW","i_long":106.827103,"line":2,"station_name":"Sawah Besar","is_transit":false,"time":2,"transit":false},{"time":2,"is_transit":false,"distance":906,"transit":false,"station_name":"Manggabesar","i_long":106.82482,"line":2,"station_id":"MGB","i_lat":-6.149769},{"station_name":"Jayakarta","is_transit":false,"i_lat":-6.141205,"transit":false,"distance":1080,"i_long":106.820901,"line":7,"time":2,"station_id":"JAY"},{"i_long":106.812439,"line":0,"station_id":"JAKK","is_transit":true,"transit":true,"i_lat":-6.137569,"distance":1264,"station_name":"Jakarta Kota","time":4},{"line":0,"distance":1364,"time":3,"station_name":"Kampung Bandan","is_transit":true,"station_id":"KPB","transit":false,"i_lat":-6.132549,"i_long":106.826365},{"transit":false,"i_lat":-6.144674,"is_transit":false,"distance":4102,"station_id":"AK","station_name":"Angke","time":9,"line":0,"i_long":106.79867},{"i_lat":-6.155215,"time":4,"distance":1230,"station_id":"DU","line":1,"transit":true,"station_name":"Duri","i_long":106.800832,"is_transit":true},{"line":1,"station_name":"Tanah Abang","time":8,"distance":3632,"transit":true,"is_transit":true,"i_long":106.811091,"station_id":"THB","i_lat":-6.185545},{"line":6,"distance":3191,"station_id":"PLM","i_long":106.79689,"transit":false,"station_name":"Palmerah","time":6,"i_lat":-6.207404,"is_transit":false},{"distance":3737,"i_long":106.780334,"is_transit":false,"i_lat":-6.237242,"line":6,"time":7,"station_id":"KBY","station_name":"Kebayoran","transit":false},{"is_transit":false,"i_lat":-6.276362,"transit":false,"line":6,"station_name":"Pondokranji","time":8,"i_long":106.74273,"station_id":"PDJ","distance":6218},{"station_name":"Jurangmangu","i_lat":-6.288927,"time":3,"distance":2179,"is_transit":false,"transit":false,"i_long":106.728916,"line":6,"station_id":"JMU"},{"station_id":"SDM","line":6,"transit":false,"distance":1994,"i_lat":-6.296963,"station_name":"Sudimara","i_long":106.712277,"is_transit":false,"time":4},{"station_id":"RU","time":6,"station_name":"Rawa Buntu","distance":4566,"i_lat":-6.314823,"line":6,"i_long":106.675475,"is_transit":false,"transit":false},{"station_name":"Serpong","time":4,"transit":false,"distance":2413,"i_long":106.66566,"station_id":"SRP","is_transit":false,"line":6,"i_lat":-6.319871},{"distance":1784,"i_lat":-6.32484,"transit":false,"is_transit":false,"line":0,"station_id":"CSK","time":4,"station_name":"Cisauk","i_long":106.640411},{"i_long":106.617853,"i_lat":-6.329547,"is_transit":false,"time":4,"station_id":"CC","distance":2519,"station_name":"Cicayur","line":0,"transit":false},{"line":6,"i_lat":-6.3441410000000005,"distance":5968,"station_id":"PRP","station_name":"Parung Panjang","is_transit":false,"i_long":106.568863,"time":8,"transit":false},{"is_transit":false,"station_id":"CJT","distance":7025,"i_long":106.508482,"line":0,"i_lat":-6.354349,"station_name":"Cilejit","transit":false,"time":9},{"time":6,"line":0,"i_lat":-6.338021,"is_transit":false,"station_id":"DAR","station_name":"Daru","transit":false,"i_long":106.491338,"distance":2675},{"is_transit":false,"distance":3902,"i_long":106.460812,"line":6,"station_name":"Tenjo","time":5,"station_id":"TEJ","i_lat":-6.327251,"transit":false},{"line":6,"station_id":"TGS","transit":false,"i_lat":-6.328533,"station_name":"Tigaraksa","distance":2974,"time":5,"is_transit":false,"i_long":106.425991}],[{"time":0,"distance":0,"i_lat":-6.330363,"station_id":"LNA","i_long":106.832616,"line":2,"transit":false,"station_name":"Lenteng Agung","is_transit":false},{"station_id":"TNT","is_transit":false,"transit":false,"station_name":"Tanjung Barat","distance":2671,"i_long":106.838896,"i_lat":-6.3080680000000005,"time":3,"line":2},{"is_transit":false,"distance":2820,"station_id":"PSM","station_name":"Pasar Minggu","i_long":106.843999,"transit":false,"time":4,"i_lat":-6.2842400000000005,"line":2},{"i_long":106.851577,"time":2,"station_id":"PSMB","line":2,"distance":2380,"is_transit":false,"transit":false,"station_name":"Pasar Minggu Baru","i_lat":-6.263214},{"distance":824,"i_lat":-6.255332,"line":0,"station_name":"Duren Kalibata","transit":false,"i_long":106.85449,"is_transit":false,"station_id":"DRN","time":2},{"station_name":"Cawang","time":3,"transit":false,"distance":1546,"i_long":106.856607,"station_id":"CW","i_lat":-6.242512,"is_transit":false,"line":0},{"i_lat":-6.226659,"i_long":106.857948,"time":2,"line":2,"station_name":"Tebet","station_id":"TEB","is_transit":false,"distance":1230,"transit":false},{"line":0,"is_transit":true,"distance":2610,"time":4,"i_long":106.84912,"transit":true,"i_lat":-6.209883,"station_name":"Manggarai","station_id":"MRI"},{"time":2,"transit":false,"station_name":"Matraman","line":1,"station_id":"MTR","i_lat":-6.212485,"i_long":106.858896,"distance":1275,"is_transit":false},{"transit":true,"line":0,"station_id":"JNG","time":8,"station_name":"Jatinegara","i_long":106.86807400000001,"i_lat":-6.215091,"distance":1377,"is_transit":true},{"station_name":"Pondok Jati","distance":1236,"transit":false,"time":2,"i_long":106.861737,"is_transit":false,"i_lat":-6.209188,"station_id":"POK","line":11},{"is_transit":false,"time":2,"i_lat":-6.193792,"i_long":106.855437,"station_id":"KMT","line":11,"station_name":"Kramat","distance":1829,"transit":false},{"transit":false,"time":1,"is_transit":false,"station_id":"GST","i_long":106.850107,"line":11,"station_name":"Gang Sentiong","i_lat":-6.185975,"distance":973},{"station_name":"Pasar Senen","station_id":"PSE","i_lat":-6.174784,"is_transit":false,"time":8,"distance":1567,"i_long":106.84368,"transit":false,"line":11},{"station_id":"KMO","i_lat":-6.161728,"station_name":"Kemayoran","line":11,"distance":1436,"time":4,"transit":false,"is_transit":false,"i_long":106.839204},{"i_long":106.836569,"line":11,"time":5,"transit":false,"station_name":"Rajawali","i_lat":-6.14505,"is_transit":false,"station_id":"RJW","distance":1901},{"distance":1444,"transit":true,"time":3,"station_name":"Kampung Bandan","i_lat":-6.132549,"i_long":106.826365,"line":0,"is_transit":true,"station_id":"KPB"},{"i_long":106.79867,"transit":false,"time":9,"is_transit":false,"distance":4102,"station_name":"Angke","i_lat":-6.144674,"line":0,"station_id":"AK"},{"i_long":106.800832,"distance":1230,"i_lat":-6.155215,"time":4,"is_transit":true,"station_id":"DU","line":1,"transit":true,"station_name":"Duri"},{"line":1,"distance":3632,"station_id":"THB","station_name":"Tanah Abang","transit":true,"time":8,"i_long":106.811091,"i_lat":-6.185545,"is_transit":true},{"time":6,"is_transit":false,"line":6,"distance":3191,"transit":false,"i_lat":-6.207404,"station_id":"PLM","i_long":106.79689,"station_name":"Palmerah"},{"station_name":"Kebayoran","time":7,"i_lat":-6.237242,"distance":3737,"is_transit":false,"transit":false,"i_long":106.780334,"station_id":"KBY","line":6},{"i_lat":-6.276362,"i_long":106.74273,"distance":6218,"transit":false,"time":8,"line":6,"station_name":"Pondokranji","is_transit":false,"station_id":"PDJ"},{"distance":2179,"is_transit":false,"station_id":"JMU","time":3,"i_long":106.728916,"transit":false,"station_name":"Jurangmangu","i_lat":-6.288927,"line":6},{"station_id":"SDM","i_long":106.712277,"distance":1994,"i_lat":-6.296963,"is_transit":false,"line":6,"transit":false,"time":4,"station_name":"Sudimara"},{"station_id":"RU","distance":4566,"station_name":"Rawa Buntu","i_lat":-6.314823,"time":6,"transit":false,"i_long":106.675475,"is_transit":false,"line":6},{"station_name":"Serpong","i_long":106.66566,"line":6,"transit":false,"i_lat":-6.319871,"distance":2413,"station_id":"SRP","time":4,"is_transit":false},{"time":4,"transit":false,"station_id":"CSK","is_transit":false,"distance":1784,"station_name":"Cisauk","i_long":106.640411,"line":0,"i_lat":-6.32484},{"i_long":106.617853,"is_transit":false,"distance":2519,"transit":false,"line":0,"station_id":"CC","time":4,"station_name":"Cicayur","i_lat":-6.329547},{"time":8,"station_name":"Parung Panjang","distance":5968,"i_lat":-6.3441410000000005,"line":6,"transit":false,"station_id":"PRP","is_transit":false,"i_long":106.568863},{"is_transit":false,"distance":7025,"time":9,"transit":false,"station_name":"Cilejit","i_long":106.508482,"line":0,"station_id":"CJT","i_lat":-6.354349},{"station_id":"DAR","time":6,"i_lat":-6.338021,"distance":2675,"i_long":106.491338,"is_transit":false,"line":0,"station_name":"Daru","transit":false},{"i_long":106.460812,"is_transit":false,"time":5,"station_id":"TEJ","distance":3902,"transit":false,"line":6,"station_name":"Tenjo","i_lat":-6.327251},{"time":5,"transit":false,"station_name":"Tigaraksa","i_long":106.425991,"line":6,"i_lat":-6.328533,"distance":2974,"station_id":"TGS","is_transit":false}]]}