{"data":[[{"station_name":"Lenteng Agung","time":0,"transit":false,"is_transit":false,"distance":0,"station_id":"LNA","line":2,"i_lat":-6.330363,"i_long":106.832616},{"time":3,"is_transit":false,"distance":2671,"i_lat":-6.3080680000000005,"line":2,"station_id":"TNT","transit":false,"station_name":"Tanjung Barat","i_long":106.838896},{"is_transit":false,"i_long":106.843999,"station_name":"Pasar Minggu","station_id":"PSM","i_lat":-6.2842400000000005,"transit":false,"distance":2820,"line":2,"time":4},{"i_long":106.851577,"time":2,"distance":2380,"is_transit":false,"station_name":"Pasar Minggu Baru","line":2,"transit":false,"station_id":"PSMB","i_lat":-6.263214},{"station_id":"DRN","distance":824,"i_long":106.85449,"is_transit":false,"i_lat":-6.255332,"time":2,"station_name":"Duren Kalibata","line":2,"transit":false},{"i_lat":-6.242512,"is_transit":false,"time":3,"i_long":106.856607,"transit":false,"line":2,"distance":1546,"station_name":"Cawang","station_id":"CW"},{"i_lat":-6.226659,"transit":false,"i_long":106.857948,"distance":1230,"station_name":"Tebet","station_id":"TEB","time":2,"is_transit":false,"line":2},{"station_id":"MRI","station_name":"Manggarai","time":4,"i_long":106.84912,"i_lat":-6.209883,"is_transit":true,"distance":2610,"line":2,"transit":true},{"transit":false,"distance":1275,"station_id":"MTR","i_lat":-6.212485,"station_name":"Matraman","is_transit":false,"time":2,"i_long":106.858896,"line":1},{"is_transit":false,"station_id":"JNG","distance":1377,"i_long":106.86807400000001,"station_name":"Jatinegara","transit":false,"time":8,"line":1,"i_lat":-6.215091},{"station_name":"Klender","distance":3395,"transit":false,"station_id":"KLD","time":3,"i_long":106.899548,"is_transit":false,"i_lat":-6.2135,"line":1},{"i_lat":-6.215568,"transit":false,"station_name":"Buaran","time":2,"line":1,"distance":3100,"is_transit":false,"i_long":106.922662,"station_id":"BUA"}],[{"i_lat":-6.330363,"is_transit":false,"distance":0,"station_id":"LNA","transit":false,"station_name":"Lenteng Agung","time":0,"line":2,"i_long":106.832616},{"station_name":"Tanjung Barat","transit":false,"distance":2671,"line":2,"i_long":106.838896,"time":3,"i_lat":-6.3080680000000005,"station_id":"TNT","is_transit":false},{"distance":2820,"station_name":"Pasar Minggu","i_lat":-6.2842400000000005,"i_long":106.843999,"station_id":"PSM","line":2,"is_transit":false,"time":4,"transit":false},{"time":2,"transit":false,"is_transit":false,"i_lat":-6.263214,"station_id":"PSMB","i_long":106.851577,"distance":2380,"line":2,"station_name":"Pasar Minggu Baru"},{"distance":824,"is_transit":false,"i_long":106.85449,"time":2,"line":2,"station_name":"Duren Kalibata","station_id":"DRN","i_lat":-6.255332,"transit":false},{"distance":1546,"line":2,"is_transit":false,"station_id":"CW","station_name":"Cawang","time":3,"i_lat":-6.242512,"transit":false,"i_long":106.856607},{"distance":1230,"i_lat":-6.226659,"station_name":"Tebet","station_id":"TEB","line":2,"transit":false,"time":2,"i_long":106.857948,"is_transit":false},{"is_transit":true,"station_name":"Manggarai","distance":2610,"i_lat":-6.209883,"station_id":"MRI","time":4,"i_long":106.84912,"line":2,"transit":true},{"station_name":"Sudirman","i_long":106.822649,"time":4,"station_id":"SUD","is_transit":false,"transit":false,"distance":3186,"i_lat":-6.202263,"line":1},{"station_name":"Sudirman Baru","is_transit":false,"transit":false,"time":1,"line":1,"i_long":106.819881,"i_lat":-6.201433,"distance":280,"station_id":"SUDB"},{"station_id":"KAT","is_transit":false,"distance":471,"transit":false,"i_lat":-6.20132,"i_long":106.816351,"line":1,"time":1,"station_name":"Karet"},{"i_long":106.811091,"is_transit":false,"line":1,"time":5,"station_id":"THB","station_name":"Tanah Abang","transit":false,"distance":2029,"i_lat":-6.185545},{"station_name":"Duri","time":8,"distance":3632,"transit":false,"is_transit":false,"i_lat":-6.155215,"station_id":"DU","i_long":106.800832,"line":1},{"i_long":106.79867,"time":4,"line":1,"i_lat":-6.144674,"distance":1230,"is_transit":false,"station_id":"AK","transit":false,"station_name":"Angke"},{"is_transit":true,"station_id":"KPB","i_lat":-6.132549,"i_long":106.826365,"station_name":"Kampung Bandan","line":4,"distance":4102,"time":9,"transit":true},{"transit":false,"station_id":"RJW","i_lat":-6.14505,"line":11,"time":3,"station_name":"Rajawali","i_long":106.836569,"is_transit":false,"distance":1444},{"station_id":"KMO","i_lat":-6.161728,"i_long":106.839204,"station_name":"Kemayoran","distance":1901,"time":5,"line":11,"transit":false,"is_transit":false},{"line":11,"i_long":106.84368,"station_id":"PSE","is_transit":false,"transit":false,"i_lat":-6.174784,"station_name":"Pasar Senen","distance":1436,"time":4},{"i_lat":-6.185975,"line":11,"transit":false,"time":8,"distance":1567,"i_long":106.850107,"is_transit":false,"station_name":"Gang Sentiong","station_id":"GST"},{"is_transit":false,"distance":973,"i_lat":-6.193792,"line":11,"station_name":"Kramat","time":1,"station_id":"KMT","i_long":106.855437,"transit":false},{"line":11,"is_transit":false,"station_id":"POK","i_lat":-6.209188,"station_name":"Pondok Jati","i_long":106.861737,"transit":false,"time":2,"distance":1829},{"time":9,"i_long":106.86807400000001,"station_name":"Jatinegara","line":1,"is_transit":true,"transit":true,"i_lat":-6.215091,"station_id":"JNG","distance":1236},{"station_name":"Klender","i_long":106.899548,"time":3,"is_transit":false,"line":1,"transit":false,"i_lat":-6.2135,"distance":3395,"station_id":"KLD"},{"station_id":"BUA","i_lat":-6.215568,"i_long":106.922662,"line":1,"time":2,"distance":3100,"transit":false,"is_transit":false,"station_name":"Buaran"}],[{"distance":0,"i_long":106.832616,"i_lat":-6.330363,"line":2,"transit":false,"station_name":"Lenteng Agung","time":0,"is_transit":false,"station_id":"LNA"},{"station_id":"TNT","time":3,"is_transit":false,"i_lat":-6.3080680000000005,"transit":false,"i_long":106.838896,"distance":2671,"station_name":"Tanjung Barat","line":2},{"distance":2820,"is_transit":false,"transit":false,"i_long":106.843999,"station_id":"PSM","time":4,"station_name":"Pasar Minggu","i_lat":-6.2842400000000005,"line":2},{"time":2,"distance":2380,"i_lat":-6.263214,"i_long":106.851577,"is_transit":false,"line":2,"station_name":"Pasar Minggu Baru","station_id":"PSMB","transit":false},{"time":2,"station_id":"DRN","is_transit":false,"transit":false,"distance":824,"i_long":106.85449,"station_name":"Duren Kalibata","line":2,"i_lat":-6.255332},{"distance":1546,"i_lat":-6.242512,"station_name":"Cawang","line":2,"transit":false,"is_transit":false,"time":3,"station_id":"CW","i_long":106.856607},{"is_transit":false,"station_id":"TEB","transit":false,"station_name":"Tebet","distance":1230,"line":2,"time":2,"i_lat":-6.226659,"i_long":106.857948},{"is_transit":false,"station_name":"Manggarai","i_lat":-6.209883,"time":4,"i_long":106.84912,"transit":false,"station_id":"MRI","line":2,"distance":2610},{"i_long":106.840169,"station_name":"Cikini","is_transit":false,"transit":false,"station_id":"CKI","i_lat":-6.198556,"line":2,"time":4,"distance":1590},{"i_lat":-6.186295,"station_id":"GDD","line":2,"transit":false,"is_transit":false,"station_name":"Gondangdia","time":3,"distance":1750,"i_long":106.832183},{"station_name":"Juanda","is_transit":false,"distance":2015,"i_lat":-6.166716,"station_id":"JUA","i_long":106.828284,"line":2,"transit":false,"time":4},{"station_name":"Sawah Besar","line":2,"time":2,"i_long":106.827103,"distance":1149,"i_lat":-6.160725,"transit":false,"is_transit":false,"station_id":"SW"},{"station_name":"Manggabesar","transit":false,"distance":906,"i_lat":-6.149769,"time":2,"is_transit":false,"i_long":106.82482,"station_id":"MGB","line":2},{"distance":1080,"transit":false,"is_transit":false,"i_long":106.820901,"time":2,"i_lat":-6.141205,"station_id":"JAY","station_name":"Jayakarta","line":2},{"station_id":"JAKK","i_long":106.812439,"time":4,"station_name":"Jakarta Kota","distance":1264,"i_lat":-6.137569,"is_transit":true,"transit":true,"line":2},{"station_id":"KPB","i_long":106.826365,"transit":true,"is_transit":true,"distance":1364,"station_name":"Kampung Bandan","line":4,"time":3,"i_lat":-6.132549},{"i_long":106.836569,"distance":1444,"i_lat":-6.14505,"station_name":"Rajawali","line":11,"transit":false,"is_transit":false,"time":3,"station_id":"RJW"},{"is_transit":false,"transit":false,"time":5,"station_name":"Kemayoran","i_lat":-6.161728,"i_long":106.839204,"line":11,"station_id":"KMO","distance":1901},{"transit":false,"station_name":"Pasar Senen","distance":1436,"i_lat":-6.174784,"i_long":106.84368,"time":4,"station_id":"PSE","is_transit":false,"line":11},{"time":8,"line":11,"station_id":"GST","is_transit":false,"distance":1567,"i_long":106.850107,"i_lat":-6.185975,"transit":false,"station_name":"Gang Sentiong"},{"station_id":"KMT","distance":973,"i_lat":-6.193792,"transit":false,"is_transit":false,"time":1,"station_name":"Kramat","i_long":106.855437,"line":11},{"distance":1829,"transit":false,"station_id":"POK","i_lat":-6.209188,"line":11,"i_long":106.861737,"is_transit":false,"time":2,"station_name":"Pondok Jati"},{"i_lat":-6.215091,"i_long":106.86807400000001,"transit":true,"is_transit":true,"station_id":"JNG","line":1,"time":9,"station_name":"Jatinegara","distance":1236},{"station_name":"Klender","is_transit":false,"time":3,"station_id":"KLD","line":1,"transit":false,"distance":3395,"i_long":106.899548,"i_lat":-6.2135},{"station_id":"BUA","i_lat":-6.215568,"i_long":106.922662,"transit":false,"distance":3100,"line":1,"is_transit":false,"station_name":"Buaran","time":2}]]}