{"data":[[{"i_lat":-6.330363,"line":2,"time":0,"is_transit":false,"distance":0,"station_id":"LNA","transit":false,"station_name":"Lenteng Agung","i_long":106.832616},{"i_long":106.838896,"line":2,"station_name":"Tanjung Barat","transit":false,"is_transit":false,"distance":2671,"i_lat":-6.3080680000000005,"station_id":"TNT","time":3},{"station_id":"PSM","is_transit":false,"i_lat":-6.2842400000000005,"line":2,"time":4,"distance":2820,"station_name":"Pasar Minggu","i_long":106.843999,"transit":false},{"time":2,"station_name":"Pasar Minggu Baru","station_id":"PSMB","transit":false,"i_lat":-6.263214,"line":2,"distance":2380,"is_transit":false,"i_long":106.851577},{"distance":824,"is_transit":false,"transit":false,"i_long":106.85449,"station_name":"Duren Kalibata","line":2,"station_id":"DRN","time":2,"i_lat":-6.255332},{"i_lat":-6.242512,"is_transit":false,"transit":false,"line":2,"distance":1546,"time":3,"station_id":"CW","i_long":106.856607,"station_name":"Cawang"},{"station_name":"Tebet","station_id":"TEB","distance":1230,"time":2,"i_long":106.857948,"line":2,"transit":false,"i_lat":-6.226659,"is_transit":false},{"distance":2610,"time":4,"station_name":"Manggarai","is_transit":true,"i_long":106.84912,"line":2,"station_id":"MRI","transit":true,"i_lat":-6.209883},{"is_transit":false,"time":4,"i_lat":-6.202263,"transit":false,"station_name":"Sudirman","station_id":"SUD","distance":3186,"i_long":106.822649,"line":1},{"i_long":106.819881,"is_transit":false,"i_lat":-6.201433,"line":1,"station_name":"Sudirman Baru","time":1,"station_id":"SUDB","transit":false,"distance":280},{"station_id":"KAT","i_lat":-6.20132,"transit":false,"station_name":"Karet","is_transit":false,"time":1,"line":1,"distance":471,"i_long":106.816351},{"i_long":106.811091,"station_name":"Tanah Abang","is_transit":true,"transit":true,"time":5,"distance":2029,"line":1,"i_lat":-6.185545,"station_id":"THB"},{"station_name":"Palmerah","transit":false,"line":6,"distance":3191,"station_id":"PLM","is_transit":false,"i_lat":-6.207404,"i_long":106.79689,"time":6},{"station_name":"Kebayoran","station_id":"KBY","i_lat":-6.237242,"i_long":106.780334,"is_transit":false,"time":7,"distance":3737,"line":6,"transit":false},{"station_name":"Pondokranji","time":8,"station_id":"PDJ","is_transit":false,"i_lat":-6.276362,"line":6,"distance":6218,"i_long":106.74273,"transit":false},{"line":6,"is_transit":false,"i_long":106.728916,"time":3,"station_name":"Jurangmangu","distance":2179,"i_lat":-6.288927,"station_id":"JMU","transit":false},{"distance":1994,"i_lat":-6.296963,"i_long":106.712277,"station_name":"Sudimara","line":6,"is_transit":false,"transit":false,"station_id":"SDM","time":4},{"line":6,"station_name":"Rawa Buntu","i_lat":-6.314823,"i_long":106.675475,"station_id":"RU","transit":false,"distance":4566,"is_transit":false,"time":6},{"station_id":"SRP","time":4,"transit":false,"i_lat":-6.319871,"distance":2413,"station_name":"Serpong","i_long":106.66566,"is_transit":false,"line":6},{"station_id":"CSK","station_name":"Cisauk","i_lat":-6.32484,"line":3,"time":4,"transit":false,"distance":1784,"is_transit":false,"i_long":106.640411},{"distance":2519,"is_transit":false,"station_name":"Cicayur","station_id":"CC","i_lat":-6.329547,"time":4,"line":3,"transit":false,"i_long":106.617853},{"station_name":"Parung Panjang","is_transit":false,"line":6,"i_long":106.568863,"station_id":"PRP","time":8,"distance":5968,"transit":false,"i_lat":-6.3441410000000005},{"i_lat":-6.354349,"i_long":106.508482,"time":9,"station_name":"Cilejit","distance":7025,"transit":false,"station_id":"CJT","is_transit":false,"line":3},{"line":0,"is_transit":false,"station_id":"DAR","transit":false,"station_name":"Daru","time":6,"distance":2675,"i_lat":-6.338021,"i_long":106.491338},{"line":6,"time":5,"distance":3902,"i_lat":-6.327251,"station_name":"Tenjo","station_id":"TEJ","transit":false,"is_transit":false,"i_long":106.460812},{"line":6,"station_id":"TGS","time":5,"is_transit":false,"distance":2974,"i_lat":-6.328533,"i_long":106.425991,"transit":false,"station_name":"Tigaraksa"},{"station_id":"CKY","i_lat":-6.33561,"line":3,"station_name":"Cikoya","is_transit":false,"i_long":106.411216,"time":3,"distance":2651,"transit":false},{"transit":false,"time":4,"line":6,"station_id":"MJ","i_long":106.394373,"is_transit":false,"station_name":"Maja","distance":1853,"i_lat":-6.332307},{"i_long":106.332092,"transit":false,"time":10,"station_id":"CTR","line":3,"station_name":"Citeras","distance":7293,"i_lat":-6.334892,"is_transit":false}],[{"transit":false,"i_lat":-6.330363,"is_transit":false,"station_name":"Lenteng Agung","time":0,"distance":0,"i_long":106.832616,"station_id":"LNA","line":2},{"i_lat":-6.3080680000000005,"transit":false,"station_id":"TNT","station_name":"Tanjung Barat","distance":2671,"i_long":106.838896,"is_transit":false,"time":3,"line":2},{"i_lat":-6.2842400000000005,"line":2,"time":4,"station_name":"Pasar Minggu","transit":false,"distance":2820,"i_long":106.843999,"station_id":"PSM","is_transit":false},{"transit":false,"station_id":"PSMB","is_transit":false,"distance":2380,"time":2,"station_name":"Pasar Minggu Baru","i_lat":-6.263214,"i_long":106.851577,"line":2},{"distance":824,"station_name":"Duren Kalibata","station_id":"DRN","transit":false,"is_transit":false,"time":2,"i_lat":-6.255332,"i_long":106.85449,"line":2},{"i_lat":-6.242512,"transit":false,"is_transit":false,"distance":1546,"time":3,"line":2,"station_name":"Cawang","i_long":106.856607,"station_id":"CW"},{"i_long":106.857948,"distance":1230,"time":2,"line":2,"station_id":"TEB","i_lat":-6.226659,"transit":false,"station_name":"Tebet","is_transit":false},{"station_name":"Manggarai","distance":2610,"station_id":"MRI","i_lat":-6.209883,"line":2,"is_transit":false,"i_long":106.84912,"transit":false,"time":4},{"is_transit":false,"distance":1590,"line":2,"time":4,"i_lat":-6.198556,"station_name":"Cikini","transit":false,"station_id":"CKI","i_long":106.840169},{"station_id":"GDD","i_long":106.832183,"line":2,"is_transit":false,"distance":1750,"time":3,"i_lat":-6.186295,"station_name":"Gondangdia","transit":false},{"distance":2015,"time":4,"transit":false,"i_lat":-6.166716,"i_long":106.828284,"station_name":"Juanda","station_id":"JUA","line":2,"is_transit":false},{"line":2,"i_long":106.827103,"station_id":"SW","time":2,"transit":false,"station_name":"Sawah Besar","is_transit":false,"distance":1149,"i_lat":-6.160725},{"station_name":"Manggabesar","distance":906,"i_lat":-6.149769,"i_long":106.82482,"station_id":"MGB","is_transit":false,"line":2,"transit":false,"time":2},{"is_transit":false,"station_name":"Jayakarta","i_lat":-6.141205,"time":2,"line":2,"transit":false,"i_long":106.820901,"station_id":"JAY","distance":1080},{"distance":1264,"i_lat":-6.137569,"station_id":"JAKK","station_name":"Jakarta Kota","is_transit":true,"time":4,"line":2,"i_long":106.812439,"transit":true},{"station_id":"KPB","distance":1364,"time":3,"line":4,"station_name":"Kampung Bandan","i_lat":-6.132549,"i_long":106.826365,"is_transit":true,"transit":true},{"station_id":"AK","distance":4102,"i_long":106.79867,"station_name":"Angke","i_lat":-6.144674,"line":1,"transit":false,"is_transit":false,"time":9},{"time":4,"station_id":"DU","station_name":"Duri","is_transit":false,"i_long":106.800832,"transit":false,"line":1,"distance":1230,"i_lat":-6.155215},{"time":8,"station_id":"THB","line":1,"station_name":"Tanah Abang","is_transit":true,"i_lat":-6.185545,"i_long":106.811091,"distance":3632,"transit":true},{"time":6,"station_name":"Palmerah","station_id":"PLM","transit":false,"distance":3191,"i_lat":-6.207404,"i_long":106.79689,"is_transit":false,"line":6},{"transit":false,"station_id":"KBY","i_lat":-6.237242,"i_long":106.780334,"time":7,"line":6,"station_name":"Kebayoran","distance":3737,"is_transit":false},{"i_lat":-6.276362,"transit":false,"is_transit":false,"i_long":106.74273,"station_name":"Pondokranji","time":8,"station_id":"PDJ","distance":6218,"line":6},{"time":3,"transit":false,"station_id":"JMU","line":6,"is_transit":false,"distance":2179,"i_long":106.728916,"i_lat":-6.288927,"station_name":"Jurangmangu"},{"line":6,"transit":false,"is_transit":false,"distance":1994,"i_lat":-6.296963,"i_long":106.712277,"station_id":"SDM","time":4,"station_name":"Sudimara"},{"line":6,"station_id":"RU","time":6,"is_transit":false,"i_lat":-6.314823,"station_name":"Rawa Buntu","distance":4566,"transit":false,"i_long":106.675475},{"distance":2413,"station_name":"Serpong","station_id":"SRP","is_transit":false,"line":6,"transit":false,"time":4,"i_lat":-6.319871,"i_long":106.66566},{"is_transit":false,"transit":false,"i_long":106.640411,"time":4,"line":3,"i_lat":-6.32484,"station_name":"Cisauk","distance":1784,"station_id":"CSK"},{"station_name":"Cicayur","time":4,"i_long":106.617853,"line":3,"station_id":"CC","transit":false,"distance":2519,"i_lat":-6.329547,"is_transit":false},{"is_transit":false,"i_long":106.568863,"line":6,"station_name":"Parung Panjang","transit":false,"station_id":"PRP","i_lat":-6.3441410000000005,"distance":5968,"time":8},{"time":9,"transit":false,"is_transit":false,"distance":7025,"station_id":"CJT","i_lat":-6.354349,"i_long":106.508482,"line":3,"station_name":"Cilejit"},{"distance":2675,"i_lat":-6.338021,"i_long":106.491338,"time":6,"line":0,"station_name":"Daru","station_id":"DAR","transit":false,"is_transit":false},{"time":5,"i_long":106.460812,"distance":3902,"transit":false,"station_name":"Tenjo","station_id":"TEJ","i_lat":-6.327251,"is_transit":false,"line":6},{"i_lat":-6.328533,"i_long":106.425991,"line":6,"distance":2974,"is_transit":false,"transit":false,"station_name":"Tigaraksa","station_id":"TGS","time":5},{"transit":false,"station_name":"Cikoya","time":3,"is_transit":false,"i_long":106.411216,"distance":2651,"i_lat":-6.33561,"station_id":"CKY","line":3},{"transit":false,"is_transit":false,"station_name":"Maja","line":6,"time":4,"distance":1853,"i_lat":-6.332307,"i_long":106.394373,"station_id":"MJ"},{"distance":7293,"i_lat":-6.334892,"line":3,"time":10,"i_long":106.332092,"transit":false,"station_name":"Citeras","station_id":"CTR","is_transit":false}],[{"transit":false,"i_lat":-6.330363,"time":0,"i_long":106.832616,"station_id":"LNA","distance":0,"line":2,"is_transit":false,"station_name":"Lenteng Agung"},{"transit":false,"station_id":"TNT","distance":2671,"is_transit":false,"i_long":106.838896,"i_lat":-6.3080680000000005,"line":2,"time":3,"station_name":"Tanjung Barat"},{"line":2,"is_transit":false,"station_id":"PSM","station_name":"Pasar Minggu","transit":false,"distance":2820,"i_lat":-6.2842400000000005,"i_long":106.843999,"time":4},{"time":2,"station_name":"Pasar Minggu Baru","distance":2380,"station_id":"PSMB","is_transit":false,"i_long":106.851577,"transit":false,"i_lat":-6.263214,"line":2},{"is_transit":false,"distance":824,"station_id":"DRN","i_long":106.85449,"station_name":"Duren Kalibata","time":2,"i_lat":-6.255332,"transit":false,"line":2},{"i_lat":-6.242512,"distance":1546,"station_name":"Cawang","time":3,"line":2,"i_long":106.856607,"station_id":"CW","is_transit":false,"transit":false},{"i_long":106.857948,"transit":false,"line":2,"station_name":"Tebet","i_lat":-6.226659,"time":2,"distance":1230,"is_transit":false,"station_id":"TEB"},{"distance":2610,"i_lat":-6.209883,"line":2,"station_name":"Manggarai","transit":true,"station_id":"MRI","i_long":106.84912,"is_transit":true,"time":4},{"transit":false,"is_transit":false,"line":1,"distance":1275,"i_lat":-6.212485,"station_name":"Matraman","i_long":106.858896,"station_id":"MTR","time":2},{"line":1,"transit":true,"station_name":"Jatinegara","station_id":"JNG","i_long":106.86807400000001,"distance":1377,"is_transit":true,"i_lat":-6.215091,"time":8},{"distance":1236,"i_long":106.861737,"station_id":"POK","i_lat":-6.209188,"transit":false,"station_name":"Pondok Jati","time":2,"line":11,"is_transit":false},{"station_id":"KMT","i_long":106.855437,"distance":1829,"line":11,"i_lat":-6.193792,"transit":false,"station_name":"Kramat","time":2,"is_transit":false},{"station_name":"Gang Sentiong","i_lat":-6.185975,"i_long":106.850107,"station_id":"GST","time":1,"is_transit":false,"distance":973,"transit":false,"line":11},{"i_long":106.84368,"station_name":"Pasar Senen","is_transit":false,"i_lat":-6.174784,"station_id":"PSE","distance":1567,"line":11,"time":8,"transit":false},{"time":4,"transit":false,"station_name":"Kemayoran","station_id":"KMO","line":11,"distance":1436,"is_transit":false,"i_lat":-6.161728,"i_long":106.839204},{"transit":false,"station_id":"RJW","is_transit":false,"i_long":106.836569,"line":11,"distance":1901,"station_name":"Rajawali","time":5,"i_lat":-6.14505},{"transit":true,"is_transit":true,"station_name":"Kampung Bandan","time":3,"i_long":106.826365,"station_id":"KPB","line":4,"distance":1444,"i_lat":-6.132549},{"i_lat":-6.144674,"is_transit":false,"i_long":106.79867,"distance":4102,"station_name":"Angke","line":1,"transit":false,"time":9,"station_id":"AK"},{"station_id":"DU","station_name":"Duri","distance":1230,"i_lat":-6.155215,"transit":false,"time":4,"i_long":106.800832,"is_transit":false,"line":1},{"i_long":106.811091,"distance":3632,"i_lat":-6.185545,"is_transit":true,"station_id":"THB","transit":true,"time":8,"line":1,"station_name":"Tanah Abang"},{"i_lat":-6.207404,"i_long":106.79689,"time":6,"is_transit":false,"transit":false,"line":6,"station_name":"Palmerah","station_id":"PLM","distance":3191},{"is_transit":false,"i_lat":-6.237242,"i_long":106.780334,"time":7,"transit":false,"station_name":"Kebayoran","distance":3737,"line":6,"station_id":"KBY"},{"i_long":106.74273,"station_name":"Pondokranji","transit":false,"station_id":"PDJ","is_transit":false,"time":8,"line":6,"distance":6218,"i_lat":-6.276362},{"station_name":"Jurangmangu","transit":false,"is_transit":false,"time":3,"i_long":106.728916,"distance":2179,"i_lat":-6.288927,"line":6,"station_id":"JMU"},{"station_id":"SDM","transit":false,"distance":1994,"line":6,"time":4,"is_transit":false,"i_lat":-6.296963,"i_long":106.712277,"station_name":"Sudimara"},{"transit":false,"distance":4566,"station_name":"Rawa Buntu","is_transit":false,"station_id":"RU","time":6,"i_lat":-6.314823,"i_long":106.675475,"line":6},{"station_name":"Serpong","transit":false,"is_transit":false,"time":4,"station_id":"SRP","distance":2413,"i_lat":-6.319871,"i_long":106.66566,"line":6},{"transit":false,"distance":1784,"time":4,"is_transit":false,"i_lat":-6.32484,"station_name":"Cisauk","station_id":"CSK","i_long":106.640411,"line":3},{"time":4,"is_transit":false,"transit":false,"i_lat":-6.329547,"station_name":"Cicayur","distance":2519,"i_long":106.617853,"line":3,"station_id":"CC"},{"i_long":106.568863,"line":6,"i_lat":-6.3441410000000005,"time":8,"is_transit":false,"station_id":"PRP","transit":false,"distance":5968,"station_name":"Parung Panjang"},{"station_id":"CJT","is_transit":false,"time":9,"distance":7025,"i_lat":-6.354349,"transit":false,"station_name":"Cilejit","i_long":106.508482,"line":3},{"distance":2675,"i_lat":-6.338021,"line":0,"station_id":"DAR","is_transit":false,"i_long":106.491338,"transit":false,"station_name":"Daru","time":6},{"transit":false,"station_id":"TEJ","is_transit":false,"i_long":106.460812,"line":6,"time":5,"distance":3902,"i_lat":-6.327251,"station_name":"Tenjo"},{"distance":2974,"line":6,"transit":false,"station_id":"TGS","station_name":"Tigaraksa","time":5,"is_transit":false,"i_long":106.425991,"i_lat":-6.328533},{"station_id":"CKY","i_lat":-6.33561,"transit":false,"distance":2651,"line":3,"is_transit":false,"time":3,"i_long":106.411216,"station_name":"Cikoya"},{"transit":false,"i_lat":-6.332307,"line":6,"is_transit":false,"station_name":"Maja","time":4,"distance":1853,"i_long":106.394373,"station_id":"MJ"},{"station_name":"Citeras","distance":7293,"line":3,"i_lat":-6.334892,"station_id":"CTR","i_long":106.332092,"time":10,"transit":false,"is_transit":false}]]}