{"data":[[{"station_name":"Lenteng Agung","station_id":"LNA","is_transit":false,"transit":false,"i_lat":-6.330363,"i_long":106.832616,"line":2,"time":0,"distance":0},{"distance":2671,"i_long":106.838896,"transit":false,"line":2,"station_id":"TNT","is_transit":false,"station_name":"Tanjung Barat","time":3,"i_lat":-6.3080680000000005},{"transit":false,"station_id":"PSM","line":2,"station_name":"Pasar Minggu","is_transit":false,"i_lat":-6.2842400000000005,"i_long":106.843999,"time":4,"distance":2820},{"station_name":"Pasar Minggu Baru","i_lat":-6.263214,"time":2,"distance":2380,"i_long":106.851577,"is_transit":false,"transit":false,"line":2,"station_id":"PSMB"},{"station_id":"DRN","i_lat":-6.255332,"distance":824,"i_long":106.85449,"is_transit":false,"line":2,"station_name":"Duren Kalibata","transit":false,"time":2},{"i_lat":-6.242512,"line":2,"station_id":"CW","distance":1546,"station_name":"Cawang","time":3,"is_transit":false,"transit":false,"i_long":106.856607},{"i_long":106.857948,"station_id":"TEB","line":2,"is_transit":false,"transit":false,"station_name":"Tebet","distance":1230,"time":2,"i_lat":-6.226659},{"is_transit":true,"distance":2610,"time":4,"station_name":"Manggarai","i_lat":-6.209883,"line":2,"station_id":"MRI","transit":true,"i_long":106.84912},{"line":1,"time":4,"station_name":"Sudirman","is_transit":false,"distance":3186,"station_id":"SUD","transit":false,"i_lat":-6.202263,"i_long":106.822649},{"station_name":"Sudirman Baru","time":1,"is_transit":false,"station_id":"SUDB","i_long":106.819881,"line":1,"distance":280,"transit":false,"i_lat":-6.201433},{"station_id":"KAT","line":1,"distance":471,"i_long":106.816351,"time":1,"station_name":"Karet","transit":false,"is_transit":false,"i_lat":-6.20132},{"i_long":106.811091,"line":1,"station_id":"THB","is_transit":false,"station_name":"Tanah Abang","distance":2029,"time":5,"transit":false,"i_lat":-6.185545}],[{"line":2,"i_long":106.832616,"distance":0,"station_name":"Lenteng Agung","i_lat":-6.330363,"time":0,"transit":false,"is_transit":false,"station_id":"LNA"},{"line":2,"is_transit":false,"i_lat":-6.3080680000000005,"station_name":"Tanjung Barat","distance":2671,"i_long":106.838896,"transit":false,"time":3,"station_id":"TNT"},{"i_lat":-6.2842400000000005,"i_long":106.843999,"time":4,"station_id":"PSM","transit":false,"line":2,"station_name":"Pasar Minggu","is_transit":false,"distance":2820},{"transit":false,"i_lat":-6.263214,"line":2,"i_long":106.851577,"time":2,"station_name":"Pasar Minggu Baru","distance":2380,"station_id":"PSMB","is_transit":false},{"transit":false,"station_id":"DRN","i_lat":-6.255332,"time":2,"station_name":"Duren Kalibata","is_transit":false,"line":2,"i_long":106.85449,"distance":824},{"time":3,"station_id":"CW","is_transit":false,"transit":false,"line":2,"i_lat":-6.242512,"station_name":"Cawang","i_long":106.856607,"distance":1546},{"i_lat":-6.226659,"distance":1230,"time":2,"station_id":"TEB","station_name":"Tebet","is_transit":false,"i_long":106.857948,"transit":false,"line":2},{"line":2,"time":4,"station_name":"Manggarai","is_transit":false,"i_long":106.84912,"distance":2610,"station_id":"MRI","transit":false,"i_lat":-6.209883},{"i_long":106.840169,"is_transit":false,"time":4,"line":2,"station_name":"Cikini","distance":1590,"transit":false,"station_id":"CKI","i_lat":-6.198556},{"time":3,"transit":false,"i_long":106.832183,"station_name":"Gondangdia","line":2,"station_id":"GDD","i_lat":-6.186295,"is_transit":false,"distance":1750},{"station_id":"JUA","is_transit":false,"i_lat":-6.166716,"station_name":"Juanda","i_long":106.828284,"line":2,"transit":false,"distance":2015,"time":4},{"line":2,"distance":1149,"time":2,"station_name":"Sawah Besar","is_transit":false,"station_id":"SW","transit":false,"i_long":106.827103,"i_lat":-6.160725},{"i_long":106.82482,"line":2,"is_transit":false,"transit":false,"time":2,"station_id":"MGB","station_name":"Manggabesar","i_lat":-6.149769,"distance":906},{"station_id":"JAY","station_name":"Jayakarta","time":2,"distance":1080,"is_transit":false,"transit":false,"i_lat":-6.141205,"i_long":106.820901,"line":2},{"is_transit":true,"time":4,"transit":true,"i_lat":-6.137569,"line":2,"i_long":106.812439,"distance":1264,"station_id":"JAKK","station_name":"Jakarta Kota"},{"transit":true,"distance":1364,"i_lat":-6.132549,"i_long":106.826365,"line":4,"station_name":"Kampung Bandan","station_id":"KPB","time":3,"is_transit":true},{"i_long":106.79867,"i_lat":-6.144674,"line":1,"station_name":"Angke","is_transit":false,"distance":4102,"time":9,"transit":false,"station_id":"AK"},{"distance":1230,"transit":false,"station_name":"Duri","station_id":"DU","is_transit":false,"i_lat":-6.155215,"i_long":106.800832,"line":1,"time":4},{"transit":false,"time":8,"i_lat":-6.185545,"line":1,"i_long":106.811091,"station_name":"Tanah Abang","station_id":"THB","distance":3632,"is_transit":false}],[{"line":2,"distance":0,"i_lat":-6.330363,"station_id":"LNA","is_transit":false,"i_long":106.832616,"transit":false,"station_name":"Lenteng Agung","time":0},{"transit":false,"station_name":"Tanjung Barat","i_long":106.838896,"distance":2671,"time":3,"station_id":"TNT","is_transit":false,"i_lat":-6.3080680000000005,"line":2},{"line":2,"distance":2820,"i_lat":-6.2842400000000005,"time":4,"station_name":"Pasar Minggu","is_transit":false,"i_long":106.843999,"transit":false,"station_id":"PSM"},{"station_name":"Pasar Minggu Baru","distance":2380,"i_lat":-6.263214,"line":2,"transit":false,"time":2,"station_id":"PSMB","i_long":106.851577,"is_transit":false},{"line":2,"time":2,"transit":false,"is_transit":false,"station_id":"DRN","i_long":106.85449,"distance":824,"station_name":"Duren Kalibata","i_lat":-6.255332},{"transit":false,"station_id":"CW","i_lat":-6.242512,"i_long":106.856607,"station_name":"Cawang","time":3,"line":2,"distance":1546,"is_transit":false},{"i_long":106.857948,"station_name":"Tebet","station_id":"TEB","is_transit":false,"distance":1230,"transit":false,"i_lat":-6.226659,"line":2,"time":2},{"distance":2610,"transit":true,"station_name":"Manggarai","i_lat":-6.209883,"is_transit":true,"time":4,"i_long":106.84912,"line":2,"station_id":"MRI"},{"line":1,"station_id":"MTR","time":2,"is_transit":false,"i_lat":-6.212485,"i_long":106.858896,"transit":false,"station_name":"Matraman","distance":1275},{"station_name":"Jatinegara","distance":1377,"i_lat":-6.215091,"i_long":106.86807400000001,"time":8,"transit":true,"line":1,"is_transit":true,"station_id":"JNG"},{"station_id":"POK","is_transit":false,"time":2,"i_long":106.861737,"transit":false,"distance":1236,"line":11,"i_lat":-6.209188,"station_name":"Pondok Jati"},{"distance":1829,"is_transit":false,"transit":false,"i_long":106.855437,"station_name":"Kramat","station_id":"KMT","time":2,"line":11,"i_lat":-6.193792},{"i_long":106.850107,"transit":false,"station_name":"Gang Sentiong","line":11,"time":1,"station_id":"GST","i_lat":-6.185975,"distance":973,"is_transit":false},{"distance":1567,"i_lat":-6.174784,"station_name":"Pasar Senen","station_id":"PSE","i_long":106.84368,"time":8,"transit":false,"line":11,"is_transit":false},{"distance":1436,"transit":false,"station_name":"Kemayoran","time":4,"i_long":106.839204,"station_id":"KMO","i_lat":-6.161728,"is_transit":false,"line":11},{"station_id":"RJW","time":5,"i_lat":-6.14505,"station_name":"Rajawali","distance":1901,"transit":false,"is_transit":false,"line":11,"i_long":106.836569},{"i_lat":-6.132549,"i_long":106.826365,"transit":true,"distance":1444,"line":4,"station_name":"Kampung Bandan","is_transit":true,"time":3,"station_id":"KPB"},{"transit":false,"station_id":"AK","i_long":106.79867,"station_name":"Angke","time":9,"i_lat":-6.144674,"is_transit":false,"distance":4102,"line":1},{"time":4,"transit":false,"i_long":106.800832,"distance":1230,"line":1,"station_name":"Duri","i_lat":-6.155215,"is_transit":false,"station_id":"DU"},{"transit":false,"distance":3632,"station_id":"THB","is_transit":false,"i_lat":-6.185545,"i_long":106.811091,"time":8,"line":1,"station_name":"Tanah Abang"}]]}