{"data":[[{"distance":0,"i_lat":-6.330363,"station_name":"Lenteng Agung","transit":false,"station_id":"LNA","is_transit":false,"i_long":106.832616,"line":2,"time":0},{"line":2,"transit":false,"time":3,"i_long":106.838896,"is_transit":false,"distance":2671,"i_lat":-6.3080680000000005,"station_name":"Tanjung Barat","station_id":"TNT"},{"station_name":"Pasar Minggu","distance":2820,"i_lat":-6.2842400000000005,"transit":false,"is_transit":false,"time":4,"i_long":106.843999,"line":2,"station_id":"PSM"},{"station_id":"PSMB","i_lat":-6.263214,"time":2,"transit":false,"line":2,"station_name":"Pasar Minggu Baru","i_long":106.851577,"distance":2380,"is_transit":false},{"time":2,"line":2,"transit":false,"station_id":"DRN","i_lat":-6.255332,"distance":824,"station_name":"Duren Kalibata","i_long":106.85449,"is_transit":false},{"transit":false,"station_name":"Cawang","is_transit":false,"i_long":106.856607,"line":2,"distance":1546,"time":3,"i_lat":-6.242512,"station_id":"CW"},{"line":2,"time":2,"transit":false,"station_name":"Tebet","station_id":"TEB","is_transit":false,"distance":1230,"i_lat":-6.226659,"i_long":106.857948},{"time":4,"distance":2610,"station_name":"Manggarai","transit":true,"station_id":"MRI","is_transit":true,"i_lat":-6.209883,"i_long":106.84912,"line":2},{"time":4,"station_id":"SUD","distance":3186,"i_long":106.822649,"transit":false,"station_name":"Sudirman","i_lat":-6.202263,"line":1,"is_transit":false},{"station_name":"Sudirman Baru","line":1,"transit":false,"i_lat":-6.201433,"i_long":106.819881,"distance":280,"time":1,"station_id":"SUDB","is_transit":false},{"i_lat":-6.20132,"line":1,"transit":false,"station_name":"Karet","time":1,"distance":471,"station_id":"KAT","is_transit":false,"i_long":106.816351},{"distance":2029,"i_long":106.811091,"line":1,"station_name":"Tanah Abang","station_id":"THB","is_transit":true,"time":5,"i_lat":-6.185545,"transit":true},{"is_transit":false,"line":6,"distance":3191,"station_name":"Palmerah","transit":false,"time":6,"i_long":106.79689,"station_id":"PLM","i_lat":-6.207404},{"station_id":"KBY","station_name":"Kebayoran","is_transit":false,"distance":3737,"i_lat":-6.237242,"time":7,"transit":false,"line":6,"i_long":106.780334},{"i_lat":-6.276362,"time":8,"station_name":"Pondokranji","line":6,"i_long":106.74273,"transit":false,"station_id":"PDJ","is_transit":false,"distance":6218},{"time":3,"station_id":"JMU","station_name":"Jurangmangu","i_lat":-6.288927,"i_long":106.728916,"transit":false,"is_transit":false,"distance":2179,"line":6},{"i_lat":-6.296963,"is_transit":false,"transit":false,"time":4,"i_long":106.712277,"station_id":"SDM","distance":1994,"line":6,"station_name":"Sudimara"},{"station_id":"RU","i_long":106.675475,"distance":4566,"is_transit":false,"transit":false,"i_lat":-6.314823,"time":6,"line":6,"station_name":"Rawa Buntu"},{"station_name":"Serpong","i_lat":-6.319871,"transit":false,"is_transit":false,"line":6,"distance":2413,"i_long":106.66566,"time":4,"station_id":"SRP"},{"i_long":106.640411,"i_lat":-6.32484,"transit":false,"line":3,"time":4,"distance":1784,"station_name":"Cisauk","station_id":"CSK","is_transit":false},{"i_long":106.617853,"is_transit":false,"transit":false,"distance":2519,"station_name":"Cicayur","time":4,"line":3,"station_id":"CC","i_lat":-6.329547},{"i_lat":-6.3441410000000005,"line":6,"time":8,"transit":false,"station_name":"Parung Panjang","distance":5968,"i_long":106.568863,"station_id":"PRP","is_transit":false},{"time":9,"is_transit":false,"i_long":106.508482,"transit":false,"station_id":"CJT","i_lat":-6.354349,"distance":7025,"line":3,"station_name":"Cilejit"},{"time":6,"transit":false,"station_id":"DAR","i_lat":-6.338021,"i_long":106.491338,"station_name":"Daru","is_transit":false,"line":0,"distance":2675},{"is_transit":false,"station_name":"Tenjo","time":5,"i_lat":-6.327251,"i_long":106.460812,"distance":3902,"transit":false,"line":6,"station_id":"TEJ"},{"i_long":106.425991,"station_id":"TGS","transit":false,"line":6,"station_name":"Tigaraksa","i_lat":-6.328533,"is_transit":false,"distance":2974,"time":5}],[{"i_long":106.832616,"station_id":"LNA","transit":false,"i_lat":-6.330363,"is_transit":false,"station_name":"Lenteng Agung","distance":0,"line":2,"time":0},{"station_name":"Tanjung Barat","is_transit":false,"distance":2671,"i_lat":-6.3080680000000005,"station_id":"TNT","transit":false,"time":3,"i_long":106.838896,"line":2},{"station_id":"PSM","is_transit":false,"i_lat":-6.2842400000000005,"distance":2820,"line":2,"station_name":"Pasar Minggu","transit":false,"i_long":106.843999,"time":4},{"station_id":"PSMB","is_transit":false,"transit":false,"time":2,"station_name":"Pasar Minggu Baru","i_lat":-6.263214,"line":2,"distance":2380,"i_long":106.851577},{"station_name":"Duren Kalibata","distance":824,"line":2,"i_lat":-6.255332,"is_transit":false,"time":2,"transit":false,"station_id":"DRN","i_long":106.85449},{"i_lat":-6.242512,"is_transit":false,"i_long":106.856607,"line":2,"station_name":"Cawang","transit":false,"station_id":"CW","time":3,"distance":1546},{"i_long":106.857948,"is_transit":false,"distance":1230,"transit":false,"station_name":"Tebet","i_lat":-6.226659,"time":2,"station_id":"TEB","line":2},{"is_transit":false,"transit":false,"station_id":"MRI","time":4,"i_lat":-6.209883,"i_long":106.84912,"station_name":"Manggarai","distance":2610,"line":2},{"line":2,"station_name":"Cikini","station_id":"CKI","time":4,"i_lat":-6.198556,"transit":false,"is_transit":false,"i_long":106.840169,"distance":1590},{"station_name":"Gondangdia","station_id":"GDD","time":3,"is_transit":false,"transit":false,"line":2,"distance":1750,"i_lat":-6.186295,"i_long":106.832183},{"i_long":106.828284,"station_id":"JUA","transit":false,"line":2,"station_name":"Juanda","time":4,"i_lat":-6.166716,"distance":2015,"is_transit":false},{"i_lat":-6.160725,"transit":false,"i_long":106.827103,"station_id":"SW","is_transit":false,"time":2,"line":2,"station_name":"Sawah Besar","distance":1149},{"i_long":106.82482,"i_lat":-6.149769,"station_name":"Manggabesar","line":2,"transit":false,"time":2,"station_id":"MGB","is_transit":false,"distance":906},{"time":2,"line":2,"i_lat":-6.141205,"is_transit":false,"i_long":106.820901,"transit":false,"station_name":"Jayakarta","station_id":"JAY","distance":1080},{"station_id":"JAKK","distance":1264,"line":2,"i_long":106.812439,"time":4,"i_lat":-6.137569,"station_name":"Jakarta Kota","transit":true,"is_transit":true},{"line":4,"distance":1364,"station_id":"KPB","i_long":106.826365,"is_transit":true,"transit":true,"station_name":"Kampung Bandan","time":3,"i_lat":-6.132549},{"station_id":"AK","time":9,"distance":4102,"i_lat":-6.144674,"is_transit":false,"transit":false,"i_long":106.79867,"line":1,"station_name":"Angke"},{"i_long":106.800832,"is_transit":false,"i_lat":-6.155215,"distance":1230,"station_name":"Duri","line":1,"time":4,"transit":false,"station_id":"DU"},{"transit":true,"station_id":"THB","is_transit":true,"i_lat":-6.185545,"i_long":106.811091,"line":1,"distance":3632,"time":8,"station_name":"Tanah Abang"},{"station_name":"Palmerah","time":6,"i_long":106.79689,"line":6,"distance":3191,"is_transit":false,"station_id":"PLM","transit":false,"i_lat":-6.207404},{"time":7,"i_long":106.780334,"transit":false,"is_transit":false,"line":6,"i_lat":-6.237242,"station_id":"KBY","station_name":"Kebayoran","distance":3737},{"i_lat":-6.276362,"station_name":"Pondokranji","station_id":"PDJ","time":8,"is_transit":false,"line":6,"distance":6218,"i_long":106.74273,"transit":false},{"station_id":"JMU","time":3,"station_name":"Jurangmangu","is_transit":false,"distance":2179,"i_lat":-6.288927,"i_long":106.728916,"transit":false,"line":6},{"is_transit":false,"distance":1994,"line":6,"transit":false,"time":4,"i_lat":-6.296963,"station_name":"Sudimara","i_long":106.712277,"station_id":"SDM"},{"is_transit":false,"time":6,"distance":4566,"station_id":"RU","line":6,"station_name":"Rawa Buntu","i_lat":-6.314823,"i_long":106.675475,"transit":false},{"station_id":"SRP","station_name":"Serpong","i_long":106.66566,"distance":2413,"time":4,"transit":false,"is_transit":false,"i_lat":-6.319871,"line":6},{"station_id":"CSK","line":3,"i_lat":-6.32484,"time":4,"distance":1784,"transit":false,"station_name":"Cisauk","is_transit":false,"i_long":106.640411},{"station_name":"Cicayur","time":4,"i_long":106.617853,"i_lat":-6.329547,"distance":2519,"transit":false,"line":3,"is_transit":false,"station_id":"CC"},{"station_id":"PRP","i_long":106.568863,"is_transit":false,"time":8,"line":6,"i_lat":-6.3441410000000005,"transit":false,"distance":5968,"station_name":"Parung Panjang"},{"i_lat":-6.354349,"time":9,"station_name":"Cilejit","line":3,"transit":false,"station_id":"CJT","i_long":106.508482,"is_transit":false,"distance":7025},{"time":6,"distance":2675,"transit":false,"station_name":"Daru","line":0,"i_long":106.491338,"is_transit":false,"i_lat":-6.338021,"station_id":"DAR"},{"station_name":"Tenjo","i_long":106.460812,"line":6,"is_transit":false,"i_lat":-6.327251,"transit":false,"station_id":"TEJ","time":5,"distance":3902},{"i_long":106.425991,"line":6,"distance":2974,"i_lat":-6.328533,"station_name":"Tigaraksa","transit":false,"station_id":"TGS","is_transit":false,"time":5}],[{"distance":0,"i_lat":-6.330363,"line":2,"transit":false,"station_id":"LNA","time":0,"station_name":"Lenteng Agung","i_long":106.832616,"is_transit":false},{"time":3,"transit":false,"i_lat":-6.3080680000000005,"is_transit":false,"station_name":"Tanjung Barat","distance":2671,"i_long":106.838896,"line":2,"station_id":"TNT"},{"transit":false,"i_long":106.843999,"i_lat":-6.2842400000000005,"station_id":"PSM","is_transit":false,"station_name":"Pasar Minggu","time":4,"distance":2820,"line":2},{"station_id":"PSMB","is_transit":false,"i_lat":-6.263214,"i_long":106.851577,"line":2,"distance":2380,"station_name":"Pasar Minggu Baru","transit":false,"time":2},{"line":2,"station_id":"DRN","station_name":"Duren Kalibata","i_lat":-6.255332,"distance":824,"transit":false,"is_transit":false,"time":2,"i_long":106.85449},{"is_transit":false,"i_lat":-6.242512,"i_long":106.856607,"line":2,"transit":false,"distance":1546,"time":3,"station_name":"Cawang","station_id":"CW"},{"distance":1230,"line":2,"station_id":"TEB","i_long":106.857948,"is_transit":false,"i_lat":-6.226659,"station_name":"Tebet","time":2,"transit":false},{"is_transit":true,"station_id":"MRI","station_name":"Manggarai","i_lat":-6.209883,"transit":true,"time":4,"line":2,"i_long":106.84912,"distance":2610},{"i_lat":-6.212485,"line":1,"distance":1275,"station_id":"MTR","time":2,"i_long":106.858896,"station_name":"Matraman","transit":false,"is_transit":false},{"line":1,"station_name":"Jatinegara","distance":1377,"transit":true,"station_id":"JNG","i_lat":-6.215091,"time":8,"is_transit":true,"i_long":106.86807400000001},{"transit":false,"station_name":"Pondok Jati","time":2,"distance":1236,"i_lat":-6.209188,"is_transit":false,"i_long":106.861737,"station_id":"POK","line":11},{"station_id":"KMT","station_name":"Kramat","is_transit":false,"time":2,"i_lat":-6.193792,"i_long":106.855437,"line":11,"transit":false,"distance":1829},{"station_id":"GST","transit":false,"time":1,"line":11,"is_transit":false,"i_lat":-6.185975,"i_long":106.850107,"distance":973,"station_name":"Gang Sentiong"},{"line":11,"station_id":"PSE","transit":false,"time":8,"i_lat":-6.174784,"i_long":106.84368,"station_name":"Pasar Senen","distance":1567,"is_transit":false},{"transit":false,"is_transit":false,"i_long":106.839204,"station_name":"Kemayoran","i_lat":-6.161728,"station_id":"KMO","distance":1436,"time":4,"line":11},{"station_id":"RJW","is_transit":false,"distance":1901,"i_long":106.836569,"i_lat":-6.14505,"station_name":"Rajawali","transit":false,"time":5,"line":11},{"i_long":106.826365,"line":4,"distance":1444,"i_lat":-6.132549,"is_transit":true,"time":3,"station_name":"Kampung Bandan","transit":true,"station_id":"KPB"},{"i_long":106.79867,"station_name":"Angke","time":9,"i_lat":-6.144674,"distance":4102,"line":1,"station_id":"AK","transit":false,"is_transit":false},{"i_lat":-6.155215,"is_transit":false,"station_name":"Duri","time":4,"i_long":106.800832,"distance":1230,"station_id":"DU","transit":false,"line":1},{"station_name":"Tanah Abang","line":1,"station_id":"THB","i_long":106.811091,"distance":3632,"is_transit":true,"transit":true,"time":8,"i_lat":-6.185545},{"time":6,"transit":false,"i_long":106.79689,"is_transit":false,"line":6,"distance":3191,"station_id":"PLM","station_name":"Palmerah","i_lat":-6.207404},{"station_name":"Kebayoran","distance":3737,"time":7,"i_lat":-6.237242,"is_transit":false,"line":6,"i_long":106.780334,"station_id":"KBY","transit":false},{"station_name":"Pondokranji","transit":false,"distance":6218,"time":8,"i_long":106.74273,"station_id":"PDJ","line":6,"i_lat":-6.276362,"is_transit":false},{"is_transit":false,"i_long":106.728916,"transit":false,"distance":2179,"time":3,"i_lat":-6.288927,"station_id":"JMU","station_name":"Jurangmangu","line":6},{"is_transit":false,"time":4,"line":6,"station_name":"Sudimara","i_lat":-6.296963,"station_id":"SDM","i_long":106.712277,"distance":1994,"transit":false},{"transit":false,"time":6,"i_long":106.675475,"distance":4566,"i_lat":-6.314823,"station_name":"Rawa Buntu","station_id":"RU","is_transit":false,"line":6},{"is_transit":false,"distance":2413,"station_name":"Serpong","transit":false,"line":6,"time":4,"station_id":"SRP","i_long":106.66566,"i_lat":-6.319871},{"is_transit":false,"time":4,"station_id":"CSK","i_lat":-6.32484,"i_long":106.640411,"distance":1784,"transit":false,"line":3,"station_name":"Cisauk"},{"i_long":106.617853,"i_lat":-6.329547,"is_transit":false,"station_id":"CC","transit":false,"time":4,"distance":2519,"station_name":"Cicayur","line":3},{"i_lat":-6.3441410000000005,"i_long":106.568863,"is_transit":false,"station_name":"Parung Panjang","distance":5968,"line":6,"transit":false,"time":8,"station_id":"PRP"},{"distance":7025,"station_id":"CJT","is_transit":false,"time":9,"i_long":106.508482,"station_name":"Cilejit","transit":false,"i_lat":-6.354349,"line":3},{"transit":false,"i_long":106.491338,"i_lat":-6.338021,"is_transit":false,"time":6,"line":0,"distance":2675,"station_name":"Daru","station_id":"DAR"},{"station_name":"Tenjo","i_long":106.460812,"time":5,"line":6,"is_transit":false,"station_id":"TEJ","transit":false,"i_lat":-6.327251,"distance":3902},{"station_id":"TGS","distance":2974,"i_long":106.425991,"is_transit":false,"station_name":"Tigaraksa","line":6,"transit":false,"time":5,"i_lat":-6.328533}]]}