{"data":[[{"station_id":"LNA","is_transit":false,"transit":false,"i_lat":-6.330363,"distance":0,"line":2,"station_name":"Lenteng Agung","time":0,"i_long":106.832616},{"time":3,"is_transit":false,"i_long":106.838896,"line":2,"transit":false,"station_name":"Tanjung Barat","distance":2671,"i_lat":-6.3080680000000005,"station_id":"TNT"},{"is_transit":false,"station_name":"Pasar Minggu","station_id":"PSM","i_lat":-6.2842400000000005,"transit":false,"line":2,"distance":2820,"i_long":106.843999,"time":4},{"distance":2380,"station_id":"PSMB","is_transit":false,"i_long":106.851577,"line":2,"transit":false,"station_name":"Pasar Minggu Baru","i_lat":-6.263214,"time":2},{"time":2,"station_id":"DRN","distance":824,"is_transit":false,"line":2,"i_long":106.85449,"station_name":"Duren Kalibata","i_lat":-6.255332,"transit":false},{"time":3,"line":2,"station_name":"Cawang","distance":1546,"transit":false,"station_id":"CW","i_lat":-6.242512,"i_long":106.856607,"is_transit":false},{"distance":1230,"i_lat":-6.226659,"station_name":"Tebet","station_id":"TEB","line":2,"time":2,"transit":false,"is_transit":false,"i_long":106.857948},{"line":2,"time":4,"station_name":"Manggarai","i_long":106.84912,"i_lat":-6.209883,"transit":true,"station_id":"MRI","is_transit":true,"distance":2610},{"distance":1275,"line":1,"station_id":"MTR","time":2,"i_long":106.858896,"station_name":"Matraman","i_lat":-6.212485,"is_transit":false,"transit":false},{"distance":1377,"transit":false,"i_long":106.86807400000001,"line":1,"is_transit":false,"station_id":"JNG","i_lat":-6.215091,"station_name":"Jatinegara","time":8},{"is_transit":false,"station_name":"Klender","i_lat":-6.2135,"transit":false,"station_id":"KLD","time":3,"distance":3395,"i_long":106.899548,"line":1},{"station_name":"Buaran","distance":3100,"i_long":106.922662,"is_transit":false,"line":1,"time":2,"station_id":"BUA","transit":false,"i_lat":-6.215568}],[{"i_long":106.832616,"line":2,"transit":false,"distance":0,"station_id":"LNA","station_name":"Lenteng Agung","time":0,"is_transit":false,"i_lat":-6.330363},{"is_transit":false,"line":2,"distance":2671,"i_long":106.838896,"time":3,"i_lat":-6.3080680000000005,"transit":false,"station_id":"TNT","station_name":"Tanjung Barat"},{"i_lat":-6.2842400000000005,"station_id":"PSM","time":4,"station_name":"Pasar Minggu","distance":2820,"is_transit":false,"transit":false,"i_long":106.843999,"line":2},{"time":2,"i_lat":-6.263214,"transit":false,"station_name":"Pasar Minggu Baru","line":2,"i_long":106.851577,"distance":2380,"is_transit":false,"station_id":"PSMB"},{"distance":824,"is_transit":false,"line":2,"transit":false,"i_long":106.85449,"station_id":"DRN","station_name":"Duren Kalibata","time":2,"i_lat":-6.255332},{"station_id":"CW","transit":false,"station_name":"Cawang","i_lat":-6.242512,"distance":1546,"i_long":106.856607,"line":2,"is_transit":false,"time":3},{"station_name":"Tebet","time":2,"distance":1230,"line":2,"i_lat":-6.226659,"station_id":"TEB","transit":false,"i_long":106.857948,"is_transit":false},{"i_lat":-6.209883,"transit":true,"station_id":"MRI","station_name":"Manggarai","i_long":106.84912,"line":2,"time":4,"distance":2610,"is_transit":true},{"line":1,"is_transit":false,"station_id":"SUD","transit":false,"i_long":106.822649,"station_name":"Sudirman","time":4,"distance":3186,"i_lat":-6.202263},{"i_long":106.819881,"distance":280,"line":1,"station_name":"Sudirman Baru","is_transit":false,"transit":false,"station_id":"SUDB","time":1,"i_lat":-6.201433},{"station_id":"KAT","distance":471,"is_transit":false,"transit":false,"time":1,"i_lat":-6.20132,"i_long":106.816351,"line":1,"station_name":"Karet"},{"transit":false,"station_id":"THB","station_name":"Tanah Abang","i_lat":-6.185545,"time":5,"is_transit":false,"distance":2029,"i_long":106.811091,"line":1},{"i_long":106.800832,"line":1,"transit":false,"station_name":"Duri","i_lat":-6.155215,"is_transit":false,"distance":3632,"time":8,"station_id":"DU"},{"transit":false,"time":4,"i_long":106.79867,"line":1,"is_transit":false,"i_lat":-6.144674,"station_name":"Angke","station_id":"AK","distance":1230},{"i_lat":-6.132549,"line":4,"time":9,"is_transit":true,"distance":4102,"i_long":106.826365,"station_id":"KPB","station_name":"Kampung Bandan","transit":true},{"line":11,"i_long":106.836569,"i_lat":-6.14505,"station_name":"Rajawali","transit":false,"station_id":"RJW","is_transit":false,"distance":1444,"time":3},{"is_transit":false,"transit":false,"i_lat":-6.161728,"line":11,"station_id":"KMO","station_name":"Kemayoran","time":5,"i_long":106.839204,"distance":1901},{"is_transit":false,"transit":false,"distance":1436,"line":11,"station_name":"Pasar Senen","i_lat":-6.174784,"station_id":"PSE","time":4,"i_long":106.84368},{"distance":1567,"station_id":"GST","time":8,"i_long":106.850107,"transit":false,"station_name":"Gang Sentiong","is_transit":false,"line":11,"i_lat":-6.185975},{"station_name":"Kramat","i_lat":-6.193792,"transit":false,"is_transit":false,"line":11,"station_id":"KMT","distance":973,"i_long":106.855437,"time":1},{"station_id":"POK","distance":1829,"station_name":"Pondok Jati","time":2,"i_long":106.861737,"is_transit":false,"transit":false,"i_lat":-6.209188,"line":11},{"station_name":"Jatinegara","i_lat":-6.215091,"station_id":"JNG","time":9,"transit":true,"line":1,"i_long":106.86807400000001,"distance":1236,"is_transit":true},{"i_lat":-6.2135,"line":1,"station_name":"Klender","station_id":"KLD","is_transit":false,"transit":false,"i_long":106.899548,"time":3,"distance":3395},{"transit":false,"is_transit":false,"i_long":106.922662,"time":2,"i_lat":-6.215568,"station_name":"Buaran","station_id":"BUA","line":1,"distance":3100}],[{"i_lat":-6.330363,"station_id":"LNA","transit":false,"time":0,"line":2,"i_long":106.832616,"station_name":"Lenteng Agung","distance":0,"is_transit":false},{"distance":2671,"i_lat":-6.3080680000000005,"is_transit":false,"line":2,"station_name":"Tanjung Barat","i_long":106.838896,"time":3,"station_id":"TNT","transit":false},{"i_long":106.843999,"i_lat":-6.2842400000000005,"station_id":"PSM","time":4,"transit":false,"is_transit":false,"line":2,"distance":2820,"station_name":"Pasar Minggu"},{"i_long":106.851577,"transit":false,"station_id":"PSMB","station_name":"Pasar Minggu Baru","i_lat":-6.263214,"line":2,"time":2,"is_transit":false,"distance":2380},{"line":2,"distance":824,"transit":false,"station_id":"DRN","time":2,"i_long":106.85449,"i_lat":-6.255332,"station_name":"Duren Kalibata","is_transit":false},{"i_lat":-6.242512,"i_long":106.856607,"station_id":"CW","transit":false,"station_name":"Cawang","time":3,"line":2,"is_transit":false,"distance":1546},{"i_long":106.857948,"station_name":"Tebet","time":2,"is_transit":false,"transit":false,"line":2,"station_id":"TEB","distance":1230,"i_lat":-6.226659},{"line":2,"time":4,"station_name":"Manggarai","i_long":106.84912,"distance":2610,"transit":false,"is_transit":false,"station_id":"MRI","i_lat":-6.209883},{"station_id":"CKI","i_long":106.840169,"station_name":"Cikini","line":2,"is_transit":false,"time":4,"transit":false,"distance":1590,"i_lat":-6.198556},{"station_name":"Gondangdia","distance":1750,"is_transit":false,"station_id":"GDD","line":2,"time":3,"i_lat":-6.186295,"transit":false,"i_long":106.832183},{"i_long":106.828284,"station_name":"Juanda","is_transit":false,"transit":false,"time":4,"line":2,"i_lat":-6.166716,"distance":2015,"station_id":"JUA"},{"transit":false,"station_name":"Sawah Besar","is_transit":false,"distance":1149,"line":2,"time":2,"i_lat":-6.160725,"i_long":106.827103,"station_id":"SW"},{"time":2,"i_long":106.82482,"line":2,"i_lat":-6.149769,"is_transit":false,"station_name":"Manggabesar","distance":906,"station_id":"MGB","transit":false},{"transit":false,"time":2,"line":2,"station_id":"JAY","i_lat":-6.141205,"is_transit":false,"station_name":"Jayakarta","distance":1080,"i_long":106.820901},{"i_long":106.812439,"transit":true,"station_name":"Jakarta Kota","station_id":"JAKK","distance":1264,"i_lat":-6.137569,"line":2,"time":4,"is_transit":true},{"station_id":"KPB","station_name":"Kampung Bandan","time":3,"is_transit":true,"distance":1364,"transit":true,"i_lat":-6.132549,"i_long":106.826365,"line":4},{"transit":false,"distance":1444,"station_name":"Rajawali","is_transit":false,"i_lat":-6.14505,"time":3,"line":11,"station_id":"RJW","i_long":106.836569},{"transit":false,"station_name":"Kemayoran","is_transit":false,"i_lat":-6.161728,"i_long":106.839204,"distance":1901,"time":5,"line":11,"station_id":"KMO"},{"i_long":106.84368,"is_transit":false,"station_name":"Pasar Senen","station_id":"PSE","i_lat":-6.174784,"distance":1436,"transit":false,"line":11,"time":4},{"time":8,"is_transit":false,"station_name":"Gang Sentiong","i_lat":-6.185975,"distance":1567,"transit":false,"station_id":"GST","i_long":106.850107,"line":11},{"station_id":"KMT","is_transit":false,"time":1,"line":11,"station_name":"Kramat","transit":false,"i_long":106.855437,"i_lat":-6.193792,"distance":973},{"line":11,"transit":false,"station_name":"Pondok Jati","distance":1829,"i_long":106.861737,"i_lat":-6.209188,"station_id":"POK","is_transit":false,"time":2},{"time":9,"distance":1236,"is_transit":true,"station_id":"JNG","transit":true,"line":1,"station_name":"Jatinegara","i_long":106.86807400000001,"i_lat":-6.215091},{"distance":3395,"line":1,"is_transit":false,"time":3,"i_lat":-6.2135,"station_name":"Klender","transit":false,"station_id":"KLD","i_long":106.899548},{"i_lat":-6.215568,"line":1,"is_transit":false,"time":2,"i_long":106.922662,"transit":false,"station_id":"BUA","station_name":"Buaran","distance":3100}]]}