{"data":[[{"time":0,"station_id":"LNA","transit":false,"i_long":106.832616,"station_name":"Lenteng Agung","distance":0,"is_transit":false,"i_lat":-6.330363,"line":2},{"i_lat":-6.3080680000000005,"distance":2671,"line":2,"time":3,"is_transit":false,"i_long":106.838896,"transit":false,"station_name":"Tanjung Barat","station_id":"TNT"},{"distance":2820,"station_name":"Pasar Minggu","line":2,"time":4,"transit":false,"station_id":"PSM","i_lat":-6.2842400000000005,"i_long":106.843999,"is_transit":false},{"station_id":"PSMB","time":2,"i_lat":-6.263214,"line":2,"transit":false,"is_transit":false,"station_name":"Pasar Minggu Baru","distance":2380,"i_long":106.851577},{"is_transit":false,"time":2,"distance":824,"station_id":"DRN","line":2,"i_lat":-6.255332,"i_long":106.85449,"transit":false,"station_name":"Duren Kalibata"},{"i_lat":-6.242512,"distance":1546,"line":2,"transit":false,"is_transit":false,"station_name":"Cawang","i_long":106.856607,"station_id":"CW","time":3},{"station_id":"TEB","is_transit":false,"time":2,"transit":false,"distance":1230,"i_lat":-6.226659,"station_name":"Tebet","i_long":106.857948,"line":2},{"distance":2610,"i_long":106.84912,"i_lat":-6.209883,"station_name":"Manggarai","station_id":"MRI","time":4,"is_transit":true,"line":2,"transit":true},{"station_name":"Sudirman","station_id":"SUD","distance":3186,"transit":false,"is_transit":false,"i_long":106.822649,"time":4,"i_lat":-6.202263,"line":1},{"station_name":"Sudirman Baru","station_id":"SUDB","time":1,"is_transit":false,"i_long":106.819881,"i_lat":-6.201433,"line":1,"distance":280,"transit":false},{"is_transit":false,"station_id":"KAT","time":1,"transit":false,"station_name":"Karet","i_lat":-6.20132,"i_long":106.816351,"line":1,"distance":471},{"i_lat":-6.185545,"line":1,"is_transit":false,"time":5,"transit":false,"i_long":106.811091,"station_name":"Tanah Abang","station_id":"THB","distance":2029},{"i_long":106.800832,"station_name":"Duri","time":8,"line":1,"transit":true,"is_transit":true,"distance":3632,"station_id":"DU","i_lat":-6.155215},{"line":5,"is_transit":false,"transit":false,"station_name":"Grogol","i_lat":-6.162021,"station_id":"GGL","time":3,"i_long":106.788277,"distance":1700},{"transit":false,"distance":2036,"line":5,"station_id":"PSG","time":2,"station_name":"Pesing","i_lat":-6.161433,"is_transit":false,"i_long":106.771379}],[{"transit":false,"station_name":"Lenteng Agung","time":0,"distance":0,"i_lat":-6.330363,"station_id":"LNA","i_long":106.832616,"is_transit":false,"line":2},{"i_lat":-6.3080680000000005,"transit":false,"station_id":"TNT","line":2,"is_transit":false,"distance":2671,"station_name":"Tanjung Barat","time":3,"i_long":106.838896},{"time":4,"i_lat":-6.2842400000000005,"transit":false,"station_name":"Pasar Minggu","i_long":106.843999,"line":2,"is_transit":false,"distance":2820,"station_id":"PSM"},{"i_long":106.851577,"transit":false,"i_lat":-6.263214,"is_transit":false,"station_id":"PSMB","time":2,"distance":2380,"line":2,"station_name":"Pasar Minggu Baru"},{"station_id":"DRN","i_long":106.85449,"transit":false,"line":2,"is_transit":false,"i_lat":-6.255332,"station_name":"Duren Kalibata","time":2,"distance":824},{"transit":false,"is_transit":false,"i_long":106.856607,"distance":1546,"station_name":"Cawang","time":3,"i_lat":-6.242512,"line":2,"station_id":"CW"},{"transit":false,"i_long":106.857948,"station_id":"TEB","line":2,"station_name":"Tebet","i_lat":-6.226659,"is_transit":false,"time":2,"distance":1230},{"station_id":"MRI","is_transit":false,"station_name":"Manggarai","distance":2610,"i_lat":-6.209883,"transit":false,"i_long":106.84912,"line":2,"time":4},{"distance":1590,"line":2,"time":4,"i_lat":-6.198556,"station_name":"Cikini","station_id":"CKI","is_transit":false,"i_long":106.840169,"transit":false},{"line":2,"is_transit":false,"i_lat":-6.186295,"distance":1750,"station_id":"GDD","time":3,"transit":false,"station_name":"Gondangdia","i_long":106.832183},{"station_id":"JUA","i_lat":-6.166716,"time":4,"line":2,"station_name":"Juanda","distance":2015,"i_long":106.828284,"is_transit":false,"transit":false},{"station_id":"SW","i_long":106.827103,"is_transit":false,"time":2,"transit":false,"station_name":"Sawah Besar","i_lat":-6.160725,"distance":1149,"line":2},{"transit":false,"station_id":"MGB","line":2,"station_name":"Manggabesar","i_lat":-6.149769,"i_long":106.82482,"time":2,"is_transit":false,"distance":906},{"transit":false,"time":2,"is_transit":false,"distance":1080,"line":2,"i_lat":-6.141205,"i_long":106.820901,"station_name":"Jayakarta","station_id":"JAY"},{"i_long":106.812439,"line":2,"station_name":"Jakarta Kota","station_id":"JAKK","distance":1264,"transit":true,"time":4,"is_transit":true,"i_lat":-6.137569},{"i_lat":-6.132549,"station_id":"KPB","i_long":106.826365,"line":4,"station_name":"Kampung Bandan","is_transit":true,"transit":true,"time":3,"distance":1364},{"station_id":"AK","time":9,"i_long":106.79867,"station_name":"Angke","i_lat":-6.144674,"distance":4102,"transit":false,"is_transit":false,"line":1},{"station_name":"Duri","line":1,"is_transit":true,"time":4,"distance":1230,"i_long":106.800832,"transit":true,"station_id":"DU","i_lat":-6.155215},{"time":3,"transit":false,"i_lat":-6.162021,"i_long":106.788277,"station_id":"GGL","line":5,"is_transit":false,"distance":1700,"station_name":"Grogol"},{"time":2,"i_lat":-6.161433,"distance":2036,"station_id":"PSG","i_long":106.771379,"transit":false,"line":5,"station_name":"Pesing","is_transit":false}],[{"station_id":"LNA","station_name":"Lenteng Agung","line":2,"i_lat":-6.330363,"is_transit":false,"distance":0,"time":0,"i_long":106.832616,"transit":false},{"i_lat":-6.3080680000000005,"line":2,"is_transit":false,"time":3,"station_id":"TNT","distance":2671,"transit":false,"i_long":106.838896,"station_name":"Tanjung Barat"},{"station_name":"Pasar Minggu","i_long":106.843999,"line":2,"is_transit":false,"distance":2820,"station_id":"PSM","time":4,"transit":false,"i_lat":-6.2842400000000005},{"station_id":"PSMB","transit":false,"distance":2380,"i_lat":-6.263214,"time":2,"line":2,"i_long":106.851577,"is_transit":false,"station_name":"Pasar Minggu Baru"},{"transit":false,"station_name":"Duren Kalibata","distance":824,"i_long":106.85449,"station_id":"DRN","line":2,"is_transit":false,"time":2,"i_lat":-6.255332},{"is_transit":false,"distance":1546,"station_id":"CW","time":3,"transit":false,"line":2,"i_long":106.856607,"i_lat":-6.242512,"station_name":"Cawang"},{"line":2,"time":2,"distance":1230,"i_lat":-6.226659,"i_long":106.857948,"station_name":"Tebet","station_id":"TEB","transit":false,"is_transit":false},{"i_long":106.84912,"is_transit":true,"station_name":"Manggarai","distance":2610,"i_lat":-6.209883,"line":2,"station_id":"MRI","transit":true,"time":4},{"i_lat":-6.212485,"line":1,"station_id":"MTR","i_long":106.858896,"is_transit":false,"transit":false,"station_name":"Matraman","distance":1275,"time":2},{"i_long":106.86807400000001,"transit":true,"station_id":"JNG","distance":1377,"station_name":"Jatinegara","is_transit":true,"i_lat":-6.215091,"time":8,"line":1},{"i_long":106.861737,"station_name":"Pondok Jati","transit":false,"station_id":"POK","time":2,"distance":1236,"is_transit":false,"i_lat":-6.209188,"line":11},{"station_name":"Kramat","distance":1829,"station_id":"KMT","i_lat":-6.193792,"line":11,"time":2,"transit":false,"is_transit":false,"i_long":106.855437},{"time":1,"line":11,"transit":false,"station_id":"GST","station_name":"Gang Sentiong","i_long":106.850107,"distance":973,"i_lat":-6.185975,"is_transit":false},{"distance":1567,"i_lat":-6.174784,"time":8,"is_transit":false,"station_id":"PSE","i_long":106.84368,"line":11,"transit":false,"station_name":"Pasar Senen"},{"station_name":"Kemayoran","is_transit":false,"station_id":"KMO","i_lat":-6.161728,"line":11,"time":4,"i_long":106.839204,"transit":false,"distance":1436},{"i_long":106.836569,"distance":1901,"station_name":"Rajawali","transit":false,"time":5,"i_lat":-6.14505,"is_transit":false,"station_id":"RJW","line":11},{"time":3,"station_id":"KPB","station_name":"Kampung Bandan","line":4,"distance":1444,"transit":true,"is_transit":true,"i_lat":-6.132549,"i_long":106.826365},{"station_name":"Angke","i_long":106.79867,"transit":false,"i_lat":-6.144674,"station_id":"AK","is_transit":false,"time":9,"line":1,"distance":4102},{"is_transit":true,"station_name":"Duri","time":4,"station_id":"DU","distance":1230,"i_lat":-6.155215,"i_long":106.800832,"line":1,"transit":true},{"distance":1700,"transit":false,"station_id":"GGL","station_name":"Grogol","i_lat":-6.162021,"time":3,"line":5,"i_long":106.788277,"is_transit":false},{"station_id":"PSG","transit":false,"distance":2036,"station_name":"Pesing","i_lat":-6.161433,"time":2,"is_transit":false,"i_long":106.771379,"line":5}]]}