{"data":[[{"line":2,"transit":false,"time":0,"station_name":"Lenteng Agung","station_id":"LNA","i_lat":-6.330363,"distance":0,"is_transit":false,"i_long":106.832616},{"time":3,"i_long":106.838896,"is_transit":false,"distance":2671,"i_lat":-6.3080680000000005,"station_id":"TNT","line":2,"station_name":"Tanjung Barat","transit":false},{"station_name":"Pasar Minggu","distance":2820,"time":4,"i_long":106.843999,"transit":false,"line":2,"station_id":"PSM","is_transit":false,"i_lat":-6.2842400000000005},{"is_transit":false,"distance":2380,"time":2,"station_id":"PSMB","line":2,"station_name":"Pasar Minggu Baru","i_long":106.851577,"i_lat":-6.263214,"transit":false},{"is_transit":false,"i_lat":-6.255332,"transit":false,"i_long":106.85449,"time":2,"line":2,"distance":824,"station_id":"DRN","station_name":"Duren Kalibata"},{"transit":false,"is_transit":false,"station_name":"Cawang","distance":1546,"station_id":"CW","time":3,"line":2,"i_lat":-6.242512,"i_long":106.856607},{"station_id":"TEB","i_long":106.857948,"distance":1230,"is_transit":false,"transit":false,"time":2,"line":2,"i_lat":-6.226659,"station_name":"Tebet"},{"station_id":"MRI","i_lat":-6.209883,"i_long":106.84912,"distance":2610,"is_transit":true,"station_name":"Manggarai","transit":true,"time":4,"line":2},{"is_transit":false,"time":4,"transit":false,"line":1,"station_name":"Sudirman","station_id":"SUD","distance":3186,"i_lat":-6.202263,"i_long":106.822649},{"station_id":"SUDB","i_lat":-6.201433,"i_long":106.819881,"time":1,"is_transit":false,"line":1,"distance":280,"station_name":"Sudirman Baru","transit":false},{"is_transit":false,"station_id":"KAT","line":1,"station_name":"Karet","distance":471,"time":1,"i_long":106.816351,"i_lat":-6.20132,"transit":false},{"transit":true,"is_transit":true,"station_name":"Tanah Abang","station_id":"THB","line":1,"distance":2029,"i_lat":-6.185545,"time":5,"i_long":106.811091},{"transit":false,"is_transit":false,"station_name":"Palmerah","time":6,"distance":3191,"i_lat":-6.207404,"i_long":106.79689,"line":6,"station_id":"PLM"},{"time":7,"transit":false,"i_long":106.780334,"station_id":"KBY","line":6,"i_lat":-6.237242,"distance":3737,"is_transit":false,"station_name":"Kebayoran"},{"i_long":106.74273,"distance":6218,"is_transit":false,"station_name":"Pondokranji","time":8,"i_lat":-6.276362,"line":6,"transit":false,"station_id":"PDJ"},{"station_id":"JMU","distance":2179,"time":3,"line":6,"station_name":"Jurangmangu","transit":false,"is_transit":false,"i_long":106.728916,"i_lat":-6.288927},{"line":6,"is_transit":false,"station_name":"Sudimara","station_id":"SDM","time":4,"i_lat":-6.296963,"distance":1994,"i_long":106.712277,"transit":false},{"i_long":106.675475,"transit":false,"line":6,"station_name":"Rawa Buntu","is_transit":false,"station_id":"RU","distance":4566,"time":6,"i_lat":-6.314823},{"transit":false,"line":6,"is_transit":false,"time":4,"i_lat":-6.319871,"i_long":106.66566,"station_name":"Serpong","station_id":"SRP","distance":2413},{"line":3,"distance":1784,"is_transit":false,"station_id":"CSK","station_name":"Cisauk","time":4,"i_lat":-6.32484,"i_long":106.640411,"transit":false},{"station_id":"CC","time":4,"i_lat":-6.329547,"station_name":"Cicayur","i_long":106.617853,"distance":2519,"transit":false,"is_transit":false,"line":3},{"transit":false,"line":6,"station_name":"Parung Panjang","is_transit":false,"station_id":"PRP","i_lat":-6.3441410000000005,"distance":5968,"time":8,"i_long":106.568863},{"distance":7025,"station_id":"CJT","time":9,"i_long":106.508482,"transit":false,"line":3,"is_transit":false,"i_lat":-6.354349,"station_name":"Cilejit"},{"line":0,"is_transit":false,"i_lat":-6.338021,"transit":false,"station_name":"Daru","i_long":106.491338,"time":6,"distance":2675,"station_id":"DAR"},{"is_transit":false,"transit":false,"i_long":106.460812,"station_id":"TEJ","i_lat":-6.327251,"line":6,"station_name":"Tenjo","time":5,"distance":3902},{"i_lat":-6.328533,"distance":2974,"station_name":"Tigaraksa","station_id":"TGS","time":5,"i_long":106.425991,"is_transit":false,"line":6,"transit":false},{"station_name":"Cikoya","station_id":"CKY","line":3,"i_long":106.411216,"is_transit":false,"distance":2651,"time":3,"i_lat":-6.33561,"transit":false},{"distance":1853,"line":6,"time":4,"transit":false,"i_long":106.394373,"station_id":"MJ","station_name":"Maja","i_lat":-6.332307,"is_transit":false}],[{"station_id":"LNA","i_long":106.832616,"i_lat":-6.330363,"transit":false,"line":2,"distance":0,"is_transit":false,"station_name":"Lenteng Agung","time":0},{"transit":false,"time":3,"i_long":106.838896,"is_transit":false,"line":2,"distance":2671,"i_lat":-6.3080680000000005,"station_name":"Tanjung Barat","station_id":"TNT"},{"line":2,"is_transit":false,"time":4,"i_long":106.843999,"station_name":"Pasar Minggu","distance":2820,"station_id":"PSM","i_lat":-6.2842400000000005,"transit":false},{"station_name":"Pasar Minggu Baru","transit":false,"time":2,"distance":2380,"is_transit":false,"i_lat":-6.263214,"i_long":106.851577,"station_id":"PSMB","line":2},{"i_long":106.85449,"line":2,"station_id":"DRN","distance":824,"i_lat":-6.255332,"transit":false,"time":2,"station_name":"Duren Kalibata","is_transit":false},{"station_name":"Cawang","transit":false,"i_long":106.856607,"time":3,"i_lat":-6.242512,"is_transit":false,"line":2,"distance":1546,"station_id":"CW"},{"distance":1230,"station_name":"Tebet","is_transit":false,"i_lat":-6.226659,"transit":false,"time":2,"line":2,"station_id":"TEB","i_long":106.857948},{"station_name":"Manggarai","time":4,"i_lat":-6.209883,"distance":2610,"transit":false,"is_transit":false,"i_long":106.84912,"station_id":"MRI","line":2},{"i_lat":-6.198556,"is_transit":false,"i_long":106.840169,"station_name":"Cikini","time":4,"transit":false,"station_id":"CKI","line":2,"distance":1590},{"time":3,"i_lat":-6.186295,"i_long":106.832183,"station_id":"GDD","line":2,"distance":1750,"transit":false,"is_transit":false,"station_name":"Gondangdia"},{"line":2,"time":4,"transit":false,"distance":2015,"station_id":"JUA","i_lat":-6.166716,"station_name":"Juanda","i_long":106.828284,"is_transit":false},{"distance":1149,"station_id":"SW","transit":false,"i_lat":-6.160725,"time":2,"line":2,"is_transit":false,"station_name":"Sawah Besar","i_long":106.827103},{"station_id":"MGB","station_name":"Manggabesar","transit":false,"i_long":106.82482,"line":2,"time":2,"distance":906,"is_transit":false,"i_lat":-6.149769},{"is_transit":false,"transit":false,"station_id":"JAY","i_long":106.820901,"time":2,"distance":1080,"station_name":"Jayakarta","i_lat":-6.141205,"line":2},{"line":2,"i_lat":-6.137569,"i_long":106.812439,"station_id":"JAKK","distance":1264,"transit":true,"is_transit":true,"station_name":"Jakarta Kota","time":4},{"i_lat":-6.132549,"distance":1364,"transit":true,"station_name":"Kampung Bandan","station_id":"KPB","time":3,"line":4,"is_transit":true,"i_long":106.826365},{"is_transit":false,"distance":4102,"transit":false,"time":9,"i_lat":-6.144674,"line":1,"i_long":106.79867,"station_id":"AK","station_name":"Angke"},{"i_long":106.800832,"line":1,"is_transit":false,"transit":false,"station_name":"Duri","distance":1230,"station_id":"DU","i_lat":-6.155215,"time":4},{"station_id":"THB","i_long":106.811091,"i_lat":-6.185545,"transit":true,"is_transit":true,"time":8,"line":1,"distance":3632,"station_name":"Tanah Abang"},{"i_long":106.79689,"transit":false,"is_transit":false,"station_name":"Palmerah","i_lat":-6.207404,"line":6,"distance":3191,"time":6,"station_id":"PLM"},{"station_id":"KBY","time":7,"i_lat":-6.237242,"station_name":"Kebayoran","i_long":106.780334,"distance":3737,"line":6,"transit":false,"is_transit":false},{"transit":false,"station_name":"Pondokranji","time":8,"i_lat":-6.276362,"i_long":106.74273,"is_transit":false,"station_id":"PDJ","line":6,"distance":6218},{"is_transit":false,"i_lat":-6.288927,"i_long":106.728916,"transit":false,"time":3,"station_id":"JMU","distance":2179,"station_name":"Jurangmangu","line":6},{"station_name":"Sudimara","transit":false,"station_id":"SDM","line":6,"time":4,"i_lat":-6.296963,"i_long":106.712277,"distance":1994,"is_transit":false},{"station_name":"Rawa Buntu","time":6,"distance":4566,"line":6,"i_lat":-6.314823,"station_id":"RU","transit":false,"i_long":106.675475,"is_transit":false},{"i_long":106.66566,"station_id":"SRP","is_transit":false,"i_lat":-6.319871,"transit":false,"station_name":"Serpong","line":6,"time":4,"distance":2413},{"transit":false,"i_lat":-6.32484,"distance":1784,"is_transit":false,"station_name":"Cisauk","i_long":106.640411,"line":3,"station_id":"CSK","time":4},{"transit":false,"is_transit":false,"i_lat":-6.329547,"i_long":106.617853,"station_name":"Cicayur","time":4,"line":3,"station_id":"CC","distance":2519},{"time":8,"station_id":"PRP","distance":5968,"is_transit":false,"i_lat":-6.3441410000000005,"station_name":"Parung Panjang","i_long":106.568863,"transit":false,"line":6},{"i_long":106.508482,"transit":false,"line":3,"i_lat":-6.354349,"time":9,"station_name":"Cilejit","distance":7025,"is_transit":false,"station_id":"CJT"},{"i_lat":-6.338021,"i_long":106.491338,"is_transit":false,"station_id":"DAR","time":6,"transit":false,"station_name":"Daru","line":0,"distance":2675},{"is_transit":false,"i_lat":-6.327251,"station_id":"TEJ","transit":false,"station_name":"Tenjo","time":5,"line":6,"distance":3902,"i_long":106.460812},{"i_long":106.425991,"distance":2974,"time":5,"station_name":"Tigaraksa","station_id":"TGS","line":6,"transit":false,"is_transit":false,"i_lat":-6.328533},{"is_transit":false,"station_id":"CKY","i_long":106.411216,"time":3,"i_lat":-6.33561,"transit":false,"distance":2651,"station_name":"Cikoya","line":3},{"i_long":106.394373,"i_lat":-6.332307,"station_name":"Maja","station_id":"MJ","line":6,"is_transit":false,"distance":1853,"transit":false,"time":4}],[{"distance":0,"transit":false,"time":0,"i_long":106.832616,"is_transit":false,"line":2,"i_lat":-6.330363,"station_id":"LNA","station_name":"Lenteng Agung"},{"transit":false,"i_long":106.838896,"time":3,"distance":2671,"station_id":"TNT","station_name":"Tanjung Barat","is_transit":false,"i_lat":-6.3080680000000005,"line":2},{"time":4,"station_id":"PSM","i_long":106.843999,"i_lat":-6.2842400000000005,"distance":2820,"line":2,"transit":false,"is_transit":false,"station_name":"Pasar Minggu"},{"i_long":106.851577,"line":2,"is_transit":false,"station_name":"Pasar Minggu Baru","time":2,"transit":false,"distance":2380,"i_lat":-6.263214,"station_id":"PSMB"},{"station_id":"DRN","time":2,"transit":false,"station_name":"Duren Kalibata","distance":824,"i_lat":-6.255332,"line":2,"i_long":106.85449,"is_transit":false},{"distance":1546,"i_long":106.856607,"is_transit":false,"i_lat":-6.242512,"station_name":"Cawang","line":2,"station_id":"CW","transit":false,"time":3},{"time":2,"station_name":"Tebet","distance":1230,"i_long":106.857948,"station_id":"TEB","transit":false,"line":2,"is_transit":false,"i_lat":-6.226659},{"line":2,"is_transit":true,"transit":true,"time":4,"distance":2610,"station_name":"Manggarai","station_id":"MRI","i_lat":-6.209883,"i_long":106.84912},{"is_transit":false,"station_name":"Matraman","transit":false,"time":2,"distance":1275,"line":1,"i_lat":-6.212485,"i_long":106.858896,"station_id":"MTR"},{"distance":1377,"is_transit":true,"transit":true,"line":1,"station_id":"JNG","station_name":"Jatinegara","time":8,"i_lat":-6.215091,"i_long":106.86807400000001},{"station_name":"Pondok Jati","is_transit":false,"line":11,"i_lat":-6.209188,"transit":false,"i_long":106.861737,"distance":1236,"station_id":"POK","time":2},{"transit":false,"station_id":"KMT","time":2,"is_transit":false,"i_long":106.855437,"line":11,"station_name":"Kramat","distance":1829,"i_lat":-6.193792},{"transit":false,"time":1,"is_transit":false,"i_long":106.850107,"distance":973,"station_id":"GST","i_lat":-6.185975,"line":11,"station_name":"Gang Sentiong"},{"transit":false,"station_name":"Pasar Senen","time":8,"distance":1567,"line":11,"is_transit":false,"station_id":"PSE","i_lat":-6.174784,"i_long":106.84368},{"distance":1436,"transit":false,"is_transit":false,"station_name":"Kemayoran","time":4,"i_long":106.839204,"line":11,"i_lat":-6.161728,"station_id":"KMO"},{"i_lat":-6.14505,"is_transit":false,"transit":false,"i_long":106.836569,"station_id":"RJW","station_name":"Rajawali","line":11,"distance":1901,"time":5},{"i_long":106.826365,"station_name":"Kampung Bandan","distance":1444,"is_transit":true,"time":3,"i_lat":-6.132549,"line":4,"transit":true,"station_id":"KPB"},{"i_lat":-6.144674,"station_name":"Angke","line":1,"station_id":"AK","is_transit":false,"i_long":106.79867,"distance":4102,"time":9,"transit":false},{"station_name":"Duri","i_lat":-6.155215,"line":1,"i_long":106.800832,"distance":1230,"transit":false,"station_id":"DU","time":4,"is_transit":false},{"i_lat":-6.185545,"distance":3632,"station_id":"THB","i_long":106.811091,"is_transit":true,"station_name":"Tanah Abang","time":8,"line":1,"transit":true},{"transit":false,"time":6,"line":6,"is_transit":false,"station_id":"PLM","i_lat":-6.207404,"i_long":106.79689,"distance":3191,"station_name":"Palmerah"},{"i_lat":-6.237242,"distance":3737,"is_transit":false,"line":6,"station_name":"Kebayoran","station_id":"KBY","i_long":106.780334,"transit":false,"time":7},{"line":6,"station_name":"Pondokranji","is_transit":false,"station_id":"PDJ","time":8,"i_lat":-6.276362,"i_long":106.74273,"distance":6218,"transit":false},{"distance":2179,"i_long":106.728916,"is_transit":false,"i_lat":-6.288927,"station_name":"Jurangmangu","line":6,"time":3,"transit":false,"station_id":"JMU"},{"i_long":106.712277,"station_name":"Sudimara","distance":1994,"transit":false,"is_transit":false,"station_id":"SDM","time":4,"i_lat":-6.296963,"line":6},{"station_name":"Rawa Buntu","i_lat":-6.314823,"i_long":106.675475,"transit":false,"line":6,"is_transit":false,"distance":4566,"time":6,"station_id":"RU"},{"i_lat":-6.319871,"station_id":"SRP","station_name":"Serpong","i_long":106.66566,"distance":2413,"is_transit":false,"transit":false,"time":4,"line":6},{"station_id":"CSK","i_lat":-6.32484,"i_long":106.640411,"distance":1784,"time":4,"transit":false,"station_name":"Cisauk","is_transit":false,"line":3},{"is_transit":false,"station_name":"Cicayur","transit":false,"i_lat":-6.329547,"i_long":106.617853,"distance":2519,"line":3,"station_id":"CC","time":4},{"transit":false,"distance":5968,"is_transit":false,"time":8,"line":6,"station_name":"Parung Panjang","i_lat":-6.3441410000000005,"i_long":106.568863,"station_id":"PRP"},{"transit":false,"is_transit":false,"time":9,"line":3,"i_long":106.508482,"station_id":"CJT","distance":7025,"station_name":"Cilejit","i_lat":-6.354349},{"is_transit":false,"distance":2675,"station_name":"Daru","time":6,"transit":false,"station_id":"DAR","i_lat":-6.338021,"i_long":106.491338,"line":0},{"i_long":106.460812,"time":5,"distance":3902,"station_id":"TEJ","is_transit":false,"transit":false,"station_name":"Tenjo","line":6,"i_lat":-6.327251},{"i_lat":-6.328533,"time":5,"station_name":"Tigaraksa","line":6,"is_transit":false,"station_id":"TGS","distance":2974,"i_long":106.425991,"transit":false},{"distance":2651,"station_id":"CKY","time":3,"is_transit":false,"i_lat":-6.33561,"i_long":106.411216,"station_name":"Cikoya","line":3,"transit":false},{"station_name":"Maja","distance":1853,"transit":false,"time":4,"i_long":106.394373,"station_id":"MJ","i_lat":-6.332307,"is_transit":false,"line":6}]]}