{"data":[[{"transit":false,"line":2,"distance":0,"i_lat":-6.330363,"is_transit":false,"station_name":"Lenteng Agung","station_id":"LNA","time":0,"i_long":106.832616},{"i_long":106.838896,"station_id":"TNT","line":2,"time":3,"transit":false,"is_transit":false,"distance":2671,"station_name":"Tanjung Barat","i_lat":-6.3080680000000005},{"station_id":"PSM","transit":false,"line":2,"time":4,"distance":2820,"i_lat":-6.2842400000000005,"i_long":106.843999,"is_transit":false,"station_name":"Pasar Minggu"},{"i_lat":-6.263214,"transit":false,"station_name":"Pasar Minggu Baru","is_transit":false,"line":2,"distance":2380,"station_id":"PSMB","i_long":106.851577,"time":2},{"i_lat":-6.255332,"station_id":"DRN","station_name":"Duren Kalibata","time":2,"is_transit":false,"transit":false,"i_long":106.85449,"line":2,"distance":824},{"station_id":"CW","time":3,"station_name":"Cawang","line":2,"transit":false,"distance":1546,"is_transit":false,"i_lat":-6.242512,"i_long":106.856607},{"distance":1230,"i_long":106.857948,"line":2,"i_lat":-6.226659,"transit":false,"station_name":"Tebet","station_id":"TEB","is_transit":false,"time":2},{"line":2,"station_id":"MRI","is_transit":true,"transit":true,"distance":2610,"i_lat":-6.209883,"i_long":106.84912,"station_name":"Manggarai","time":4},{"i_lat":-6.202263,"line":1,"i_long":106.822649,"time":4,"distance":3186,"station_id":"SUD","station_name":"Sudirman","transit":false,"is_transit":false},{"is_transit":false,"time":1,"distance":280,"station_id":"SUDB","i_long":106.819881,"i_lat":-6.201433,"line":1,"transit":false,"station_name":"Sudirman Baru"},{"station_id":"KAT","station_name":"Karet","time":1,"i_long":106.816351,"is_transit":false,"transit":false,"distance":471,"i_lat":-6.20132,"line":1},{"is_transit":true,"i_lat":-6.185545,"station_name":"Tanah Abang","distance":2029,"line":1,"transit":true,"station_id":"THB","time":5,"i_long":106.811091},{"line":6,"transit":false,"i_lat":-6.207404,"station_id":"PLM","distance":3191,"station_name":"Palmerah","i_long":106.79689,"time":6,"is_transit":false},{"time":7,"transit":false,"i_lat":-6.237242,"line":6,"is_transit":false,"distance":3737,"i_long":106.780334,"station_name":"Kebayoran","station_id":"KBY"},{"station_id":"PDJ","line":6,"station_name":"Pondokranji","i_lat":-6.276362,"is_transit":false,"i_long":106.74273,"time":8,"distance":6218,"transit":false},{"distance":2179,"time":3,"i_long":106.728916,"line":6,"i_lat":-6.288927,"transit":false,"is_transit":false,"station_name":"Jurangmangu","station_id":"JMU"}],[{"station_name":"Lenteng Agung","transit":false,"distance":0,"is_transit":false,"line":2,"i_long":106.832616,"i_lat":-6.330363,"time":0,"station_id":"LNA"},{"time":3,"distance":2671,"station_name":"Tanjung Barat","transit":false,"i_long":106.838896,"line":2,"station_id":"TNT","i_lat":-6.3080680000000005,"is_transit":false},{"station_name":"Pasar Minggu","distance":2820,"time":4,"is_transit":false,"station_id":"PSM","i_lat":-6.2842400000000005,"i_long":106.843999,"line":2,"transit":false},{"station_name":"Pasar Minggu Baru","station_id":"PSMB","line":2,"transit":false,"is_transit":false,"distance":2380,"i_long":106.851577,"time":2,"i_lat":-6.263214},{"line":2,"is_transit":false,"transit":false,"i_lat":-6.255332,"station_name":"Duren Kalibata","station_id":"DRN","time":2,"i_long":106.85449,"distance":824},{"is_transit":false,"distance":1546,"i_lat":-6.242512,"station_id":"CW","station_name":"Cawang","line":2,"transit":false,"time":3,"i_long":106.856607},{"transit":false,"distance":1230,"i_lat":-6.226659,"time":2,"station_name":"Tebet","i_long":106.857948,"is_transit":false,"station_id":"TEB","line":2},{"line":2,"is_transit":false,"i_long":106.84912,"transit":false,"station_id":"MRI","time":4,"distance":2610,"station_name":"Manggarai","i_lat":-6.209883},{"i_long":106.840169,"station_id":"CKI","time":4,"transit":false,"station_name":"Cikini","i_lat":-6.198556,"is_transit":false,"distance":1590,"line":2},{"time":3,"transit":false,"line":2,"is_transit":false,"distance":1750,"station_name":"Gondangdia","i_long":106.832183,"station_id":"GDD","i_lat":-6.186295},{"i_lat":-6.166716,"station_id":"JUA","station_name":"Juanda","line":2,"time":4,"i_long":106.828284,"is_transit":false,"distance":2015,"transit":false},{"i_lat":-6.160725,"i_long":106.827103,"transit":false,"distance":1149,"station_id":"SW","time":2,"is_transit":false,"line":2,"station_name":"Sawah Besar"},{"is_transit":false,"distance":906,"station_name":"Manggabesar","transit":false,"station_id":"MGB","time":2,"i_long":106.82482,"line":2,"i_lat":-6.149769},{"station_name":"Jayakarta","transit":false,"line":2,"i_lat":-6.141205,"time":2,"distance":1080,"i_long":106.820901,"is_transit":false,"station_id":"JAY"},{"time":4,"station_name":"Jakarta Kota","i_lat":-6.137569,"transit":true,"distance":1264,"station_id":"JAKK","line":2,"i_long":106.812439,"is_transit":true},{"distance":1364,"is_transit":true,"station_name":"Kampung Bandan","i_lat":-6.132549,"line":4,"station_id":"KPB","i_long":106.826365,"transit":true,"time":3},{"line":1,"i_lat":-6.144674,"transit":false,"station_id":"AK","i_long":106.79867,"is_transit":false,"distance":4102,"time":9,"station_name":"Angke"},{"transit":false,"distance":1230,"i_lat":-6.155215,"i_long":106.800832,"time":4,"line":1,"station_id":"DU","is_transit":false,"station_name":"Duri"},{"is_transit":true,"i_lat":-6.185545,"i_long":106.811091,"distance":3632,"line":1,"station_id":"THB","station_name":"Tanah Abang","transit":true,"time":8},{"is_transit":false,"station_name":"Palmerah","time":6,"transit":false,"line":6,"i_long":106.79689,"distance":3191,"i_lat":-6.207404,"station_id":"PLM"},{"station_id":"KBY","transit":false,"i_long":106.780334,"is_transit":false,"line":6,"distance":3737,"time":7,"i_lat":-6.237242,"station_name":"Kebayoran"},{"station_id":"PDJ","time":8,"transit":false,"is_transit":false,"line":6,"i_long":106.74273,"station_name":"Pondokranji","distance":6218,"i_lat":-6.276362},{"station_id":"JMU","distance":2179,"i_long":106.728916,"is_transit":false,"line":6,"time":3,"i_lat":-6.288927,"station_name":"Jurangmangu","transit":false}],[{"is_transit":false,"transit":false,"station_id":"LNA","time":0,"distance":0,"station_name":"Lenteng Agung","i_lat":-6.330363,"line":2,"i_long":106.832616},{"time":3,"is_transit":false,"station_name":"Tanjung Barat","transit":false,"i_long":106.838896,"station_id":"TNT","i_lat":-6.3080680000000005,"line":2,"distance":2671},{"i_long":106.843999,"station_name":"Pasar Minggu","line":2,"time":4,"distance":2820,"is_transit":false,"station_id":"PSM","i_lat":-6.2842400000000005,"transit":false},{"transit":false,"line":2,"station_name":"Pasar Minggu Baru","i_lat":-6.263214,"i_long":106.851577,"time":2,"station_id":"PSMB","is_transit":false,"distance":2380},{"i_lat":-6.255332,"station_id":"DRN","line":2,"time":2,"transit":false,"distance":824,"i_long":106.85449,"is_transit":false,"station_name":"Duren Kalibata"},{"station_name":"Cawang","time":3,"transit":false,"is_transit":false,"i_lat":-6.242512,"station_id":"CW","line":2,"i_long":106.856607,"distance":1546},{"station_name":"Tebet","line":2,"station_id":"TEB","distance":1230,"is_transit":false,"i_lat":-6.226659,"i_long":106.857948,"time":2,"transit":false},{"is_transit":true,"time":4,"transit":true,"line":2,"distance":2610,"i_lat":-6.209883,"station_name":"Manggarai","station_id":"MRI","i_long":106.84912},{"line":1,"station_id":"MTR","time":2,"i_long":106.858896,"is_transit":false,"transit":false,"station_name":"Matraman","distance":1275,"i_lat":-6.212485},{"i_long":106.86807400000001,"is_transit":true,"i_lat":-6.215091,"line":1,"distance":1377,"transit":true,"station_id":"JNG","station_name":"Jatinegara","time":8},{"i_lat":-6.209188,"time":2,"distance":1236,"i_long":106.861737,"transit":false,"line":11,"is_transit":false,"station_name":"Pondok Jati","station_id":"POK"},{"i_long":106.855437,"station_id":"KMT","time":2,"is_transit":false,"transit":false,"station_name":"Kramat","i_lat":-6.193792,"line":11,"distance":1829},{"station_name":"Gang Sentiong","transit":false,"i_long":106.850107,"distance":973,"station_id":"GST","line":11,"is_transit":false,"time":1,"i_lat":-6.185975},{"distance":1567,"i_long":106.84368,"station_name":"Pasar Senen","line":11,"station_id":"PSE","i_lat":-6.174784,"transit":false,"is_transit":false,"time":8},{"i_long":106.839204,"station_name":"Kemayoran","distance":1436,"is_transit":false,"time":4,"i_lat":-6.161728,"station_id":"KMO","line":11,"transit":false},{"station_id":"RJW","i_long":106.836569,"transit":false,"station_name":"Rajawali","time":5,"i_lat":-6.14505,"distance":1901,"line":11,"is_transit":false},{"line":4,"station_id":"KPB","time":3,"i_long":106.826365,"is_transit":true,"transit":true,"i_lat":-6.132549,"station_name":"Kampung Bandan","distance":1444},{"distance":4102,"station_name":"Angke","transit":false,"i_lat":-6.144674,"time":9,"station_id":"AK","is_transit":false,"i_long":106.79867,"line":1},{"is_transit":false,"distance":1230,"i_long":106.800832,"station_name":"Duri","transit":false,"line":1,"station_id":"DU","time":4,"i_lat":-6.155215},{"is_transit":true,"station_name":"Tanah Abang","time":8,"i_long":106.811091,"distance":3632,"station_id":"THB","line":1,"transit":true,"i_lat":-6.185545},{"distance":3191,"is_transit":false,"station_id":"PLM","station_name":"Palmerah","i_lat":-6.207404,"i_long":106.79689,"line":6,"time":6,"transit":false},{"line":6,"station_id":"KBY","transit":false,"time":7,"i_lat":-6.237242,"distance":3737,"i_long":106.780334,"is_transit":false,"station_name":"Kebayoran"},{"station_name":"Pondokranji","time":8,"is_transit":false,"station_id":"PDJ","i_lat":-6.276362,"i_long":106.74273,"distance":6218,"line":6,"transit":false},{"line":6,"distance":2179,"station_id":"JMU","is_transit":false,"i_long":106.728916,"time":3,"transit":false,"station_name":"Jurangmangu","i_lat":-6.288927}]]}