{"data":[[{"is_transit":false,"i_lat":-6.330363,"station_id":"LNA","time":0,"i_long":106.832616,"line":2,"distance":0,"transit":false,"station_name":"Lenteng Agung"},{"distance":1029,"time":2,"line":2,"is_transit":false,"station_name":"Univ. Pancasila","i_lat":-6.339291,"i_long":106.834175,"transit":false,"station_id":"UP"},{"station_id":"UI","time":3,"transit":false,"station_name":"Univ. Indonesia","is_transit":false,"distance":2264,"i_long":106.831474,"i_lat":-6.360749,"line":2},{"i_lat":-6.369073,"is_transit":false,"time":2,"station_id":"POC","station_name":"Pondok Cina","transit":false,"distance":1109,"i_long":106.831114,"line":2},{"transit":false,"i_lat":-6.391065,"station_name":"Depokbaru","station_id":"DPB","i_long":106.819451,"is_transit":false,"time":4,"distance":2727,"line":2},{"station_name":"Depok","is_transit":false,"i_lat":-6.405256,"line":2,"transit":false,"station_id":"DP","i_long":106.816926,"time":3,"distance":1584},{"station_id":"CTA","is_transit":false,"i_long":106.800298,"station_name":"Citayam","distance":5084,"time":6,"line":2,"i_lat":-6.448811,"transit":false},{"distance":5197,"station_name":"Bojonggede","is_transit":false,"i_long":106.792719,"transit":false,"time":5,"station_id":"BJD","i_lat":-6.493243,"line":2},{"time":5,"distance":4331,"i_lat":-6.530544,"station_id":"CLT","i_long":106.800016,"station_name":"Cilebut","line":2,"is_transit":false,"transit":false},{"is_transit":false,"distance":7514,"time":9,"station_id":"BOO","station_name":"Bogor","i_lat":-6.594596,"i_long":106.790574,"line":2,"transit":false}]]}