{"data":[[{"time":0,"station_id":"LNA","is_transit":false,"transit":false,"distance":0,"station_name":"Lenteng Agung","i_lat":-6.330363,"i_long":106.832616,"line":2},{"i_long":106.838896,"time":3,"station_id":"TNT","transit":false,"i_lat":-6.3080680000000005,"distance":2671,"line":2,"station_name":"Tanjung Barat","is_transit":false},{"is_transit":false,"i_long":106.843999,"station_name":"Pasar Minggu","i_lat":-6.2842400000000005,"distance":2820,"transit":false,"time":4,"station_id":"PSM","line":2},{"is_transit":false,"station_id":"PSMB","distance":2380,"transit":false,"time":2,"station_name":"Pasar Minggu Baru","i_long":106.851577,"line":2,"i_lat":-6.263214},{"station_id":"DRN","transit":false,"time":2,"distance":824,"i_lat":-6.255332,"i_long":106.85449,"line":2,"is_transit":false,"station_name":"Duren Kalibata"},{"time":3,"line":2,"i_lat":-6.242512,"transit":false,"is_transit":false,"distance":1546,"i_long":106.856607,"station_id":"CW","station_name":"Cawang"},{"distance":1230,"is_transit":false,"time":2,"i_lat":-6.226659,"station_name":"Tebet","i_long":106.857948,"line":2,"station_id":"TEB","transit":false},{"station_id":"MRI","transit":true,"distance":2610,"i_long":106.84912,"time":4,"station_name":"Manggarai","line":2,"i_lat":-6.209883,"is_transit":true},{"distance":3186,"transit":false,"station_id":"SUD","i_long":106.822649,"is_transit":false,"station_name":"Sudirman","time":4,"line":1,"i_lat":-6.202263},{"is_transit":false,"distance":280,"i_lat":-6.201433,"station_id":"SUDB","station_name":"Sudirman Baru","line":1,"time":1,"transit":false,"i_long":106.819881},{"line":1,"i_lat":-6.20132,"distance":471,"station_name":"Karet","station_id":"KAT","time":1,"transit":false,"i_long":106.816351,"is_transit":false},{"i_lat":-6.185545,"i_long":106.811091,"distance":2029,"line":1,"transit":true,"station_id":"THB","is_transit":true,"station_name":"Tanah Abang","time":5},{"station_id":"PLM","time":6,"i_lat":-6.207404,"i_long":106.79689,"line":6,"station_name":"Palmerah","is_transit":false,"transit":false,"distance":3191}],[{"i_long":106.832616,"time":0,"station_name":"Lenteng Agung","station_id":"LNA","line":2,"is_transit":false,"transit":false,"distance":0,"i_lat":-6.330363},{"i_lat":-6.3080680000000005,"i_long":106.838896,"line":2,"station_id":"TNT","transit":false,"station_name":"Tanjung Barat","is_transit":false,"distance":2671,"time":3},{"is_transit":false,"distance":2820,"line":2,"station_id":"PSM","station_name":"Pasar Minggu","time":4,"i_long":106.843999,"i_lat":-6.2842400000000005,"transit":false},{"time":2,"transit":false,"station_id":"PSMB","distance":2380,"i_long":106.851577,"line":2,"station_name":"Pasar Minggu Baru","is_transit":false,"i_lat":-6.263214},{"distance":824,"station_name":"Duren Kalibata","time":2,"i_lat":-6.255332,"line":2,"i_long":106.85449,"transit":false,"station_id":"DRN","is_transit":false},{"station_name":"Cawang","distance":1546,"station_id":"CW","time":3,"i_long":106.856607,"is_transit":false,"transit":false,"line":2,"i_lat":-6.242512},{"distance":1230,"transit":false,"station_name":"Tebet","line":2,"is_transit":false,"i_lat":-6.226659,"i_long":106.857948,"time":2,"station_id":"TEB"},{"is_transit":false,"distance":2610,"line":2,"transit":false,"time":4,"station_name":"Manggarai","station_id":"MRI","i_lat":-6.209883,"i_long":106.84912},{"line":2,"time":4,"distance":1590,"i_long":106.840169,"station_id":"CKI","station_name":"Cikini","is_transit":false,"transit":false,"i_lat":-6.198556},{"station_id":"GDD","is_transit":false,"station_name":"Gondangdia","time":3,"distance":1750,"transit":false,"line":2,"i_lat":-6.186295,"i_long":106.832183},{"line":2,"distance":2015,"is_transit":false,"i_long":106.828284,"time":4,"station_id":"JUA","station_name":"Juanda","transit":false,"i_lat":-6.166716},{"transit":false,"time":2,"distance":1149,"i_long":106.827103,"station_id":"SW","station_name":"Sawah Besar","is_transit":false,"line":2,"i_lat":-6.160725},{"station_id":"MGB","line":2,"is_transit":false,"i_long":106.82482,"station_name":"Manggabesar","distance":906,"i_lat":-6.149769,"transit":false,"time":2},{"transit":false,"station_name":"Jayakarta","line":2,"distance":1080,"is_transit":false,"i_lat":-6.141205,"i_long":106.820901,"time":2,"station_id":"JAY"},{"station_id":"JAKK","line":2,"i_lat":-6.137569,"i_long":106.812439,"station_name":"Jakarta Kota","transit":true,"distance":1264,"is_transit":true,"time":4},{"i_lat":-6.132549,"i_long":106.826365,"station_name":"Kampung Bandan","time":3,"station_id":"KPB","line":4,"transit":true,"distance":1364,"is_transit":true},{"time":9,"distance":4102,"i_long":106.79867,"line":1,"i_lat":-6.144674,"station_id":"AK","is_transit":false,"transit":false,"station_name":"Angke"},{"line":1,"is_transit":false,"i_long":106.800832,"station_name":"Duri","transit":false,"distance":1230,"i_lat":-6.155215,"time":4,"station_id":"DU"},{"station_name":"Tanah Abang","i_lat":-6.185545,"transit":true,"i_long":106.811091,"time":8,"is_transit":true,"station_id":"THB","distance":3632,"line":1},{"station_name":"Palmerah","time":6,"i_lat":-6.207404,"transit":false,"station_id":"PLM","distance":3191,"is_transit":false,"i_long":106.79689,"line":6}],[{"station_id":"LNA","is_transit":false,"i_long":106.832616,"distance":0,"i_lat":-6.330363,"transit":false,"time":0,"line":2,"station_name":"Lenteng Agung"},{"distance":2671,"station_id":"TNT","line":2,"transit":false,"time":3,"is_transit":false,"i_lat":-6.3080680000000005,"i_long":106.838896,"station_name":"Tanjung Barat"},{"distance":2820,"i_long":106.843999,"station_name":"Pasar Minggu","station_id":"PSM","i_lat":-6.2842400000000005,"time":4,"is_transit":false,"line":2,"transit":false},{"station_id":"PSMB","station_name":"Pasar Minggu Baru","is_transit":false,"distance":2380,"transit":false,"i_long":106.851577,"i_lat":-6.263214,"line":2,"time":2},{"transit":false,"i_lat":-6.255332,"station_name":"Duren Kalibata","station_id":"DRN","i_long":106.85449,"time":2,"distance":824,"is_transit":false,"line":2},{"line":2,"station_name":"Cawang","station_id":"CW","is_transit":false,"i_long":106.856607,"time":3,"distance":1546,"transit":false,"i_lat":-6.242512},{"line":2,"station_id":"TEB","station_name":"Tebet","i_long":106.857948,"is_transit":false,"time":2,"transit":false,"distance":1230,"i_lat":-6.226659},{"station_name":"Manggarai","time":4,"i_lat":-6.209883,"is_transit":true,"station_id":"MRI","i_long":106.84912,"line":2,"transit":true,"distance":2610},{"transit":false,"i_lat":-6.212485,"line":1,"station_name":"Matraman","distance":1275,"time":2,"station_id":"MTR","is_transit":false,"i_long":106.858896},{"i_long":106.86807400000001,"line":1,"is_transit":true,"time":8,"transit":true,"station_name":"Jatinegara","station_id":"JNG","distance":1377,"i_lat":-6.215091},{"station_id":"POK","i_long":106.861737,"transit":false,"distance":1236,"line":11,"is_transit":false,"time":2,"station_name":"Pondok Jati","i_lat":-6.209188},{"station_id":"KMT","station_name":"Kramat","distance":1829,"time":2,"i_lat":-6.193792,"i_long":106.855437,"line":11,"transit":false,"is_transit":false},{"distance":973,"i_lat":-6.185975,"line":11,"i_long":106.850107,"station_name":"Gang Sentiong","station_id":"GST","is_transit":false,"transit":false,"time":1},{"is_transit":false,"transit":false,"station_name":"Pasar Senen","i_lat":-6.174784,"distance":1567,"line":11,"station_id":"PSE","time":8,"i_long":106.84368},{"i_lat":-6.161728,"is_transit":false,"time":4,"station_name":"Kemayoran","line":11,"transit":false,"i_long":106.839204,"distance":1436,"station_id":"KMO"},{"line":11,"i_long":106.836569,"time":5,"station_id":"RJW","transit":false,"distance":1901,"i_lat":-6.14505,"station_name":"Rajawali","is_transit":false},{"distance":1444,"station_id":"KPB","line":4,"station_name":"Kampung Bandan","time":3,"i_lat":-6.132549,"is_transit":true,"i_long":106.826365,"transit":true},{"station_name":"Angke","time":9,"transit":false,"is_transit":false,"distance":4102,"i_long":106.79867,"line":1,"station_id":"AK","i_lat":-6.144674},{"station_id":"DU","i_lat":-6.155215,"i_long":106.800832,"transit":false,"distance":1230,"is_transit":false,"time":4,"station_name":"Duri","line":1},{"transit":true,"line":1,"is_transit":true,"station_name":"Tanah Abang","distance":3632,"station_id":"THB","time":8,"i_long":106.811091,"i_lat":-6.185545},{"line":6,"station_id":"PLM","is_transit":false,"i_lat":-6.207404,"station_name":"Palmerah","transit":false,"i_long":106.79689,"time":6,"distance":3191}]]}