{"data":[[{"i_long":106.832616,"station_id":"LNA","time":0,"transit":false,"station_name":"Lenteng Agung","i_lat":-6.330363,"line":2,"is_transit":false,"distance":0},{"station_name":"Tanjung Barat","distance":2671,"transit":false,"is_transit":false,"i_long":106.838896,"i_lat":-6.3080680000000005,"line":2,"station_id":"TNT","time":3},{"transit":false,"time":4,"is_transit":false,"station_id":"PSM","distance":2820,"i_long":106.843999,"i_lat":-6.2842400000000005,"station_name":"Pasar Minggu","line":2},{"station_name":"Pasar Minggu Baru","i_lat":-6.263214,"distance":2380,"line":2,"station_id":"PSMB","transit":false,"time":2,"is_transit":false,"i_long":106.851577},{"i_long":106.85449,"is_transit":false,"station_name":"Duren Kalibata","i_lat":-6.255332,"transit":false,"time":2,"line":2,"station_id":"DRN","distance":824},{"station_name":"Cawang","distance":1546,"i_lat":-6.242512,"time":3,"transit":false,"is_transit":false,"i_long":106.856607,"line":2,"station_id":"CW"},{"time":2,"i_long":106.857948,"i_lat":-6.226659,"transit":false,"station_name":"Tebet","distance":1230,"is_transit":false,"station_id":"TEB","line":2},{"distance":2610,"i_long":106.84912,"station_name":"Manggarai","transit":true,"is_transit":true,"i_lat":-6.209883,"time":4,"line":2,"station_id":"MRI"},{"time":4,"transit":false,"station_name":"Sudirman","line":1,"station_id":"SUD","i_long":106.822649,"is_transit":false,"distance":3186,"i_lat":-6.202263},{"station_name":"Sudirman Baru","transit":false,"i_lat":-6.201433,"station_id":"SUDB","is_transit":false,"time":1,"distance":280,"i_long":106.819881,"line":1},{"is_transit":false,"i_long":106.816351,"station_name":"Karet","distance":471,"station_id":"KAT","transit":false,"time":1,"line":1,"i_lat":-6.20132},{"station_name":"Tanah Abang","distance":2029,"station_id":"THB","transit":true,"time":5,"i_lat":-6.185545,"i_long":106.811091,"is_transit":true,"line":1},{"distance":3191,"station_id":"PLM","i_lat":-6.207404,"time":6,"is_transit":false,"station_name":"Palmerah","i_long":106.79689,"line":6,"transit":false},{"time":7,"i_long":106.780334,"line":6,"station_id":"KBY","is_transit":false,"distance":3737,"i_lat":-6.237242,"transit":false,"station_name":"Kebayoran"},{"transit":false,"station_name":"Pondokranji","is_transit":false,"i_long":106.74273,"time":8,"i_lat":-6.276362,"station_id":"PDJ","line":6,"distance":6218},{"station_id":"JMU","station_name":"Jurangmangu","distance":2179,"time":3,"line":6,"transit":false,"i_lat":-6.288927,"is_transit":false,"i_long":106.728916},{"is_transit":false,"line":6,"distance":1994,"i_lat":-6.296963,"station_id":"SDM","station_name":"Sudimara","i_long":106.712277,"transit":false,"time":4},{"time":6,"station_name":"Rawa Buntu","distance":4566,"i_lat":-6.314823,"transit":false,"is_transit":false,"i_long":106.675475,"line":6,"station_id":"RU"},{"station_id":"SRP","is_transit":false,"i_long":106.66566,"line":6,"time":4,"station_name":"Serpong","i_lat":-6.319871,"transit":false,"distance":2413},{"distance":1784,"i_lat":-6.32484,"i_long":106.640411,"transit":false,"station_name":"Cisauk","is_transit":false,"time":4,"line":3,"station_id":"CSK"},{"i_long":106.617853,"station_name":"Cicayur","station_id":"CC","time":4,"i_lat":-6.329547,"line":3,"transit":false,"distance":2519,"is_transit":false},{"distance":5968,"is_transit":false,"station_id":"PRP","line":6,"station_name":"Parung Panjang","i_lat":-6.3441410000000005,"time":8,"i_long":106.568863,"transit":false},{"station_id":"CJT","transit":false,"i_long":106.508482,"is_transit":false,"line":3,"distance":7025,"i_lat":-6.354349,"time":9,"station_name":"Cilejit"},{"i_lat":-6.338021,"station_name":"Daru","distance":2675,"station_id":"DAR","time":6,"transit":false,"line":0,"i_long":106.491338,"is_transit":false},{"transit":false,"distance":3902,"time":5,"i_lat":-6.327251,"i_long":106.460812,"line":6,"station_id":"TEJ","station_name":"Tenjo","is_transit":false},{"distance":2974,"station_id":"TGS","line":6,"transit":false,"is_transit":false,"station_name":"Tigaraksa","i_lat":-6.328533,"time":5,"i_long":106.425991},{"station_name":"Cikoya","distance":2651,"line":3,"time":3,"transit":false,"i_lat":-6.33561,"station_id":"CKY","is_transit":false,"i_long":106.411216},{"line":6,"i_lat":-6.332307,"transit":false,"distance":1853,"station_id":"MJ","time":4,"is_transit":false,"station_name":"Maja","i_long":106.394373},{"station_id":"CTR","station_name":"Citeras","line":3,"distance":7293,"transit":false,"is_transit":false,"time":10,"i_long":106.332092,"i_lat":-6.334892}],[{"station_name":"Lenteng Agung","transit":false,"i_lat":-6.330363,"i_long":106.832616,"distance":0,"line":2,"time":0,"station_id":"LNA","is_transit":false},{"time":3,"line":2,"is_transit":false,"i_lat":-6.3080680000000005,"distance":2671,"station_name":"Tanjung Barat","transit":false,"station_id":"TNT","i_long":106.838896},{"time":4,"line":2,"is_transit":false,"i_long":106.843999,"station_id":"PSM","station_name":"Pasar Minggu","distance":2820,"transit":false,"i_lat":-6.2842400000000005},{"transit":false,"line":2,"station_id":"PSMB","time":2,"is_transit":false,"station_name":"Pasar Minggu Baru","distance":2380,"i_long":106.851577,"i_lat":-6.263214},{"transit":false,"i_lat":-6.255332,"line":2,"distance":824,"i_long":106.85449,"station_name":"Duren Kalibata","time":2,"is_transit":false,"station_id":"DRN"},{"is_transit":false,"i_lat":-6.242512,"transit":false,"i_long":106.856607,"line":2,"distance":1546,"station_id":"CW","time":3,"station_name":"Cawang"},{"line":2,"is_transit":false,"i_long":106.857948,"i_lat":-6.226659,"time":2,"station_id":"TEB","transit":false,"station_name":"Tebet","distance":1230},{"line":2,"i_lat":-6.209883,"time":4,"is_transit":false,"distance":2610,"station_id":"MRI","transit":false,"i_long":106.84912,"station_name":"Manggarai"},{"station_id":"CKI","transit":false,"time":4,"line":2,"distance":1590,"is_transit":false,"i_lat":-6.198556,"i_long":106.840169,"station_name":"Cikini"},{"time":3,"transit":false,"is_transit":false,"station_name":"Gondangdia","i_lat":-6.186295,"line":2,"i_long":106.832183,"distance":1750,"station_id":"GDD"},{"is_transit":false,"transit":false,"line":2,"station_id":"JUA","i_lat":-6.166716,"i_long":106.828284,"distance":2015,"station_name":"Juanda","time":4},{"time":2,"transit":false,"station_name":"Sawah Besar","i_lat":-6.160725,"i_long":106.827103,"is_transit":false,"line":2,"distance":1149,"station_id":"SW"},{"time":2,"is_transit":false,"i_long":106.82482,"distance":906,"transit":false,"station_name":"Manggabesar","i_lat":-6.149769,"station_id":"MGB","line":2},{"transit":false,"i_long":106.820901,"station_id":"JAY","distance":1080,"station_name":"Jayakarta","time":2,"line":2,"is_transit":false,"i_lat":-6.141205},{"is_transit":true,"transit":true,"line":2,"distance":1264,"i_long":106.812439,"station_id":"JAKK","time":4,"station_name":"Jakarta Kota","i_lat":-6.137569},{"station_id":"KPB","i_lat":-6.132549,"is_transit":true,"station_name":"Kampung Bandan","i_long":106.826365,"distance":1364,"time":3,"transit":true,"line":4},{"station_id":"AK","station_name":"Angke","distance":4102,"i_long":106.79867,"is_transit":false,"transit":false,"i_lat":-6.144674,"line":1,"time":9},{"distance":1230,"station_name":"Duri","time":4,"i_lat":-6.155215,"station_id":"DU","i_long":106.800832,"line":1,"transit":false,"is_transit":false},{"time":8,"i_lat":-6.185545,"line":1,"is_transit":true,"i_long":106.811091,"station_name":"Tanah Abang","distance":3632,"station_id":"THB","transit":true},{"time":6,"i_lat":-6.207404,"distance":3191,"i_long":106.79689,"station_name":"Palmerah","transit":false,"station_id":"PLM","line":6,"is_transit":false},{"i_lat":-6.237242,"i_long":106.780334,"transit":false,"time":7,"station_id":"KBY","station_name":"Kebayoran","line":6,"distance":3737,"is_transit":false},{"transit":false,"time":8,"i_long":106.74273,"line":6,"station_id":"PDJ","distance":6218,"i_lat":-6.276362,"station_name":"Pondokranji","is_transit":false},{"distance":2179,"i_lat":-6.288927,"line":6,"station_id":"JMU","transit":false,"station_name":"Jurangmangu","is_transit":false,"i_long":106.728916,"time":3},{"station_id":"SDM","is_transit":false,"station_name":"Sudimara","distance":1994,"line":6,"time":4,"transit":false,"i_lat":-6.296963,"i_long":106.712277},{"i_lat":-6.314823,"time":6,"i_long":106.675475,"line":6,"station_id":"RU","is_transit":false,"transit":false,"distance":4566,"station_name":"Rawa Buntu"},{"transit":false,"is_transit":false,"line":6,"station_name":"Serpong","i_lat":-6.319871,"i_long":106.66566,"station_id":"SRP","time":4,"distance":2413},{"i_long":106.640411,"line":3,"is_transit":false,"station_id":"CSK","time":4,"station_name":"Cisauk","distance":1784,"i_lat":-6.32484,"transit":false},{"station_name":"Cicayur","distance":2519,"is_transit":false,"line":3,"transit":false,"i_lat":-6.329547,"station_id":"CC","i_long":106.617853,"time":4},{"station_name":"Parung Panjang","transit":false,"i_lat":-6.3441410000000005,"line":6,"station_id":"PRP","time":8,"is_transit":false,"i_long":106.568863,"distance":5968},{"station_name":"Cilejit","distance":7025,"i_lat":-6.354349,"line":3,"station_id":"CJT","i_long":106.508482,"is_transit":false,"time":9,"transit":false},{"line":0,"distance":2675,"is_transit":false,"i_long":106.491338,"station_id":"DAR","i_lat":-6.338021,"station_name":"Daru","transit":false,"time":6},{"station_id":"TEJ","time":5,"station_name":"Tenjo","i_lat":-6.327251,"is_transit":false,"transit":false,"distance":3902,"line":6,"i_long":106.460812},{"time":5,"i_long":106.425991,"line":6,"transit":false,"is_transit":false,"distance":2974,"station_id":"TGS","i_lat":-6.328533,"station_name":"Tigaraksa"},{"is_transit":false,"transit":false,"i_lat":-6.33561,"station_id":"CKY","distance":2651,"station_name":"Cikoya","line":3,"time":3,"i_long":106.411216},{"i_long":106.394373,"distance":1853,"i_lat":-6.332307,"station_id":"MJ","station_name":"Maja","transit":false,"line":6,"time":4,"is_transit":false},{"transit":false,"line":3,"i_lat":-6.334892,"is_transit":false,"distance":7293,"station_id":"CTR","station_name":"Citeras","time":10,"i_long":106.332092}],[{"i_lat":-6.330363,"i_long":106.832616,"station_id":"LNA","line":2,"transit":false,"time":0,"station_name":"Lenteng Agung","distance":0,"is_transit":false},{"is_transit":false,"distance":2671,"i_lat":-6.3080680000000005,"line":2,"time":3,"i_long":106.838896,"transit":false,"station_name":"Tanjung Barat","station_id":"TNT"},{"station_name":"Pasar Minggu","distance":2820,"i_long":106.843999,"transit":false,"time":4,"i_lat":-6.2842400000000005,"line":2,"is_transit":false,"station_id":"PSM"},{"station_id":"PSMB","distance":2380,"transit":false,"line":2,"is_transit":false,"i_lat":-6.263214,"i_long":106.851577,"time":2,"station_name":"Pasar Minggu Baru"},{"transit":false,"i_lat":-6.255332,"station_id":"DRN","line":2,"time":2,"station_name":"Duren Kalibata","i_long":106.85449,"distance":824,"is_transit":false},{"i_lat":-6.242512,"line":2,"is_transit":false,"transit":false,"distance":1546,"station_id":"CW","time":3,"station_name":"Cawang","i_long":106.856607},{"transit":false,"line":2,"i_long":106.857948,"station_name":"Tebet","time":2,"i_lat":-6.226659,"is_transit":false,"distance":1230,"station_id":"TEB"},{"station_id":"MRI","is_transit":true,"transit":true,"distance":2610,"station_name":"Manggarai","i_lat":-6.209883,"i_long":106.84912,"line":2,"time":4},{"time":2,"station_name":"Matraman","line":1,"station_id":"MTR","transit":false,"distance":1275,"i_lat":-6.212485,"is_transit":false,"i_long":106.858896},{"station_name":"Jatinegara","i_long":106.86807400000001,"i_lat":-6.215091,"transit":true,"distance":1377,"line":1,"station_id":"JNG","is_transit":true,"time":8},{"line":11,"transit":false,"station_name":"Pondok Jati","i_long":106.861737,"is_transit":false,"distance":1236,"i_lat":-6.209188,"time":2,"station_id":"POK"},{"station_name":"Kramat","i_lat":-6.193792,"i_long":106.855437,"transit":false,"station_id":"KMT","is_transit":false,"distance":1829,"time":2,"line":11},{"transit":false,"time":1,"i_lat":-6.185975,"distance":973,"station_id":"GST","station_name":"Gang Sentiong","is_transit":false,"i_long":106.850107,"line":11},{"time":8,"station_id":"PSE","i_lat":-6.174784,"station_name":"Pasar Senen","distance":1567,"transit":false,"is_transit":false,"i_long":106.84368,"line":11},{"line":11,"transit":false,"time":4,"station_name":"Kemayoran","distance":1436,"is_transit":false,"i_long":106.839204,"i_lat":-6.161728,"station_id":"KMO"},{"distance":1901,"i_lat":-6.14505,"i_long":106.836569,"transit":false,"station_id":"RJW","is_transit":false,"station_name":"Rajawali","line":11,"time":5},{"station_name":"Kampung Bandan","line":4,"i_lat":-6.132549,"transit":true,"time":3,"is_transit":true,"station_id":"KPB","distance":1444,"i_long":106.826365},{"time":9,"distance":4102,"is_transit":false,"i_lat":-6.144674,"line":1,"i_long":106.79867,"station_id":"AK","station_name":"Angke","transit":false},{"time":4,"i_lat":-6.155215,"transit":false,"line":1,"station_id":"DU","distance":1230,"is_transit":false,"i_long":106.800832,"station_name":"Duri"},{"station_id":"THB","time":8,"station_name":"Tanah Abang","i_lat":-6.185545,"is_transit":true,"transit":true,"distance":3632,"line":1,"i_long":106.811091},{"transit":false,"time":6,"i_long":106.79689,"station_id":"PLM","is_transit":false,"line":6,"distance":3191,"i_lat":-6.207404,"station_name":"Palmerah"},{"time":7,"transit":false,"station_id":"KBY","is_transit":false,"distance":3737,"i_long":106.780334,"station_name":"Kebayoran","i_lat":-6.237242,"line":6},{"i_long":106.74273,"is_transit":false,"line":6,"transit":false,"i_lat":-6.276362,"distance":6218,"station_name":"Pondokranji","station_id":"PDJ","time":8},{"transit":false,"i_lat":-6.288927,"is_transit":false,"time":3,"line":6,"station_id":"JMU","station_name":"Jurangmangu","i_long":106.728916,"distance":2179},{"transit":false,"station_name":"Sudimara","i_long":106.712277,"time":4,"i_lat":-6.296963,"is_transit":false,"line":6,"distance":1994,"station_id":"SDM"},{"station_id":"RU","station_name":"Rawa Buntu","i_long":106.675475,"time":6,"distance":4566,"is_transit":false,"i_lat":-6.314823,"line":6,"transit":false},{"transit":false,"distance":2413,"station_name":"Serpong","station_id":"SRP","time":4,"line":6,"i_long":106.66566,"is_transit":false,"i_lat":-6.319871},{"station_name":"Cisauk","station_id":"CSK","i_lat":-6.32484,"time":4,"transit":false,"i_long":106.640411,"is_transit":false,"distance":1784,"line":3},{"time":4,"station_name":"Cicayur","i_long":106.617853,"line":3,"transit":false,"is_transit":false,"i_lat":-6.329547,"distance":2519,"station_id":"CC"},{"i_lat":-6.3441410000000005,"line":6,"distance":5968,"time":8,"station_name":"Parung Panjang","i_long":106.568863,"station_id":"PRP","transit":false,"is_transit":false},{"is_transit":false,"line":3,"time":9,"station_id":"CJT","i_lat":-6.354349,"transit":false,"station_name":"Cilejit","distance":7025,"i_long":106.508482},{"line":0,"station_name":"Daru","transit":false,"time":6,"station_id":"DAR","distance":2675,"i_lat":-6.338021,"is_transit":false,"i_long":106.491338},{"station_name":"Tenjo","distance":3902,"line":6,"i_long":106.460812,"is_transit":false,"transit":false,"i_lat":-6.327251,"station_id":"TEJ","time":5},{"time":5,"is_transit":false,"station_id":"TGS","station_name":"Tigaraksa","line":6,"distance":2974,"i_lat":-6.328533,"transit":false,"i_long":106.425991},{"i_lat":-6.33561,"station_name":"Cikoya","i_long":106.411216,"transit":false,"line":3,"station_id":"CKY","time":3,"is_transit":false,"distance":2651},{"station_name":"Maja","i_lat":-6.332307,"line":6,"time":4,"station_id":"MJ","is_transit":false,"distance":1853,"i_long":106.394373,"transit":false},{"transit":false,"line":3,"is_transit":false,"time":10,"distance":7293,"station_id":"CTR","i_long":106.332092,"station_name":"Citeras","i_lat":-6.334892}]]}