{"data":[[{"distance":0,"i_long":106.832616,"line":2,"time":0,"station_name":"Lenteng Agung","station_id":"LNA","transit":false,"is_transit":false,"i_lat":-6.330363},{"time":2,"i_lat":-6.339291,"station_name":"Univ. Pancasila","distance":1029,"is_transit":false,"transit":false,"station_id":"UP","i_long":106.834175,"line":2},{"is_transit":false,"distance":2264,"i_long":106.831474,"i_lat":-6.360749,"station_id":"UI","time":3,"transit":false,"line":2,"station_name":"Univ. Indonesia"},{"i_lat":-6.369073,"station_name":"Pondok Cina","line":2,"time":2,"is_transit":false,"station_id":"POC","transit":false,"i_long":106.831114,"distance":1109},{"station_name":"Depokbaru","time":4,"line":0,"is_transit":false,"i_lat":-6.391065,"station_id":"DPB","i_long":106.819451,"transit":false,"distance":2727},{"station_id":"DP","is_transit":false,"line":0,"station_name":"Depok","distance":1584,"time":3,"i_lat":-6.405256,"transit":false,"i_long":106.816926},{"line":1,"i_long":106.800298,"station_id":"CTA","station_name":"Citayam","time":6,"is_transit":true,"transit":false,"distance":5084,"i_lat":-6.448811},{"station_name":"Cibinong","line":0,"station_id":"CBN","i_long":106.851978,"transit":false,"is_transit":false,"distance":6740,"i_lat":-6.46424,"time":10}]]}