{"data":[[{"time":0,"line":2,"station_id":"LNA","i_lat":-6.330363,"distance":0,"i_long":106.832616,"station_name":"Lenteng Agung","transit":false,"is_transit":false},{"transit":false,"is_transit":false,"time":3,"station_id":"TNT","station_name":"Tanjung Barat","i_lat":-6.3080680000000005,"line":2,"distance":2671,"i_long":106.838896},{"distance":2820,"station_id":"PSM","i_lat":-6.2842400000000005,"is_transit":false,"station_name":"Pasar Minggu","transit":false,"time":4,"i_long":106.843999,"line":2},{"i_long":106.851577,"transit":false,"distance":2380,"station_name":"Pasar Minggu Baru","time":2,"line":2,"is_transit":false,"station_id":"PSMB","i_lat":-6.263214},{"distance":824,"i_lat":-6.255332,"transit":false,"line":0,"station_id":"DRN","is_transit":false,"time":2,"i_long":106.85449,"station_name":"Duren Kalibata"},{"i_lat":-6.242512,"transit":false,"station_id":"CW","is_transit":false,"station_name":"Cawang","distance":1546,"line":0,"time":3,"i_long":106.856607},{"station_name":"Tebet","time":2,"transit":false,"is_transit":false,"line":2,"i_lat":-6.226659,"distance":1230,"station_id":"TEB","i_long":106.857948},{"is_transit":true,"distance":2610,"line":0,"i_long":106.84912,"station_id":"MRI","time":4,"transit":true,"station_name":"Manggarai","i_lat":-6.209883},{"is_transit":false,"distance":3186,"i_lat":-6.202263,"transit":false,"station_name":"Sudirman","i_long":106.822649,"station_id":"SUD","line":1,"time":4},{"is_transit":false,"transit":false,"station_name":"Sudirman Baru","distance":280,"station_id":"SUDB","i_lat":-6.201433,"i_long":106.819881,"line":1,"time":1},{"i_lat":-6.20132,"line":1,"distance":471,"is_transit":false,"station_name":"Karet","time":1,"i_long":106.816351,"station_id":"KAT","transit":false},{"time":5,"i_long":106.811091,"transit":false,"i_lat":-6.185545,"station_name":"Tanah Abang","line":1,"is_transit":true,"station_id":"THB","distance":2029},{"distance":3632,"i_lat":-6.155215,"transit":true,"line":1,"station_id":"DU","station_name":"Duri","time":8,"i_long":106.800832,"is_transit":true},{"is_transit":false,"station_name":"Grogol","transit":false,"time":3,"i_lat":-6.162021,"station_id":"GGL","i_long":106.788277,"distance":1700,"line":5},{"line":5,"station_name":"Pesing","i_long":106.771379,"distance":2036,"station_id":"PSG","i_lat":-6.161433,"transit":false,"is_transit":false,"time":2},{"is_transit":false,"i_lat":-6.1587309999999995,"time":2,"i_long":106.756522,"transit":false,"line":5,"station_name":"Taman Kota","distance":1614,"station_id":"TKO"},{"station_name":"Bojongindah","i_long":106.737035,"distance":2334,"station_id":"BOI","transit":false,"is_transit":false,"time":2,"line":0,"i_lat":-6.159876},{"station_id":"RW","i_lat":-6.162758,"i_long":106.723064,"station_name":"Rawa Buaya","transit":false,"is_transit":false,"time":4,"distance":1152,"line":5},{"is_transit":false,"station_name":"Kalideres","line":5,"station_id":"KDS","distance":2504,"i_lat":-6.166068,"transit":false,"time":3,"i_long":106.701612},{"station_id":"PI","is_transit":false,"station_name":"Poris","time":3,"line":5,"transit":false,"i_long":106.679458,"distance":2548,"i_lat":-6.169933},{"is_transit":false,"i_long":106.665036,"line":0,"transit":false,"station_name":"Batuceper","distance":1834,"i_lat":-6.171811,"station_id":"BPR","time":3},{"time":3,"transit":false,"line":5,"is_transit":false,"i_lat":-6.17331,"station_id":"TTI","i_long":106.64657,"station_name":"Tanah Tinggi","distance":2028},{"time":3,"i_long":106.632761,"distance":1547,"station_name":"Tangerang","line":5,"i_lat":-6.176583,"transit":false,"is_transit":false,"station_id":"TNG"}],[{"i_lat":-6.330363,"distance":0,"is_transit":false,"time":0,"i_long":106.832616,"line":2,"station_name":"Lenteng Agung","station_id":"LNA","transit":false},{"station_id":"TNT","is_transit":false,"transit":false,"i_lat":-6.3080680000000005,"time":3,"i_long":106.838896,"line":2,"distance":2671,"station_name":"Tanjung Barat"},{"i_lat":-6.2842400000000005,"station_name":"Pasar Minggu","transit":false,"time":4,"station_id":"PSM","distance":2820,"i_long":106.843999,"line":2,"is_transit":false},{"i_lat":-6.263214,"station_id":"PSMB","line":2,"transit":false,"is_transit":false,"time":2,"station_name":"Pasar Minggu Baru","distance":2380,"i_long":106.851577},{"station_name":"Duren Kalibata","i_lat":-6.255332,"i_long":106.85449,"line":0,"transit":false,"is_transit":false,"distance":824,"time":2,"station_id":"DRN"},{"station_name":"Cawang","i_lat":-6.242512,"line":0,"is_transit":false,"distance":1546,"station_id":"CW","transit":false,"time":3,"i_long":106.856607},{"transit":false,"i_long":106.857948,"distance":1230,"station_id":"TEB","station_name":"Tebet","i_lat":-6.226659,"is_transit":false,"line":2,"time":2},{"time":4,"station_name":"Manggarai","i_lat":-6.209883,"transit":true,"station_id":"MRI","is_transit":true,"distance":2610,"i_long":106.84912,"line":0},{"station_id":"CKI","i_long":106.840169,"i_lat":-6.198556,"line":0,"is_transit":false,"transit":false,"station_name":"Cikini","time":4,"distance":1590},{"i_long":106.832183,"line":2,"time":3,"is_transit":false,"distance":1750,"i_lat":-6.186295,"transit":false,"station_id":"GDD","station_name":"Gondangdia"},{"i_long":106.828284,"line":2,"is_transit":false,"time":4,"i_lat":-6.166716,"transit":false,"distance":2015,"station_id":"JUA","station_name":"Juanda"},{"distance":1149,"i_lat":-6.160725,"station_id":"SW","station_name":"Sawah Besar","is_transit":false,"time":2,"line":2,"i_long":106.827103,"transit":false},{"time":2,"i_lat":-6.149769,"station_id":"MGB","is_transit":false,"station_name":"Manggabesar","distance":906,"transit":false,"i_long":106.82482,"line":2},{"is_transit":false,"time":2,"station_id":"JAY","i_lat":-6.141205,"station_name":"Jayakarta","i_long":106.820901,"transit":false,"distance":1080,"line":7},{"distance":1264,"i_lat":-6.137569,"time":4,"station_id":"JAKK","is_transit":true,"station_name":"Jakarta Kota","i_long":106.812439,"transit":true,"line":0},{"is_transit":true,"i_lat":-6.132549,"i_long":106.826365,"station_id":"KPB","station_name":"Kampung Bandan","transit":false,"time":3,"distance":1364,"line":0},{"distance":4102,"i_long":106.79867,"is_transit":false,"i_lat":-6.144674,"station_name":"Angke","time":9,"line":0,"transit":false,"station_id":"AK"},{"is_transit":true,"station_id":"DU","distance":1230,"time":4,"transit":true,"i_lat":-6.155215,"i_long":106.800832,"line":1,"station_name":"Duri"},{"is_transit":false,"line":5,"transit":false,"station_name":"Grogol","distance":1700,"i_lat":-6.162021,"i_long":106.788277,"time":3,"station_id":"GGL"},{"i_long":106.771379,"is_transit":false,"transit":false,"distance":2036,"line":5,"station_id":"PSG","time":2,"i_lat":-6.161433,"station_name":"Pesing"},{"station_id":"TKO","i_lat":-6.1587309999999995,"i_long":106.756522,"line":5,"transit":false,"time":2,"distance":1614,"station_name":"Taman Kota","is_transit":false},{"transit":false,"is_transit":false,"distance":2334,"station_name":"Bojongindah","i_lat":-6.159876,"station_id":"BOI","i_long":106.737035,"line":0,"time":2},{"i_long":106.723064,"distance":1152,"is_transit":false,"i_lat":-6.162758,"line":5,"transit":false,"station_name":"Rawa Buaya","station_id":"RW","time":4},{"station_name":"Kalideres","distance":2504,"is_transit":false,"line":5,"i_lat":-6.166068,"time":3,"i_long":106.701612,"station_id":"KDS","transit":false},{"distance":2548,"line":5,"station_id":"PI","time":3,"station_name":"Poris","i_lat":-6.169933,"transit":false,"i_long":106.679458,"is_transit":false},{"is_transit":false,"i_lat":-6.171811,"i_long":106.665036,"line":0,"distance":1834,"station_name":"Batuceper","time":3,"station_id":"BPR","transit":false},{"is_transit":false,"time":3,"i_lat":-6.17331,"line":5,"station_id":"TTI","distance":2028,"i_long":106.64657,"transit":false,"station_name":"Tanah Tinggi"},{"i_long":106.632761,"line":5,"station_id":"TNG","distance":1547,"transit":false,"is_transit":false,"i_lat":-6.176583,"time":3,"station_name":"Tangerang"}],[{"is_transit":false,"station_id":"LNA","transit":false,"line":2,"time":0,"i_long":106.832616,"station_name":"Lenteng Agung","distance":0,"i_lat":-6.330363},{"i_long":106.838896,"time":3,"line":2,"distance":2671,"transit":false,"is_transit":false,"station_id":"TNT","station_name":"Tanjung Barat","i_lat":-6.3080680000000005},{"distance":2820,"line":2,"transit":false,"is_transit":false,"i_lat":-6.2842400000000005,"i_long":106.843999,"station_name":"Pasar Minggu","time":4,"station_id":"PSM"},{"i_long":106.851577,"station_name":"Pasar Minggu Baru","line":2,"distance":2380,"station_id":"PSMB","time":2,"is_transit":false,"i_lat":-6.263214,"transit":false},{"is_transit":false,"time":2,"i_lat":-6.255332,"line":0,"transit":false,"distance":824,"station_id":"DRN","station_name":"Duren Kalibata","i_long":106.85449},{"line":0,"i_lat":-6.242512,"station_name":"Cawang","station_id":"CW","time":3,"transit":false,"is_transit":false,"distance":1546,"i_long":106.856607},{"distance":1230,"line":2,"station_id":"TEB","station_name":"Tebet","time":2,"i_lat":-6.226659,"i_long":106.857948,"transit":false,"is_transit":false},{"time":4,"distance":2610,"station_id":"MRI","i_long":106.84912,"transit":true,"is_transit":true,"line":0,"i_lat":-6.209883,"station_name":"Manggarai"},{"i_long":106.858896,"i_lat":-6.212485,"distance":1275,"line":1,"is_transit":false,"station_id":"MTR","station_name":"Matraman","time":2,"transit":false},{"i_lat":-6.215091,"i_long":106.86807400000001,"line":0,"station_name":"Jatinegara","station_id":"JNG","time":8,"distance":1377,"is_transit":true,"transit":true},{"i_lat":-6.209188,"is_transit":false,"line":11,"station_id":"POK","station_name":"Pondok Jati","time":2,"i_long":106.861737,"transit":false,"distance":1236},{"time":2,"transit":false,"station_name":"Kramat","is_transit":false,"distance":1829,"i_lat":-6.193792,"station_id":"KMT","i_long":106.855437,"line":11},{"time":1,"is_transit":false,"line":11,"transit":false,"station_name":"Gang Sentiong","i_lat":-6.185975,"i_long":106.850107,"distance":973,"station_id":"GST"},{"station_name":"Pasar Senen","distance":1567,"time":8,"i_long":106.84368,"line":11,"i_lat":-6.174784,"is_transit":false,"transit":false,"station_id":"PSE"},{"is_transit":false,"station_name":"Kemayoran","transit":false,"distance":1436,"i_lat":-6.161728,"time":4,"i_long":106.839204,"line":11,"station_id":"KMO"},{"is_transit":false,"station_id":"RJW","transit":false,"station_name":"Rajawali","distance":1901,"i_long":106.836569,"line":11,"i_lat":-6.14505,"time":5},{"distance":1444,"transit":true,"i_lat":-6.132549,"i_long":106.826365,"station_name":"Kampung Bandan","station_id":"KPB","line":0,"time":3,"is_transit":true},{"line":0,"station_id":"AK","station_name":"Angke","i_lat":-6.144674,"i_long":106.79867,"transit":false,"is_transit":false,"distance":4102,"time":9},{"station_name":"Duri","i_lat":-6.155215,"station_id":"DU","time":4,"distance":1230,"i_long":106.800832,"is_transit":true,"transit":true,"line":1},{"station_name":"Grogol","time":3,"i_lat":-6.162021,"station_id":"GGL","i_long":106.788277,"line":5,"distance":1700,"transit":false,"is_transit":false},{"transit":false,"time":2,"distance":2036,"i_long":106.771379,"i_lat":-6.161433,"is_transit":false,"line":5,"station_name":"Pesing","station_id":"PSG"},{"i_lat":-6.1587309999999995,"i_long":106.756522,"station_name":"Taman Kota","time":2,"distance":1614,"line":5,"transit":false,"is_transit":false,"station_id":"TKO"},{"station_name":"Bojongindah","station_id":"BOI","transit":false,"is_transit":false,"distance":2334,"i_long":106.737035,"i_lat":-6.159876,"time":2,"line":0},{"station_id":"RW","i_long":106.723064,"line":5,"i_lat":-6.162758,"transit":false,"is_transit":false,"time":4,"distance":1152,"station_name":"Rawa Buaya"},{"transit":false,"station_name":"Kalideres","station_id":"KDS","time":3,"distance":2504,"is_transit":false,"i_lat":-6.166068,"i_long":106.701612,"line":5},{"distance":2548,"line":5,"i_long":106.679458,"time":3,"i_lat":-6.169933,"station_name":"Poris","transit":false,"is_transit":false,"station_id":"PI"},{"i_long":106.665036,"is_transit":false,"line":0,"station_id":"BPR","time":3,"transit":false,"i_lat":-6.171811,"station_name":"Batuceper","distance":1834},{"station_name":"Tanah Tinggi","distance":2028,"is_transit":false,"station_id":"TTI","transit":false,"time":3,"i_lat":-6.17331,"i_long":106.64657,"line":5},{"transit":false,"station_id":"TNG","is_transit":false,"time":3,"line":5,"i_lat":-6.176583,"i_long":106.632761,"station_name":"Tangerang","distance":1547}]]}