{"data":[[{"station_id":"LNA","transit":false,"time":0,"is_transit":false,"i_lat":-6.330363,"i_long":106.832616,"line":2,"distance":0,"station_name":"Lenteng Agung"},{"station_name":"Tanjung Barat","i_long":106.838896,"transit":false,"is_transit":false,"i_lat":-6.3080680000000005,"station_id":"TNT","distance":2671,"time":3,"line":2},{"station_id":"PSM","line":2,"is_transit":false,"time":4,"transit":false,"station_name":"Pasar Minggu","i_lat":-6.2842400000000005,"i_long":106.843999,"distance":2820},{"station_id":"PSMB","distance":2380,"line":2,"i_lat":-6.263214,"i_long":106.851577,"transit":false,"station_name":"Pasar Minggu Baru","time":2,"is_transit":false},{"station_name":"Duren Kalibata","is_transit":false,"line":2,"time":2,"distance":824,"i_lat":-6.255332,"station_id":"DRN","transit":false,"i_long":106.85449},{"line":2,"transit":false,"station_name":"Cawang","distance":1546,"i_lat":-6.242512,"i_long":106.856607,"time":3,"station_id":"CW","is_transit":false},{"is_transit":false,"line":2,"station_name":"Tebet","station_id":"TEB","i_lat":-6.226659,"i_long":106.857948,"distance":1230,"transit":false,"time":2},{"line":2,"transit":false,"i_long":106.84912,"station_id":"MRI","distance":2610,"station_name":"Manggarai","time":4,"is_transit":false,"i_lat":-6.209883},{"station_name":"Cikini","distance":1590,"transit":false,"i_long":106.840169,"time":4,"station_id":"CKI","i_lat":-6.198556,"line":2,"is_transit":false},{"i_long":106.832183,"i_lat":-6.186295,"station_id":"GDD","is_transit":false,"time":3,"line":2,"station_name":"Gondangdia","transit":false,"distance":1750},{"i_long":106.828284,"distance":2015,"i_lat":-6.166716,"line":2,"station_id":"JUA","is_transit":false,"time":4,"transit":false,"station_name":"Juanda"}],[{"line":2,"station_name":"Lenteng Agung","distance":0,"is_transit":false,"time":0,"i_long":106.832616,"station_id":"LNA","transit":false,"i_lat":-6.330363},{"station_name":"Tanjung Barat","time":3,"line":2,"transit":false,"is_transit":false,"i_long":106.838896,"distance":2671,"i_lat":-6.3080680000000005,"station_id":"TNT"},{"station_id":"PSM","time":4,"is_transit":false,"station_name":"Pasar Minggu","i_long":106.843999,"transit":false,"i_lat":-6.2842400000000005,"line":2,"distance":2820},{"i_long":106.851577,"is_transit":false,"i_lat":-6.263214,"station_id":"PSMB","time":2,"station_name":"Pasar Minggu Baru","distance":2380,"line":2,"transit":false},{"i_long":106.85449,"transit":false,"time":2,"station_id":"DRN","is_transit":false,"line":2,"distance":824,"station_name":"Duren Kalibata","i_lat":-6.255332},{"line":2,"transit":false,"i_lat":-6.242512,"time":3,"i_long":106.856607,"station_name":"Cawang","is_transit":false,"station_id":"CW","distance":1546},{"is_transit":false,"station_name":"Tebet","transit":false,"time":2,"distance":1230,"i_long":106.857948,"station_id":"TEB","i_lat":-6.226659,"line":2},{"station_id":"MRI","distance":2610,"is_transit":true,"i_lat":-6.209883,"station_name":"Manggarai","i_long":106.84912,"time":4,"line":2,"transit":true},{"transit":false,"is_transit":false,"i_long":106.822649,"distance":3186,"line":1,"station_name":"Sudirman","time":4,"station_id":"SUD","i_lat":-6.202263},{"transit":false,"distance":280,"station_name":"Sudirman Baru","i_lat":-6.201433,"time":1,"station_id":"SUDB","i_long":106.819881,"line":1,"is_transit":false},{"time":1,"distance":471,"station_id":"KAT","i_long":106.816351,"i_lat":-6.20132,"line":1,"transit":false,"is_transit":false,"station_name":"Karet"},{"line":1,"station_id":"THB","i_long":106.811091,"time":5,"distance":2029,"station_name":"Tanah Abang","transit":false,"is_transit":false,"i_lat":-6.185545},{"station_id":"DU","transit":false,"distance":3632,"line":1,"is_transit":false,"i_lat":-6.155215,"time":8,"station_name":"Duri","i_long":106.800832},{"i_long":106.79867,"station_name":"Angke","is_transit":false,"transit":false,"i_lat":-6.144674,"time":4,"distance":1230,"line":1,"station_id":"AK"},{"transit":true,"distance":4102,"i_lat":-6.132549,"time":9,"i_long":106.826365,"is_transit":true,"station_id":"KPB","station_name":"Kampung Bandan","line":4},{"i_long":106.812439,"distance":1364,"time":3,"station_id":"JAKK","transit":true,"is_transit":true,"station_name":"Jakarta Kota","i_lat":-6.137569,"line":2},{"transit":false,"time":4,"line":2,"station_name":"Jayakarta","station_id":"JAY","i_lat":-6.141205,"distance":1264,"is_transit":false,"i_long":106.820901},{"transit":false,"station_id":"MGB","time":2,"is_transit":false,"i_lat":-6.149769,"i_long":106.82482,"station_name":"Manggabesar","distance":1080,"line":2},{"transit":false,"station_id":"SW","i_long":106.827103,"time":2,"distance":906,"is_transit":false,"line":2,"i_lat":-6.160725,"station_name":"Sawah Besar"},{"i_lat":-6.166716,"distance":1149,"time":2,"transit":false,"line":2,"is_transit":false,"i_long":106.828284,"station_id":"JUA","station_name":"Juanda"}],[{"i_lat":-6.330363,"time":0,"line":2,"i_long":106.832616,"station_id":"LNA","is_transit":false,"station_name":"Lenteng Agung","distance":0,"transit":false},{"transit":false,"line":2,"distance":2671,"i_lat":-6.3080680000000005,"station_id":"TNT","station_name":"Tanjung Barat","time":3,"is_transit":false,"i_long":106.838896},{"station_id":"PSM","i_long":106.843999,"station_name":"Pasar Minggu","is_transit":false,"time":4,"distance":2820,"i_lat":-6.2842400000000005,"transit":false,"line":2},{"station_id":"PSMB","line":2,"distance":2380,"i_long":106.851577,"time":2,"is_transit":false,"i_lat":-6.263214,"transit":false,"station_name":"Pasar Minggu Baru"},{"i_long":106.85449,"i_lat":-6.255332,"distance":824,"line":2,"station_name":"Duren Kalibata","is_transit":false,"transit":false,"station_id":"DRN","time":2},{"time":3,"station_name":"Cawang","transit":false,"is_transit":false,"station_id":"CW","i_long":106.856607,"i_lat":-6.242512,"distance":1546,"line":2},{"transit":false,"station_name":"Tebet","time":2,"line":2,"station_id":"TEB","i_lat":-6.226659,"i_long":106.857948,"distance":1230,"is_transit":false},{"is_transit":true,"i_long":106.84912,"station_name":"Manggarai","transit":true,"i_lat":-6.209883,"line":2,"distance":2610,"station_id":"MRI","time":4},{"station_id":"MTR","transit":false,"is_transit":false,"i_lat":-6.212485,"time":2,"distance":1275,"line":1,"i_long":106.858896,"station_name":"Matraman"},{"line":1,"i_long":106.86807400000001,"time":8,"transit":true,"is_transit":true,"distance":1377,"station_name":"Jatinegara","station_id":"JNG","i_lat":-6.215091},{"line":11,"time":2,"distance":1236,"transit":false,"is_transit":false,"station_id":"POK","station_name":"Pondok Jati","i_lat":-6.209188,"i_long":106.861737},{"i_lat":-6.193792,"is_transit":false,"transit":false,"station_name":"Kramat","distance":1829,"line":11,"time":2,"station_id":"KMT","i_long":106.855437},{"transit":false,"i_lat":-6.185975,"i_long":106.850107,"station_name":"Gang Sentiong","time":1,"distance":973,"is_transit":false,"station_id":"GST","line":11},{"line":11,"i_long":106.84368,"station_id":"PSE","time":8,"transit":false,"station_name":"Pasar Senen","distance":1567,"i_lat":-6.174784,"is_transit":false},{"is_transit":false,"station_name":"Kemayoran","i_lat":-6.161728,"transit":false,"station_id":"KMO","distance":1436,"time":4,"i_long":106.839204,"line":11},{"transit":false,"i_long":106.836569,"is_transit":false,"time":5,"i_lat":-6.14505,"station_name":"Rajawali","line":11,"distance":1901,"station_id":"RJW"},{"transit":true,"i_lat":-6.132549,"i_long":106.826365,"station_name":"Kampung Bandan","line":4,"time":3,"distance":1444,"is_transit":true,"station_id":"KPB"},{"time":3,"distance":1364,"i_long":106.812439,"i_lat":-6.137569,"transit":true,"station_name":"Jakarta Kota","is_transit":true,"line":2,"station_id":"JAKK"},{"station_id":"JAY","i_lat":-6.141205,"station_name":"Jayakarta","time":4,"distance":1264,"transit":false,"i_long":106.820901,"line":2,"is_transit":false},{"station_id":"MGB","is_transit":false,"station_name":"Manggabesar","i_lat":-6.149769,"i_long":106.82482,"line":2,"time":2,"transit":false,"distance":1080},{"i_lat":-6.160725,"transit":false,"time":2,"station_name":"Sawah Besar","station_id":"SW","line":2,"distance":906,"is_transit":false,"i_long":106.827103},{"i_long":106.828284,"line":2,"station_name":"Juanda","station_id":"JUA","distance":1149,"is_transit":false,"i_lat":-6.166716,"time":2,"transit":false}]]}