{"data":[[{"transit":false,"i_lat":-6.330363,"station_name":"Lenteng Agung","time":0,"station_id":"LNA","i_long":106.832616,"distance":0,"line":2,"is_transit":false},{"i_long":106.838896,"station_name":"Tanjung Barat","station_id":"TNT","is_transit":false,"distance":2671,"i_lat":-6.3080680000000005,"line":2,"time":3,"transit":false},{"time":4,"station_name":"Pasar Minggu","distance":2820,"transit":false,"i_lat":-6.2842400000000005,"i_long":106.843999,"line":2,"station_id":"PSM","is_transit":false},{"station_name":"Pasar Minggu Baru","i_long":106.851577,"line":2,"distance":2380,"is_transit":false,"i_lat":-6.263214,"station_id":"PSMB","transit":false,"time":2},{"distance":824,"transit":false,"is_transit":false,"station_name":"Duren Kalibata","station_id":"DRN","time":2,"line":0,"i_long":106.85449,"i_lat":-6.255332},{"is_transit":false,"time":3,"i_lat":-6.242512,"transit":false,"i_long":106.856607,"station_name":"Cawang","distance":1546,"line":0,"station_id":"CW"},{"station_name":"Tebet","distance":1230,"line":2,"is_transit":false,"transit":false,"time":2,"i_lat":-6.226659,"i_long":106.857948,"station_id":"TEB"},{"station_id":"MRI","i_lat":-6.209883,"transit":true,"line":0,"station_name":"Manggarai","i_long":106.84912,"time":4,"distance":2610,"is_transit":true},{"i_long":106.858896,"is_transit":false,"station_name":"Matraman","i_lat":-6.212485,"line":1,"distance":1275,"station_id":"MTR","transit":false,"time":2},{"is_transit":true,"time":8,"transit":false,"station_name":"Jatinegara","line":0,"i_lat":-6.215091,"station_id":"JNG","i_long":106.86807400000001,"distance":1377},{"line":1,"distance":3395,"station_name":"Klender","station_id":"KLD","i_lat":-6.2135,"i_long":106.899548,"transit":false,"is_transit":false,"time":3},{"time":2,"transit":false,"station_id":"BUA","distance":3100,"station_name":"Buaran","i_lat":-6.215568,"i_long":106.922662,"line":0,"is_transit":false}],[{"is_transit":false,"i_long":106.832616,"distance":0,"station_name":"Lenteng Agung","time":0,"transit":false,"station_id":"LNA","i_lat":-6.330363,"line":2},{"time":3,"transit":false,"line":2,"station_name":"Tanjung Barat","distance":2671,"station_id":"TNT","is_transit":false,"i_long":106.838896,"i_lat":-6.3080680000000005},{"transit":false,"line":2,"time":4,"i_long":106.843999,"station_name":"Pasar Minggu","is_transit":false,"station_id":"PSM","distance":2820,"i_lat":-6.2842400000000005},{"transit":false,"i_long":106.851577,"is_transit":false,"station_name":"Pasar Minggu Baru","line":2,"station_id":"PSMB","time":2,"distance":2380,"i_lat":-6.263214},{"transit":false,"station_name":"Duren Kalibata","is_transit":false,"line":0,"time":2,"i_long":106.85449,"i_lat":-6.255332,"station_id":"DRN","distance":824},{"station_id":"CW","transit":false,"is_transit":false,"distance":1546,"i_lat":-6.242512,"station_name":"Cawang","i_long":106.856607,"time":3,"line":0},{"transit":false,"line":2,"station_name":"Tebet","i_lat":-6.226659,"distance":1230,"is_transit":false,"station_id":"TEB","time":2,"i_long":106.857948},{"station_name":"Manggarai","transit":true,"station_id":"MRI","i_lat":-6.209883,"i_long":106.84912,"time":4,"line":0,"distance":2610,"is_transit":true},{"i_lat":-6.202263,"station_name":"Sudirman","is_transit":false,"transit":false,"time":4,"distance":3186,"line":1,"station_id":"SUD","i_long":106.822649},{"line":1,"station_id":"SUDB","i_lat":-6.201433,"transit":false,"i_long":106.819881,"time":1,"station_name":"Sudirman Baru","distance":280,"is_transit":false},{"station_id":"KAT","transit":false,"distance":471,"station_name":"Karet","i_long":106.816351,"time":1,"i_lat":-6.20132,"line":1,"is_transit":false},{"i_long":106.811091,"line":1,"is_transit":true,"time":5,"transit":false,"station_name":"Tanah Abang","i_lat":-6.185545,"station_id":"THB","distance":2029},{"station_id":"DU","time":8,"distance":3632,"transit":true,"i_long":106.800832,"line":1,"station_name":"Duri","i_lat":-6.155215,"is_transit":true},{"time":4,"line":0,"station_id":"AK","is_transit":false,"distance":1230,"i_lat":-6.144674,"transit":false,"station_name":"Angke","i_long":106.79867},{"is_transit":true,"transit":true,"station_name":"Kampung Bandan","i_lat":-6.132549,"line":0,"station_id":"KPB","distance":4102,"time":9,"i_long":106.826365},{"transit":false,"station_id":"RJW","station_name":"Rajawali","is_transit":false,"line":11,"i_lat":-6.14505,"i_long":106.836569,"distance":1444,"time":3},{"i_long":106.839204,"station_name":"Kemayoran","transit":false,"distance":1901,"is_transit":false,"line":11,"station_id":"KMO","i_lat":-6.161728,"time":5},{"distance":1436,"station_name":"Pasar Senen","time":4,"i_lat":-6.174784,"is_transit":false,"transit":false,"i_long":106.84368,"line":11,"station_id":"PSE"},{"i_long":106.850107,"line":11,"station_name":"Gang Sentiong","time":8,"transit":false,"is_transit":false,"i_lat":-6.185975,"station_id":"GST","distance":1567},{"is_transit":false,"time":1,"station_id":"KMT","distance":973,"i_lat":-6.193792,"line":11,"transit":false,"station_name":"Kramat","i_long":106.855437},{"time":2,"station_id":"POK","station_name":"Pondok Jati","transit":false,"line":11,"i_lat":-6.209188,"distance":1829,"is_transit":false,"i_long":106.861737},{"station_name":"Jatinegara","i_lat":-6.215091,"transit":true,"station_id":"JNG","distance":1236,"line":0,"i_long":106.86807400000001,"is_transit":true,"time":9},{"time":3,"is_transit":false,"station_name":"Klender","line":1,"station_id":"KLD","i_lat":-6.2135,"transit":false,"distance":3395,"i_long":106.899548},{"i_long":106.922662,"line":0,"station_name":"Buaran","transit":false,"distance":3100,"station_id":"BUA","time":2,"is_transit":false,"i_lat":-6.215568}],[{"time":0,"line":2,"is_transit":false,"station_name":"Lenteng Agung","i_lat":-6.330363,"i_long":106.832616,"transit":false,"station_id":"LNA","distance":0},{"line":2,"station_name":"Tanjung Barat","distance":2671,"station_id":"TNT","time":3,"i_long":106.838896,"is_transit":false,"transit":false,"i_lat":-6.3080680000000005},{"i_long":106.843999,"station_name":"Pasar Minggu","is_transit":false,"time":4,"transit":false,"i_lat":-6.2842400000000005,"line":2,"station_id":"PSM","distance":2820},{"transit":false,"i_long":106.851577,"is_transit":false,"distance":2380,"station_name":"Pasar Minggu Baru","i_lat":-6.263214,"line":2,"station_id":"PSMB","time":2},{"is_transit":false,"i_long":106.85449,"station_id":"DRN","distance":824,"station_name":"Duren Kalibata","i_lat":-6.255332,"line":0,"transit":false,"time":2},{"is_transit":false,"transit":false,"i_lat":-6.242512,"time":3,"distance":1546,"station_name":"Cawang","i_long":106.856607,"line":0,"station_id":"CW"},{"is_transit":false,"station_id":"TEB","distance":1230,"line":2,"transit":false,"station_name":"Tebet","time":2,"i_lat":-6.226659,"i_long":106.857948},{"i_lat":-6.209883,"transit":true,"line":0,"time":4,"i_long":106.84912,"distance":2610,"station_id":"MRI","station_name":"Manggarai","is_transit":true},{"is_transit":false,"line":0,"time":4,"station_name":"Cikini","i_long":106.840169,"distance":1590,"i_lat":-6.198556,"transit":false,"station_id":"CKI"},{"i_long":106.832183,"station_name":"Gondangdia","distance":1750,"line":2,"station_id":"GDD","is_transit":false,"transit":false,"time":3,"i_lat":-6.186295},{"station_id":"JUA","transit":false,"i_lat":-6.166716,"i_long":106.828284,"time":4,"station_name":"Juanda","is_transit":false,"line":2,"distance":2015},{"i_long":106.827103,"station_name":"Sawah Besar","line":2,"is_transit":false,"transit":false,"time":2,"distance":1149,"station_id":"SW","i_lat":-6.160725},{"station_id":"MGB","i_lat":-6.149769,"i_long":106.82482,"transit":false,"time":2,"is_transit":false,"station_name":"Manggabesar","line":2,"distance":906},{"line":7,"time":2,"i_long":106.820901,"i_lat":-6.141205,"is_transit":false,"distance":1080,"station_id":"JAY","station_name":"Jayakarta","transit":false},{"i_lat":-6.137569,"station_id":"JAKK","is_transit":true,"time":4,"transit":true,"i_long":106.812439,"line":0,"station_name":"Jakarta Kota","distance":1264},{"station_id":"KPB","distance":1364,"i_long":106.826365,"line":0,"time":3,"transit":true,"station_name":"Kampung Bandan","is_transit":true,"i_lat":-6.132549},{"time":3,"distance":1444,"transit":false,"station_id":"RJW","station_name":"Rajawali","is_transit":false,"i_lat":-6.14505,"i_long":106.836569,"line":11},{"distance":1901,"i_long":106.839204,"station_name":"Kemayoran","is_transit":false,"station_id":"KMO","time":5,"transit":false,"i_lat":-6.161728,"line":11},{"time":4,"is_transit":false,"i_long":106.84368,"station_id":"PSE","transit":false,"station_name":"Pasar Senen","distance":1436,"line":11,"i_lat":-6.174784},{"distance":1567,"station_name":"Gang Sentiong","i_long":106.850107,"is_transit":false,"i_lat":-6.185975,"station_id":"GST","time":8,"line":11,"transit":false},{"time":1,"distance":973,"i_lat":-6.193792,"transit":false,"station_id":"KMT","station_name":"Kramat","i_long":106.855437,"line":11,"is_transit":false},{"i_long":106.861737,"line":11,"time":2,"distance":1829,"transit":false,"station_id":"POK","station_name":"Pondok Jati","is_transit":false,"i_lat":-6.209188},{"i_long":106.86807400000001,"line":0,"time":9,"station_id":"JNG","station_name":"Jatinegara","is_transit":true,"distance":1236,"i_lat":-6.215091,"transit":true},{"transit":false,"line":1,"station_id":"KLD","distance":3395,"i_lat":-6.2135,"is_transit":false,"station_name":"Klender","time":3,"i_long":106.899548},{"i_lat":-6.215568,"station_name":"Buaran","distance":3100,"station_id":"BUA","time":2,"i_long":106.922662,"line":0,"transit":false,"is_transit":false}]]}