{"data":[[{"time":0,"station_name":"Lenteng Agung","line":2,"i_long":106.832616,"distance":0,"transit":false,"station_id":"LNA","is_transit":false,"i_lat":-6.330363},{"i_lat":-6.3080680000000005,"transit":false,"line":2,"distance":2671,"station_name":"Tanjung Barat","i_long":106.838896,"time":3,"station_id":"TNT","is_transit":false},{"distance":2820,"i_long":106.843999,"transit":false,"station_name":"Pasar Minggu","line":2,"station_id":"PSM","time":4,"i_lat":-6.2842400000000005,"is_transit":false},{"i_long":106.851577,"station_name":"Pasar Minggu Baru","distance":2380,"line":2,"station_id":"PSMB","time":2,"i_lat":-6.263214,"transit":false,"is_transit":false},{"i_long":106.85449,"distance":824,"i_lat":-6.255332,"station_id":"DRN","station_name":"Duren Kalibata","is_transit":false,"time":2,"line":2,"transit":false}]]}