{"data":[[{"line":2,"station_id":"LNA","transit":false,"i_long":106.832616,"station_name":"Lenteng Agung","is_transit":false,"time":0,"distance":0,"i_lat":-6.330363},{"transit":false,"line":2,"is_transit":false,"station_name":"Tanjung Barat","distance":2671,"i_long":106.838896,"i_lat":-6.3080680000000005,"station_id":"TNT","time":3},{"i_lat":-6.2842400000000005,"line":2,"time":4,"station_name":"Pasar Minggu","distance":2820,"i_long":106.843999,"transit":false,"is_transit":false,"station_id":"PSM"},{"station_id":"PSMB","station_name":"Pasar Minggu Baru","is_transit":false,"time":2,"distance":2380,"transit":false,"line":2,"i_lat":-6.263214,"i_long":106.851577},{"station_id":"DRN","station_name":"Duren Kalibata","is_transit":false,"transit":false,"line":2,"time":2,"i_long":106.85449,"distance":824,"i_lat":-6.255332},{"is_transit":false,"time":3,"transit":false,"i_lat":-6.242512,"i_long":106.856607,"distance":1546,"station_name":"Cawang","line":2,"station_id":"CW"},{"is_transit":false,"transit":false,"station_id":"TEB","time":2,"i_long":106.857948,"station_name":"Tebet","distance":1230,"i_lat":-6.226659,"line":2},{"i_lat":-6.209883,"is_transit":false,"distance":2610,"i_long":106.84912,"line":2,"station_id":"MRI","transit":false,"station_name":"Manggarai","time":4},{"time":4,"is_transit":false,"station_id":"CKI","i_long":106.840169,"transit":false,"i_lat":-6.198556,"line":2,"station_name":"Cikini","distance":1590},{"i_long":106.832183,"i_lat":-6.186295,"line":2,"time":3,"transit":false,"station_name":"Gondangdia","is_transit":false,"station_id":"GDD","distance":1750},{"line":2,"i_lat":-6.166716,"transit":false,"i_long":106.828284,"distance":2015,"station_name":"Juanda","station_id":"JUA","is_transit":false,"time":4}],[{"time":0,"distance":0,"transit":false,"is_transit":false,"i_lat":-6.330363,"line":2,"station_name":"Lenteng Agung","station_id":"LNA","i_long":106.832616},{"line":2,"distance":2671,"transit":false,"is_transit":false,"i_lat":-6.3080680000000005,"station_id":"TNT","time":3,"station_name":"Tanjung Barat","i_long":106.838896},{"i_long":106.843999,"i_lat":-6.2842400000000005,"time":4,"station_id":"PSM","transit":false,"distance":2820,"line":2,"station_name":"Pasar Minggu","is_transit":false},{"i_long":106.851577,"line":2,"station_id":"PSMB","is_transit":false,"distance":2380,"station_name":"Pasar Minggu Baru","i_lat":-6.263214,"transit":false,"time":2},{"is_transit":false,"time":2,"station_name":"Duren Kalibata","transit":false,"i_lat":-6.255332,"distance":824,"line":2,"i_long":106.85449,"station_id":"DRN"},{"is_transit":false,"transit":false,"i_long":106.856607,"station_id":"CW","distance":1546,"i_lat":-6.242512,"line":2,"time":3,"station_name":"Cawang"},{"i_long":106.857948,"is_transit":false,"i_lat":-6.226659,"station_id":"TEB","transit":false,"line":2,"distance":1230,"station_name":"Tebet","time":2},{"time":4,"i_lat":-6.209883,"i_long":106.84912,"station_name":"Manggarai","line":2,"transit":true,"is_transit":true,"station_id":"MRI","distance":2610},{"i_lat":-6.202263,"line":1,"i_long":106.822649,"time":4,"station_name":"Sudirman","transit":false,"station_id":"SUD","distance":3186,"is_transit":false},{"transit":false,"station_id":"SUDB","time":1,"station_name":"Sudirman Baru","i_lat":-6.201433,"i_long":106.819881,"is_transit":false,"line":1,"distance":280},{"is_transit":false,"station_id":"KAT","distance":471,"line":1,"transit":false,"station_name":"Karet","i_lat":-6.20132,"time":1,"i_long":106.816351},{"is_transit":false,"i_long":106.811091,"line":1,"time":5,"transit":false,"distance":2029,"i_lat":-6.185545,"station_name":"Tanah Abang","station_id":"THB"},{"station_name":"Duri","station_id":"DU","is_transit":false,"time":8,"transit":false,"distance":3632,"i_long":106.800832,"line":1,"i_lat":-6.155215},{"is_transit":false,"transit":false,"i_long":106.79867,"station_id":"AK","station_name":"Angke","distance":1230,"time":4,"i_lat":-6.144674,"line":1},{"station_name":"Kampung Bandan","i_long":106.826365,"i_lat":-6.132549,"line":4,"station_id":"KPB","transit":true,"is_transit":true,"time":9,"distance":4102},{"distance":1364,"transit":true,"station_name":"Jakarta Kota","time":3,"line":2,"i_long":106.812439,"station_id":"JAKK","is_transit":true,"i_lat":-6.137569},{"station_id":"JAY","i_lat":-6.141205,"line":2,"is_transit":false,"station_name":"Jayakarta","transit":false,"distance":1264,"i_long":106.820901,"time":4},{"is_transit":false,"station_id":"MGB","time":2,"transit":false,"station_name":"Manggabesar","i_lat":-6.149769,"i_long":106.82482,"line":2,"distance":1080},{"i_lat":-6.160725,"line":2,"is_transit":false,"time":2,"transit":false,"i_long":106.827103,"station_name":"Sawah Besar","station_id":"SW","distance":906},{"i_long":106.828284,"station_name":"Juanda","time":2,"line":2,"transit":false,"is_transit":false,"distance":1149,"station_id":"JUA","i_lat":-6.166716}],[{"line":2,"is_transit":false,"transit":false,"station_name":"Lenteng Agung","i_lat":-6.330363,"station_id":"LNA","time":0,"i_long":106.832616,"distance":0},{"transit":false,"distance":2671,"line":2,"station_id":"TNT","time":3,"station_name":"Tanjung Barat","i_lat":-6.3080680000000005,"is_transit":false,"i_long":106.838896},{"transit":false,"station_name":"Pasar Minggu","time":4,"distance":2820,"i_lat":-6.2842400000000005,"station_id":"PSM","i_long":106.843999,"is_transit":false,"line":2},{"i_lat":-6.263214,"transit":false,"station_id":"PSMB","line":2,"is_transit":false,"distance":2380,"station_name":"Pasar Minggu Baru","time":2,"i_long":106.851577},{"time":2,"i_lat":-6.255332,"transit":false,"station_name":"Duren Kalibata","i_long":106.85449,"line":2,"is_transit":false,"distance":824,"station_id":"DRN"},{"i_long":106.856607,"transit":false,"i_lat":-6.242512,"is_transit":false,"station_id":"CW","time":3,"distance":1546,"line":2,"station_name":"Cawang"},{"station_id":"TEB","i_long":106.857948,"transit":false,"line":2,"is_transit":false,"i_lat":-6.226659,"station_name":"Tebet","time":2,"distance":1230},{"transit":true,"is_transit":true,"i_long":106.84912,"distance":2610,"station_name":"Manggarai","time":4,"i_lat":-6.209883,"line":2,"station_id":"MRI"},{"transit":false,"i_long":106.858896,"station_id":"MTR","line":1,"station_name":"Matraman","i_lat":-6.212485,"is_transit":false,"time":2,"distance":1275},{"station_id":"JNG","is_transit":true,"station_name":"Jatinegara","distance":1377,"i_lat":-6.215091,"transit":true,"i_long":106.86807400000001,"line":1,"time":8},{"distance":1236,"line":11,"time":2,"i_lat":-6.209188,"station_name":"Pondok Jati","station_id":"POK","is_transit":false,"i_long":106.861737,"transit":false},{"line":11,"is_transit":false,"i_lat":-6.193792,"distance":1829,"station_id":"KMT","time":2,"transit":false,"station_name":"Kramat","i_long":106.855437},{"station_id":"GST","i_lat":-6.185975,"time":1,"line":11,"station_name":"Gang Sentiong","distance":973,"i_long":106.850107,"is_transit":false,"transit":false},{"station_id":"PSE","i_long":106.84368,"is_transit":false,"time":8,"transit":false,"station_name":"Pasar Senen","i_lat":-6.174784,"distance":1567,"line":11},{"transit":false,"station_id":"KMO","line":11,"station_name":"Kemayoran","i_lat":-6.161728,"i_long":106.839204,"time":4,"is_transit":false,"distance":1436},{"transit":false,"time":5,"is_transit":false,"distance":1901,"line":11,"i_lat":-6.14505,"i_long":106.836569,"station_name":"Rajawali","station_id":"RJW"},{"i_long":106.826365,"line":4,"station_name":"Kampung Bandan","station_id":"KPB","distance":1444,"transit":true,"time":3,"is_transit":true,"i_lat":-6.132549},{"transit":true,"station_name":"Jakarta Kota","i_lat":-6.137569,"line":2,"is_transit":true,"station_id":"JAKK","time":3,"distance":1364,"i_long":106.812439},{"transit":false,"is_transit":false,"time":4,"i_long":106.820901,"station_id":"JAY","line":2,"distance":1264,"station_name":"Jayakarta","i_lat":-6.141205},{"station_name":"Manggabesar","line":2,"is_transit":false,"time":2,"distance":1080,"i_long":106.82482,"transit":false,"station_id":"MGB","i_lat":-6.149769},{"time":2,"transit":false,"i_lat":-6.160725,"i_long":106.827103,"station_id":"SW","line":2,"is_transit":false,"distance":906,"station_name":"Sawah Besar"},{"time":2,"i_lat":-6.166716,"distance":1149,"station_id":"JUA","i_long":106.828284,"transit":false,"line":2,"station_name":"Juanda","is_transit":false}]]}