{"data":[[{"time":0,"i_lat":-6.330363,"distance":0,"i_long":106.832616,"is_transit":false,"station_id":"LNA","line":2,"transit":false,"station_name":"Lenteng Agung"},{"is_transit":false,"i_long":106.838896,"line":2,"station_name":"Tanjung Barat","station_id":"TNT","distance":2671,"time":3,"transit":false,"i_lat":-6.3080680000000005},{"station_name":"Pasar Minggu","transit":false,"line":2,"i_long":106.843999,"is_transit":false,"distance":2820,"i_lat":-6.2842400000000005,"time":4,"station_id":"PSM"},{"station_name":"Pasar Minggu Baru","time":2,"i_long":106.851577,"is_transit":false,"distance":2380,"transit":false,"station_id":"PSMB","i_lat":-6.263214,"line":2},{"station_name":"Duren Kalibata","station_id":"DRN","is_transit":false,"i_long":106.85449,"time":2,"transit":false,"line":0,"i_lat":-6.255332,"distance":824},{"is_transit":false,"i_lat":-6.242512,"i_long":106.856607,"line":0,"time":3,"distance":1546,"transit":false,"station_id":"CW","station_name":"Cawang"},{"transit":false,"line":2,"station_name":"Tebet","time":2,"distance":1230,"station_id":"TEB","i_long":106.857948,"is_transit":false,"i_lat":-6.226659},{"i_long":106.84912,"i_lat":-6.209883,"station_name":"Manggarai","line":0,"time":4,"transit":true,"is_transit":true,"distance":2610,"station_id":"MRI"},{"station_id":"SUD","is_transit":false,"time":4,"distance":3186,"line":1,"station_name":"Sudirman","i_long":106.822649,"i_lat":-6.202263,"transit":false},{"i_lat":-6.201433,"transit":false,"station_id":"SUDB","line":1,"station_name":"Sudirman Baru","time":1,"distance":280,"i_long":106.819881,"is_transit":false},{"station_id":"KAT","station_name":"Karet","time":1,"is_transit":false,"transit":false,"line":1,"i_lat":-6.20132,"i_long":106.816351,"distance":471},{"is_transit":true,"station_name":"Tanah Abang","station_id":"THB","time":5,"transit":true,"i_long":106.811091,"line":1,"i_lat":-6.185545,"distance":2029},{"is_transit":false,"i_lat":-6.207404,"station_id":"PLM","line":6,"i_long":106.79689,"distance":3191,"station_name":"Palmerah","time":6,"transit":false},{"line":6,"station_id":"KBY","i_long":106.780334,"is_transit":false,"time":7,"i_lat":-6.237242,"distance":3737,"transit":false,"station_name":"Kebayoran"},{"i_long":106.74273,"station_name":"Pondokranji","time":8,"distance":6218,"transit":false,"line":6,"is_transit":false,"i_lat":-6.276362,"station_id":"PDJ"},{"transit":false,"time":3,"i_long":106.728916,"i_lat":-6.288927,"is_transit":false,"station_name":"Jurangmangu","line":6,"station_id":"JMU","distance":2179},{"time":4,"i_long":106.712277,"distance":1994,"station_name":"Sudimara","transit":false,"line":6,"is_transit":false,"station_id":"SDM","i_lat":-6.296963},{"distance":4566,"time":6,"is_transit":false,"transit":false,"i_long":106.675475,"station_name":"Rawa Buntu","i_lat":-6.314823,"line":6,"station_id":"RU"},{"is_transit":false,"distance":2413,"station_name":"Serpong","transit":false,"i_long":106.66566,"time":4,"line":6,"station_id":"SRP","i_lat":-6.319871},{"i_long":106.640411,"time":4,"distance":1784,"transit":false,"i_lat":-6.32484,"line":0,"station_id":"CSK","station_name":"Cisauk","is_transit":false},{"time":4,"i_long":106.617853,"distance":2519,"is_transit":false,"line":0,"station_name":"Cicayur","i_lat":-6.329547,"transit":false,"station_id":"CC"},{"station_name":"Parung Panjang","i_long":106.568863,"line":6,"time":8,"station_id":"PRP","transit":false,"i_lat":-6.3441410000000005,"is_transit":false,"distance":5968},{"station_name":"Cilejit","station_id":"CJT","distance":7025,"time":9,"transit":false,"i_lat":-6.354349,"i_long":106.508482,"line":0,"is_transit":false},{"station_id":"DAR","is_transit":false,"line":0,"station_name":"Daru","transit":false,"time":6,"distance":2675,"i_lat":-6.338021,"i_long":106.491338},{"i_lat":-6.327251,"is_transit":false,"i_long":106.460812,"line":6,"station_name":"Tenjo","transit":false,"distance":3902,"station_id":"TEJ","time":5},{"i_lat":-6.328533,"station_id":"TGS","line":6,"time":5,"i_long":106.425991,"is_transit":false,"distance":2974,"transit":false,"station_name":"Tigaraksa"},{"i_long":106.411216,"line":0,"station_name":"Cikoya","transit":false,"i_lat":-6.33561,"is_transit":false,"time":3,"distance":2651,"station_id":"CKY"},{"distance":1853,"i_long":106.394373,"station_id":"MJ","line":6,"station_name":"Maja","i_lat":-6.332307,"is_transit":false,"time":4,"transit":false}],[{"station_id":"LNA","is_transit":false,"time":0,"transit":false,"line":2,"i_lat":-6.330363,"station_name":"Lenteng Agung","distance":0,"i_long":106.832616},{"i_long":106.838896,"transit":false,"distance":2671,"i_lat":-6.3080680000000005,"station_id":"TNT","is_transit":false,"line":2,"station_name":"Tanjung Barat","time":3},{"i_lat":-6.2842400000000005,"i_long":106.843999,"transit":false,"station_name":"Pasar Minggu","is_transit":false,"station_id":"PSM","line":2,"distance":2820,"time":4},{"i_long":106.851577,"i_lat":-6.263214,"line":2,"time":2,"station_name":"Pasar Minggu Baru","distance":2380,"transit":false,"is_transit":false,"station_id":"PSMB"},{"i_long":106.85449,"line":0,"time":2,"transit":false,"is_transit":false,"station_id":"DRN","station_name":"Duren Kalibata","i_lat":-6.255332,"distance":824},{"is_transit":false,"line":0,"i_long":106.856607,"time":3,"transit":false,"i_lat":-6.242512,"station_name":"Cawang","station_id":"CW","distance":1546},{"station_name":"Tebet","i_lat":-6.226659,"station_id":"TEB","transit":false,"i_long":106.857948,"line":2,"time":2,"is_transit":false,"distance":1230},{"line":0,"time":4,"transit":true,"is_transit":true,"distance":2610,"station_id":"MRI","station_name":"Manggarai","i_lat":-6.209883,"i_long":106.84912},{"i_lat":-6.198556,"time":4,"line":0,"station_id":"CKI","transit":false,"distance":1590,"station_name":"Cikini","is_transit":false,"i_long":106.840169},{"station_name":"Gondangdia","time":3,"i_lat":-6.186295,"distance":1750,"transit":false,"station_id":"GDD","is_transit":false,"i_long":106.832183,"line":2},{"is_transit":false,"station_name":"Juanda","distance":2015,"i_lat":-6.166716,"i_long":106.828284,"line":2,"station_id":"JUA","transit":false,"time":4},{"line":2,"transit":false,"time":2,"i_lat":-6.160725,"station_name":"Sawah Besar","is_transit":false,"distance":1149,"station_id":"SW","i_long":106.827103},{"station_name":"Manggabesar","is_transit":false,"time":2,"distance":906,"station_id":"MGB","i_long":106.82482,"line":2,"i_lat":-6.149769,"transit":false},{"is_transit":false,"station_id":"JAY","station_name":"Jayakarta","time":2,"distance":1080,"transit":false,"i_lat":-6.141205,"i_long":106.820901,"line":7},{"i_lat":-6.137569,"i_long":106.812439,"line":0,"station_name":"Jakarta Kota","distance":1264,"time":4,"station_id":"JAKK","is_transit":true,"transit":true},{"i_lat":-6.132549,"is_transit":true,"time":3,"station_name":"Kampung Bandan","line":0,"distance":1364,"i_long":106.826365,"transit":false,"station_id":"KPB"},{"i_lat":-6.144674,"line":0,"time":9,"distance":4102,"station_id":"AK","transit":false,"is_transit":false,"i_long":106.79867,"station_name":"Angke"},{"station_id":"DU","station_name":"Duri","i_long":106.800832,"transit":true,"i_lat":-6.155215,"time":4,"distance":1230,"is_transit":true,"line":1},{"is_transit":true,"time":8,"distance":3632,"transit":true,"i_long":106.811091,"line":1,"i_lat":-6.185545,"station_id":"THB","station_name":"Tanah Abang"},{"transit":false,"distance":3191,"line":6,"i_lat":-6.207404,"station_id":"PLM","station_name":"Palmerah","i_long":106.79689,"is_transit":false,"time":6},{"time":7,"station_id":"KBY","distance":3737,"transit":false,"i_lat":-6.237242,"station_name":"Kebayoran","i_long":106.780334,"line":6,"is_transit":false},{"time":8,"transit":false,"line":6,"station_id":"PDJ","station_name":"Pondokranji","distance":6218,"i_lat":-6.276362,"i_long":106.74273,"is_transit":false},{"station_name":"Jurangmangu","i_lat":-6.288927,"is_transit":false,"distance":2179,"transit":false,"station_id":"JMU","time":3,"i_long":106.728916,"line":6},{"i_lat":-6.296963,"i_long":106.712277,"transit":false,"time":4,"station_id":"SDM","station_name":"Sudimara","distance":1994,"line":6,"is_transit":false},{"line":6,"time":6,"i_long":106.675475,"is_transit":false,"transit":false,"i_lat":-6.314823,"distance":4566,"station_id":"RU","station_name":"Rawa Buntu"},{"transit":false,"station_id":"SRP","station_name":"Serpong","distance":2413,"i_lat":-6.319871,"is_transit":false,"line":6,"time":4,"i_long":106.66566},{"i_long":106.640411,"is_transit":false,"time":4,"transit":false,"station_name":"Cisauk","station_id":"CSK","i_lat":-6.32484,"distance":1784,"line":0},{"distance":2519,"station_name":"Cicayur","line":0,"transit":false,"i_lat":-6.329547,"i_long":106.617853,"time":4,"is_transit":false,"station_id":"CC"},{"station_id":"PRP","time":8,"transit":false,"i_lat":-6.3441410000000005,"i_long":106.568863,"line":6,"station_name":"Parung Panjang","is_transit":false,"distance":5968},{"i_long":106.508482,"station_name":"Cilejit","distance":7025,"line":0,"i_lat":-6.354349,"time":9,"is_transit":false,"transit":false,"station_id":"CJT"},{"i_lat":-6.338021,"i_long":106.491338,"station_id":"DAR","line":0,"time":6,"is_transit":false,"station_name":"Daru","transit":false,"distance":2675},{"i_long":106.460812,"transit":false,"distance":3902,"line":6,"time":5,"is_transit":false,"i_lat":-6.327251,"station_id":"TEJ","station_name":"Tenjo"},{"time":5,"transit":false,"station_id":"TGS","i_lat":-6.328533,"i_long":106.425991,"is_transit":false,"distance":2974,"line":6,"station_name":"Tigaraksa"},{"station_id":"CKY","station_name":"Cikoya","time":3,"i_lat":-6.33561,"i_long":106.411216,"is_transit":false,"transit":false,"distance":2651,"line":0},{"time":4,"station_name":"Maja","i_lat":-6.332307,"line":6,"station_id":"MJ","transit":false,"is_transit":false,"distance":1853,"i_long":106.394373}],[{"is_transit":false,"station_name":"Lenteng Agung","line":2,"i_lat":-6.330363,"station_id":"LNA","distance":0,"time":0,"transit":false,"i_long":106.832616},{"transit":false,"time":3,"i_lat":-6.3080680000000005,"line":2,"i_long":106.838896,"distance":2671,"station_id":"TNT","station_name":"Tanjung Barat","is_transit":false},{"is_transit":false,"distance":2820,"i_long":106.843999,"station_name":"Pasar Minggu","transit":false,"time":4,"i_lat":-6.2842400000000005,"line":2,"station_id":"PSM"},{"is_transit":false,"i_long":106.851577,"time":2,"station_id":"PSMB","line":2,"i_lat":-6.263214,"distance":2380,"station_name":"Pasar Minggu Baru","transit":false},{"time":2,"transit":false,"station_name":"Duren Kalibata","station_id":"DRN","i_long":106.85449,"is_transit":false,"distance":824,"i_lat":-6.255332,"line":0},{"station_id":"CW","distance":1546,"station_name":"Cawang","is_transit":false,"transit":false,"i_lat":-6.242512,"line":0,"time":3,"i_long":106.856607},{"time":2,"line":2,"distance":1230,"station_id":"TEB","transit":false,"i_lat":-6.226659,"i_long":106.857948,"station_name":"Tebet","is_transit":false},{"time":4,"distance":2610,"i_lat":-6.209883,"line":0,"station_id":"MRI","station_name":"Manggarai","i_long":106.84912,"transit":true,"is_transit":true},{"i_long":106.858896,"line":1,"transit":false,"is_transit":false,"time":2,"station_id":"MTR","station_name":"Matraman","i_lat":-6.212485,"distance":1275},{"station_name":"Jatinegara","station_id":"JNG","i_lat":-6.215091,"is_transit":true,"time":8,"distance":1377,"transit":true,"i_long":106.86807400000001,"line":0},{"transit":false,"station_name":"Pondok Jati","time":2,"i_long":106.861737,"line":11,"distance":1236,"station_id":"POK","i_lat":-6.209188,"is_transit":false},{"station_name":"Kramat","i_lat":-6.193792,"is_transit":false,"time":2,"distance":1829,"transit":false,"station_id":"KMT","i_long":106.855437,"line":11},{"station_id":"GST","time":1,"i_lat":-6.185975,"i_long":106.850107,"is_transit":false,"distance":973,"transit":false,"line":11,"station_name":"Gang Sentiong"},{"i_lat":-6.174784,"time":8,"station_name":"Pasar Senen","is_transit":false,"i_long":106.84368,"line":11,"station_id":"PSE","distance":1567,"transit":false},{"transit":false,"i_lat":-6.161728,"is_transit":false,"i_long":106.839204,"line":11,"station_id":"KMO","time":4,"distance":1436,"station_name":"Kemayoran"},{"station_id":"RJW","is_transit":false,"i_long":106.836569,"distance":1901,"line":11,"transit":false,"i_lat":-6.14505,"time":5,"station_name":"Rajawali"},{"station_name":"Kampung Bandan","transit":true,"i_long":106.826365,"line":0,"station_id":"KPB","time":3,"i_lat":-6.132549,"is_transit":true,"distance":1444},{"station_name":"Angke","is_transit":false,"line":0,"i_long":106.79867,"transit":false,"distance":4102,"i_lat":-6.144674,"station_id":"AK","time":9},{"i_lat":-6.155215,"time":4,"i_long":106.800832,"line":1,"station_id":"DU","distance":1230,"station_name":"Duri","is_transit":true,"transit":true},{"station_name":"Tanah Abang","i_lat":-6.185545,"time":8,"transit":true,"station_id":"THB","is_transit":true,"distance":3632,"i_long":106.811091,"line":1},{"distance":3191,"transit":false,"line":6,"station_name":"Palmerah","station_id":"PLM","is_transit":false,"i_lat":-6.207404,"i_long":106.79689,"time":6},{"line":6,"station_name":"Kebayoran","station_id":"KBY","time":7,"transit":false,"i_long":106.780334,"is_transit":false,"i_lat":-6.237242,"distance":3737},{"i_long":106.74273,"time":8,"is_transit":false,"distance":6218,"station_name":"Pondokranji","transit":false,"i_lat":-6.276362,"line":6,"station_id":"PDJ"},{"is_transit":false,"distance":2179,"transit":false,"i_long":106.728916,"station_name":"Jurangmangu","time":3,"line":6,"i_lat":-6.288927,"station_id":"JMU"},{"station_id":"SDM","distance":1994,"transit":false,"station_name":"Sudimara","line":6,"time":4,"i_long":106.712277,"is_transit":false,"i_lat":-6.296963},{"transit":false,"station_name":"Rawa Buntu","i_lat":-6.314823,"distance":4566,"station_id":"RU","is_transit":false,"i_long":106.675475,"line":6,"time":6},{"is_transit":false,"i_long":106.66566,"line":6,"time":4,"station_name":"Serpong","i_lat":-6.319871,"transit":false,"station_id":"SRP","distance":2413},{"distance":1784,"station_id":"CSK","is_transit":false,"transit":false,"time":4,"i_lat":-6.32484,"i_long":106.640411,"line":0,"station_name":"Cisauk"},{"i_lat":-6.329547,"time":4,"transit":false,"i_long":106.617853,"station_name":"Cicayur","is_transit":false,"distance":2519,"station_id":"CC","line":0},{"distance":5968,"time":8,"transit":false,"i_lat":-6.3441410000000005,"i_long":106.568863,"station_name":"Parung Panjang","line":6,"is_transit":false,"station_id":"PRP"},{"time":9,"station_id":"CJT","is_transit":false,"station_name":"Cilejit","transit":false,"distance":7025,"i_lat":-6.354349,"i_long":106.508482,"line":0},{"is_transit":false,"line":0,"transit":false,"station_id":"DAR","i_long":106.491338,"station_name":"Daru","i_lat":-6.338021,"time":6,"distance":2675},{"time":5,"transit":false,"i_lat":-6.327251,"station_name":"Tenjo","distance":3902,"is_transit":false,"i_long":106.460812,"line":6,"station_id":"TEJ"},{"time":5,"i_long":106.425991,"distance":2974,"transit":false,"line":6,"i_lat":-6.328533,"station_id":"TGS","is_transit":false,"station_name":"Tigaraksa"},{"is_transit":false,"distance":2651,"transit":false,"i_long":106.411216,"time":3,"line":0,"i_lat":-6.33561,"station_name":"Cikoya","station_id":"CKY"},{"transit":false,"distance":1853,"time":4,"i_long":106.394373,"station_name":"Maja","line":6,"station_id":"MJ","i_lat":-6.332307,"is_transit":false}]]}