{"data":[[{"distance":0,"i_lat":-6.330363,"time":0,"station_id":"LNA","transit":false,"i_long":106.832616,"line":2,"station_name":"Lenteng Agung","is_transit":false},{"line":2,"station_id":"TNT","transit":false,"time":3,"is_transit":false,"station_name":"Tanjung Barat","distance":2671,"i_long":106.838896,"i_lat":-6.3080680000000005},{"station_id":"PSM","time":4,"is_transit":false,"i_lat":-6.2842400000000005,"line":2,"station_name":"Pasar Minggu","i_long":106.843999,"distance":2820,"transit":false},{"station_id":"PSMB","time":2,"distance":2380,"i_lat":-6.263214,"line":2,"transit":false,"is_transit":false,"station_name":"Pasar Minggu Baru","i_long":106.851577},{"i_lat":-6.255332,"line":2,"time":2,"is_transit":false,"distance":824,"transit":false,"station_name":"Duren Kalibata","i_long":106.85449,"station_id":"DRN"},{"time":3,"transit":false,"i_long":106.856607,"i_lat":-6.242512,"line":2,"station_name":"Cawang","distance":1546,"station_id":"CW","is_transit":false},{"i_long":106.857948,"i_lat":-6.226659,"time":2,"is_transit":false,"transit":false,"station_name":"Tebet","station_id":"TEB","distance":1230,"line":2},{"i_long":106.84912,"i_lat":-6.209883,"line":2,"transit":true,"station_name":"Manggarai","station_id":"MRI","time":4,"distance":2610,"is_transit":true},{"i_lat":-6.202263,"transit":false,"distance":3186,"line":1,"is_transit":false,"i_long":106.822649,"station_id":"SUD","time":4,"station_name":"Sudirman"},{"time":1,"is_transit":false,"i_lat":-6.201433,"station_name":"Sudirman Baru","line":1,"transit":false,"distance":280,"i_long":106.819881,"station_id":"SUDB"},{"is_transit":false,"i_long":106.816351,"station_id":"KAT","i_lat":-6.20132,"time":1,"station_name":"Karet","transit":false,"line":1,"distance":471},{"distance":2029,"transit":false,"station_id":"THB","i_lat":-6.185545,"time":5,"is_transit":false,"line":1,"i_long":106.811091,"station_name":"Tanah Abang"},{"time":8,"station_id":"DU","distance":3632,"is_transit":true,"i_long":106.800832,"transit":true,"line":1,"station_name":"Duri","i_lat":-6.155215},{"station_id":"GGL","time":3,"is_transit":false,"i_long":106.788277,"line":5,"distance":1700,"i_lat":-6.162021,"station_name":"Grogol","transit":false},{"is_transit":false,"transit":false,"i_lat":-6.161433,"station_name":"Pesing","time":2,"i_long":106.771379,"station_id":"PSG","line":5,"distance":2036},{"time":2,"station_name":"Taman Kota","i_lat":-6.1587309999999995,"is_transit":false,"line":5,"station_id":"TKO","i_long":106.756522,"distance":1614,"transit":false},{"is_transit":false,"transit":false,"i_long":106.737035,"line":5,"distance":2334,"time":2,"station_name":"Bojongindah","i_lat":-6.159876,"station_id":"BOI"},{"i_long":106.723064,"transit":false,"time":4,"line":5,"station_name":"Rawa Buaya","station_id":"RW","i_lat":-6.162758,"distance":1152,"is_transit":false},{"distance":2504,"i_lat":-6.166068,"transit":false,"time":3,"line":5,"is_transit":false,"station_id":"KDS","station_name":"Kalideres","i_long":106.701612},{"time":3,"i_long":106.679458,"line":5,"station_name":"Poris","transit":false,"station_id":"PI","distance":2548,"is_transit":false,"i_lat":-6.169933},{"station_id":"BPR","i_long":106.665036,"i_lat":-6.171811,"time":3,"distance":1834,"station_name":"Batuceper","transit":false,"is_transit":false,"line":5},{"i_long":106.64657,"station_id":"TTI","is_transit":false,"line":5,"station_name":"Tanah Tinggi","transit":false,"time":3,"i_lat":-6.17331,"distance":2028},{"time":3,"i_lat":-6.176583,"i_long":106.632761,"distance":1547,"line":5,"station_id":"TNG","station_name":"Tangerang","is_transit":false,"transit":false}],[{"station_name":"Lenteng Agung","i_lat":-6.330363,"i_long":106.832616,"line":2,"station_id":"LNA","transit":false,"is_transit":false,"distance":0,"time":0},{"station_id":"TNT","time":3,"transit":false,"i_long":106.838896,"station_name":"Tanjung Barat","i_lat":-6.3080680000000005,"is_transit":false,"distance":2671,"line":2},{"is_transit":false,"i_long":106.843999,"i_lat":-6.2842400000000005,"station_id":"PSM","time":4,"distance":2820,"transit":false,"line":2,"station_name":"Pasar Minggu"},{"transit":false,"i_lat":-6.263214,"i_long":106.851577,"station_name":"Pasar Minggu Baru","line":2,"distance":2380,"is_transit":false,"time":2,"station_id":"PSMB"},{"station_name":"Duren Kalibata","i_long":106.85449,"line":2,"station_id":"DRN","is_transit":false,"time":2,"i_lat":-6.255332,"distance":824,"transit":false},{"station_name":"Cawang","station_id":"CW","i_long":106.856607,"distance":1546,"is_transit":false,"time":3,"line":2,"transit":false,"i_lat":-6.242512},{"distance":1230,"transit":false,"is_transit":false,"i_long":106.857948,"station_name":"Tebet","time":2,"i_lat":-6.226659,"line":2,"station_id":"TEB"},{"line":2,"is_transit":false,"time":4,"i_long":106.84912,"station_name":"Manggarai","transit":false,"i_lat":-6.209883,"station_id":"MRI","distance":2610},{"time":4,"line":2,"transit":false,"is_transit":false,"i_lat":-6.198556,"station_name":"Cikini","distance":1590,"i_long":106.840169,"station_id":"CKI"},{"time":3,"station_id":"GDD","distance":1750,"line":2,"is_transit":false,"i_long":106.832183,"station_name":"Gondangdia","transit":false,"i_lat":-6.186295},{"transit":false,"i_lat":-6.166716,"i_long":106.828284,"station_name":"Juanda","is_transit":false,"station_id":"JUA","line":2,"time":4,"distance":2015},{"distance":1149,"time":2,"i_lat":-6.160725,"is_transit":false,"station_id":"SW","transit":false,"line":2,"station_name":"Sawah Besar","i_long":106.827103},{"station_id":"MGB","time":2,"i_long":106.82482,"distance":906,"is_transit":false,"line":2,"i_lat":-6.149769,"transit":false,"station_name":"Manggabesar"},{"station_id":"JAY","line":2,"station_name":"Jayakarta","transit":false,"i_long":106.820901,"is_transit":false,"i_lat":-6.141205,"time":2,"distance":1080},{"transit":true,"station_id":"JAKK","time":4,"i_lat":-6.137569,"distance":1264,"station_name":"Jakarta Kota","is_transit":true,"line":2,"i_long":106.812439},{"i_lat":-6.132549,"distance":1364,"i_long":106.826365,"transit":true,"line":4,"is_transit":true,"station_id":"KPB","time":3,"station_name":"Kampung Bandan"},{"distance":4102,"station_name":"Angke","time":9,"is_transit":false,"line":1,"station_id":"AK","transit":false,"i_lat":-6.144674,"i_long":106.79867},{"time":4,"i_lat":-6.155215,"i_long":106.800832,"station_id":"DU","distance":1230,"is_transit":true,"station_name":"Duri","transit":true,"line":1},{"station_id":"GGL","i_lat":-6.162021,"distance":1700,"is_transit":false,"line":5,"station_name":"Grogol","time":3,"transit":false,"i_long":106.788277},{"time":2,"transit":false,"is_transit":false,"distance":2036,"i_long":106.771379,"i_lat":-6.161433,"station_name":"Pesing","line":5,"station_id":"PSG"},{"station_name":"Taman Kota","station_id":"TKO","distance":1614,"transit":false,"is_transit":false,"time":2,"i_long":106.756522,"i_lat":-6.1587309999999995,"line":5},{"is_transit":false,"station_id":"BOI","time":2,"transit":false,"line":5,"distance":2334,"station_name":"Bojongindah","i_lat":-6.159876,"i_long":106.737035},{"is_transit":false,"transit":false,"i_long":106.723064,"time":4,"distance":1152,"station_name":"Rawa Buaya","i_lat":-6.162758,"line":5,"station_id":"RW"},{"i_long":106.701612,"line":5,"i_lat":-6.166068,"station_name":"Kalideres","time":3,"transit":false,"is_transit":false,"distance":2504,"station_id":"KDS"},{"station_id":"PI","distance":2548,"station_name":"Poris","transit":false,"time":3,"i_long":106.679458,"is_transit":false,"line":5,"i_lat":-6.169933},{"i_lat":-6.171811,"distance":1834,"time":3,"i_long":106.665036,"station_name":"Batuceper","transit":false,"station_id":"BPR","line":5,"is_transit":false},{"station_id":"TTI","time":3,"is_transit":false,"line":5,"transit":false,"distance":2028,"i_lat":-6.17331,"i_long":106.64657,"station_name":"Tanah Tinggi"},{"transit":false,"distance":1547,"station_name":"Tangerang","is_transit":false,"line":5,"i_lat":-6.176583,"i_long":106.632761,"station_id":"TNG","time":3}],[{"station_id":"LNA","time":0,"is_transit":false,"i_lat":-6.330363,"transit":false,"line":2,"i_long":106.832616,"station_name":"Lenteng Agung","distance":0},{"i_long":106.838896,"transit":false,"line":2,"station_name":"Tanjung Barat","distance":2671,"is_transit":false,"station_id":"TNT","time":3,"i_lat":-6.3080680000000005},{"i_lat":-6.2842400000000005,"transit":false,"time":4,"line":2,"station_id":"PSM","station_name":"Pasar Minggu","is_transit":false,"i_long":106.843999,"distance":2820},{"i_lat":-6.263214,"distance":2380,"is_transit":false,"transit":false,"line":2,"station_name":"Pasar Minggu Baru","station_id":"PSMB","time":2,"i_long":106.851577},{"i_lat":-6.255332,"i_long":106.85449,"line":2,"time":2,"is_transit":false,"transit":false,"station_name":"Duren Kalibata","station_id":"DRN","distance":824},{"is_transit":false,"line":2,"time":3,"station_name":"Cawang","i_lat":-6.242512,"distance":1546,"i_long":106.856607,"transit":false,"station_id":"CW"},{"distance":1230,"station_name":"Tebet","i_lat":-6.226659,"line":2,"is_transit":false,"station_id":"TEB","time":2,"transit":false,"i_long":106.857948},{"transit":true,"i_long":106.84912,"time":4,"station_name":"Manggarai","station_id":"MRI","i_lat":-6.209883,"line":2,"is_transit":true,"distance":2610},{"station_id":"MTR","station_name":"Matraman","time":2,"is_transit":false,"line":1,"transit":false,"i_lat":-6.212485,"i_long":106.858896,"distance":1275},{"distance":1377,"is_transit":true,"station_id":"JNG","i_lat":-6.215091,"station_name":"Jatinegara","i_long":106.86807400000001,"line":1,"transit":true,"time":8},{"station_name":"Pondok Jati","i_long":106.861737,"line":11,"time":2,"distance":1236,"i_lat":-6.209188,"is_transit":false,"station_id":"POK","transit":false},{"time":2,"station_id":"KMT","station_name":"Kramat","i_long":106.855437,"line":11,"transit":false,"is_transit":false,"i_lat":-6.193792,"distance":1829},{"is_transit":false,"station_name":"Gang Sentiong","i_long":106.850107,"time":1,"i_lat":-6.185975,"line":11,"station_id":"GST","transit":false,"distance":973},{"distance":1567,"transit":false,"i_lat":-6.174784,"station_id":"PSE","station_name":"Pasar Senen","is_transit":false,"time":8,"line":11,"i_long":106.84368},{"station_name":"Kemayoran","line":11,"distance":1436,"transit":false,"station_id":"KMO","is_transit":false,"i_lat":-6.161728,"time":4,"i_long":106.839204},{"i_long":106.836569,"station_id":"RJW","line":11,"station_name":"Rajawali","transit":false,"is_transit":false,"distance":1901,"time":5,"i_lat":-6.14505},{"station_name":"Kampung Bandan","transit":true,"line":4,"station_id":"KPB","is_transit":true,"time":3,"distance":1444,"i_lat":-6.132549,"i_long":106.826365},{"i_lat":-6.144674,"station_name":"Angke","station_id":"AK","time":9,"transit":false,"i_long":106.79867,"line":1,"distance":4102,"is_transit":false},{"time":4,"station_name":"Duri","distance":1230,"is_transit":true,"station_id":"DU","line":1,"i_lat":-6.155215,"i_long":106.800832,"transit":true},{"distance":1700,"is_transit":false,"station_name":"Grogol","transit":false,"line":5,"i_long":106.788277,"i_lat":-6.162021,"station_id":"GGL","time":3},{"time":2,"i_lat":-6.161433,"transit":false,"i_long":106.771379,"station_name":"Pesing","station_id":"PSG","line":5,"distance":2036,"is_transit":false},{"station_name":"Taman Kota","is_transit":false,"i_long":106.756522,"i_lat":-6.1587309999999995,"line":5,"station_id":"TKO","time":2,"distance":1614,"transit":false},{"is_transit":false,"distance":2334,"i_lat":-6.159876,"station_name":"Bojongindah","time":2,"station_id":"BOI","i_long":106.737035,"transit":false,"line":5},{"distance":1152,"i_lat":-6.162758,"is_transit":false,"station_id":"RW","transit":false,"line":5,"i_long":106.723064,"station_name":"Rawa Buaya","time":4},{"station_name":"Kalideres","is_transit":false,"line":5,"station_id":"KDS","i_long":106.701612,"time":3,"i_lat":-6.166068,"distance":2504,"transit":false},{"i_lat":-6.169933,"distance":2548,"i_long":106.679458,"is_transit":false,"station_name":"Poris","station_id":"PI","line":5,"time":3,"transit":false},{"station_id":"BPR","transit":false,"i_lat":-6.171811,"time":3,"distance":1834,"is_transit":false,"line":5,"i_long":106.665036,"station_name":"Batuceper"},{"transit":false,"station_id":"TTI","i_long":106.64657,"time":3,"distance":2028,"is_transit":false,"i_lat":-6.17331,"line":5,"station_name":"Tanah Tinggi"},{"line":5,"transit":false,"distance":1547,"station_name":"Tangerang","time":3,"i_long":106.632761,"is_transit":false,"i_lat":-6.176583,"station_id":"TNG"}]]}