{"data":[[{"i_long":106.832616,"station_name":"Lenteng Agung","line":2,"station_id":"LNA","time":0,"i_lat":-6.330363,"distance":0,"is_transit":false,"transit":false},{"line":2,"distance":2671,"station_name":"Tanjung Barat","time":3,"i_lat":-6.3080680000000005,"transit":false,"station_id":"TNT","is_transit":false,"i_long":106.838896},{"station_id":"PSM","i_lat":-6.2842400000000005,"station_name":"Pasar Minggu","i_long":106.843999,"is_transit":false,"distance":2820,"line":2,"transit":false,"time":4},{"station_id":"PSMB","distance":2380,"transit":false,"i_lat":-6.263214,"station_name":"Pasar Minggu Baru","time":2,"i_long":106.851577,"line":2,"is_transit":false},{"transit":false,"i_lat":-6.255332,"station_id":"DRN","i_long":106.85449,"line":0,"distance":824,"station_name":"Duren Kalibata","is_transit":false,"time":2},{"i_lat":-6.242512,"station_id":"CW","time":3,"is_transit":false,"station_name":"Cawang","transit":false,"i_long":106.856607,"line":0,"distance":1546},{"is_transit":false,"distance":1230,"i_lat":-6.226659,"line":2,"transit":false,"time":2,"station_id":"TEB","i_long":106.857948,"station_name":"Tebet"},{"line":0,"is_transit":true,"time":4,"i_long":106.84912,"transit":true,"station_name":"Manggarai","distance":2610,"i_lat":-6.209883,"station_id":"MRI"},{"transit":false,"i_long":106.840169,"line":0,"distance":1590,"station_name":"Cikini","station_id":"CKI","is_transit":false,"time":4,"i_lat":-6.198556},{"time":3,"line":2,"station_id":"GDD","i_lat":-6.186295,"i_long":106.832183,"is_transit":false,"station_name":"Gondangdia","distance":1750,"transit":false},{"station_name":"Juanda","station_id":"JUA","is_transit":false,"transit":false,"distance":2015,"time":4,"i_lat":-6.166716,"line":2,"i_long":106.828284},{"i_long":106.827103,"line":2,"station_id":"SW","station_name":"Sawah Besar","is_transit":false,"distance":1149,"time":2,"transit":false,"i_lat":-6.160725},{"is_transit":false,"station_id":"MGB","i_lat":-6.149769,"i_long":106.82482,"transit":false,"station_name":"Manggabesar","time":2,"distance":906,"line":2},{"transit":false,"station_id":"JAY","station_name":"Jayakarta","is_transit":false,"time":2,"i_long":106.820901,"line":7,"i_lat":-6.141205,"distance":1080},{"is_transit":true,"distance":1264,"transit":false,"station_name":"Jakarta Kota","time":4,"i_long":106.812439,"line":0,"station_id":"JAKK","i_lat":-6.137569}],[{"station_id":"LNA","station_name":"Lenteng Agung","i_long":106.832616,"transit":false,"is_transit":false,"i_lat":-6.330363,"time":0,"distance":0,"line":2},{"station_name":"Tanjung Barat","line":2,"is_transit":false,"distance":2671,"station_id":"TNT","time":3,"transit":false,"i_lat":-6.3080680000000005,"i_long":106.838896},{"station_name":"Pasar Minggu","i_long":106.843999,"distance":2820,"time":4,"line":2,"station_id":"PSM","transit":false,"is_transit":false,"i_lat":-6.2842400000000005},{"line":2,"i_long":106.851577,"station_id":"PSMB","station_name":"Pasar Minggu Baru","is_transit":false,"transit":false,"time":2,"i_lat":-6.263214,"distance":2380},{"station_name":"Duren Kalibata","i_long":106.85449,"line":0,"station_id":"DRN","i_lat":-6.255332,"is_transit":false,"time":2,"distance":824,"transit":false},{"line":0,"is_transit":false,"distance":1546,"station_id":"CW","i_long":106.856607,"time":3,"station_name":"Cawang","transit":false,"i_lat":-6.242512},{"time":2,"distance":1230,"transit":false,"i_long":106.857948,"line":2,"i_lat":-6.226659,"station_name":"Tebet","station_id":"TEB","is_transit":false},{"i_long":106.84912,"distance":2610,"is_transit":true,"time":4,"station_id":"MRI","line":0,"transit":true,"station_name":"Manggarai","i_lat":-6.209883},{"i_long":106.822649,"station_name":"Sudirman","is_transit":false,"distance":3186,"line":1,"station_id":"SUD","time":4,"transit":false,"i_lat":-6.202263},{"is_transit":false,"time":1,"station_id":"SUDB","station_name":"Sudirman Baru","distance":280,"i_lat":-6.201433,"i_long":106.819881,"transit":false,"line":1},{"transit":false,"station_name":"Karet","is_transit":false,"time":1,"i_lat":-6.20132,"i_long":106.816351,"line":1,"station_id":"KAT","distance":471},{"station_id":"THB","i_lat":-6.185545,"station_name":"Tanah Abang","transit":false,"distance":2029,"time":5,"is_transit":true,"i_long":106.811091,"line":1},{"distance":3632,"time":8,"line":1,"station_id":"DU","is_transit":true,"transit":true,"i_lat":-6.155215,"station_name":"Duri","i_long":106.800832},{"time":4,"station_id":"AK","station_name":"Angke","is_transit":false,"distance":1230,"transit":false,"i_lat":-6.144674,"i_long":106.79867,"line":0},{"station_id":"KPB","station_name":"Kampung Bandan","line":0,"i_long":106.826365,"is_transit":true,"distance":4102,"time":9,"i_lat":-6.132549,"transit":false},{"time":3,"transit":false,"station_id":"JAKK","i_lat":-6.137569,"distance":1364,"i_long":106.812439,"station_name":"Jakarta Kota","line":0,"is_transit":true}],[{"station_name":"Lenteng Agung","time":0,"distance":0,"is_transit":false,"i_long":106.832616,"i_lat":-6.330363,"station_id":"LNA","transit":false,"line":2},{"station_id":"TNT","i_lat":-6.3080680000000005,"line":2,"distance":2671,"transit":false,"station_name":"Tanjung Barat","is_transit":false,"time":3,"i_long":106.838896},{"station_name":"Pasar Minggu","distance":2820,"time":4,"i_long":106.843999,"line":2,"station_id":"PSM","is_transit":false,"transit":false,"i_lat":-6.2842400000000005},{"transit":false,"distance":2380,"line":2,"i_lat":-6.263214,"i_long":106.851577,"time":2,"station_id":"PSMB","is_transit":false,"station_name":"Pasar Minggu Baru"},{"transit":false,"i_lat":-6.255332,"is_transit":false,"time":2,"distance":824,"station_id":"DRN","i_long":106.85449,"line":0,"station_name":"Duren Kalibata"},{"distance":1546,"station_id":"CW","station_name":"Cawang","transit":false,"i_lat":-6.242512,"i_long":106.856607,"time":3,"is_transit":false,"line":0},{"line":2,"station_name":"Tebet","station_id":"TEB","is_transit":false,"time":2,"i_long":106.857948,"i_lat":-6.226659,"distance":1230,"transit":false},{"station_name":"Manggarai","distance":2610,"line":0,"transit":true,"i_long":106.84912,"is_transit":true,"station_id":"MRI","time":4,"i_lat":-6.209883},{"station_name":"Matraman","line":1,"station_id":"MTR","i_long":106.858896,"transit":false,"is_transit":false,"i_lat":-6.212485,"distance":1275,"time":2},{"station_id":"JNG","transit":true,"time":8,"distance":1377,"line":0,"i_lat":-6.215091,"i_long":106.86807400000001,"station_name":"Jatinegara","is_transit":true},{"is_transit":false,"i_long":106.861737,"time":2,"station_name":"Pondok Jati","transit":false,"line":11,"station_id":"POK","distance":1236,"i_lat":-6.209188},{"i_lat":-6.193792,"distance":1829,"station_id":"KMT","transit":false,"i_long":106.855437,"time":2,"line":11,"is_transit":false,"station_name":"Kramat"},{"is_transit":false,"time":1,"station_id":"GST","line":11,"station_name":"Gang Sentiong","transit":false,"i_lat":-6.185975,"distance":973,"i_long":106.850107},{"i_lat":-6.174784,"line":11,"i_long":106.84368,"distance":1567,"station_name":"Pasar Senen","station_id":"PSE","transit":false,"time":8,"is_transit":false},{"distance":1436,"i_lat":-6.161728,"line":11,"station_name":"Kemayoran","i_long":106.839204,"transit":false,"time":4,"station_id":"KMO","is_transit":false},{"line":11,"time":5,"transit":false,"station_name":"Rajawali","i_long":106.836569,"station_id":"RJW","is_transit":false,"distance":1901,"i_lat":-6.14505},{"is_transit":true,"distance":1444,"i_lat":-6.132549,"i_long":106.826365,"line":0,"time":3,"station_id":"KPB","station_name":"Kampung Bandan","transit":true},{"station_id":"JAKK","line":0,"is_transit":true,"time":3,"i_long":106.812439,"transit":false,"i_lat":-6.137569,"station_name":"Jakarta Kota","distance":1364}]]}