{"data":[[{"i_long":106.832616,"line":2,"time":0,"is_transit":false,"distance":0,"station_name":"Lenteng Agung","transit":false,"i_lat":-6.330363,"station_id":"LNA"},{"transit":false,"line":2,"distance":2671,"i_lat":-6.3080680000000005,"i_long":106.838896,"station_id":"TNT","is_transit":false,"time":3,"station_name":"Tanjung Barat"},{"i_long":106.843999,"distance":2820,"station_name":"Pasar Minggu","i_lat":-6.2842400000000005,"is_transit":false,"time":4,"station_id":"PSM","transit":false,"line":2},{"station_name":"Pasar Minggu Baru","transit":false,"time":2,"i_lat":-6.263214,"is_transit":false,"line":2,"station_id":"PSMB","i_long":106.851577,"distance":2380},{"time":2,"station_id":"DRN","i_lat":-6.255332,"i_long":106.85449,"distance":824,"transit":false,"station_name":"Duren Kalibata","line":2,"is_transit":false},{"is_transit":false,"station_id":"CW","i_long":106.856607,"transit":false,"time":3,"i_lat":-6.242512,"line":2,"distance":1546,"station_name":"Cawang"},{"station_name":"Tebet","transit":false,"station_id":"TEB","is_transit":false,"distance":1230,"i_lat":-6.226659,"time":2,"i_long":106.857948,"line":2},{"station_name":"Manggarai","is_transit":true,"station_id":"MRI","i_lat":-6.209883,"i_long":106.84912,"time":4,"distance":2610,"transit":true,"line":2},{"i_long":106.822649,"station_id":"SUD","line":1,"transit":false,"time":4,"is_transit":false,"distance":3186,"station_name":"Sudirman","i_lat":-6.202263},{"transit":false,"time":1,"i_long":106.819881,"is_transit":false,"station_id":"SUDB","line":1,"distance":280,"i_lat":-6.201433,"station_name":"Sudirman Baru"},{"is_transit":false,"distance":471,"i_lat":-6.20132,"transit":false,"station_id":"KAT","time":1,"i_long":106.816351,"line":1,"station_name":"Karet"},{"is_transit":false,"station_name":"Tanah Abang","station_id":"THB","time":5,"line":1,"distance":2029,"i_long":106.811091,"i_lat":-6.185545,"transit":false}],[{"station_id":"LNA","i_long":106.832616,"distance":0,"time":0,"i_lat":-6.330363,"transit":false,"station_name":"Lenteng Agung","is_transit":false,"line":2},{"station_id":"TNT","time":3,"distance":2671,"transit":false,"i_lat":-6.3080680000000005,"i_long":106.838896,"is_transit":false,"station_name":"Tanjung Barat","line":2},{"station_id":"PSM","transit":false,"time":4,"line":2,"station_name":"Pasar Minggu","is_transit":false,"i_lat":-6.2842400000000005,"distance":2820,"i_long":106.843999},{"time":2,"station_id":"PSMB","distance":2380,"station_name":"Pasar Minggu Baru","line":2,"transit":false,"is_transit":false,"i_lat":-6.263214,"i_long":106.851577},{"time":2,"line":2,"i_lat":-6.255332,"station_name":"Duren Kalibata","is_transit":false,"transit":false,"station_id":"DRN","distance":824,"i_long":106.85449},{"station_name":"Cawang","i_lat":-6.242512,"time":3,"station_id":"CW","line":2,"distance":1546,"transit":false,"is_transit":false,"i_long":106.856607},{"line":2,"transit":false,"distance":1230,"i_lat":-6.226659,"station_name":"Tebet","station_id":"TEB","time":2,"is_transit":false,"i_long":106.857948},{"station_id":"MRI","line":2,"time":4,"is_transit":false,"i_lat":-6.209883,"i_long":106.84912,"transit":false,"station_name":"Manggarai","distance":2610},{"station_id":"CKI","i_long":106.840169,"i_lat":-6.198556,"station_name":"Cikini","transit":false,"is_transit":false,"line":2,"time":4,"distance":1590},{"station_id":"GDD","distance":1750,"station_name":"Gondangdia","time":3,"transit":false,"i_long":106.832183,"is_transit":false,"i_lat":-6.186295,"line":2},{"station_name":"Juanda","line":2,"is_transit":false,"station_id":"JUA","time":4,"transit":false,"i_lat":-6.166716,"distance":2015,"i_long":106.828284},{"line":2,"transit":false,"distance":1149,"i_lat":-6.160725,"time":2,"i_long":106.827103,"station_name":"Sawah Besar","station_id":"SW","is_transit":false},{"station_id":"MGB","i_lat":-6.149769,"station_name":"Manggabesar","is_transit":false,"i_long":106.82482,"time":2,"transit":false,"distance":906,"line":2},{"station_name":"Jayakarta","i_long":106.820901,"time":2,"line":2,"transit":false,"distance":1080,"is_transit":false,"station_id":"JAY","i_lat":-6.141205},{"station_name":"Jakarta Kota","line":2,"distance":1264,"is_transit":true,"i_long":106.812439,"time":4,"i_lat":-6.137569,"transit":true,"station_id":"JAKK"},{"transit":true,"distance":1364,"station_id":"KPB","i_long":106.826365,"i_lat":-6.132549,"time":3,"is_transit":true,"station_name":"Kampung Bandan","line":4},{"is_transit":false,"transit":false,"distance":4102,"i_lat":-6.144674,"i_long":106.79867,"line":1,"time":9,"station_id":"AK","station_name":"Angke"},{"is_transit":false,"station_id":"DU","i_long":106.800832,"station_name":"Duri","transit":false,"line":1,"time":4,"i_lat":-6.155215,"distance":1230},{"i_lat":-6.185545,"line":1,"i_long":106.811091,"is_transit":false,"distance":3632,"transit":false,"station_name":"Tanah Abang","time":8,"station_id":"THB"}],[{"is_transit":false,"distance":0,"i_lat":-6.330363,"i_long":106.832616,"station_id":"LNA","line":2,"station_name":"Lenteng Agung","transit":false,"time":0},{"time":3,"transit":false,"station_id":"TNT","is_transit":false,"station_name":"Tanjung Barat","i_lat":-6.3080680000000005,"i_long":106.838896,"distance":2671,"line":2},{"station_name":"Pasar Minggu","line":2,"i_long":106.843999,"i_lat":-6.2842400000000005,"time":4,"transit":false,"station_id":"PSM","is_transit":false,"distance":2820},{"distance":2380,"transit":false,"i_long":106.851577,"time":2,"station_id":"PSMB","station_name":"Pasar Minggu Baru","is_transit":false,"line":2,"i_lat":-6.263214},{"distance":824,"line":2,"station_name":"Duren Kalibata","time":2,"station_id":"DRN","i_lat":-6.255332,"is_transit":false,"i_long":106.85449,"transit":false},{"distance":1546,"time":3,"station_id":"CW","i_long":106.856607,"i_lat":-6.242512,"line":2,"station_name":"Cawang","is_transit":false,"transit":false},{"station_id":"TEB","i_long":106.857948,"is_transit":false,"transit":false,"station_name":"Tebet","time":2,"distance":1230,"i_lat":-6.226659,"line":2},{"station_id":"MRI","distance":2610,"i_lat":-6.209883,"is_transit":true,"station_name":"Manggarai","transit":true,"line":2,"time":4,"i_long":106.84912},{"time":2,"station_name":"Matraman","i_lat":-6.212485,"station_id":"MTR","transit":false,"i_long":106.858896,"is_transit":false,"distance":1275,"line":1},{"station_name":"Jatinegara","is_transit":true,"distance":1377,"transit":true,"i_long":106.86807400000001,"line":1,"time":8,"station_id":"JNG","i_lat":-6.215091},{"station_name":"Pondok Jati","station_id":"POK","distance":1236,"transit":false,"i_long":106.861737,"line":11,"time":2,"i_lat":-6.209188,"is_transit":false},{"station_id":"KMT","time":2,"i_lat":-6.193792,"line":11,"is_transit":false,"transit":false,"distance":1829,"i_long":106.855437,"station_name":"Kramat"},{"line":11,"station_name":"Gang Sentiong","station_id":"GST","is_transit":false,"distance":973,"i_long":106.850107,"time":1,"transit":false,"i_lat":-6.185975},{"time":8,"distance":1567,"i_lat":-6.174784,"is_transit":false,"station_id":"PSE","line":11,"station_name":"Pasar Senen","transit":false,"i_long":106.84368},{"station_name":"Kemayoran","is_transit":false,"line":11,"i_lat":-6.161728,"i_long":106.839204,"time":4,"transit":false,"distance":1436,"station_id":"KMO"},{"station_id":"RJW","distance":1901,"station_name":"Rajawali","transit":false,"time":5,"line":11,"i_lat":-6.14505,"is_transit":false,"i_long":106.836569},{"transit":true,"station_name":"Kampung Bandan","time":3,"i_long":106.826365,"line":4,"distance":1444,"i_lat":-6.132549,"is_transit":true,"station_id":"KPB"},{"i_long":106.79867,"station_id":"AK","transit":false,"station_name":"Angke","i_lat":-6.144674,"distance":4102,"time":9,"line":1,"is_transit":false},{"is_transit":false,"i_long":106.800832,"station_id":"DU","time":4,"distance":1230,"station_name":"Duri","transit":false,"line":1,"i_lat":-6.155215},{"station_id":"THB","station_name":"Tanah Abang","time":8,"is_transit":false,"i_lat":-6.185545,"line":1,"transit":false,"i_long":106.811091,"distance":3632}]]}