{"data":[[{"distance":0,"i_long":106.832616,"line":2,"station_id":"LNA","time":0,"i_lat":-6.330363,"station_name":"Lenteng Agung","is_transit":false,"transit":false},{"is_transit":false,"i_lat":-6.3080680000000005,"time":3,"i_long":106.838896,"line":2,"transit":false,"distance":2671,"station_id":"TNT","station_name":"Tanjung Barat"},{"transit":false,"station_id":"PSM","station_name":"Pasar Minggu","is_transit":false,"time":4,"distance":2820,"i_lat":-6.2842400000000005,"i_long":106.843999,"line":2},{"i_lat":-6.263214,"time":2,"is_transit":false,"i_long":106.851577,"distance":2380,"station_id":"PSMB","line":2,"transit":false,"station_name":"Pasar Minggu Baru"},{"distance":824,"i_lat":-6.255332,"i_long":106.85449,"station_id":"DRN","is_transit":false,"transit":false,"time":2,"station_name":"Duren Kalibata","line":2},{"distance":1546,"i_long":106.856607,"line":2,"time":3,"station_id":"CW","i_lat":-6.242512,"station_name":"Cawang","is_transit":false,"transit":false},{"i_long":106.857948,"station_id":"TEB","distance":1230,"transit":false,"time":2,"i_lat":-6.226659,"line":2,"station_name":"Tebet","is_transit":false},{"i_lat":-6.209883,"station_id":"MRI","is_transit":true,"i_long":106.84912,"time":4,"line":2,"transit":true,"distance":2610,"station_name":"Manggarai"},{"is_transit":false,"station_id":"SUD","station_name":"Sudirman","line":1,"i_long":106.822649,"time":4,"transit":false,"distance":3186,"i_lat":-6.202263},{"line":1,"transit":false,"station_name":"Sudirman Baru","is_transit":false,"i_lat":-6.201433,"i_long":106.819881,"distance":280,"station_id":"SUDB","time":1},{"station_id":"KAT","is_transit":false,"i_long":106.816351,"time":1,"i_lat":-6.20132,"line":1,"transit":false,"station_name":"Karet","distance":471},{"is_transit":true,"transit":true,"distance":2029,"line":1,"station_id":"THB","i_lat":-6.185545,"time":5,"station_name":"Tanah Abang","i_long":106.811091},{"transit":false,"station_id":"PLM","station_name":"Palmerah","time":6,"distance":3191,"i_lat":-6.207404,"is_transit":false,"i_long":106.79689,"line":6},{"i_long":106.780334,"distance":3737,"station_name":"Kebayoran","line":6,"transit":false,"is_transit":false,"i_lat":-6.237242,"time":7,"station_id":"KBY"},{"time":8,"i_lat":-6.276362,"is_transit":false,"station_id":"PDJ","transit":false,"station_name":"Pondokranji","distance":6218,"line":6,"i_long":106.74273},{"transit":false,"station_name":"Jurangmangu","distance":2179,"i_lat":-6.288927,"line":6,"is_transit":false,"i_long":106.728916,"time":3,"station_id":"JMU"}],[{"is_transit":false,"transit":false,"station_name":"Lenteng Agung","station_id":"LNA","distance":0,"i_long":106.832616,"time":0,"line":2,"i_lat":-6.330363},{"i_lat":-6.3080680000000005,"i_long":106.838896,"line":2,"time":3,"station_name":"Tanjung Barat","station_id":"TNT","distance":2671,"is_transit":false,"transit":false},{"transit":false,"i_lat":-6.2842400000000005,"i_long":106.843999,"distance":2820,"station_name":"Pasar Minggu","station_id":"PSM","line":2,"is_transit":false,"time":4},{"i_long":106.851577,"line":2,"i_lat":-6.263214,"distance":2380,"station_name":"Pasar Minggu Baru","transit":false,"station_id":"PSMB","is_transit":false,"time":2},{"station_id":"DRN","i_long":106.85449,"is_transit":false,"transit":false,"station_name":"Duren Kalibata","i_lat":-6.255332,"time":2,"distance":824,"line":2},{"transit":false,"time":3,"i_long":106.856607,"is_transit":false,"station_id":"CW","distance":1546,"station_name":"Cawang","i_lat":-6.242512,"line":2},{"distance":1230,"is_transit":false,"transit":false,"station_name":"Tebet","i_long":106.857948,"i_lat":-6.226659,"station_id":"TEB","line":2,"time":2},{"i_lat":-6.209883,"time":4,"i_long":106.84912,"distance":2610,"station_id":"MRI","station_name":"Manggarai","line":2,"is_transit":false,"transit":false},{"is_transit":false,"time":4,"distance":1590,"i_lat":-6.198556,"i_long":106.840169,"station_id":"CKI","line":2,"transit":false,"station_name":"Cikini"},{"i_lat":-6.186295,"i_long":106.832183,"station_name":"Gondangdia","line":2,"time":3,"station_id":"GDD","is_transit":false,"transit":false,"distance":1750},{"distance":2015,"i_lat":-6.166716,"time":4,"i_long":106.828284,"station_id":"JUA","line":2,"is_transit":false,"transit":false,"station_name":"Juanda"},{"is_transit":false,"distance":1149,"transit":false,"station_id":"SW","station_name":"Sawah Besar","time":2,"i_lat":-6.160725,"line":2,"i_long":106.827103},{"is_transit":false,"time":2,"i_long":106.82482,"station_name":"Manggabesar","distance":906,"i_lat":-6.149769,"line":2,"station_id":"MGB","transit":false},{"is_transit":false,"distance":1080,"time":2,"transit":false,"i_long":106.820901,"station_name":"Jayakarta","station_id":"JAY","i_lat":-6.141205,"line":2},{"station_name":"Jakarta Kota","distance":1264,"i_long":106.812439,"time":4,"line":2,"i_lat":-6.137569,"station_id":"JAKK","is_transit":true,"transit":true},{"is_transit":true,"station_id":"KPB","transit":true,"distance":1364,"i_lat":-6.132549,"i_long":106.826365,"line":4,"time":3,"station_name":"Kampung Bandan"},{"is_transit":false,"line":1,"distance":4102,"transit":false,"i_lat":-6.144674,"i_long":106.79867,"station_id":"AK","time":9,"station_name":"Angke"},{"line":1,"i_long":106.800832,"station_name":"Duri","distance":1230,"time":4,"station_id":"DU","is_transit":false,"transit":false,"i_lat":-6.155215},{"station_id":"THB","line":1,"transit":true,"is_transit":true,"time":8,"i_lat":-6.185545,"station_name":"Tanah Abang","distance":3632,"i_long":106.811091},{"i_long":106.79689,"station_name":"Palmerah","is_transit":false,"distance":3191,"line":6,"station_id":"PLM","time":6,"i_lat":-6.207404,"transit":false},{"time":7,"line":6,"is_transit":false,"transit":false,"station_name":"Kebayoran","distance":3737,"i_long":106.780334,"station_id":"KBY","i_lat":-6.237242},{"is_transit":false,"station_name":"Pondokranji","distance":6218,"station_id":"PDJ","i_lat":-6.276362,"transit":false,"i_long":106.74273,"line":6,"time":8},{"line":6,"i_lat":-6.288927,"transit":false,"station_name":"Jurangmangu","station_id":"JMU","is_transit":false,"time":3,"distance":2179,"i_long":106.728916}],[{"transit":false,"station_name":"Lenteng Agung","i_long":106.832616,"line":2,"time":0,"station_id":"LNA","is_transit":false,"distance":0,"i_lat":-6.330363},{"time":3,"transit":false,"is_transit":false,"station_name":"Tanjung Barat","i_long":106.838896,"distance":2671,"station_id":"TNT","i_lat":-6.3080680000000005,"line":2},{"station_name":"Pasar Minggu","distance":2820,"is_transit":false,"i_long":106.843999,"time":4,"line":2,"transit":false,"station_id":"PSM","i_lat":-6.2842400000000005},{"time":2,"is_transit":false,"distance":2380,"line":2,"station_id":"PSMB","i_long":106.851577,"transit":false,"station_name":"Pasar Minggu Baru","i_lat":-6.263214},{"line":2,"station_id":"DRN","time":2,"transit":false,"i_long":106.85449,"distance":824,"is_transit":false,"station_name":"Duren Kalibata","i_lat":-6.255332},{"i_long":106.856607,"station_id":"CW","is_transit":false,"station_name":"Cawang","distance":1546,"line":2,"i_lat":-6.242512,"time":3,"transit":false},{"time":2,"distance":1230,"is_transit":false,"line":2,"station_name":"Tebet","station_id":"TEB","transit":false,"i_long":106.857948,"i_lat":-6.226659},{"station_name":"Manggarai","distance":2610,"i_long":106.84912,"is_transit":true,"station_id":"MRI","i_lat":-6.209883,"line":2,"transit":true,"time":4},{"station_name":"Matraman","transit":false,"distance":1275,"is_transit":false,"time":2,"i_long":106.858896,"line":1,"station_id":"MTR","i_lat":-6.212485},{"line":1,"station_id":"JNG","i_long":106.86807400000001,"transit":true,"distance":1377,"time":8,"i_lat":-6.215091,"station_name":"Jatinegara","is_transit":true},{"station_id":"POK","transit":false,"i_lat":-6.209188,"station_name":"Pondok Jati","i_long":106.861737,"line":11,"distance":1236,"time":2,"is_transit":false},{"i_lat":-6.193792,"is_transit":false,"i_long":106.855437,"time":2,"transit":false,"line":11,"station_id":"KMT","station_name":"Kramat","distance":1829},{"i_long":106.850107,"i_lat":-6.185975,"line":11,"distance":973,"transit":false,"time":1,"station_id":"GST","is_transit":false,"station_name":"Gang Sentiong"},{"is_transit":false,"time":8,"i_lat":-6.174784,"line":11,"distance":1567,"transit":false,"station_id":"PSE","station_name":"Pasar Senen","i_long":106.84368},{"line":11,"time":4,"station_id":"KMO","distance":1436,"i_lat":-6.161728,"is_transit":false,"transit":false,"i_long":106.839204,"station_name":"Kemayoran"},{"transit":false,"line":11,"is_transit":false,"time":5,"distance":1901,"i_long":106.836569,"station_id":"RJW","station_name":"Rajawali","i_lat":-6.14505},{"station_name":"Kampung Bandan","station_id":"KPB","i_lat":-6.132549,"time":3,"i_long":106.826365,"line":4,"is_transit":true,"distance":1444,"transit":true},{"station_id":"AK","is_transit":false,"distance":4102,"station_name":"Angke","i_long":106.79867,"time":9,"i_lat":-6.144674,"line":1,"transit":false},{"station_name":"Duri","time":4,"transit":false,"distance":1230,"is_transit":false,"i_long":106.800832,"i_lat":-6.155215,"station_id":"DU","line":1},{"time":8,"i_long":106.811091,"transit":true,"station_id":"THB","distance":3632,"line":1,"station_name":"Tanah Abang","is_transit":true,"i_lat":-6.185545},{"distance":3191,"transit":false,"station_name":"Palmerah","i_long":106.79689,"time":6,"i_lat":-6.207404,"station_id":"PLM","line":6,"is_transit":false},{"i_long":106.780334,"distance":3737,"station_id":"KBY","line":6,"transit":false,"is_transit":false,"station_name":"Kebayoran","time":7,"i_lat":-6.237242},{"is_transit":false,"time":8,"station_id":"PDJ","distance":6218,"i_lat":-6.276362,"transit":false,"i_long":106.74273,"station_name":"Pondokranji","line":6},{"line":6,"i_long":106.728916,"is_transit":false,"time":3,"i_lat":-6.288927,"station_id":"JMU","transit":false,"station_name":"Jurangmangu","distance":2179}]]}