{"data":[[{"i_lat":-6.330363,"line":2,"distance":0,"i_long":106.832616,"is_transit":false,"transit":false,"station_id":"LNA","station_name":"Lenteng Agung","time":0},{"line":2,"is_transit":false,"station_id":"TNT","time":3,"distance":2671,"transit":false,"station_name":"Tanjung Barat","i_lat":-6.3080680000000005,"i_long":106.838896},{"time":4,"i_lat":-6.2842400000000005,"is_transit":false,"station_id":"PSM","station_name":"Pasar Minggu","distance":2820,"line":2,"transit":false,"i_long":106.843999},{"distance":2380,"station_name":"Pasar Minggu Baru","transit":false,"time":2,"line":2,"is_transit":false,"i_lat":-6.263214,"station_id":"PSMB","i_long":106.851577},{"station_id":"DRN","distance":824,"transit":false,"time":2,"i_long":106.85449,"is_transit":false,"station_name":"Duren Kalibata","i_lat":-6.255332,"line":2},{"station_id":"CW","distance":1546,"i_lat":-6.242512,"transit":false,"station_name":"Cawang","is_transit":false,"line":2,"time":3,"i_long":106.856607},{"i_long":106.857948,"is_transit":false,"station_name":"Tebet","line":2,"transit":false,"station_id":"TEB","distance":1230,"time":2,"i_lat":-6.226659},{"i_lat":-6.209883,"line":2,"transit":true,"i_long":106.84912,"station_id":"MRI","time":4,"is_transit":true,"station_name":"Manggarai","distance":2610},{"transit":false,"distance":3186,"line":1,"i_long":106.822649,"station_name":"Sudirman","time":4,"station_id":"SUD","is_transit":false,"i_lat":-6.202263},{"transit":false,"station_id":"SUDB","station_name":"Sudirman Baru","is_transit":false,"distance":280,"time":1,"i_long":106.819881,"line":1,"i_lat":-6.201433},{"i_long":106.816351,"station_name":"Karet","time":1,"line":1,"i_lat":-6.20132,"is_transit":false,"station_id":"KAT","transit":false,"distance":471},{"transit":false,"time":5,"line":1,"i_lat":-6.185545,"station_id":"THB","is_transit":false,"distance":2029,"i_long":106.811091,"station_name":"Tanah Abang"},{"is_transit":true,"distance":3632,"transit":true,"time":8,"station_id":"DU","i_long":106.800832,"station_name":"Duri","line":1,"i_lat":-6.155215},{"station_id":"GGL","distance":1700,"i_lat":-6.162021,"transit":false,"line":5,"is_transit":false,"station_name":"Grogol","i_long":106.788277,"time":3},{"i_lat":-6.161433,"distance":2036,"is_transit":false,"station_id":"PSG","transit":false,"station_name":"Pesing","time":2,"i_long":106.771379,"line":5},{"time":2,"i_lat":-6.1587309999999995,"station_name":"Taman Kota","distance":1614,"line":5,"is_transit":false,"station_id":"TKO","transit":false,"i_long":106.756522}],[{"transit":false,"is_transit":false,"i_lat":-6.330363,"distance":0,"time":0,"line":2,"i_long":106.832616,"station_id":"LNA","station_name":"Lenteng Agung"},{"station_name":"Tanjung Barat","time":3,"transit":false,"line":2,"distance":2671,"i_long":106.838896,"is_transit":false,"i_lat":-6.3080680000000005,"station_id":"TNT"},{"time":4,"station_name":"Pasar Minggu","is_transit":false,"i_lat":-6.2842400000000005,"line":2,"station_id":"PSM","transit":false,"i_long":106.843999,"distance":2820},{"station_name":"Pasar Minggu Baru","distance":2380,"i_lat":-6.263214,"line":2,"time":2,"i_long":106.851577,"is_transit":false,"transit":false,"station_id":"PSMB"},{"station_name":"Duren Kalibata","distance":824,"i_long":106.85449,"line":2,"station_id":"DRN","transit":false,"time":2,"is_transit":false,"i_lat":-6.255332},{"station_id":"CW","distance":1546,"i_long":106.856607,"station_name":"Cawang","is_transit":false,"line":2,"transit":false,"time":3,"i_lat":-6.242512},{"station_id":"TEB","station_name":"Tebet","is_transit":false,"distance":1230,"i_lat":-6.226659,"transit":false,"i_long":106.857948,"time":2,"line":2},{"line":2,"transit":false,"time":4,"station_id":"MRI","is_transit":false,"distance":2610,"i_lat":-6.209883,"station_name":"Manggarai","i_long":106.84912},{"distance":1590,"station_name":"Cikini","transit":false,"station_id":"CKI","time":4,"line":2,"is_transit":false,"i_lat":-6.198556,"i_long":106.840169},{"time":3,"i_long":106.832183,"transit":false,"i_lat":-6.186295,"distance":1750,"line":2,"station_id":"GDD","station_name":"Gondangdia","is_transit":false},{"is_transit":false,"i_long":106.828284,"station_name":"Juanda","i_lat":-6.166716,"station_id":"JUA","time":4,"distance":2015,"transit":false,"line":2},{"i_long":106.827103,"time":2,"distance":1149,"transit":false,"is_transit":false,"i_lat":-6.160725,"station_id":"SW","station_name":"Sawah Besar","line":2},{"time":2,"distance":906,"station_name":"Manggabesar","is_transit":false,"i_lat":-6.149769,"line":2,"station_id":"MGB","transit":false,"i_long":106.82482},{"i_lat":-6.141205,"transit":false,"station_name":"Jayakarta","distance":1080,"is_transit":false,"line":2,"time":2,"station_id":"JAY","i_long":106.820901},{"time":4,"i_long":106.812439,"line":2,"distance":1264,"station_name":"Jakarta Kota","i_lat":-6.137569,"is_transit":true,"station_id":"JAKK","transit":true},{"station_id":"KPB","i_lat":-6.132549,"time":3,"station_name":"Kampung Bandan","transit":true,"line":4,"i_long":106.826365,"distance":1364,"is_transit":true},{"transit":false,"station_id":"AK","is_transit":false,"station_name":"Angke","time":9,"distance":4102,"i_lat":-6.144674,"i_long":106.79867,"line":1},{"line":1,"station_name":"Duri","distance":1230,"i_long":106.800832,"transit":true,"station_id":"DU","time":4,"is_transit":true,"i_lat":-6.155215},{"transit":false,"is_transit":false,"line":5,"i_lat":-6.162021,"time":3,"station_id":"GGL","station_name":"Grogol","distance":1700,"i_long":106.788277},{"is_transit":false,"time":2,"line":5,"transit":false,"i_long":106.771379,"station_name":"Pesing","station_id":"PSG","distance":2036,"i_lat":-6.161433},{"time":2,"distance":1614,"station_id":"TKO","i_lat":-6.1587309999999995,"is_transit":false,"transit":false,"i_long":106.756522,"station_name":"Taman Kota","line":5}],[{"station_id":"LNA","transit":false,"is_transit":false,"station_name":"Lenteng Agung","distance":0,"i_lat":-6.330363,"i_long":106.832616,"line":2,"time":0},{"transit":false,"is_transit":false,"time":3,"i_lat":-6.3080680000000005,"i_long":106.838896,"line":2,"station_name":"Tanjung Barat","distance":2671,"station_id":"TNT"},{"station_name":"Pasar Minggu","transit":false,"station_id":"PSM","line":2,"i_long":106.843999,"time":4,"distance":2820,"i_lat":-6.2842400000000005,"is_transit":false},{"i_long":106.851577,"line":2,"transit":false,"station_name":"Pasar Minggu Baru","time":2,"is_transit":false,"distance":2380,"i_lat":-6.263214,"station_id":"PSMB"},{"station_id":"DRN","time":2,"is_transit":false,"distance":824,"i_lat":-6.255332,"i_long":106.85449,"transit":false,"line":2,"station_name":"Duren Kalibata"},{"is_transit":false,"station_id":"CW","line":2,"distance":1546,"time":3,"transit":false,"i_lat":-6.242512,"i_long":106.856607,"station_name":"Cawang"},{"time":2,"transit":false,"station_id":"TEB","i_long":106.857948,"line":2,"distance":1230,"station_name":"Tebet","is_transit":false,"i_lat":-6.226659},{"line":2,"i_long":106.84912,"i_lat":-6.209883,"station_name":"Manggarai","station_id":"MRI","is_transit":true,"time":4,"distance":2610,"transit":true},{"i_lat":-6.212485,"i_long":106.858896,"station_id":"MTR","is_transit":false,"station_name":"Matraman","time":2,"transit":false,"distance":1275,"line":1},{"line":1,"transit":true,"time":8,"distance":1377,"station_id":"JNG","i_lat":-6.215091,"is_transit":true,"i_long":106.86807400000001,"station_name":"Jatinegara"},{"transit":false,"is_transit":false,"i_lat":-6.209188,"line":11,"station_name":"Pondok Jati","i_long":106.861737,"distance":1236,"station_id":"POK","time":2},{"distance":1829,"is_transit":false,"station_id":"KMT","i_lat":-6.193792,"station_name":"Kramat","transit":false,"i_long":106.855437,"line":11,"time":2},{"is_transit":false,"i_lat":-6.185975,"line":11,"time":1,"distance":973,"i_long":106.850107,"station_name":"Gang Sentiong","station_id":"GST","transit":false},{"distance":1567,"i_long":106.84368,"station_id":"PSE","line":11,"is_transit":false,"time":8,"transit":false,"station_name":"Pasar Senen","i_lat":-6.174784},{"line":11,"station_name":"Kemayoran","is_transit":false,"i_long":106.839204,"transit":false,"station_id":"KMO","i_lat":-6.161728,"distance":1436,"time":4},{"time":5,"i_lat":-6.14505,"station_name":"Rajawali","line":11,"is_transit":false,"transit":false,"i_long":106.836569,"distance":1901,"station_id":"RJW"},{"transit":true,"is_transit":true,"i_lat":-6.132549,"distance":1444,"station_id":"KPB","i_long":106.826365,"time":3,"station_name":"Kampung Bandan","line":4},{"transit":false,"line":1,"station_id":"AK","i_long":106.79867,"is_transit":false,"station_name":"Angke","time":9,"distance":4102,"i_lat":-6.144674},{"is_transit":true,"line":1,"station_id":"DU","time":4,"transit":true,"i_lat":-6.155215,"i_long":106.800832,"station_name":"Duri","distance":1230},{"station_id":"GGL","distance":1700,"i_long":106.788277,"transit":false,"i_lat":-6.162021,"line":5,"is_transit":false,"station_name":"Grogol","time":3},{"i_lat":-6.161433,"distance":2036,"station_id":"PSG","time":2,"transit":false,"station_name":"Pesing","is_transit":false,"i_long":106.771379,"line":5},{"station_name":"Taman Kota","distance":1614,"transit":false,"line":5,"station_id":"TKO","is_transit":false,"time":2,"i_lat":-6.1587309999999995,"i_long":106.756522}]]}