{"data":[[{"distance":0,"station_id":"LNA","i_lat":-6.330363,"station_name":"Lenteng Agung","is_transit":false,"transit":false,"i_long":106.832616,"time":0,"line":2},{"station_id":"TNT","line":2,"distance":2671,"i_lat":-6.3080680000000005,"time":3,"station_name":"Tanjung Barat","transit":false,"is_transit":false,"i_long":106.838896},{"transit":false,"is_transit":false,"i_lat":-6.2842400000000005,"i_long":106.843999,"station_name":"Pasar Minggu","distance":2820,"line":2,"station_id":"PSM","time":4},{"distance":2380,"station_name":"Pasar Minggu Baru","transit":false,"i_lat":-6.263214,"is_transit":false,"station_id":"PSMB","i_long":106.851577,"time":2,"line":2},{"station_id":"DRN","i_lat":-6.255332,"i_long":106.85449,"station_name":"Duren Kalibata","time":2,"transit":false,"line":2,"distance":824,"is_transit":false},{"distance":1546,"is_transit":false,"station_id":"CW","transit":false,"line":2,"time":3,"i_long":106.856607,"station_name":"Cawang","i_lat":-6.242512},{"transit":false,"distance":1230,"is_transit":false,"line":2,"i_long":106.857948,"i_lat":-6.226659,"time":2,"station_id":"TEB","station_name":"Tebet"},{"is_transit":true,"station_id":"MRI","i_long":106.84912,"time":4,"i_lat":-6.209883,"line":2,"station_name":"Manggarai","transit":true,"distance":2610},{"line":1,"station_name":"Sudirman","transit":false,"distance":3186,"i_long":106.822649,"station_id":"SUD","time":4,"is_transit":false,"i_lat":-6.202263},{"distance":280,"line":1,"station_id":"SUDB","time":1,"i_lat":-6.201433,"is_transit":false,"station_name":"Sudirman Baru","i_long":106.819881,"transit":false},{"transit":false,"i_long":106.816351,"line":1,"station_name":"Karet","time":1,"i_lat":-6.20132,"station_id":"KAT","distance":471,"is_transit":false},{"time":5,"is_transit":false,"transit":false,"station_id":"THB","line":1,"distance":2029,"station_name":"Tanah Abang","i_lat":-6.185545,"i_long":106.811091},{"distance":3632,"is_transit":true,"i_lat":-6.155215,"transit":true,"station_name":"Duri","i_long":106.800832,"line":1,"time":8,"station_id":"DU"},{"time":3,"station_name":"Grogol","i_long":106.788277,"station_id":"GRG","transit":false,"is_transit":false,"i_lat":-6.162021,"line":5,"distance":1700},{"line":5,"i_long":106.771379,"is_transit":false,"time":2,"distance":2036,"station_id":"PSG","transit":false,"i_lat":-6.161433,"station_name":"Pesing"},{"distance":1614,"line":5,"time":2,"station_id":"TKO","station_name":"Taman Kota","is_transit":false,"transit":false,"i_lat":-6.1587309999999995,"i_long":106.756522},{"distance":2334,"is_transit":false,"i_long":106.737035,"station_name":"Bojongindah","i_lat":-6.159876,"transit":false,"line":5,"station_id":"BOI","time":2},{"time":4,"is_transit":false,"transit":false,"line":5,"i_long":106.723064,"distance":1152,"station_name":"Rawa Buaya","station_id":"RW","i_lat":-6.162758},{"is_transit":false,"transit":false,"i_long":106.701612,"distance":2504,"station_name":"Kalideres","time":3,"line":5,"station_id":"KDS","i_lat":-6.166068},{"i_long":106.679458,"time":3,"line":5,"station_id":"PI","distance":2548,"i_lat":-6.169933,"station_name":"Poris","transit":false,"is_transit":false},{"time":3,"i_lat":-6.171811,"i_long":106.665036,"transit":false,"station_name":"Batuceper","is_transit":false,"station_id":"BPR","line":5,"distance":1834},{"line":5,"transit":false,"distance":2028,"is_transit":false,"station_id":"THI","station_name":"Tanah Tinggi","i_lat":-6.17331,"i_long":106.64657,"time":3}],[{"i_long":106.832616,"line":2,"is_transit":false,"station_id":"LNA","distance":0,"time":0,"transit":false,"i_lat":-6.330363,"station_name":"Lenteng Agung"},{"station_name":"Tanjung Barat","distance":2671,"transit":false,"station_id":"TNT","is_transit":false,"i_lat":-6.3080680000000005,"i_long":106.838896,"line":2,"time":3},{"line":2,"station_name":"Pasar Minggu","i_long":106.843999,"station_id":"PSM","time":4,"distance":2820,"is_transit":false,"transit":false,"i_lat":-6.2842400000000005},{"is_transit":false,"time":2,"station_name":"Pasar Minggu Baru","station_id":"PSMB","distance":2380,"transit":false,"i_long":106.851577,"line":2,"i_lat":-6.263214},{"is_transit":false,"distance":824,"i_lat":-6.255332,"station_name":"Duren Kalibata","line":2,"i_long":106.85449,"time":2,"transit":false,"station_id":"DRN"},{"is_transit":false,"station_id":"CW","i_lat":-6.242512,"distance":1546,"time":3,"i_long":106.856607,"line":2,"station_name":"Cawang","transit":false},{"line":2,"is_transit":false,"transit":false,"i_long":106.857948,"i_lat":-6.226659,"station_id":"TEB","time":2,"station_name":"Tebet","distance":1230},{"station_id":"MRI","is_transit":false,"i_long":106.84912,"line":2,"distance":2610,"transit":false,"station_name":"Manggarai","time":4,"i_lat":-6.209883},{"is_transit":false,"distance":1590,"i_lat":-6.198556,"line":2,"station_name":"Cikini","transit":false,"station_id":"CKI","i_long":106.840169,"time":4},{"station_id":"GDD","transit":false,"distance":1750,"line":2,"station_name":"Gondangdia","i_long":106.832183,"time":3,"is_transit":false,"i_lat":-6.186295},{"time":4,"is_transit":false,"station_name":"Juanda","i_lat":-6.166716,"i_long":106.828284,"distance":2015,"station_id":"JUA","transit":false,"line":2},{"i_long":106.827103,"transit":false,"distance":1149,"line":2,"station_name":"Sawah Besar","time":2,"is_transit":false,"station_id":"SW","i_lat":-6.160725},{"distance":906,"is_transit":false,"transit":false,"i_lat":-6.149769,"line":2,"station_id":"MGB","station_name":"Manggabesar","i_long":106.82482,"time":2},{"station_name":"Jayakarta","line":2,"station_id":"JAY","i_lat":-6.141205,"i_long":106.820901,"distance":1080,"time":2,"is_transit":false,"transit":false},{"i_lat":-6.137569,"time":4,"distance":1264,"station_id":"JAKK","i_long":106.812439,"is_transit":true,"transit":true,"line":2,"station_name":"Jakarta Kota"},{"transit":true,"station_name":"Kampung Bandan","time":3,"station_id":"KPB","distance":1364,"is_transit":true,"i_long":106.826365,"i_lat":-6.132549,"line":4},{"time":9,"i_long":106.79867,"is_transit":false,"station_id":"AK","station_name":"Angke","transit":false,"distance":4102,"i_lat":-6.144674,"line":1},{"station_name":"Duri","is_transit":true,"i_lat":-6.155215,"line":1,"station_id":"DU","distance":1230,"transit":true,"time":4,"i_long":106.800832},{"station_id":"GRG","is_transit":false,"line":5,"transit":false,"distance":1700,"time":3,"i_lat":-6.162021,"station_name":"Grogol","i_long":106.788277},{"line":5,"distance":2036,"time":2,"i_lat":-6.161433,"transit":false,"station_id":"PSG","station_name":"Pesing","i_long":106.771379,"is_transit":false},{"i_lat":-6.1587309999999995,"i_long":106.756522,"line":5,"time":2,"is_transit":false,"station_id":"TKO","transit":false,"station_name":"Taman Kota","distance":1614},{"is_transit":false,"transit":false,"line":5,"station_name":"Bojongindah","distance":2334,"time":2,"i_lat":-6.159876,"i_long":106.737035,"station_id":"BOI"},{"station_id":"RW","is_transit":false,"i_long":106.723064,"time":4,"line":5,"i_lat":-6.162758,"transit":false,"station_name":"Rawa Buaya","distance":1152},{"time":3,"i_lat":-6.166068,"line":5,"transit":false,"station_name":"Kalideres","station_id":"KDS","is_transit":false,"i_long":106.701612,"distance":2504},{"line":5,"is_transit":false,"transit":false,"i_long":106.679458,"station_name":"Poris","time":3,"station_id":"PI","i_lat":-6.169933,"distance":2548},{"i_long":106.665036,"transit":false,"is_transit":false,"time":3,"station_id":"BPR","i_lat":-6.171811,"station_name":"Batuceper","distance":1834,"line":5},{"distance":2028,"time":3,"i_long":106.64657,"transit":false,"station_id":"THI","is_transit":false,"i_lat":-6.17331,"line":5,"station_name":"Tanah Tinggi"}],[{"time":0,"line":2,"station_name":"Lenteng Agung","i_long":106.832616,"is_transit":false,"i_lat":-6.330363,"transit":false,"station_id":"LNA","distance":0},{"distance":2671,"i_lat":-6.3080680000000005,"is_transit":false,"station_name":"Tanjung Barat","i_long":106.838896,"station_id":"TNT","line":2,"transit":false,"time":3},{"transit":false,"i_long":106.843999,"line":2,"i_lat":-6.2842400000000005,"station_name":"Pasar Minggu","station_id":"PSM","is_transit":false,"time":4,"distance":2820},{"is_transit":false,"distance":2380,"station_id":"PSMB","i_long":106.851577,"line":2,"transit":false,"time":2,"station_name":"Pasar Minggu Baru","i_lat":-6.263214},{"i_long":106.85449,"line":2,"i_lat":-6.255332,"time":2,"station_name":"Duren Kalibata","station_id":"DRN","is_transit":false,"distance":824,"transit":false},{"station_id":"CW","is_transit":false,"line":2,"transit":false,"time":3,"i_long":106.856607,"station_name":"Cawang","distance":1546,"i_lat":-6.242512},{"station_name":"Tebet","i_lat":-6.226659,"station_id":"TEB","i_long":106.857948,"is_transit":false,"line":2,"distance":1230,"transit":false,"time":2},{"distance":2610,"station_name":"Manggarai","i_lat":-6.209883,"transit":true,"time":4,"i_long":106.84912,"line":2,"station_id":"MRI","is_transit":true},{"transit":false,"time":2,"distance":1275,"station_name":"Matraman","station_id":"MTR","is_transit":false,"i_long":106.858896,"i_lat":-6.212485,"line":1},{"is_transit":true,"i_lat":-6.215091,"station_id":"JNG","time":8,"i_long":106.86807400000001,"line":1,"station_name":"Jatinegara","distance":1377,"transit":true},{"distance":1236,"station_name":"Pondok Jati","i_long":106.861737,"time":2,"line":11,"station_id":"POK","i_lat":-6.209188,"is_transit":false,"transit":false},{"distance":1829,"transit":false,"station_id":"KMT","time":2,"line":11,"is_transit":false,"station_name":"Kramat","i_lat":-6.193792,"i_long":106.855437},{"i_lat":-6.185975,"distance":973,"i_long":106.850107,"transit":false,"time":1,"line":11,"station_name":"Gang Sentiong","station_id":"GST","is_transit":false},{"time":8,"i_lat":-6.174784,"station_name":"Pasar Senen","distance":1567,"is_transit":false,"i_long":106.84368,"line":11,"station_id":"PSE","transit":false},{"station_id":"KMO","transit":false,"time":4,"i_lat":-6.161728,"i_long":106.839204,"line":11,"station_name":"Kemayoran","distance":1436,"is_transit":false},{"station_id":"RJW","distance":1901,"i_lat":-6.14505,"i_long":106.836569,"line":11,"transit":false,"is_transit":false,"station_name":"Rajawali","time":5},{"time":3,"distance":1444,"is_transit":true,"transit":true,"i_long":106.826365,"station_name":"Kampung Bandan","line":4,"i_lat":-6.132549,"station_id":"KPB"},{"station_name":"Angke","i_lat":-6.144674,"distance":4102,"transit":false,"station_id":"AK","is_transit":false,"time":9,"i_long":106.79867,"line":1},{"i_long":106.800832,"time":4,"line":1,"is_transit":true,"i_lat":-6.155215,"station_name":"Duri","station_id":"DU","distance":1230,"transit":true},{"station_name":"Grogol","is_transit":false,"station_id":"GRG","distance":1700,"time":3,"line":5,"transit":false,"i_long":106.788277,"i_lat":-6.162021},{"time":2,"i_lat":-6.161433,"line":5,"station_id":"PSG","i_long":106.771379,"distance":2036,"transit":false,"is_transit":false,"station_name":"Pesing"},{"transit":false,"line":5,"station_name":"Taman Kota","distance":1614,"is_transit":false,"i_long":106.756522,"station_id":"TKO","time":2,"i_lat":-6.1587309999999995},{"station_name":"Bojongindah","distance":2334,"line":5,"i_long":106.737035,"is_transit":false,"i_lat":-6.159876,"time":2,"station_id":"BOI","transit":false},{"time":4,"i_long":106.723064,"station_name":"Rawa Buaya","i_lat":-6.162758,"is_transit":false,"line":5,"distance":1152,"station_id":"RW","transit":false},{"line":5,"i_long":106.701612,"time":3,"station_name":"Kalideres","station_id":"KDS","distance":2504,"is_transit":false,"i_lat":-6.166068,"transit":false},{"station_id":"PI","distance":2548,"i_lat":-6.169933,"i_long":106.679458,"line":5,"transit":false,"is_transit":false,"station_name":"Poris","time":3},{"i_long":106.665036,"line":5,"station_name":"Batuceper","station_id":"BPR","is_transit":false,"transit":false,"time":3,"i_lat":-6.171811,"distance":1834},{"is_transit":false,"line":5,"i_long":106.64657,"transit":false,"i_lat":-6.17331,"distance":2028,"station_name":"Tanah Tinggi","time":3,"station_id":"THI"}]]}