{"data":[[{"line":2,"station_id":"LNA","time":0,"i_long":106.832616,"i_lat":-6.330363,"transit":false,"distance":0,"is_transit":false,"station_name":"Lenteng Agung"},{"is_transit":false,"station_name":"Tanjung Barat","line":2,"station_id":"TNT","time":3,"i_long":106.838896,"i_lat":-6.3080680000000005,"transit":false,"distance":2671},{"i_long":106.843999,"is_transit":false,"time":4,"line":2,"distance":2820,"transit":false,"station_id":"PSM","station_name":"Pasar Minggu","i_lat":-6.2842400000000005},{"is_transit":false,"distance":2380,"line":2,"station_name":"Pasar Minggu Baru","i_lat":-6.263214,"transit":false,"i_long":106.851577,"station_id":"PSMB","time":2},{"distance":824,"is_transit":false,"time":2,"station_name":"Duren Kalibata","station_id":"DRN","line":0,"transit":false,"i_lat":-6.255332,"i_long":106.85449},{"i_long":106.856607,"time":3,"distance":1546,"station_name":"Cawang","transit":false,"line":0,"is_transit":false,"i_lat":-6.242512,"station_id":"CW"},{"station_id":"TEB","station_name":"Tebet","line":2,"i_long":106.857948,"is_transit":false,"transit":false,"i_lat":-6.226659,"distance":1230,"time":2},{"transit":true,"distance":2610,"line":0,"is_transit":true,"station_id":"MRI","station_name":"Manggarai","time":4,"i_long":106.84912,"i_lat":-6.209883},{"station_id":"SUD","station_name":"Sudirman","i_long":106.822649,"line":1,"time":4,"transit":false,"is_transit":false,"distance":3186,"i_lat":-6.202263},{"i_long":106.819881,"distance":280,"station_name":"Sudirman Baru","station_id":"SUDB","i_lat":-6.201433,"line":1,"transit":false,"is_transit":false,"time":1},{"line":1,"station_id":"KAT","time":1,"transit":false,"is_transit":false,"distance":471,"station_name":"Karet","i_long":106.816351,"i_lat":-6.20132},{"i_long":106.811091,"transit":true,"i_lat":-6.185545,"time":5,"line":1,"station_name":"Tanah Abang","station_id":"THB","distance":2029,"is_transit":true},{"line":6,"distance":3191,"is_transit":false,"station_name":"Palmerah","i_lat":-6.207404,"i_long":106.79689,"time":6,"station_id":"PLM","transit":false},{"station_id":"KBY","distance":3737,"time":7,"station_name":"Kebayoran","transit":false,"is_transit":false,"line":6,"i_lat":-6.237242,"i_long":106.780334},{"i_long":106.74273,"time":8,"transit":false,"distance":6218,"is_transit":false,"station_id":"PDJ","i_lat":-6.276362,"line":6,"station_name":"Pondokranji"},{"time":3,"is_transit":false,"i_lat":-6.288927,"line":6,"station_id":"JMU","distance":2179,"station_name":"Jurangmangu","i_long":106.728916,"transit":false},{"station_name":"Sudimara","line":6,"distance":1994,"is_transit":false,"time":4,"station_id":"SDM","transit":false,"i_lat":-6.296963,"i_long":106.712277},{"time":6,"i_long":106.675475,"distance":4566,"station_id":"RU","i_lat":-6.314823,"line":6,"is_transit":false,"station_name":"Rawa Buntu","transit":false},{"i_long":106.66566,"line":6,"station_id":"SRP","transit":false,"is_transit":false,"i_lat":-6.319871,"time":4,"distance":2413,"station_name":"Serpong"}],[{"i_long":106.832616,"is_transit":false,"station_name":"Lenteng Agung","line":2,"station_id":"LNA","time":0,"distance":0,"transit":false,"i_lat":-6.330363},{"transit":false,"distance":2671,"is_transit":false,"station_id":"TNT","i_long":106.838896,"line":2,"time":3,"i_lat":-6.3080680000000005,"station_name":"Tanjung Barat"},{"is_transit":false,"transit":false,"distance":2820,"station_name":"Pasar Minggu","i_long":106.843999,"time":4,"i_lat":-6.2842400000000005,"station_id":"PSM","line":2},{"distance":2380,"i_lat":-6.263214,"line":2,"station_name":"Pasar Minggu Baru","i_long":106.851577,"time":2,"is_transit":false,"station_id":"PSMB","transit":false},{"is_transit":false,"station_id":"DRN","station_name":"Duren Kalibata","transit":false,"i_lat":-6.255332,"distance":824,"i_long":106.85449,"line":0,"time":2},{"transit":false,"station_name":"Cawang","i_long":106.856607,"is_transit":false,"distance":1546,"line":0,"i_lat":-6.242512,"station_id":"CW","time":3},{"station_name":"Tebet","station_id":"TEB","line":2,"i_lat":-6.226659,"distance":1230,"transit":false,"i_long":106.857948,"is_transit":false,"time":2},{"station_name":"Manggarai","line":0,"distance":2610,"i_lat":-6.209883,"transit":true,"station_id":"MRI","is_transit":true,"time":4,"i_long":106.84912},{"time":4,"station_name":"Cikini","distance":1590,"i_long":106.840169,"station_id":"CKI","is_transit":false,"transit":false,"i_lat":-6.198556,"line":0},{"station_name":"Gondangdia","i_long":106.832183,"station_id":"GDD","is_transit":false,"time":3,"i_lat":-6.186295,"line":2,"distance":1750,"transit":false},{"time":4,"station_name":"Juanda","i_lat":-6.166716,"is_transit":false,"station_id":"JUA","line":2,"distance":2015,"i_long":106.828284,"transit":false},{"station_id":"SW","is_transit":false,"distance":1149,"station_name":"Sawah Besar","transit":false,"i_long":106.827103,"i_lat":-6.160725,"time":2,"line":2},{"i_lat":-6.149769,"i_long":106.82482,"line":2,"transit":false,"station_name":"Manggabesar","time":2,"station_id":"MGB","distance":906,"is_transit":false},{"is_transit":false,"station_name":"Jayakarta","i_long":106.820901,"i_lat":-6.141205,"line":7,"distance":1080,"time":2,"station_id":"JAY","transit":false},{"is_transit":true,"i_long":106.812439,"distance":1264,"time":4,"station_id":"JAKK","station_name":"Jakarta Kota","line":0,"transit":true,"i_lat":-6.137569},{"station_name":"Kampung Bandan","time":3,"transit":false,"is_transit":true,"station_id":"KPB","distance":1364,"i_lat":-6.132549,"line":0,"i_long":106.826365},{"i_long":106.79867,"station_id":"AK","is_transit":false,"time":9,"distance":4102,"transit":false,"line":0,"station_name":"Angke","i_lat":-6.144674},{"is_transit":true,"distance":1230,"line":1,"i_lat":-6.155215,"time":4,"transit":true,"i_long":106.800832,"station_name":"Duri","station_id":"DU"},{"i_lat":-6.185545,"station_name":"Tanah Abang","is_transit":true,"time":8,"distance":3632,"i_long":106.811091,"station_id":"THB","line":1,"transit":true},{"i_long":106.79689,"station_id":"PLM","transit":false,"station_name":"Palmerah","distance":3191,"is_transit":false,"time":6,"i_lat":-6.207404,"line":6},{"is_transit":false,"transit":false,"distance":3737,"i_long":106.780334,"line":6,"station_id":"KBY","time":7,"i_lat":-6.237242,"station_name":"Kebayoran"},{"station_name":"Pondokranji","time":8,"station_id":"PDJ","transit":false,"i_lat":-6.276362,"is_transit":false,"i_long":106.74273,"line":6,"distance":6218},{"distance":2179,"is_transit":false,"station_name":"Jurangmangu","i_long":106.728916,"i_lat":-6.288927,"transit":false,"station_id":"JMU","time":3,"line":6},{"transit":false,"station_id":"SDM","distance":1994,"time":4,"line":6,"is_transit":false,"station_name":"Sudimara","i_lat":-6.296963,"i_long":106.712277},{"is_transit":false,"time":6,"i_long":106.675475,"distance":4566,"station_id":"RU","transit":false,"station_name":"Rawa Buntu","i_lat":-6.314823,"line":6},{"transit":false,"i_lat":-6.319871,"distance":2413,"is_transit":false,"station_name":"Serpong","station_id":"SRP","i_long":106.66566,"time":4,"line":6}],[{"line":2,"i_long":106.832616,"time":0,"station_name":"Lenteng Agung","is_transit":false,"i_lat":-6.330363,"station_id":"LNA","transit":false,"distance":0},{"time":3,"i_long":106.838896,"line":2,"station_id":"TNT","station_name":"Tanjung Barat","distance":2671,"is_transit":false,"transit":false,"i_lat":-6.3080680000000005},{"distance":2820,"station_name":"Pasar Minggu","is_transit":false,"transit":false,"time":4,"i_long":106.843999,"i_lat":-6.2842400000000005,"station_id":"PSM","line":2},{"station_name":"Pasar Minggu Baru","station_id":"PSMB","i_lat":-6.263214,"distance":2380,"i_long":106.851577,"time":2,"line":2,"is_transit":false,"transit":false},{"station_id":"DRN","is_transit":false,"station_name":"Duren Kalibata","i_long":106.85449,"transit":false,"time":2,"distance":824,"line":0,"i_lat":-6.255332},{"i_lat":-6.242512,"i_long":106.856607,"station_id":"CW","is_transit":false,"time":3,"transit":false,"station_name":"Cawang","line":0,"distance":1546},{"transit":false,"station_name":"Tebet","i_long":106.857948,"distance":1230,"i_lat":-6.226659,"is_transit":false,"time":2,"station_id":"TEB","line":2},{"is_transit":true,"time":4,"i_lat":-6.209883,"i_long":106.84912,"distance":2610,"line":0,"station_id":"MRI","transit":true,"station_name":"Manggarai"},{"i_lat":-6.212485,"transit":false,"time":2,"station_id":"MTR","is_transit":false,"distance":1275,"station_name":"Matraman","i_long":106.858896,"line":1},{"line":0,"is_transit":true,"distance":1377,"i_lat":-6.215091,"station_id":"JNG","transit":true,"time":8,"station_name":"Jatinegara","i_long":106.86807400000001},{"i_lat":-6.209188,"line":11,"time":2,"is_transit":false,"i_long":106.861737,"station_id":"POK","distance":1236,"station_name":"Pondok Jati","transit":false},{"is_transit":false,"transit":false,"distance":1829,"i_lat":-6.193792,"station_id":"KMT","line":11,"station_name":"Kramat","time":2,"i_long":106.855437},{"i_long":106.850107,"station_id":"GST","time":1,"distance":973,"transit":false,"i_lat":-6.185975,"is_transit":false,"station_name":"Gang Sentiong","line":11},{"i_long":106.84368,"line":11,"distance":1567,"time":8,"station_id":"PSE","is_transit":false,"transit":false,"i_lat":-6.174784,"station_name":"Pasar Senen"},{"distance":1436,"transit":false,"i_long":106.839204,"line":11,"station_id":"KMO","i_lat":-6.161728,"time":4,"station_name":"Kemayoran","is_transit":false},{"transit":false,"is_transit":false,"line":11,"station_name":"Rajawali","i_lat":-6.14505,"i_long":106.836569,"station_id":"RJW","time":5,"distance":1901},{"line":0,"i_lat":-6.132549,"is_transit":true,"station_name":"Kampung Bandan","time":3,"transit":true,"station_id":"KPB","distance":1444,"i_long":106.826365},{"i_long":106.79867,"i_lat":-6.144674,"time":9,"is_transit":false,"transit":false,"line":0,"station_id":"AK","distance":4102,"station_name":"Angke"},{"station_id":"DU","transit":true,"distance":1230,"station_name":"Duri","i_lat":-6.155215,"is_transit":true,"line":1,"time":4,"i_long":106.800832},{"distance":3632,"station_name":"Tanah Abang","station_id":"THB","line":1,"time":8,"is_transit":true,"i_lat":-6.185545,"transit":true,"i_long":106.811091},{"transit":false,"time":6,"is_transit":false,"distance":3191,"station_name":"Palmerah","station_id":"PLM","i_lat":-6.207404,"i_long":106.79689,"line":6},{"station_name":"Kebayoran","i_lat":-6.237242,"time":7,"i_long":106.780334,"station_id":"KBY","line":6,"transit":false,"is_transit":false,"distance":3737},{"distance":6218,"transit":false,"i_lat":-6.276362,"i_long":106.74273,"line":6,"station_id":"PDJ","is_transit":false,"time":8,"station_name":"Pondokranji"},{"i_lat":-6.288927,"line":6,"station_name":"Jurangmangu","is_transit":false,"station_id":"JMU","i_long":106.728916,"transit":false,"time":3,"distance":2179},{"transit":false,"is_transit":false,"station_name":"Sudimara","station_id":"SDM","distance":1994,"i_lat":-6.296963,"i_long":106.712277,"line":6,"time":4},{"i_lat":-6.314823,"distance":4566,"station_name":"Rawa Buntu","line":6,"time":6,"is_transit":false,"station_id":"RU","transit":false,"i_long":106.675475},{"distance":2413,"station_name":"Serpong","i_lat":-6.319871,"station_id":"SRP","i_long":106.66566,"is_transit":false,"transit":false,"line":6,"time":4}]]}