{"data":[[{"line":2,"station_name":"Lenteng Agung","time":0,"station_id":"LNA","distance":0,"i_long":106.832616,"transit":false,"i_lat":-6.330363,"is_transit":false},{"i_long":106.838896,"distance":2671,"station_name":"Tanjung Barat","time":3,"transit":false,"station_id":"TNT","i_lat":-6.3080680000000005,"line":2,"is_transit":false},{"i_lat":-6.2842400000000005,"is_transit":false,"transit":false,"distance":2820,"time":4,"line":2,"station_id":"PSM","station_name":"Pasar Minggu","i_long":106.843999},{"i_long":106.851577,"distance":2380,"transit":false,"station_id":"PSMB","is_transit":false,"station_name":"Pasar Minggu Baru","time":2,"i_lat":-6.263214,"line":2},{"station_name":"Duren Kalibata","distance":824,"i_lat":-6.255332,"i_long":106.85449,"is_transit":false,"transit":false,"time":2,"line":2,"station_id":"DRN"},{"i_lat":-6.242512,"is_transit":false,"time":3,"i_long":106.856607,"station_name":"Cawang","line":2,"station_id":"CW","transit":false,"distance":1546},{"transit":false,"i_long":106.857948,"line":2,"time":2,"is_transit":false,"station_name":"Tebet","distance":1230,"station_id":"TEB","i_lat":-6.226659},{"transit":true,"station_name":"Manggarai","time":4,"i_long":106.84912,"is_transit":true,"line":2,"i_lat":-6.209883,"station_id":"MRI","distance":2610},{"i_long":106.822649,"distance":3186,"time":4,"i_lat":-6.202263,"line":1,"transit":false,"station_name":"Sudirman","station_id":"SUD","is_transit":false},{"station_id":"SUDB","time":1,"line":1,"station_name":"Sudirman Baru","distance":280,"transit":false,"i_lat":-6.201433,"i_long":106.819881,"is_transit":false},{"is_transit":false,"transit":false,"station_id":"KAT","i_long":106.816351,"station_name":"Karet","distance":471,"time":1,"line":1,"i_lat":-6.20132},{"is_transit":true,"time":5,"line":1,"distance":2029,"i_lat":-6.185545,"station_name":"Tanah Abang","i_long":106.811091,"station_id":"THB","transit":true},{"transit":false,"time":6,"i_long":106.79689,"station_name":"Palmerah","distance":3191,"line":6,"station_id":"PLM","is_transit":false,"i_lat":-6.207404},{"i_long":106.780334,"station_name":"Kebayoran","line":6,"transit":false,"is_transit":false,"time":7,"distance":3737,"i_lat":-6.237242,"station_id":"KBY"},{"line":6,"station_name":"Pondokranji","i_lat":-6.276362,"time":8,"i_long":106.74273,"is_transit":false,"transit":false,"distance":6218,"station_id":"PDJ"},{"station_name":"Jurangmangu","i_long":106.728916,"line":6,"is_transit":false,"distance":2179,"time":3,"transit":false,"station_id":"JMU","i_lat":-6.288927},{"time":4,"i_lat":-6.296963,"line":6,"i_long":106.712277,"transit":false,"is_transit":false,"distance":1994,"station_id":"SDM","station_name":"Sudimara"},{"distance":4566,"transit":false,"time":6,"i_long":106.675475,"station_name":"Rawa Buntu","line":6,"station_id":"RU","is_transit":false,"i_lat":-6.314823},{"station_name":"Serpong","distance":2413,"time":4,"line":6,"station_id":"SRP","is_transit":false,"i_long":106.66566,"transit":false,"i_lat":-6.319871},{"is_transit":false,"i_lat":-6.32484,"station_id":"CSK","line":3,"station_name":"Cisauk","time":4,"i_long":106.640411,"distance":1784,"transit":false},{"is_transit":false,"station_name":"Cicayur","time":4,"distance":2519,"transit":false,"station_id":"CC","i_lat":-6.329547,"line":3,"i_long":106.617853},{"transit":false,"time":8,"station_id":"PRP","i_long":106.568863,"distance":5968,"i_lat":-6.3441410000000005,"station_name":"Parung Panjang","is_transit":false,"line":6},{"station_id":"CJT","transit":false,"i_lat":-6.354349,"i_long":106.508482,"line":3,"station_name":"Cilejit","time":9,"distance":7025,"is_transit":false},{"distance":2675,"is_transit":false,"station_id":"DAR","i_long":106.491338,"time":6,"i_lat":-6.338021,"station_name":"Daru","line":0,"transit":false},{"distance":3902,"i_long":106.460812,"line":6,"is_transit":false,"station_name":"Tenjo","transit":false,"station_id":"TEJ","i_lat":-6.327251,"time":5},{"i_long":106.425991,"i_lat":-6.328533,"line":6,"distance":2974,"is_transit":false,"station_id":"TGS","time":5,"station_name":"Tigaraksa","transit":false}],[{"i_long":106.832616,"line":2,"is_transit":false,"time":0,"transit":false,"distance":0,"station_id":"LNA","station_name":"Lenteng Agung","i_lat":-6.330363},{"transit":false,"station_id":"TNT","is_transit":false,"distance":2671,"i_long":106.838896,"line":2,"i_lat":-6.3080680000000005,"station_name":"Tanjung Barat","time":3},{"transit":false,"station_id":"PSM","time":4,"i_long":106.843999,"is_transit":false,"station_name":"Pasar Minggu","line":2,"distance":2820,"i_lat":-6.2842400000000005},{"line":2,"is_transit":false,"transit":false,"i_long":106.851577,"i_lat":-6.263214,"station_name":"Pasar Minggu Baru","time":2,"station_id":"PSMB","distance":2380},{"i_lat":-6.255332,"transit":false,"station_id":"DRN","line":2,"station_name":"Duren Kalibata","i_long":106.85449,"time":2,"is_transit":false,"distance":824},{"distance":1546,"line":2,"transit":false,"i_long":106.856607,"station_id":"CW","time":3,"station_name":"Cawang","is_transit":false,"i_lat":-6.242512},{"station_id":"TEB","distance":1230,"transit":false,"i_long":106.857948,"line":2,"is_transit":false,"station_name":"Tebet","time":2,"i_lat":-6.226659},{"station_id":"MRI","station_name":"Manggarai","is_transit":false,"i_long":106.84912,"i_lat":-6.209883,"transit":false,"time":4,"line":2,"distance":2610},{"line":2,"i_lat":-6.198556,"i_long":106.840169,"time":4,"station_name":"Cikini","transit":false,"station_id":"CKI","distance":1590,"is_transit":false},{"time":3,"i_lat":-6.186295,"is_transit":false,"distance":1750,"station_name":"Gondangdia","line":2,"i_long":106.832183,"station_id":"GDD","transit":false},{"is_transit":false,"distance":2015,"time":4,"i_long":106.828284,"transit":false,"line":2,"station_id":"JUA","i_lat":-6.166716,"station_name":"Juanda"},{"line":2,"distance":1149,"is_transit":false,"transit":false,"time":2,"station_name":"Sawah Besar","i_lat":-6.160725,"i_long":106.827103,"station_id":"SW"},{"line":2,"station_name":"Manggabesar","i_long":106.82482,"distance":906,"time":2,"is_transit":false,"i_lat":-6.149769,"transit":false,"station_id":"MGB"},{"line":2,"is_transit":false,"station_id":"JAY","distance":1080,"transit":false,"time":2,"station_name":"Jayakarta","i_lat":-6.141205,"i_long":106.820901},{"station_name":"Jakarta Kota","is_transit":true,"time":4,"station_id":"JAKK","transit":true,"i_lat":-6.137569,"i_long":106.812439,"distance":1264,"line":2},{"time":3,"i_lat":-6.132549,"station_id":"KPB","line":4,"distance":1364,"transit":true,"i_long":106.826365,"is_transit":true,"station_name":"Kampung Bandan"},{"is_transit":false,"station_name":"Angke","line":1,"station_id":"AK","time":9,"i_long":106.79867,"transit":false,"i_lat":-6.144674,"distance":4102},{"i_lat":-6.155215,"is_transit":false,"transit":false,"i_long":106.800832,"line":1,"station_name":"Duri","station_id":"DU","time":4,"distance":1230},{"station_name":"Tanah Abang","transit":true,"i_long":106.811091,"i_lat":-6.185545,"line":1,"station_id":"THB","distance":3632,"time":8,"is_transit":true},{"station_id":"PLM","time":6,"i_lat":-6.207404,"is_transit":false,"line":6,"distance":3191,"i_long":106.79689,"station_name":"Palmerah","transit":false},{"line":6,"i_lat":-6.237242,"station_name":"Kebayoran","is_transit":false,"transit":false,"i_long":106.780334,"station_id":"KBY","time":7,"distance":3737},{"time":8,"i_lat":-6.276362,"i_long":106.74273,"line":6,"station_name":"Pondokranji","transit":false,"is_transit":false,"distance":6218,"station_id":"PDJ"},{"station_id":"JMU","transit":false,"is_transit":false,"station_name":"Jurangmangu","time":3,"i_lat":-6.288927,"distance":2179,"line":6,"i_long":106.728916},{"is_transit":false,"station_id":"SDM","i_long":106.712277,"i_lat":-6.296963,"distance":1994,"station_name":"Sudimara","time":4,"transit":false,"line":6},{"distance":4566,"transit":false,"station_name":"Rawa Buntu","is_transit":false,"station_id":"RU","time":6,"line":6,"i_lat":-6.314823,"i_long":106.675475},{"station_name":"Serpong","transit":false,"i_lat":-6.319871,"station_id":"SRP","is_transit":false,"line":6,"distance":2413,"i_long":106.66566,"time":4},{"station_id":"CSK","is_transit":false,"i_long":106.640411,"line":3,"transit":false,"time":4,"distance":1784,"i_lat":-6.32484,"station_name":"Cisauk"},{"i_long":106.617853,"distance":2519,"station_name":"Cicayur","transit":false,"time":4,"i_lat":-6.329547,"is_transit":false,"station_id":"CC","line":3},{"is_transit":false,"i_lat":-6.3441410000000005,"time":8,"transit":false,"i_long":106.568863,"line":6,"distance":5968,"station_id":"PRP","station_name":"Parung Panjang"},{"i_long":106.508482,"line":3,"distance":7025,"time":9,"i_lat":-6.354349,"transit":false,"station_id":"CJT","is_transit":false,"station_name":"Cilejit"},{"time":6,"i_long":106.491338,"transit":false,"i_lat":-6.338021,"is_transit":false,"station_id":"DAR","distance":2675,"station_name":"Daru","line":0},{"i_lat":-6.327251,"is_transit":false,"transit":false,"station_id":"TEJ","line":6,"station_name":"Tenjo","i_long":106.460812,"distance":3902,"time":5},{"is_transit":false,"station_name":"Tigaraksa","distance":2974,"time":5,"i_long":106.425991,"station_id":"TGS","i_lat":-6.328533,"transit":false,"line":6}],[{"station_id":"LNA","i_long":106.832616,"line":2,"station_name":"Lenteng Agung","is_transit":false,"time":0,"distance":0,"i_lat":-6.330363,"transit":false},{"distance":2671,"i_lat":-6.3080680000000005,"transit":false,"line":2,"i_long":106.838896,"is_transit":false,"station_id":"TNT","time":3,"station_name":"Tanjung Barat"},{"distance":2820,"time":4,"is_transit":false,"i_lat":-6.2842400000000005,"line":2,"station_id":"PSM","station_name":"Pasar Minggu","i_long":106.843999,"transit":false},{"station_id":"PSMB","i_lat":-6.263214,"i_long":106.851577,"is_transit":false,"line":2,"transit":false,"time":2,"station_name":"Pasar Minggu Baru","distance":2380},{"line":2,"i_long":106.85449,"is_transit":false,"distance":824,"time":2,"i_lat":-6.255332,"station_id":"DRN","station_name":"Duren Kalibata","transit":false},{"transit":false,"time":3,"i_lat":-6.242512,"line":2,"distance":1546,"station_id":"CW","i_long":106.856607,"is_transit":false,"station_name":"Cawang"},{"i_lat":-6.226659,"is_transit":false,"station_name":"Tebet","line":2,"i_long":106.857948,"transit":false,"time":2,"station_id":"TEB","distance":1230},{"station_id":"MRI","station_name":"Manggarai","line":2,"i_long":106.84912,"is_transit":true,"transit":true,"time":4,"i_lat":-6.209883,"distance":2610},{"i_long":106.858896,"transit":false,"line":1,"station_name":"Matraman","i_lat":-6.212485,"is_transit":false,"station_id":"MTR","distance":1275,"time":2},{"i_lat":-6.215091,"distance":1377,"station_name":"Jatinegara","line":1,"is_transit":true,"station_id":"JNG","i_long":106.86807400000001,"transit":true,"time":8},{"i_lat":-6.209188,"distance":1236,"time":2,"transit":false,"i_long":106.861737,"station_name":"Pondok Jati","is_transit":false,"line":11,"station_id":"POK"},{"station_name":"Kramat","i_lat":-6.193792,"distance":1829,"transit":false,"time":2,"i_long":106.855437,"is_transit":false,"station_id":"KMT","line":11},{"line":11,"i_long":106.850107,"i_lat":-6.185975,"is_transit":false,"time":1,"station_name":"Gang Sentiong","distance":973,"transit":false,"station_id":"GST"},{"is_transit":false,"i_long":106.84368,"station_id":"PSE","transit":false,"distance":1567,"line":11,"station_name":"Pasar Senen","time":8,"i_lat":-6.174784},{"is_transit":false,"station_name":"Kemayoran","line":11,"i_long":106.839204,"distance":1436,"i_lat":-6.161728,"transit":false,"station_id":"KMO","time":4},{"distance":1901,"transit":false,"time":5,"is_transit":false,"station_name":"Rajawali","i_lat":-6.14505,"line":11,"i_long":106.836569,"station_id":"RJW"},{"station_name":"Kampung Bandan","is_transit":true,"station_id":"KPB","transit":true,"i_lat":-6.132549,"i_long":106.826365,"time":3,"line":4,"distance":1444},{"line":1,"transit":false,"is_transit":false,"i_long":106.79867,"i_lat":-6.144674,"time":9,"station_id":"AK","distance":4102,"station_name":"Angke"},{"station_id":"DU","i_lat":-6.155215,"transit":false,"time":4,"line":1,"station_name":"Duri","i_long":106.800832,"is_transit":false,"distance":1230},{"station_id":"THB","station_name":"Tanah Abang","i_long":106.811091,"is_transit":true,"distance":3632,"i_lat":-6.185545,"line":1,"time":8,"transit":true},{"line":6,"i_long":106.79689,"station_name":"Palmerah","is_transit":false,"distance":3191,"i_lat":-6.207404,"transit":false,"station_id":"PLM","time":6},{"transit":false,"line":6,"station_name":"Kebayoran","i_lat":-6.237242,"is_transit":false,"time":7,"i_long":106.780334,"distance":3737,"station_id":"KBY"},{"line":6,"time":8,"distance":6218,"i_lat":-6.276362,"transit":false,"station_id":"PDJ","i_long":106.74273,"station_name":"Pondokranji","is_transit":false},{"is_transit":false,"time":3,"i_long":106.728916,"i_lat":-6.288927,"station_name":"Jurangmangu","transit":false,"distance":2179,"station_id":"JMU","line":6},{"i_long":106.712277,"time":4,"station_id":"SDM","line":6,"transit":false,"i_lat":-6.296963,"distance":1994,"is_transit":false,"station_name":"Sudimara"},{"i_lat":-6.314823,"is_transit":false,"distance":4566,"station_name":"Rawa Buntu","transit":false,"station_id":"RU","time":6,"i_long":106.675475,"line":6},{"is_transit":false,"distance":2413,"transit":false,"i_long":106.66566,"station_name":"Serpong","line":6,"station_id":"SRP","time":4,"i_lat":-6.319871},{"transit":false,"is_transit":false,"i_lat":-6.32484,"line":3,"time":4,"i_long":106.640411,"station_name":"Cisauk","distance":1784,"station_id":"CSK"},{"i_lat":-6.329547,"transit":false,"line":3,"is_transit":false,"station_id":"CC","distance":2519,"station_name":"Cicayur","i_long":106.617853,"time":4},{"time":8,"station_name":"Parung Panjang","distance":5968,"is_transit":false,"transit":false,"i_lat":-6.3441410000000005,"station_id":"PRP","i_long":106.568863,"line":6},{"time":9,"i_lat":-6.354349,"transit":false,"i_long":106.508482,"line":3,"station_name":"Cilejit","distance":7025,"station_id":"CJT","is_transit":false},{"time":6,"station_id":"DAR","distance":2675,"i_long":106.491338,"transit":false,"i_lat":-6.338021,"is_transit":false,"station_name":"Daru","line":0},{"i_lat":-6.327251,"i_long":106.460812,"is_transit":false,"time":5,"station_name":"Tenjo","line":6,"station_id":"TEJ","transit":false,"distance":3902},{"station_id":"TGS","i_long":106.425991,"i_lat":-6.328533,"distance":2974,"line":6,"transit":false,"time":5,"station_name":"Tigaraksa","is_transit":false}]]}