{"data":[[{"distance":0,"is_transit":false,"i_lat":-6.330363,"i_long":106.832616,"time":0,"station_id":"LNA","line":2,"station_name":"Lenteng Agung","transit":false},{"station_name":"Tanjung Barat","i_lat":-6.3080680000000005,"distance":2671,"is_transit":false,"line":2,"time":3,"station_id":"TNT","i_long":106.838896,"transit":false},{"transit":false,"distance":2820,"station_name":"Pasar Minggu","i_lat":-6.2842400000000005,"i_long":106.843999,"line":2,"station_id":"PSM","is_transit":false,"time":4},{"time":2,"distance":2380,"line":2,"station_id":"PSMB","is_transit":false,"transit":false,"i_long":106.851577,"station_name":"Pasar Minggu Baru","i_lat":-6.263214},{"is_transit":false,"i_long":106.85449,"time":2,"i_lat":-6.255332,"distance":824,"station_id":"DRN","transit":false,"station_name":"Duren Kalibata","line":2},{"station_id":"CW","i_lat":-6.242512,"is_transit":false,"station_name":"Cawang","i_long":106.856607,"line":2,"transit":false,"time":3,"distance":1546},{"is_transit":false,"transit":false,"line":2,"time":2,"station_id":"TEB","i_lat":-6.226659,"distance":1230,"i_long":106.857948,"station_name":"Tebet"},{"station_id":"MRI","line":2,"time":4,"i_lat":-6.209883,"i_long":106.84912,"is_transit":true,"station_name":"Manggarai","distance":2610,"transit":true},{"station_name":"Sudirman","is_transit":false,"i_lat":-6.202263,"line":1,"time":4,"transit":false,"station_id":"SUD","i_long":106.822649,"distance":3186},{"i_long":106.819881,"i_lat":-6.201433,"station_id":"SUDB","line":1,"is_transit":false,"station_name":"Sudirman Baru","time":1,"distance":280,"transit":false},{"time":1,"station_id":"KAT","line":1,"distance":471,"transit":false,"i_lat":-6.20132,"station_name":"Karet","i_long":106.816351,"is_transit":false}],[{"transit":false,"time":0,"line":2,"is_transit":false,"i_long":106.832616,"i_lat":-6.330363,"station_id":"LNA","distance":0,"station_name":"Lenteng Agung"},{"line":2,"transit":false,"station_name":"Tanjung Barat","is_transit":false,"distance":2671,"time":3,"station_id":"TNT","i_lat":-6.3080680000000005,"i_long":106.838896},{"transit":false,"station_id":"PSM","distance":2820,"i_lat":-6.2842400000000005,"line":2,"station_name":"Pasar Minggu","time":4,"i_long":106.843999,"is_transit":false},{"time":2,"station_id":"PSMB","line":2,"distance":2380,"i_long":106.851577,"transit":false,"is_transit":false,"station_name":"Pasar Minggu Baru","i_lat":-6.263214},{"i_lat":-6.255332,"line":2,"station_id":"DRN","is_transit":false,"transit":false,"time":2,"i_long":106.85449,"station_name":"Duren Kalibata","distance":824},{"is_transit":false,"line":2,"i_lat":-6.242512,"station_name":"Cawang","station_id":"CW","transit":false,"time":3,"distance":1546,"i_long":106.856607},{"station_id":"TEB","transit":false,"distance":1230,"station_name":"Tebet","time":2,"i_lat":-6.226659,"i_long":106.857948,"is_transit":false,"line":2},{"time":4,"i_lat":-6.209883,"i_long":106.84912,"is_transit":false,"station_id":"MRI","distance":2610,"line":2,"transit":false,"station_name":"Manggarai"},{"i_long":106.840169,"transit":false,"distance":1590,"station_name":"Cikini","station_id":"CKI","line":2,"time":4,"i_lat":-6.198556,"is_transit":false},{"i_long":106.832183,"transit":false,"distance":1750,"station_name":"Gondangdia","i_lat":-6.186295,"line":2,"is_transit":false,"time":3,"station_id":"GDD"},{"station_id":"JUA","transit":false,"time":4,"is_transit":false,"station_name":"Juanda","i_lat":-6.166716,"i_long":106.828284,"distance":2015,"line":2},{"line":2,"station_id":"SW","i_lat":-6.160725,"i_long":106.827103,"time":2,"transit":false,"is_transit":false,"station_name":"Sawah Besar","distance":1149},{"time":2,"i_long":106.82482,"transit":false,"is_transit":false,"station_id":"MGB","distance":906,"station_name":"Manggabesar","i_lat":-6.149769,"line":2},{"i_long":106.820901,"time":2,"station_id":"JAY","is_transit":false,"station_name":"Jayakarta","distance":1080,"line":2,"transit":false,"i_lat":-6.141205},{"line":2,"station_id":"JAKK","time":4,"station_name":"Jakarta Kota","is_transit":true,"i_long":106.812439,"transit":true,"distance":1264,"i_lat":-6.137569},{"line":4,"time":3,"i_long":106.826365,"i_lat":-6.132549,"station_name":"Kampung Bandan","transit":true,"station_id":"KPB","distance":1364,"is_transit":true},{"i_lat":-6.144674,"i_long":106.79867,"is_transit":false,"station_name":"Angke","time":9,"station_id":"AK","line":1,"transit":false,"distance":4102},{"station_id":"DU","distance":1230,"time":4,"station_name":"Duri","i_long":106.800832,"i_lat":-6.155215,"transit":false,"line":1,"is_transit":false},{"station_id":"THB","i_long":106.811091,"station_name":"Tanah Abang","i_lat":-6.185545,"distance":3632,"time":8,"is_transit":false,"line":1,"transit":false},{"is_transit":false,"station_name":"Karet","transit":false,"time":5,"i_lat":-6.20132,"distance":2029,"i_long":106.816351,"line":1,"station_id":"KAT"}],[{"line":2,"transit":false,"distance":0,"i_long":106.832616,"station_id":"LNA","station_name":"Lenteng Agung","i_lat":-6.330363,"time":0,"is_transit":false},{"i_lat":-6.3080680000000005,"line":2,"i_long":106.838896,"time":3,"is_transit":false,"distance":2671,"station_id":"TNT","transit":false,"station_name":"Tanjung Barat"},{"transit":false,"distance":2820,"is_transit":false,"i_long":106.843999,"i_lat":-6.2842400000000005,"station_name":"Pasar Minggu","time":4,"station_id":"PSM","line":2},{"i_long":106.851577,"transit":false,"line":2,"is_transit":false,"station_name":"Pasar Minggu Baru","time":2,"distance":2380,"station_id":"PSMB","i_lat":-6.263214},{"station_id":"DRN","is_transit":false,"distance":824,"transit":false,"station_name":"Duren Kalibata","i_long":106.85449,"i_lat":-6.255332,"time":2,"line":2},{"station_name":"Cawang","i_lat":-6.242512,"i_long":106.856607,"line":2,"time":3,"distance":1546,"station_id":"CW","transit":false,"is_transit":false},{"distance":1230,"station_id":"TEB","line":2,"station_name":"Tebet","i_lat":-6.226659,"time":2,"is_transit":false,"transit":false,"i_long":106.857948},{"distance":2610,"transit":true,"station_id":"MRI","line":2,"is_transit":true,"station_name":"Manggarai","time":4,"i_lat":-6.209883,"i_long":106.84912},{"station_name":"Matraman","line":1,"transit":false,"i_lat":-6.212485,"station_id":"MTR","time":2,"is_transit":false,"i_long":106.858896,"distance":1275},{"transit":true,"is_transit":true,"station_id":"JNG","distance":1377,"i_long":106.86807400000001,"station_name":"Jatinegara","time":8,"i_lat":-6.215091,"line":1},{"i_lat":-6.209188,"time":2,"i_long":106.861737,"transit":false,"is_transit":false,"line":11,"station_name":"Pondok Jati","distance":1236,"station_id":"POK"},{"station_id":"KMT","i_long":106.855437,"line":11,"i_lat":-6.193792,"time":2,"is_transit":false,"station_name":"Kramat","transit":false,"distance":1829},{"line":11,"station_name":"Gang Sentiong","time":1,"is_transit":false,"i_long":106.850107,"transit":false,"station_id":"GST","i_lat":-6.185975,"distance":973},{"distance":1567,"line":11,"i_long":106.84368,"transit":false,"i_lat":-6.174784,"time":8,"station_name":"Pasar Senen","is_transit":false,"station_id":"PSE"},{"time":4,"distance":1436,"station_name":"Kemayoran","station_id":"KMO","i_long":106.839204,"is_transit":false,"line":11,"i_lat":-6.161728,"transit":false},{"station_name":"Rajawali","i_lat":-6.14505,"line":11,"distance":1901,"time":5,"i_long":106.836569,"station_id":"RJW","transit":false,"is_transit":false},{"is_transit":true,"station_name":"Kampung Bandan","i_lat":-6.132549,"i_long":106.826365,"line":4,"time":3,"distance":1444,"station_id":"KPB","transit":true},{"line":1,"i_long":106.79867,"distance":4102,"station_name":"Angke","transit":false,"station_id":"AK","is_transit":false,"i_lat":-6.144674,"time":9},{"station_id":"DU","distance":1230,"transit":false,"is_transit":false,"i_lat":-6.155215,"time":4,"i_long":106.800832,"line":1,"station_name":"Duri"},{"station_name":"Tanah Abang","station_id":"THB","is_transit":false,"transit":false,"i_lat":-6.185545,"time":8,"line":1,"distance":3632,"i_long":106.811091},{"line":1,"station_id":"KAT","is_transit":false,"i_long":106.816351,"time":5,"i_lat":-6.20132,"station_name":"Karet","distance":2029,"transit":false}]]}