{"data":[[{"distance":0,"station_id":"LNA","is_transit":false,"i_lat":-6.330363,"time":0,"station_name":"Lenteng Agung","transit":false,"i_long":106.832616,"line":2},{"i_lat":-6.3080680000000005,"distance":2671,"station_name":"Tanjung Barat","transit":false,"line":2,"time":3,"i_long":106.838896,"station_id":"TNT","is_transit":false},{"distance":2820,"i_lat":-6.2842400000000005,"i_long":106.843999,"is_transit":false,"station_id":"PSM","transit":false,"time":4,"station_name":"Pasar Minggu","line":2},{"time":2,"i_lat":-6.263214,"station_name":"Pasar Minggu Baru","transit":false,"i_long":106.851577,"line":2,"station_id":"PSMB","is_transit":false,"distance":2380},{"transit":false,"station_id":"DRN","time":2,"is_transit":false,"distance":824,"i_lat":-6.255332,"station_name":"Duren Kalibata","line":2,"i_long":106.85449},{"time":3,"station_id":"CW","distance":1546,"i_lat":-6.242512,"i_long":106.856607,"line":2,"is_transit":false,"transit":false,"station_name":"Cawang"},{"i_lat":-6.226659,"distance":1230,"is_transit":false,"time":2,"i_long":106.857948,"transit":false,"line":2,"station_id":"TEB","station_name":"Tebet"},{"time":4,"line":2,"distance":2610,"station_name":"Manggarai","i_lat":-6.209883,"is_transit":true,"i_long":106.84912,"transit":true,"station_id":"MRI"},{"transit":false,"time":2,"station_name":"Matraman","i_lat":-6.212485,"station_id":"MTR","is_transit":false,"distance":1275,"i_long":106.858896,"line":1},{"i_lat":-6.215091,"station_id":"JNG","station_name":"Jatinegara","is_transit":false,"transit":false,"time":8,"i_long":106.86807400000001,"line":1,"distance":1377},{"i_long":106.899548,"station_id":"KLD","i_lat":-6.2135,"station_name":"Klender","time":3,"transit":false,"is_transit":false,"distance":3395,"line":1},{"station_id":"BUA","time":2,"transit":false,"is_transit":false,"i_lat":-6.215568,"station_name":"Buaran","distance":3100,"i_long":106.922662,"line":1}],[{"station_id":"LNA","station_name":"Lenteng Agung","line":2,"i_lat":-6.330363,"is_transit":false,"transit":false,"time":0,"i_long":106.832616,"distance":0},{"transit":false,"time":3,"i_lat":-6.3080680000000005,"line":2,"station_name":"Tanjung Barat","station_id":"TNT","is_transit":false,"i_long":106.838896,"distance":2671},{"transit":false,"is_transit":false,"i_lat":-6.2842400000000005,"i_long":106.843999,"time":4,"station_id":"PSM","line":2,"distance":2820,"station_name":"Pasar Minggu"},{"distance":2380,"line":2,"i_lat":-6.263214,"station_id":"PSMB","is_transit":false,"i_long":106.851577,"time":2,"transit":false,"station_name":"Pasar Minggu Baru"},{"is_transit":false,"distance":824,"i_lat":-6.255332,"line":2,"time":2,"transit":false,"i_long":106.85449,"station_id":"DRN","station_name":"Duren Kalibata"},{"station_id":"CW","transit":false,"time":3,"distance":1546,"i_long":106.856607,"line":2,"i_lat":-6.242512,"station_name":"Cawang","is_transit":false},{"time":2,"distance":1230,"line":2,"transit":false,"station_name":"Tebet","is_transit":false,"station_id":"TEB","i_lat":-6.226659,"i_long":106.857948},{"station_name":"Manggarai","line":2,"time":4,"transit":true,"distance":2610,"i_lat":-6.209883,"i_long":106.84912,"station_id":"MRI","is_transit":true},{"i_lat":-6.202263,"line":1,"time":4,"distance":3186,"station_name":"Sudirman","station_id":"SUD","transit":false,"i_long":106.822649,"is_transit":false},{"i_lat":-6.201433,"transit":false,"is_transit":false,"i_long":106.819881,"time":1,"station_name":"Sudirman Baru","station_id":"SUDB","distance":280,"line":1},{"station_name":"Karet","i_lat":-6.20132,"transit":false,"station_id":"KAT","distance":471,"i_long":106.816351,"is_transit":false,"line":1,"time":1},{"station_name":"Tanah Abang","time":5,"transit":false,"i_lat":-6.185545,"line":1,"station_id":"THB","is_transit":false,"i_long":106.811091,"distance":2029},{"time":8,"transit":false,"i_long":106.800832,"distance":3632,"i_lat":-6.155215,"is_transit":false,"line":1,"station_id":"DU","station_name":"Duri"},{"station_name":"Angke","distance":1230,"line":1,"i_lat":-6.144674,"time":4,"i_long":106.79867,"transit":false,"is_transit":false,"station_id":"AK"},{"line":4,"is_transit":true,"time":9,"transit":true,"i_lat":-6.132549,"i_long":106.826365,"station_name":"Kampung Bandan","station_id":"KPB","distance":4102},{"i_long":106.836569,"time":3,"line":11,"station_name":"Rajawali","distance":1444,"transit":false,"station_id":"RJW","is_transit":false,"i_lat":-6.14505},{"station_id":"KMO","i_long":106.839204,"transit":false,"station_name":"Kemayoran","distance":1901,"line":11,"i_lat":-6.161728,"is_transit":false,"time":5},{"i_long":106.84368,"transit":false,"line":11,"is_transit":false,"i_lat":-6.174784,"station_name":"Pasar Senen","distance":1436,"time":4,"station_id":"PSE"},{"distance":1567,"station_name":"Gang Sentiong","transit":false,"i_long":106.850107,"i_lat":-6.185975,"line":11,"time":8,"station_id":"GST","is_transit":false},{"station_id":"KMT","is_transit":false,"station_name":"Kramat","time":1,"transit":false,"i_lat":-6.193792,"i_long":106.855437,"distance":973,"line":11},{"time":2,"station_id":"POK","transit":false,"distance":1829,"station_name":"Pondok Jati","i_long":106.861737,"line":11,"i_lat":-6.209188,"is_transit":false},{"transit":true,"station_name":"Jatinegara","i_long":106.86807400000001,"line":1,"station_id":"JNG","distance":1236,"i_lat":-6.215091,"time":9,"is_transit":true},{"time":3,"is_transit":false,"station_id":"KLD","distance":3395,"transit":false,"i_long":106.899548,"line":1,"station_name":"Klender","i_lat":-6.2135},{"line":1,"is_transit":false,"i_lat":-6.215568,"i_long":106.922662,"transit":false,"time":2,"station_name":"Buaran","station_id":"BUA","distance":3100}],[{"station_id":"LNA","i_long":106.832616,"is_transit":false,"time":0,"i_lat":-6.330363,"station_name":"Lenteng Agung","distance":0,"line":2,"transit":false},{"line":2,"transit":false,"i_long":106.838896,"station_name":"Tanjung Barat","time":3,"station_id":"TNT","is_transit":false,"i_lat":-6.3080680000000005,"distance":2671},{"line":2,"time":4,"station_name":"Pasar Minggu","distance":2820,"transit":false,"station_id":"PSM","is_transit":false,"i_lat":-6.2842400000000005,"i_long":106.843999},{"station_id":"PSMB","is_transit":false,"line":2,"time":2,"distance":2380,"station_name":"Pasar Minggu Baru","i_lat":-6.263214,"i_long":106.851577,"transit":false},{"distance":824,"line":2,"station_name":"Duren Kalibata","station_id":"DRN","transit":false,"i_lat":-6.255332,"time":2,"i_long":106.85449,"is_transit":false},{"transit":false,"time":3,"distance":1546,"is_transit":false,"i_lat":-6.242512,"line":2,"station_id":"CW","i_long":106.856607,"station_name":"Cawang"},{"i_lat":-6.226659,"time":2,"line":2,"distance":1230,"transit":false,"i_long":106.857948,"station_name":"Tebet","is_transit":false,"station_id":"TEB"},{"station_id":"MRI","i_lat":-6.209883,"transit":false,"time":4,"i_long":106.84912,"line":2,"is_transit":false,"station_name":"Manggarai","distance":2610},{"time":4,"is_transit":false,"transit":false,"line":2,"i_long":106.840169,"station_id":"CKI","station_name":"Cikini","distance":1590,"i_lat":-6.198556},{"is_transit":false,"transit":false,"distance":1750,"i_lat":-6.186295,"i_long":106.832183,"line":2,"station_name":"Gondangdia","time":3,"station_id":"GDD"},{"i_lat":-6.166716,"line":2,"station_name":"Juanda","i_long":106.828284,"time":4,"distance":2015,"station_id":"JUA","transit":false,"is_transit":false},{"i_long":106.827103,"line":2,"station_name":"Sawah Besar","transit":false,"distance":1149,"station_id":"SW","is_transit":false,"i_lat":-6.160725,"time":2},{"i_lat":-6.149769,"line":2,"station_name":"Manggabesar","i_long":106.82482,"station_id":"MGB","is_transit":false,"distance":906,"time":2,"transit":false},{"transit":false,"line":2,"station_name":"Jayakarta","i_long":106.820901,"distance":1080,"time":2,"station_id":"JAY","is_transit":false,"i_lat":-6.141205},{"time":4,"line":2,"station_id":"JAKK","distance":1264,"is_transit":true,"i_lat":-6.137569,"station_name":"Jakarta Kota","i_long":106.812439,"transit":true},{"time":3,"is_transit":true,"line":4,"i_long":106.826365,"station_id":"KPB","distance":1364,"station_name":"Kampung Bandan","transit":true,"i_lat":-6.132549},{"is_transit":false,"distance":1444,"line":11,"i_lat":-6.14505,"i_long":106.836569,"time":3,"station_id":"RJW","transit":false,"station_name":"Rajawali"},{"i_long":106.839204,"line":11,"distance":1901,"time":5,"station_name":"Kemayoran","i_lat":-6.161728,"station_id":"KMO","is_transit":false,"transit":false},{"i_long":106.84368,"line":11,"is_transit":false,"distance":1436,"transit":false,"i_lat":-6.174784,"station_name":"Pasar Senen","station_id":"PSE","time":4},{"time":8,"is_transit":false,"line":11,"transit":false,"station_name":"Gang Sentiong","i_long":106.850107,"i_lat":-6.185975,"distance":1567,"station_id":"GST"},{"station_name":"Kramat","distance":973,"line":11,"station_id":"KMT","time":1,"is_transit":false,"transit":false,"i_lat":-6.193792,"i_long":106.855437},{"i_long":106.861737,"distance":1829,"time":2,"station_id":"POK","line":11,"is_transit":false,"transit":false,"i_lat":-6.209188,"station_name":"Pondok Jati"},{"transit":true,"station_name":"Jatinegara","distance":1236,"i_lat":-6.215091,"station_id":"JNG","line":1,"time":9,"i_long":106.86807400000001,"is_transit":true},{"i_long":106.899548,"time":3,"line":1,"transit":false,"station_name":"Klender","is_transit":false,"distance":3395,"i_lat":-6.2135,"station_id":"KLD"},{"distance":3100,"is_transit":false,"time":2,"line":1,"i_long":106.922662,"i_lat":-6.215568,"station_id":"BUA","station_name":"Buaran","transit":false}]]}