{"data":[[{"i_lat":-6.330363,"distance":0,"line":2,"i_long":106.832616,"time":0,"transit":false,"is_transit":false,"station_id":"LNA","station_name":"Lenteng Agung"},{"line":2,"time":3,"distance":2671,"station_id":"TNT","is_transit":false,"i_long":106.838896,"i_lat":-6.3080680000000005,"station_name":"Tanjung Barat","transit":false},{"time":4,"i_long":106.843999,"line":2,"transit":false,"station_id":"PSM","i_lat":-6.2842400000000005,"distance":2820,"is_transit":false,"station_name":"Pasar Minggu"},{"i_lat":-6.263214,"distance":2380,"time":2,"is_transit":false,"i_long":106.851577,"line":2,"station_name":"Pasar Minggu Baru","station_id":"PSMB","transit":false},{"station_id":"DRN","is_transit":false,"time":2,"distance":824,"station_name":"Duren Kalibata","transit":false,"i_lat":-6.255332,"i_long":106.85449,"line":2},{"is_transit":false,"time":3,"station_id":"CW","distance":1546,"transit":false,"station_name":"Cawang","i_long":106.856607,"line":2,"i_lat":-6.242512},{"is_transit":false,"i_lat":-6.226659,"transit":false,"line":2,"i_long":106.857948,"station_id":"TEB","distance":1230,"station_name":"Tebet","time":2},{"station_id":"MRI","line":2,"distance":2610,"i_long":106.84912,"is_transit":false,"transit":false,"station_name":"Manggarai","time":4,"i_lat":-6.209883},{"distance":1590,"station_id":"CKI","station_name":"Cikini","i_lat":-6.198556,"time":4,"line":2,"transit":false,"is_transit":false,"i_long":106.840169},{"line":2,"transit":false,"i_long":106.832183,"time":3,"distance":1750,"station_id":"GDD","station_name":"Gondangdia","is_transit":false,"i_lat":-6.186295}],[{"station_id":"LNA","station_name":"Lenteng Agung","is_transit":false,"i_lat":-6.330363,"line":2,"transit":false,"i_long":106.832616,"time":0,"distance":0},{"line":2,"station_id":"TNT","time":3,"transit":false,"station_name":"Tanjung Barat","is_transit":false,"distance":2671,"i_lat":-6.3080680000000005,"i_long":106.838896},{"i_long":106.843999,"station_name":"Pasar Minggu","time":4,"distance":2820,"transit":false,"i_lat":-6.2842400000000005,"station_id":"PSM","line":2,"is_transit":false},{"station_name":"Pasar Minggu Baru","i_long":106.851577,"is_transit":false,"distance":2380,"transit":false,"station_id":"PSMB","line":2,"time":2,"i_lat":-6.263214},{"i_long":106.85449,"time":2,"distance":824,"is_transit":false,"station_id":"DRN","i_lat":-6.255332,"line":2,"station_name":"Duren Kalibata","transit":false},{"distance":1546,"line":2,"i_lat":-6.242512,"time":3,"i_long":106.856607,"station_name":"Cawang","is_transit":false,"station_id":"CW","transit":false},{"line":2,"i_long":106.857948,"station_id":"TEB","time":2,"is_transit":false,"distance":1230,"i_lat":-6.226659,"station_name":"Tebet","transit":false},{"transit":true,"i_lat":-6.209883,"i_long":106.84912,"time":4,"is_transit":true,"line":2,"distance":2610,"station_id":"MRI","station_name":"Manggarai"},{"station_id":"SUD","is_transit":false,"i_lat":-6.202263,"station_name":"Sudirman","i_long":106.822649,"line":1,"time":4,"distance":3186,"transit":false},{"is_transit":false,"distance":280,"transit":false,"i_long":106.819881,"station_id":"SUDB","time":1,"station_name":"Sudirman Baru","i_lat":-6.201433,"line":1},{"time":1,"i_lat":-6.20132,"station_name":"Karet","station_id":"KAT","distance":471,"i_long":106.816351,"line":1,"transit":false,"is_transit":false},{"transit":false,"i_long":106.811091,"line":1,"station_id":"THB","i_lat":-6.185545,"time":5,"distance":2029,"station_name":"Tanah Abang","is_transit":false},{"station_id":"DU","station_name":"Duri","distance":3632,"is_transit":false,"transit":false,"line":1,"time":8,"i_lat":-6.155215,"i_long":106.800832},{"transit":false,"line":1,"time":4,"i_lat":-6.144674,"station_id":"AK","i_long":106.79867,"distance":1230,"station_name":"Angke","is_transit":false},{"i_long":106.826365,"station_id":"KPB","line":4,"time":9,"is_transit":true,"distance":4102,"transit":true,"station_name":"Kampung Bandan","i_lat":-6.132549},{"line":2,"time":3,"station_id":"JAKK","station_name":"Jakarta Kota","transit":true,"i_long":106.812439,"i_lat":-6.137569,"distance":1364,"is_transit":true},{"distance":1264,"is_transit":false,"transit":false,"time":4,"i_lat":-6.141205,"station_id":"JAY","i_long":106.820901,"line":2,"station_name":"Jayakarta"},{"distance":1080,"time":2,"station_name":"Manggabesar","station_id":"MGB","i_lat":-6.149769,"i_long":106.82482,"line":2,"is_transit":false,"transit":false},{"is_transit":false,"distance":906,"transit":false,"i_long":106.827103,"station_id":"SW","i_lat":-6.160725,"station_name":"Sawah Besar","line":2,"time":2},{"distance":1149,"i_long":106.828284,"time":2,"transit":false,"is_transit":false,"station_id":"JUA","i_lat":-6.166716,"line":2,"station_name":"Juanda"},{"transit":false,"distance":2015,"is_transit":false,"station_id":"GDD","time":4,"i_lat":-6.186295,"line":2,"station_name":"Gondangdia","i_long":106.832183}],[{"i_long":106.832616,"station_name":"Lenteng Agung","time":0,"station_id":"LNA","line":2,"is_transit":false,"transit":false,"distance":0,"i_lat":-6.330363},{"transit":false,"i_long":106.838896,"station_name":"Tanjung Barat","time":3,"line":2,"is_transit":false,"distance":2671,"i_lat":-6.3080680000000005,"station_id":"TNT"},{"time":4,"is_transit":false,"i_long":106.843999,"distance":2820,"station_name":"Pasar Minggu","station_id":"PSM","i_lat":-6.2842400000000005,"line":2,"transit":false},{"station_name":"Pasar Minggu Baru","station_id":"PSMB","line":2,"time":2,"distance":2380,"i_long":106.851577,"i_lat":-6.263214,"transit":false,"is_transit":false},{"station_name":"Duren Kalibata","distance":824,"i_lat":-6.255332,"time":2,"transit":false,"line":2,"is_transit":false,"i_long":106.85449,"station_id":"DRN"},{"transit":false,"time":3,"line":2,"is_transit":false,"distance":1546,"i_lat":-6.242512,"station_id":"CW","i_long":106.856607,"station_name":"Cawang"},{"station_name":"Tebet","i_long":106.857948,"line":2,"station_id":"TEB","transit":false,"time":2,"distance":1230,"is_transit":false,"i_lat":-6.226659},{"time":4,"line":2,"station_id":"MRI","transit":true,"distance":2610,"i_lat":-6.209883,"is_transit":true,"i_long":106.84912,"station_name":"Manggarai"},{"distance":1275,"station_id":"MTR","i_long":106.858896,"line":1,"i_lat":-6.212485,"is_transit":false,"transit":false,"station_name":"Matraman","time":2},{"transit":true,"i_lat":-6.215091,"i_long":106.86807400000001,"station_name":"Jatinegara","line":1,"distance":1377,"is_transit":true,"station_id":"JNG","time":8},{"transit":false,"is_transit":false,"station_name":"Pondok Jati","i_lat":-6.209188,"station_id":"POK","i_long":106.861737,"line":11,"time":2,"distance":1236},{"transit":false,"distance":1829,"station_id":"KMT","i_long":106.855437,"i_lat":-6.193792,"time":2,"station_name":"Kramat","is_transit":false,"line":11},{"station_name":"Gang Sentiong","time":1,"i_lat":-6.185975,"is_transit":false,"station_id":"GST","i_long":106.850107,"transit":false,"line":11,"distance":973},{"distance":1567,"i_lat":-6.174784,"is_transit":false,"station_id":"PSE","line":11,"transit":false,"station_name":"Pasar Senen","i_long":106.84368,"time":8},{"transit":false,"line":11,"is_transit":false,"station_id":"KMO","i_long":106.839204,"i_lat":-6.161728,"station_name":"Kemayoran","distance":1436,"time":4},{"time":5,"distance":1901,"transit":false,"station_id":"RJW","line":11,"station_name":"Rajawali","i_long":106.836569,"is_transit":false,"i_lat":-6.14505},{"time":3,"distance":1444,"station_id":"KPB","transit":true,"station_name":"Kampung Bandan","i_long":106.826365,"line":4,"i_lat":-6.132549,"is_transit":true},{"distance":1364,"transit":true,"station_name":"Jakarta Kota","i_lat":-6.137569,"line":2,"is_transit":true,"station_id":"JAKK","i_long":106.812439,"time":3},{"i_lat":-6.141205,"is_transit":false,"transit":false,"i_long":106.820901,"station_id":"JAY","line":2,"distance":1264,"station_name":"Jayakarta","time":4},{"line":2,"is_transit":false,"distance":1080,"station_name":"Manggabesar","transit":false,"station_id":"MGB","i_lat":-6.149769,"time":2,"i_long":106.82482},{"station_name":"Sawah Besar","station_id":"SW","transit":false,"i_long":106.827103,"line":2,"distance":906,"time":2,"i_lat":-6.160725,"is_transit":false},{"time":2,"i_lat":-6.166716,"distance":1149,"transit":false,"station_id":"JUA","i_long":106.828284,"line":2,"station_name":"Juanda","is_transit":false},{"distance":2015,"station_name":"Gondangdia","station_id":"GDD","is_transit":false,"transit":false,"i_lat":-6.186295,"i_long":106.832183,"time":4,"line":2}]]}