{"data":[[{"station_name":"Lenteng Agung","i_long":106.832616,"distance":0,"i_lat":-6.330363,"is_transit":false,"line":2,"time":0,"transit":false,"station_id":"LNA"},{"transit":false,"distance":2671,"i_lat":-6.3080680000000005,"line":2,"is_transit":false,"time":3,"station_id":"TNT","station_name":"Tanjung Barat","i_long":106.838896},{"station_name":"Pasar Minggu","i_long":106.843999,"time":4,"distance":2820,"transit":false,"line":2,"is_transit":false,"i_lat":-6.2842400000000005,"station_id":"PSM"},{"transit":false,"is_transit":false,"station_id":"PSMB","station_name":"Pasar Minggu Baru","i_lat":-6.263214,"time":2,"distance":2380,"i_long":106.851577,"line":2},{"line":0,"distance":824,"is_transit":false,"transit":false,"time":2,"station_name":"Duren Kalibata","station_id":"DRN","i_lat":-6.255332,"i_long":106.85449},{"station_id":"CW","station_name":"Cawang","is_transit":false,"transit":false,"distance":1546,"i_lat":-6.242512,"i_long":106.856607,"line":0,"time":3},{"station_name":"Tebet","transit":false,"station_id":"TEB","i_lat":-6.226659,"time":2,"distance":1230,"is_transit":false,"i_long":106.857948,"line":2},{"i_long":106.84912,"transit":true,"is_transit":true,"time":4,"distance":2610,"i_lat":-6.209883,"station_id":"MRI","station_name":"Manggarai","line":0},{"i_long":106.822649,"station_id":"SUD","distance":3186,"transit":false,"line":1,"station_name":"Sudirman","is_transit":false,"i_lat":-6.202263,"time":4},{"distance":280,"transit":false,"is_transit":false,"line":1,"i_lat":-6.201433,"station_name":"Sudirman Baru","time":1,"station_id":"SUDB","i_long":106.819881},{"time":1,"station_id":"KAT","station_name":"Karet","distance":471,"i_lat":-6.20132,"line":1,"is_transit":false,"i_long":106.816351,"transit":false},{"station_name":"Tanah Abang","distance":2029,"line":1,"transit":false,"station_id":"THB","i_lat":-6.185545,"i_long":106.811091,"is_transit":true,"time":5},{"line":1,"is_transit":true,"station_name":"Duri","i_lat":-6.155215,"i_long":106.800832,"station_id":"DU","transit":true,"time":8,"distance":3632},{"station_id":"GGL","i_long":106.788277,"station_name":"Grogol","distance":1700,"transit":false,"i_lat":-6.162021,"is_transit":false,"time":3,"line":5}],[{"i_long":106.832616,"is_transit":false,"time":0,"line":2,"transit":false,"station_name":"Lenteng Agung","distance":0,"station_id":"LNA","i_lat":-6.330363},{"is_transit":false,"transit":false,"i_lat":-6.3080680000000005,"station_id":"TNT","station_name":"Tanjung Barat","line":2,"time":3,"i_long":106.838896,"distance":2671},{"i_lat":-6.2842400000000005,"i_long":106.843999,"station_id":"PSM","station_name":"Pasar Minggu","line":2,"is_transit":false,"time":4,"transit":false,"distance":2820},{"transit":false,"station_id":"PSMB","i_lat":-6.263214,"i_long":106.851577,"time":2,"is_transit":false,"distance":2380,"station_name":"Pasar Minggu Baru","line":2},{"station_name":"Duren Kalibata","station_id":"DRN","is_transit":false,"time":2,"line":0,"i_lat":-6.255332,"transit":false,"i_long":106.85449,"distance":824},{"transit":false,"i_lat":-6.242512,"is_transit":false,"station_id":"CW","time":3,"distance":1546,"station_name":"Cawang","i_long":106.856607,"line":0},{"i_lat":-6.226659,"is_transit":false,"i_long":106.857948,"line":2,"transit":false,"station_id":"TEB","station_name":"Tebet","time":2,"distance":1230},{"distance":2610,"time":4,"line":0,"station_id":"MRI","i_long":106.84912,"is_transit":true,"station_name":"Manggarai","transit":true,"i_lat":-6.209883},{"i_long":106.840169,"distance":1590,"is_transit":false,"time":4,"line":0,"transit":false,"i_lat":-6.198556,"station_id":"CKI","station_name":"Cikini"},{"station_name":"Gondangdia","line":2,"time":3,"transit":false,"is_transit":false,"i_long":106.832183,"distance":1750,"i_lat":-6.186295,"station_id":"GDD"},{"transit":false,"time":4,"station_name":"Juanda","i_lat":-6.166716,"line":2,"distance":2015,"is_transit":false,"station_id":"JUA","i_long":106.828284},{"i_long":106.827103,"is_transit":false,"station_id":"SW","i_lat":-6.160725,"line":2,"station_name":"Sawah Besar","time":2,"distance":1149,"transit":false},{"station_name":"Manggabesar","i_lat":-6.149769,"i_long":106.82482,"line":2,"is_transit":false,"time":2,"station_id":"MGB","distance":906,"transit":false},{"is_transit":false,"station_name":"Jayakarta","distance":1080,"station_id":"JAY","i_lat":-6.141205,"time":2,"line":7,"transit":false,"i_long":106.820901},{"distance":1264,"station_name":"Jakarta Kota","transit":true,"i_lat":-6.137569,"is_transit":true,"line":0,"i_long":106.812439,"station_id":"JAKK","time":4},{"i_lat":-6.132549,"i_long":106.826365,"line":0,"distance":1364,"is_transit":true,"station_name":"Kampung Bandan","transit":false,"station_id":"KPB","time":3},{"station_id":"AK","line":0,"is_transit":false,"distance":4102,"time":9,"i_lat":-6.144674,"station_name":"Angke","transit":false,"i_long":106.79867},{"line":1,"time":4,"is_transit":true,"station_id":"DU","i_long":106.800832,"i_lat":-6.155215,"distance":1230,"station_name":"Duri","transit":true},{"is_transit":false,"line":5,"station_id":"GGL","distance":1700,"transit":false,"station_name":"Grogol","time":3,"i_lat":-6.162021,"i_long":106.788277}],[{"transit":false,"line":2,"is_transit":false,"distance":0,"i_lat":-6.330363,"i_long":106.832616,"station_name":"Lenteng Agung","time":0,"station_id":"LNA"},{"transit":false,"distance":2671,"is_transit":false,"i_lat":-6.3080680000000005,"line":2,"time":3,"station_id":"TNT","i_long":106.838896,"station_name":"Tanjung Barat"},{"line":2,"station_id":"PSM","is_transit":false,"time":4,"i_lat":-6.2842400000000005,"distance":2820,"station_name":"Pasar Minggu","i_long":106.843999,"transit":false},{"time":2,"i_long":106.851577,"distance":2380,"transit":false,"station_id":"PSMB","i_lat":-6.263214,"line":2,"is_transit":false,"station_name":"Pasar Minggu Baru"},{"station_id":"DRN","i_long":106.85449,"i_lat":-6.255332,"time":2,"is_transit":false,"line":0,"station_name":"Duren Kalibata","distance":824,"transit":false},{"station_id":"CW","distance":1546,"i_lat":-6.242512,"is_transit":false,"time":3,"i_long":106.856607,"station_name":"Cawang","line":0,"transit":false},{"line":2,"i_lat":-6.226659,"is_transit":false,"transit":false,"time":2,"i_long":106.857948,"station_name":"Tebet","distance":1230,"station_id":"TEB"},{"station_id":"MRI","transit":true,"i_lat":-6.209883,"is_transit":true,"time":4,"i_long":106.84912,"distance":2610,"line":0,"station_name":"Manggarai"},{"is_transit":false,"line":1,"transit":false,"station_id":"MTR","i_long":106.858896,"time":2,"i_lat":-6.212485,"station_name":"Matraman","distance":1275},{"i_lat":-6.215091,"time":8,"distance":1377,"station_name":"Jatinegara","is_transit":true,"transit":true,"station_id":"JNG","i_long":106.86807400000001,"line":0},{"is_transit":false,"distance":1236,"station_name":"Pondok Jati","i_long":106.861737,"time":2,"station_id":"POK","i_lat":-6.209188,"transit":false,"line":11},{"i_lat":-6.193792,"distance":1829,"station_name":"Kramat","station_id":"KMT","is_transit":false,"transit":false,"i_long":106.855437,"line":11,"time":2},{"i_long":106.850107,"transit":false,"station_id":"GST","distance":973,"is_transit":false,"i_lat":-6.185975,"line":11,"station_name":"Gang Sentiong","time":1},{"time":8,"i_long":106.84368,"line":11,"transit":false,"i_lat":-6.174784,"station_id":"PSE","is_transit":false,"distance":1567,"station_name":"Pasar Senen"},{"distance":1436,"line":11,"station_name":"Kemayoran","i_long":106.839204,"transit":false,"i_lat":-6.161728,"time":4,"is_transit":false,"station_id":"KMO"},{"i_long":106.836569,"station_name":"Rajawali","distance":1901,"i_lat":-6.14505,"line":11,"transit":false,"station_id":"RJW","is_transit":false,"time":5},{"i_long":106.826365,"is_transit":true,"distance":1444,"i_lat":-6.132549,"transit":true,"time":3,"station_id":"KPB","station_name":"Kampung Bandan","line":0},{"line":0,"station_name":"Angke","distance":4102,"i_long":106.79867,"transit":false,"station_id":"AK","is_transit":false,"time":9,"i_lat":-6.144674},{"station_name":"Duri","station_id":"DU","i_lat":-6.155215,"is_transit":true,"time":4,"distance":1230,"line":1,"transit":true,"i_long":106.800832},{"distance":1700,"transit":false,"i_long":106.788277,"line":5,"is_transit":false,"i_lat":-6.162021,"station_id":"GGL","station_name":"Grogol","time":3}]]}