{"data":[[{"is_transit":false,"time":0,"station_id":"LNA","distance":0,"i_long":106.832616,"line":2,"transit":false,"i_lat":-6.330363,"station_name":"Lenteng Agung"},{"transit":false,"station_name":"Tanjung Barat","i_long":106.838896,"is_transit":false,"station_id":"TNT","distance":2671,"time":3,"i_lat":-6.3080680000000005,"line":2},{"is_transit":false,"station_name":"Pasar Minggu","time":4,"i_long":106.843999,"line":2,"transit":false,"i_lat":-6.2842400000000005,"distance":2820,"station_id":"PSM"},{"i_long":106.851577,"station_id":"PSMB","station_name":"Pasar Minggu Baru","time":2,"transit":false,"i_lat":-6.263214,"is_transit":false,"line":2,"distance":2380},{"i_long":106.85449,"station_id":"DRN","station_name":"Duren Kalibata","line":0,"time":2,"is_transit":false,"transit":false,"distance":824,"i_lat":-6.255332}]]}