{"data":[[{"station_name":"Lempuyangan","station_id":"LPN","time":0,"is_transit":false,"i_long":110.375434,"i_lat":-7.790018,"line":7,"distance":0,"transit":false},{"transit":false,"station_name":"Maguwo","time":7,"i_long":110.436791,"distance":6799,"station_id":"MGW","is_transit":false,"i_lat":-7.784476,"line":7},{"transit":false,"i_long":110.500451,"is_transit":false,"i_lat":-7.756284,"distance":7905,"time":8,"station_id":"BBN","line":0,"station_name":"Brambanan"},{"time":7,"station_name":"Srowot","transit":false,"i_long":110.548972,"station_id":"SWT","i_lat":-7.74111,"distance":5850,"is_transit":false,"line":7},{"line":7,"station_id":"KT","is_transit":false,"i_long":110.602981,"transit":false,"station_name":"Klaten","distance":6738,"time":8,"i_lat":-7.712087}]]}