{"data":[[{"is_transit":false,"time":0,"transit":false,"distance":0,"i_lat":-7.790018,"i_long":110.375434,"station_name":"Lempuyangan","station_id":"LPN","line":7},{"is_transit":false,"i_long":110.436791,"line":7,"station_id":"MGW","i_lat":-7.784476,"transit":false,"time":7,"distance":6799,"station_name":"Maguwo"},{"station_id":"BBN","is_transit":false,"time":8,"station_name":"Brambanan","transit":false,"line":0,"distance":7905,"i_lat":-7.756284,"i_long":110.500451},{"is_transit":false,"transit":false,"time":7,"line":7,"station_name":"Srowot","i_lat":-7.74111,"distance":5850,"i_long":110.548972,"station_id":"SWT"},{"line":7,"station_name":"Klaten","station_id":"KT","distance":6738,"transit":false,"is_transit":false,"i_lat":-7.712087,"time":8,"i_long":110.602981},{"distance":9279,"is_transit":false,"station_id":"CE","time":9,"station_name":"Ceper","line":7,"i_lat":-7.668597,"transit":false,"i_long":110.674861},{"distance":6271,"i_long":110.706679,"line":7,"station_name":"Delanggu","transit":false,"is_transit":false,"time":7,"i_lat":-7.62181,"station_id":"DL"},{"transit":false,"distance":5543,"i_lat":-7.589036,"time":6,"i_long":110.744432,"line":7,"is_transit":false,"station_id":"GW","station_name":"Gawok"}]]}