{"data":[[{"time":0,"i_lat":-7.790018,"i_long":110.375434,"distance":0,"station_id":"LPN","transit":false,"line":7,"station_name":"Lempuyangan","is_transit":false},{"transit":false,"station_id":"MGW","station_name":"Maguwo","i_lat":-7.784476,"distance":6799,"i_long":110.436791,"line":7,"time":7,"is_transit":false},{"is_transit":false,"station_name":"Brambanan","i_long":110.500451,"distance":7905,"time":8,"line":0,"i_lat":-7.756284,"station_id":"BBN","transit":false},{"distance":5850,"station_name":"Srowot","i_lat":-7.74111,"station_id":"SWT","is_transit":false,"transit":false,"time":7,"i_long":110.548972,"line":7},{"i_lat":-7.712087,"is_transit":false,"time":8,"station_id":"KT","distance":6738,"transit":false,"i_long":110.602981,"line":7,"station_name":"Klaten"},{"station_name":"Ceper","time":9,"i_lat":-7.668597,"transit":false,"i_long":110.674861,"station_id":"CE","line":7,"is_transit":false,"distance":9279},{"is_transit":false,"distance":6271,"time":7,"transit":false,"line":7,"station_name":"Delanggu","station_id":"DL","i_lat":-7.62181,"i_long":110.706679},{"i_long":110.744432,"transit":false,"is_transit":false,"distance":5543,"time":6,"station_id":"GW","line":7,"station_name":"Gawok","i_lat":-7.589036},{"time":7,"i_lat":-7.561362,"distance":6639,"transit":false,"i_long":110.796655,"line":7,"station_name":"Purwosari","station_id":"PWS","is_transit":false},{"time":6,"i_lat":-7.556783,"line":7,"is_transit":false,"i_long":110.821471,"station_id":"SLO","transit":false,"station_name":"Solo Balapan","distance":2936},{"station_id":"SK","i_long":110.839459,"distance":2141,"i_lat":-7.56197,"transit":false,"line":7,"is_transit":false,"time":10,"station_name":"Solo Jebres"}]]}