{"data":[[{"transit":false,"line":7,"time":0,"i_lat":-7.790018,"is_transit":false,"station_id":"LPN","distance":0,"i_long":110.375434,"station_name":"Lempuyangan"},{"line":7,"time":7,"i_long":110.436791,"station_id":"MGW","distance":6799,"station_name":"Maguwo","transit":false,"i_lat":-7.784476,"is_transit":false},{"station_name":"Brambanan","station_id":"BBN","time":8,"is_transit":false,"i_lat":-7.756284,"distance":7905,"i_long":110.500451,"transit":false,"line":0},{"station_id":"SWT","is_transit":false,"i_long":110.548972,"time":7,"i_lat":-7.74111,"distance":5850,"transit":false,"line":7,"station_name":"Srowot"},{"distance":6738,"is_transit":false,"line":7,"time":8,"station_id":"KT","transit":false,"i_lat":-7.712087,"i_long":110.602981,"station_name":"Klaten"},{"line":7,"station_id":"CE","distance":9279,"i_lat":-7.668597,"station_name":"Ceper","transit":false,"is_transit":false,"time":9,"i_long":110.674861},{"station_name":"Delanggu","station_id":"DL","transit":false,"i_long":110.706679,"i_lat":-7.62181,"is_transit":false,"line":7,"distance":6271,"time":7},{"i_lat":-7.589036,"i_long":110.744432,"station_id":"GW","line":7,"time":6,"distance":5543,"transit":false,"is_transit":false,"station_name":"Gawok"},{"i_long":110.796655,"station_id":"PWS","distance":6639,"station_name":"Purwosari","is_transit":false,"line":7,"i_lat":-7.561362,"time":7,"transit":false},{"i_long":110.821471,"line":7,"i_lat":-7.556783,"station_id":"SLO","time":6,"station_name":"Solo Balapan","distance":2936,"transit":false,"is_transit":false},{"is_transit":false,"distance":2141,"station_id":"SK","line":7,"transit":false,"station_name":"Solo Jebres","i_lat":-7.56197,"i_long":110.839459,"time":10}]]}