{"data":[[{"station_name":"Lempuyangan","time":0,"transit":false,"distance":0,"is_transit":false,"i_lat":-7.790018,"i_long":110.375434,"line":7,"station_id":"LPN"},{"is_transit":false,"transit":false,"station_id":"MGW","line":7,"station_name":"Maguwo","time":7,"i_long":110.436791,"i_lat":-7.784476,"distance":6799},{"is_transit":false,"station_id":"BBN","transit":false,"station_name":"Brambanan","distance":7905,"time":8,"i_lat":-7.756284,"i_long":110.500451,"line":0},{"i_long":110.548972,"transit":false,"line":7,"distance":5850,"station_id":"SWT","station_name":"Srowot","i_lat":-7.74111,"is_transit":false,"time":7},{"i_lat":-7.712087,"is_transit":false,"station_id":"KT","time":8,"line":7,"transit":false,"i_long":110.602981,"station_name":"Klaten","distance":6738},{"line":0,"is_transit":false,"time":9,"i_lat":-7.668597,"station_id":"CE","transit":false,"i_long":110.674861,"station_name":"Ceper","distance":9279},{"i_lat":-7.62181,"i_long":110.706679,"distance":6271,"is_transit":false,"station_name":"Delanggu","transit":false,"line":0,"time":7,"station_id":"DL"}]]}