{"data":[[{"line":7,"is_transit":false,"i_long":110.375434,"distance":0,"transit":false,"station_id":"LPN","station_name":"Lempuyangan","i_lat":-7.790018,"time":0},{"transit":false,"i_lat":-7.784476,"is_transit":false,"distance":6799,"line":7,"time":7,"station_id":"MGW","i_long":110.436791,"station_name":"Maguwo"},{"station_id":"BBN","is_transit":false,"i_lat":-7.756284,"i_long":110.500451,"transit":false,"line":0,"station_name":"Brambanan","distance":7905,"time":8},{"station_name":"Srowot","time":7,"distance":5850,"station_id":"SWT","i_long":110.548972,"transit":false,"i_lat":-7.74111,"line":7,"is_transit":false},{"is_transit":false,"distance":6738,"i_lat":-7.712087,"line":7,"transit":false,"i_long":110.602981,"station_name":"Klaten","station_id":"KT","time":8}]]}