{"data":[[{"distance":0,"line":7,"transit":false,"station_name":"Lempuyangan","is_transit":false,"time":0,"i_lat":-7.790018,"station_id":"LPN","i_long":110.375434},{"time":7,"station_id":"MGW","distance":6799,"station_name":"Maguwo","i_lat":-7.784476,"transit":false,"line":7,"is_transit":false,"i_long":110.436791},{"distance":7905,"transit":false,"time":8,"is_transit":false,"i_long":110.500451,"line":0,"i_lat":-7.756284,"station_name":"Brambanan","station_id":"BBN"},{"station_id":"SWT","station_name":"Srowot","time":7,"i_long":110.548972,"transit":false,"distance":5850,"i_lat":-7.74111,"is_transit":false,"line":7},{"distance":6738,"is_transit":false,"i_lat":-7.712087,"time":8,"line":7,"i_long":110.602981,"station_id":"KT","station_name":"Klaten","transit":false},{"time":9,"station_id":"CE","distance":9279,"is_transit":false,"transit":false,"i_long":110.674861,"line":0,"i_lat":-7.668597,"station_name":"Ceper"},{"station_name":"Delanggu","station_id":"DL","is_transit":false,"i_long":110.706679,"time":7,"i_lat":-7.62181,"line":0,"distance":6271,"transit":false},{"i_long":110.744432,"station_id":"GW","station_name":"Gawok","line":7,"time":6,"transit":false,"is_transit":false,"i_lat":-7.589036,"distance":5543},{"station_id":"PWS","time":7,"transit":false,"is_transit":false,"i_long":110.796655,"station_name":"Purwosari","line":7,"i_lat":-7.561362,"distance":6639},{"station_id":"SLO","is_transit":false,"line":7,"i_long":110.821471,"time":6,"distance":2936,"transit":false,"station_name":"Solo Balapan","i_lat":-7.556783},{"time":10,"distance":2141,"station_name":"Solo Jebres","is_transit":false,"i_lat":-7.56197,"transit":false,"i_long":110.839459,"line":7,"station_id":"SK"}]]}