{"data":[[{"distance":0,"i_long":110.375434,"line":7,"station_id":"LPN","is_transit":false,"i_lat":-7.790018,"time":0,"transit":false,"station_name":"Lempuyangan"},{"is_transit":false,"time":7,"station_name":"Maguwo","i_lat":-7.784476,"i_long":110.436791,"station_id":"MGW","distance":6799,"transit":false,"line":7},{"distance":7905,"is_transit":false,"i_long":110.500451,"station_id":"BBN","i_lat":-7.756284,"line":0,"station_name":"Brambanan","transit":false,"time":8},{"station_name":"Srowot","is_transit":false,"line":7,"time":7,"distance":5850,"transit":false,"i_lat":-7.74111,"station_id":"SWT","i_long":110.548972},{"station_name":"Klaten","is_transit":false,"distance":6738,"line":7,"time":8,"station_id":"KT","transit":false,"i_lat":-7.712087,"i_long":110.602981},{"i_long":110.674861,"station_id":"CE","i_lat":-7.668597,"distance":9279,"time":9,"line":0,"station_name":"Ceper","is_transit":false,"transit":false},{"i_long":110.706679,"line":0,"transit":false,"is_transit":false,"station_name":"Delanggu","station_id":"DL","i_lat":-7.62181,"time":7,"distance":6271},{"station_id":"GW","i_long":110.744432,"time":6,"distance":5543,"line":7,"is_transit":false,"i_lat":-7.589036,"station_name":"Gawok","transit":false}]]}