{"data":[[{"i_lat":-7.790018,"station_id":"LPN","i_long":110.375434,"is_transit":false,"distance":0,"transit":false,"station_name":"Lempuyangan","time":0,"line":7},{"is_transit":false,"transit":false,"station_name":"Maguwo","i_lat":-7.784476,"i_long":110.436791,"line":7,"distance":6799,"time":7,"station_id":"MGW"},{"is_transit":false,"station_name":"Brambanan","station_id":"BBN","distance":7905,"i_long":110.500451,"transit":false,"time":8,"line":0,"i_lat":-7.756284},{"time":7,"line":7,"transit":false,"station_id":"SWT","station_name":"Srowot","distance":5850,"i_lat":-7.74111,"i_long":110.548972,"is_transit":false},{"i_lat":-7.712087,"i_long":110.602981,"station_name":"Klaten","transit":false,"station_id":"KT","line":7,"time":8,"distance":6738,"is_transit":false},{"is_transit":false,"station_name":"Ceper","distance":9279,"station_id":"CE","line":7,"i_lat":-7.668597,"i_long":110.674861,"time":9,"transit":false},{"transit":false,"station_id":"DL","line":7,"i_long":110.706679,"is_transit":false,"station_name":"Delanggu","time":7,"i_lat":-7.62181,"distance":6271}]]}