{"data":[[{"station_name":"Lempuyangan","distance":0,"transit":false,"i_lat":-7.790018,"i_long":110.375434,"line":7,"station_id":"LPN","is_transit":false,"time":0},{"is_transit":false,"station_id":"MGW","time":7,"i_lat":-7.784476,"station_name":"Maguwo","i_long":110.436791,"distance":6799,"transit":false,"line":7},{"i_long":110.500451,"line":0,"distance":7905,"station_name":"Brambanan","transit":false,"i_lat":-7.756284,"is_transit":false,"time":8,"station_id":"BBN"},{"transit":false,"i_lat":-7.74111,"station_name":"Srowot","i_long":110.548972,"time":7,"distance":5850,"is_transit":false,"station_id":"SWT","line":7},{"distance":6738,"time":8,"is_transit":false,"line":7,"i_lat":-7.712087,"i_long":110.602981,"station_name":"Klaten","station_id":"KT","transit":false},{"i_lat":-7.668597,"station_name":"Ceper","i_long":110.674861,"is_transit":false,"transit":false,"line":0,"distance":9279,"station_id":"CE","time":9}]]}