{"data":[[{"i_long":110.375434,"i_lat":-7.790018,"line":7,"time":0,"station_id":"LPN","station_name":"Lempuyangan","is_transit":false,"distance":0,"transit":false},{"transit":false,"time":7,"station_name":"Maguwo","station_id":"MGW","is_transit":false,"distance":6799,"i_lat":-7.784476,"line":7,"i_long":110.436791},{"is_transit":false,"line":0,"station_id":"BBN","i_lat":-7.756284,"distance":7905,"transit":false,"station_name":"Brambanan","time":8,"i_long":110.500451},{"is_transit":false,"transit":false,"distance":5850,"station_name":"Srowot","i_long":110.548972,"station_id":"SWT","i_lat":-7.74111,"line":7,"time":7},{"is_transit":false,"i_lat":-7.712087,"time":8,"i_long":110.602981,"line":7,"distance":6738,"transit":false,"station_name":"Klaten","station_id":"KT"},{"station_id":"CE","station_name":"Ceper","time":9,"transit":false,"distance":9279,"i_long":110.674861,"line":7,"is_transit":false,"i_lat":-7.668597},{"transit":false,"station_id":"DL","is_transit":false,"distance":6271,"i_long":110.706679,"line":7,"i_lat":-7.62181,"station_name":"Delanggu","time":7},{"time":6,"station_id":"GW","line":7,"transit":false,"station_name":"Gawok","is_transit":false,"i_long":110.744432,"i_lat":-7.589036,"distance":5543}]]}