{"data":[[{"i_lat":-7.790018,"is_transit":false,"distance":0,"transit":false,"time":0,"station_name":"Lempuyangan","station_id":"LPN","i_long":110.375434,"line":7},{"i_long":110.436791,"line":7,"transit":false,"station_id":"MGW","station_name":"Maguwo","is_transit":false,"time":7,"i_lat":-7.784476,"distance":6799},{"time":8,"i_long":110.500451,"i_lat":-7.756284,"transit":false,"station_name":"Brambanan","station_id":"BBN","line":0,"is_transit":false,"distance":7905},{"transit":false,"distance":5850,"line":7,"station_id":"SWT","station_name":"Srowot","time":7,"is_transit":false,"i_long":110.548972,"i_lat":-7.74111},{"station_name":"Klaten","station_id":"KT","transit":false,"i_lat":-7.712087,"is_transit":false,"distance":6738,"time":8,"i_long":110.602981,"line":7}]]}