{"data":[[{"i_long":110.375434,"transit":false,"station_name":"Lempuyangan","time":0,"is_transit":false,"distance":0,"i_lat":-7.790018,"line":7,"station_id":"LPN"},{"station_id":"MGW","time":7,"i_long":110.436791,"transit":false,"is_transit":false,"i_lat":-7.784476,"distance":6799,"line":7,"station_name":"Maguwo"},{"distance":7905,"station_name":"Brambanan","station_id":"BBN","is_transit":false,"time":8,"i_lat":-7.756284,"transit":false,"i_long":110.500451,"line":0},{"station_id":"SWT","distance":5850,"is_transit":false,"station_name":"Srowot","i_long":110.548972,"line":7,"i_lat":-7.74111,"transit":false,"time":7},{"i_long":110.602981,"time":8,"i_lat":-7.712087,"station_name":"Klaten","transit":false,"line":7,"is_transit":false,"distance":6738,"station_id":"KT"},{"time":9,"is_transit":false,"station_id":"CE","i_lat":-7.668597,"transit":false,"line":7,"station_name":"Ceper","distance":9279,"i_long":110.674861},{"transit":false,"is_transit":false,"station_name":"Delanggu","i_lat":-7.62181,"station_id":"DL","distance":6271,"line":7,"time":7,"i_long":110.706679},{"distance":5543,"transit":false,"station_name":"Gawok","station_id":"GW","i_lat":-7.589036,"is_transit":false,"line":7,"i_long":110.744432,"time":6}]]}