{"data":[[{"transit":false,"i_long":110.375434,"station_id":"LPN","i_lat":-7.790018,"distance":0,"time":0,"is_transit":false,"station_name":"Lempuyangan","line":7},{"time":7,"line":7,"i_long":110.436791,"station_id":"MGW","station_name":"Maguwo","i_lat":-7.784476,"distance":6799,"is_transit":false,"transit":false},{"i_lat":-7.756284,"i_long":110.500451,"is_transit":false,"distance":7905,"line":0,"transit":false,"station_name":"Brambanan","station_id":"BBN","time":8},{"is_transit":false,"distance":5850,"time":7,"line":7,"station_name":"Srowot","transit":false,"i_lat":-7.74111,"i_long":110.548972,"station_id":"SWT"},{"is_transit":false,"i_lat":-7.712087,"i_long":110.602981,"station_name":"Klaten","distance":6738,"line":7,"time":8,"transit":false,"station_id":"KT"}]]}