{"data":[[{"line":7,"is_transit":false,"time":0,"i_lat":-7.790018,"i_long":110.375434,"distance":0,"station_id":"LPN","station_name":"Lempuyangan","transit":false},{"time":7,"transit":false,"station_id":"MGW","i_long":110.436791,"station_name":"Maguwo","i_lat":-7.784476,"line":7,"is_transit":false,"distance":6799},{"station_id":"BBN","i_lat":-7.756284,"station_name":"Brambanan","line":0,"is_transit":false,"time":8,"transit":false,"distance":7905,"i_long":110.500451},{"station_id":"SWT","i_lat":-7.74111,"is_transit":false,"transit":false,"station_name":"Srowot","line":7,"i_long":110.548972,"distance":5850,"time":7},{"station_id":"KT","i_long":110.602981,"time":8,"i_lat":-7.712087,"distance":6738,"line":7,"is_transit":false,"transit":false,"station_name":"Klaten"},{"line":7,"station_name":"Ceper","time":9,"i_lat":-7.668597,"is_transit":false,"station_id":"CE","distance":9279,"i_long":110.674861,"transit":false}]]}