{"data":[[{"line":7,"i_long":110.375434,"station_id":"LPN","is_transit":false,"station_name":"Lempuyangan","i_lat":-7.790018,"transit":false,"distance":0,"time":0},{"station_id":"MGW","transit":false,"i_lat":-7.784476,"is_transit":false,"distance":6799,"i_long":110.436791,"station_name":"Maguwo","time":7,"line":7},{"transit":false,"is_transit":false,"time":8,"line":0,"station_name":"Brambanan","i_long":110.500451,"station_id":"BBN","i_lat":-7.756284,"distance":7905},{"station_id":"SWT","time":7,"transit":false,"line":7,"station_name":"Srowot","i_lat":-7.74111,"is_transit":false,"i_long":110.548972,"distance":5850},{"i_lat":-7.712087,"station_id":"KT","is_transit":false,"transit":false,"line":7,"station_name":"Klaten","time":8,"distance":6738,"i_long":110.602981},{"i_lat":-7.668597,"i_long":110.674861,"line":7,"distance":9279,"station_name":"Ceper","station_id":"CE","is_transit":false,"time":9,"transit":false},{"station_name":"Delanggu","i_lat":-7.62181,"line":7,"distance":6271,"is_transit":false,"i_long":110.706679,"station_id":"DL","transit":false,"time":7},{"line":7,"i_long":110.744432,"is_transit":false,"station_id":"GW","transit":false,"distance":5543,"i_lat":-7.589036,"time":6,"station_name":"Gawok"},{"line":7,"transit":false,"station_name":"Purwosari","i_lat":-7.561362,"station_id":"PWS","distance":6639,"is_transit":false,"i_long":110.796655,"time":7},{"distance":2936,"line":7,"station_id":"SLO","i_lat":-7.556783,"is_transit":false,"i_long":110.821471,"station_name":"Solo Balapan","time":6,"transit":false},{"station_name":"Solo Jebres","transit":false,"i_long":110.839459,"distance":2141,"station_id":"SK","i_lat":-7.56197,"is_transit":false,"time":10,"line":7}]]}