{"data":[[{"time":0,"station_id":"LPN","transit":false,"line":7,"is_transit":false,"distance":0,"station_name":"Lempuyangan","i_lat":-7.790018,"i_long":110.375434},{"transit":false,"line":7,"i_lat":-7.784476,"time":7,"station_name":"Maguwo","i_long":110.436791,"is_transit":false,"distance":6799,"station_id":"MGW"},{"i_lat":-7.756284,"station_id":"BBN","station_name":"Brambanan","distance":7905,"transit":false,"i_long":110.500451,"is_transit":false,"time":8,"line":0},{"time":7,"station_id":"SWT","transit":false,"i_lat":-7.74111,"i_long":110.548972,"distance":5850,"line":7,"is_transit":false,"station_name":"Srowot"},{"i_long":110.602981,"i_lat":-7.712087,"station_id":"KT","station_name":"Klaten","time":8,"is_transit":false,"transit":false,"distance":6738,"line":7},{"line":7,"station_id":"CE","i_lat":-7.668597,"transit":false,"is_transit":false,"time":9,"station_name":"Ceper","i_long":110.674861,"distance":9279}]]}