{"data":[[{"distance":0,"is_transit":false,"station_name":"Lempuyangan","i_lat":-7.790018,"i_long":110.375434,"station_id":"LPN","transit":false,"time":0,"line":7},{"i_lat":-7.784476,"i_long":110.436791,"line":7,"station_name":"Maguwo","time":7,"is_transit":false,"distance":6799,"transit":false,"station_id":"MGW"},{"time":8,"i_long":110.500451,"transit":false,"i_lat":-7.756284,"distance":7905,"station_id":"BBN","station_name":"Brambanan","line":0,"is_transit":false},{"i_lat":-7.74111,"distance":5850,"is_transit":false,"i_long":110.548972,"transit":false,"station_name":"Srowot","line":7,"time":7,"station_id":"SWT"},{"distance":6738,"transit":false,"line":7,"station_id":"KT","is_transit":false,"station_name":"Klaten","i_lat":-7.712087,"i_long":110.602981,"time":8},{"i_lat":-7.668597,"station_name":"Ceper","station_id":"CE","distance":9279,"time":9,"transit":false,"is_transit":false,"line":7,"i_long":110.674861},{"distance":6271,"time":7,"i_lat":-7.62181,"is_transit":false,"line":7,"station_id":"DL","station_name":"Delanggu","i_long":110.706679,"transit":false}]]}