{"data":[[{"i_lat":-7.790018,"station_id":"LPN","distance":0,"station_name":"Lempuyangan","is_transit":false,"line":7,"time":0,"transit":false,"i_long":110.375434},{"station_name":"Maguwo","distance":6799,"station_id":"MGW","line":7,"transit":false,"is_transit":false,"time":7,"i_lat":-7.784476,"i_long":110.436791},{"i_long":110.500451,"transit":false,"i_lat":-7.756284,"line":0,"station_id":"BBN","is_transit":false,"time":8,"distance":7905,"station_name":"Brambanan"},{"time":7,"transit":false,"station_name":"Srowot","i_lat":-7.74111,"i_long":110.548972,"station_id":"SWT","is_transit":false,"line":7,"distance":5850},{"line":7,"transit":false,"time":8,"station_id":"KT","distance":6738,"is_transit":false,"station_name":"Klaten","i_long":110.602981,"i_lat":-7.712087},{"i_lat":-7.668597,"is_transit":false,"station_name":"Ceper","station_id":"CE","transit":false,"time":9,"distance":9279,"line":7,"i_long":110.674861}]]}