{"data":[[{"time":0,"station_name":"Lempuyangan","i_long":110.375434,"distance":0,"station_id":"LPN","line":7,"i_lat":-7.790018,"transit":false,"is_transit":false},{"station_id":"MGW","time":7,"distance":6799,"i_lat":-7.784476,"line":7,"transit":false,"i_long":110.436791,"is_transit":false,"station_name":"Maguwo"},{"is_transit":false,"station_id":"BBN","time":8,"station_name":"Brambanan","i_lat":-7.756284,"distance":7905,"transit":false,"line":0,"i_long":110.500451},{"is_transit":false,"distance":5850,"station_id":"SWT","time":7,"i_lat":-7.74111,"line":7,"i_long":110.548972,"transit":false,"station_name":"Srowot"},{"i_lat":-7.712087,"station_name":"Klaten","line":7,"station_id":"KT","is_transit":false,"time":8,"distance":6738,"transit":false,"i_long":110.602981},{"i_long":110.674861,"station_name":"Ceper","is_transit":false,"line":7,"transit":false,"time":9,"i_lat":-7.668597,"station_id":"CE","distance":9279},{"station_id":"DL","is_transit":false,"time":7,"line":7,"station_name":"Delanggu","i_long":110.706679,"i_lat":-7.62181,"transit":false,"distance":6271}]]}