{"data":[[{"i_lat":-6.149769,"station_id":"MGB","is_transit":false,"line":2,"time":0,"transit":false,"distance":0,"i_long":106.82482,"station_name":"Manggabesar"},{"time":2,"distance":1080,"transit":false,"i_lat":-6.141205,"i_long":106.820901,"line":7,"station_id":"JAY","is_transit":false,"station_name":"Jayakarta"},{"i_long":106.812439,"line":0,"station_id":"JAKK","station_name":"Jakarta Kota","is_transit":true,"distance":1264,"transit":true,"i_lat":-6.137569,"time":4},{"i_long":106.826365,"line":0,"transit":false,"distance":1364,"station_id":"KPB","i_lat":-6.132549,"is_transit":true,"time":3,"station_name":"Kampung Bandan"},{"time":9,"station_id":"AK","is_transit":false,"transit":false,"distance":4102,"i_long":106.79867,"station_name":"Angke","line":0,"i_lat":-6.144674},{"transit":true,"i_long":106.800832,"is_transit":true,"station_name":"Duri","distance":1230,"i_lat":-6.155215,"time":4,"station_id":"DU","line":1},{"is_transit":true,"station_id":"THB","transit":false,"i_long":106.811091,"distance":3632,"i_lat":-6.185545,"line":1,"time":8,"station_name":"Tanah Abang"},{"line":1,"i_lat":-6.20132,"time":5,"distance":2029,"i_long":106.816351,"is_transit":false,"station_id":"KAT","station_name":"Karet","transit":false}],[{"i_long":106.82482,"station_name":"Manggabesar","station_id":"MGB","is_transit":false,"transit":false,"line":2,"time":0,"distance":0,"i_lat":-6.149769},{"line":2,"i_lat":-6.160725,"is_transit":false,"station_name":"Sawah Besar","time":2,"i_long":106.827103,"station_id":"SW","transit":false,"distance":906},{"line":2,"time":2,"transit":false,"i_long":106.828284,"station_name":"Juanda","is_transit":false,"distance":1149,"station_id":"JUA","i_lat":-6.166716},{"transit":false,"distance":2015,"i_long":106.832183,"time":4,"line":2,"station_id":"GDD","is_transit":false,"station_name":"Gondangdia","i_lat":-6.186295},{"time":3,"transit":false,"station_id":"CKI","is_transit":false,"distance":1750,"i_lat":-6.198556,"station_name":"Cikini","i_long":106.840169,"line":0},{"station_name":"Manggarai","station_id":"MRI","distance":1590,"i_lat":-6.209883,"line":0,"transit":true,"i_long":106.84912,"is_transit":true,"time":4},{"i_lat":-6.202263,"transit":false,"distance":3186,"i_long":106.822649,"station_name":"Sudirman","time":4,"station_id":"SUD","is_transit":false,"line":1},{"station_name":"Sudirman Baru","station_id":"SUDB","i_long":106.819881,"distance":280,"line":1,"i_lat":-6.201433,"time":1,"is_transit":false,"transit":false},{"is_transit":false,"time":1,"station_name":"Karet","transit":false,"station_id":"KAT","distance":471,"i_long":106.816351,"i_lat":-6.20132,"line":1}],[{"station_id":"MGB","time":0,"i_lat":-6.149769,"station_name":"Manggabesar","transit":false,"distance":0,"line":2,"is_transit":false,"i_long":106.82482},{"station_name":"Jayakarta","i_long":106.820901,"line":7,"is_transit":false,"time":2,"transit":false,"i_lat":-6.141205,"distance":1080,"station_id":"JAY"},{"distance":1264,"is_transit":true,"i_long":106.812439,"transit":true,"station_name":"Jakarta Kota","i_lat":-6.137569,"station_id":"JAKK","line":0,"time":4},{"distance":1364,"i_long":106.826365,"station_name":"Kampung Bandan","i_lat":-6.132549,"transit":true,"line":0,"station_id":"KPB","time":3,"is_transit":true},{"line":11,"transit":false,"i_lat":-6.14505,"i_long":106.836569,"is_transit":false,"time":3,"distance":1444,"station_name":"Rajawali","station_id":"RJW"},{"i_lat":-6.161728,"distance":1901,"station_name":"Kemayoran","line":11,"station_id":"KMO","is_transit":false,"i_long":106.839204,"time":5,"transit":false},{"is_transit":false,"transit":false,"station_name":"Pasar Senen","time":4,"line":11,"distance":1436,"i_long":106.84368,"i_lat":-6.174784,"station_id":"PSE"},{"transit":false,"i_lat":-6.185975,"is_transit":false,"i_long":106.850107,"line":11,"station_name":"Gang Sentiong","station_id":"GST","time":8,"distance":1567},{"time":1,"station_id":"KMT","station_name":"Kramat","i_lat":-6.193792,"distance":973,"transit":false,"i_long":106.855437,"line":11,"is_transit":false},{"distance":1829,"is_transit":false,"i_lat":-6.209188,"transit":false,"i_long":106.861737,"time":2,"station_id":"POK","station_name":"Pondok Jati","line":11},{"i_long":106.86807400000001,"transit":true,"is_transit":true,"distance":1236,"line":0,"time":9,"station_name":"Jatinegara","i_lat":-6.215091,"station_id":"JNG"},{"station_id":"MTR","i_lat":-6.212485,"line":1,"station_name":"Matraman","is_transit":false,"i_long":106.858896,"time":2,"distance":1377,"transit":false},{"station_name":"Manggarai","distance":1275,"i_lat":-6.209883,"time":2,"station_id":"MRI","transit":false,"i_long":106.84912,"line":0,"is_transit":true},{"line":1,"is_transit":false,"time":4,"distance":3186,"i_long":106.822649,"transit":false,"station_name":"Sudirman","i_lat":-6.202263,"station_id":"SUD"},{"transit":false,"time":1,"i_long":106.819881,"is_transit":false,"distance":280,"station_name":"Sudirman Baru","i_lat":-6.201433,"station_id":"SUDB","line":1},{"time":1,"station_name":"Karet","distance":471,"i_lat":-6.20132,"is_transit":false,"transit":false,"i_long":106.816351,"line":1,"station_id":"KAT"}],[{"transit":false,"time":0,"station_id":"MGB","station_name":"Manggabesar","i_lat":-6.149769,"line":2,"i_long":106.82482,"distance":0,"is_transit":false},{"time":2,"distance":906,"i_lat":-6.160725,"station_id":"SW","is_transit":false,"station_name":"Sawah Besar","transit":false,"line":2,"i_long":106.827103},{"station_id":"JUA","is_transit":false,"station_name":"Juanda","transit":false,"i_long":106.828284,"line":2,"time":2,"i_lat":-6.166716,"distance":1149},{"is_transit":false,"distance":2015,"i_lat":-6.186295,"station_id":"GDD","transit":false,"time":4,"station_name":"Gondangdia","i_long":106.832183,"line":2},{"station_id":"CKI","station_name":"Cikini","is_transit":false,"transit":false,"time":3,"i_lat":-6.198556,"distance":1750,"i_long":106.840169,"line":0},{"i_lat":-6.209883,"i_long":106.84912,"is_transit":true,"line":0,"distance":1590,"transit":true,"station_name":"Manggarai","station_id":"MRI","time":4},{"distance":1275,"i_long":106.858896,"i_lat":-6.212485,"station_name":"Matraman","line":1,"station_id":"MTR","time":2,"transit":false,"is_transit":false},{"i_lat":-6.215091,"station_id":"JNG","line":0,"is_transit":true,"distance":1377,"time":8,"station_name":"Jatinegara","i_long":106.86807400000001,"transit":true},{"i_long":106.861737,"is_transit":false,"line":11,"distance":1236,"transit":false,"station_name":"Pondok Jati","i_lat":-6.209188,"station_id":"POK","time":2},{"station_name":"Kramat","distance":1829,"i_long":106.855437,"station_id":"KMT","is_transit":false,"transit":false,"line":11,"i_lat":-6.193792,"time":2},{"station_name":"Gang Sentiong","station_id":"GST","i_lat":-6.185975,"i_long":106.850107,"is_transit":false,"time":1,"transit":false,"line":11,"distance":973},{"station_name":"Pasar Senen","i_lat":-6.174784,"line":11,"is_transit":false,"station_id":"PSE","distance":1567,"i_long":106.84368,"transit":false,"time":8},{"station_id":"KMO","transit":false,"station_name":"Kemayoran","distance":1436,"i_long":106.839204,"line":11,"is_transit":false,"time":4,"i_lat":-6.161728},{"transit":false,"distance":1901,"is_transit":false,"time":5,"i_long":106.836569,"i_lat":-6.14505,"line":11,"station_id":"RJW","station_name":"Rajawali"},{"is_transit":true,"i_lat":-6.132549,"time":3,"i_long":106.826365,"line":0,"station_id":"KPB","distance":1444,"transit":true,"station_name":"Kampung Bandan"},{"line":0,"transit":false,"distance":4102,"time":9,"station_name":"Angke","station_id":"AK","i_long":106.79867,"is_transit":false,"i_lat":-6.144674},{"time":4,"i_long":106.800832,"i_lat":-6.155215,"distance":1230,"transit":true,"line":1,"station_id":"DU","station_name":"Duri","is_transit":true},{"station_name":"Tanah Abang","line":1,"distance":3632,"i_lat":-6.185545,"transit":false,"i_long":106.811091,"is_transit":true,"station_id":"THB","time":8},{"time":5,"transit":false,"is_transit":false,"line":1,"distance":2029,"i_long":106.816351,"station_name":"Karet","station_id":"KAT","i_lat":-6.20132}]]}