{"data":[[{"transit":false,"is_transit":false,"line":2,"distance":0,"i_lat":-6.149769,"i_long":106.82482,"time":0,"station_id":"MGB","station_name":"Manggabesar"},{"is_transit":false,"line":2,"transit":false,"station_id":"JAY","i_lat":-6.141205,"i_long":106.820901,"station_name":"Jayakarta","time":2,"distance":1080},{"station_name":"Jakarta Kota","line":2,"distance":1264,"transit":true,"is_transit":true,"i_long":106.812439,"station_id":"JAKK","time":4,"i_lat":-6.137569},{"distance":1364,"i_long":106.826365,"station_id":"KPB","transit":true,"station_name":"Kampung Bandan","time":3,"i_lat":-6.132549,"line":4,"is_transit":true},{"distance":4102,"station_id":"AK","is_transit":false,"station_name":"Angke","transit":false,"i_long":106.79867,"time":9,"line":1,"i_lat":-6.144674},{"i_long":106.800832,"station_name":"Duri","time":4,"is_transit":true,"distance":1230,"station_id":"DU","line":1,"transit":true,"i_lat":-6.155215},{"time":3,"i_lat":-6.162021,"line":5,"i_long":106.788277,"station_name":"Grogol","transit":false,"distance":1700,"is_transit":false,"station_id":"GGL"},{"time":2,"distance":2036,"is_transit":false,"station_name":"Pesing","i_lat":-6.161433,"i_long":106.771379,"station_id":"PSG","transit":false,"line":5},{"distance":1614,"is_transit":false,"line":5,"station_id":"TKO","transit":false,"i_lat":-6.1587309999999995,"station_name":"Taman Kota","i_long":106.756522,"time":2},{"i_lat":-6.159876,"line":5,"distance":2334,"station_name":"Bojongindah","time":2,"is_transit":false,"i_long":106.737035,"station_id":"BOI","transit":false},{"time":4,"station_id":"RW","is_transit":false,"i_lat":-6.162758,"i_long":106.723064,"station_name":"Rawa Buaya","distance":1152,"transit":false,"line":5}],[{"transit":false,"line":2,"station_name":"Manggabesar","is_transit":false,"time":0,"i_long":106.82482,"station_id":"MGB","distance":0,"i_lat":-6.149769},{"station_name":"Sawah Besar","is_transit":false,"i_lat":-6.160725,"station_id":"SW","line":2,"i_long":106.827103,"time":2,"distance":906,"transit":false},{"station_name":"Juanda","i_lat":-6.166716,"station_id":"JUA","time":2,"distance":1149,"transit":false,"line":2,"is_transit":false,"i_long":106.828284},{"line":2,"time":4,"i_lat":-6.186295,"distance":2015,"station_name":"Gondangdia","is_transit":false,"station_id":"GDD","i_long":106.832183,"transit":false},{"station_name":"Cikini","station_id":"CKI","distance":1750,"i_lat":-6.198556,"i_long":106.840169,"transit":false,"is_transit":false,"line":2,"time":3},{"i_lat":-6.209883,"is_transit":true,"station_name":"Manggarai","i_long":106.84912,"time":4,"transit":true,"station_id":"MRI","distance":1590,"line":2},{"transit":false,"i_lat":-6.202263,"i_long":106.822649,"distance":3186,"time":4,"station_name":"Sudirman","line":1,"station_id":"SUD","is_transit":false},{"i_long":106.819881,"is_transit":false,"time":1,"line":1,"station_name":"Sudirman Baru","transit":false,"station_id":"SUDB","distance":280,"i_lat":-6.201433},{"time":1,"is_transit":false,"transit":false,"station_id":"KAT","line":1,"i_lat":-6.20132,"station_name":"Karet","distance":471,"i_long":106.816351},{"i_lat":-6.185545,"time":5,"is_transit":false,"distance":2029,"station_id":"THB","i_long":106.811091,"line":1,"station_name":"Tanah Abang","transit":false},{"distance":3632,"i_long":106.800832,"line":1,"is_transit":true,"transit":true,"time":8,"station_name":"Duri","station_id":"DU","i_lat":-6.155215},{"i_lat":-6.162021,"transit":false,"i_long":106.788277,"distance":1700,"time":3,"station_name":"Grogol","line":5,"is_transit":false,"station_id":"GGL"},{"is_transit":false,"time":2,"i_lat":-6.161433,"line":5,"distance":2036,"station_id":"PSG","station_name":"Pesing","i_long":106.771379,"transit":false},{"i_long":106.756522,"time":2,"station_id":"TKO","station_name":"Taman Kota","i_lat":-6.1587309999999995,"line":5,"distance":1614,"is_transit":false,"transit":false},{"transit":false,"i_lat":-6.159876,"station_id":"BOI","time":2,"distance":2334,"line":5,"i_long":106.737035,"is_transit":false,"station_name":"Bojongindah"},{"i_lat":-6.162758,"distance":1152,"is_transit":false,"time":4,"transit":false,"station_id":"RW","i_long":106.723064,"station_name":"Rawa Buaya","line":5}],[{"station_id":"MGB","i_long":106.82482,"distance":0,"is_transit":false,"transit":false,"time":0,"station_name":"Manggabesar","i_lat":-6.149769,"line":2},{"i_long":106.827103,"station_id":"SW","distance":906,"i_lat":-6.160725,"is_transit":false,"time":2,"station_name":"Sawah Besar","transit":false,"line":2},{"is_transit":false,"i_lat":-6.166716,"time":2,"transit":false,"distance":1149,"line":2,"station_id":"JUA","i_long":106.828284,"station_name":"Juanda"},{"is_transit":false,"transit":false,"i_lat":-6.186295,"i_long":106.832183,"station_id":"GDD","time":4,"station_name":"Gondangdia","distance":2015,"line":2},{"transit":false,"station_id":"CKI","i_lat":-6.198556,"distance":1750,"is_transit":false,"time":3,"i_long":106.840169,"station_name":"Cikini","line":2},{"i_lat":-6.209883,"distance":1590,"i_long":106.84912,"station_id":"MRI","station_name":"Manggarai","line":2,"time":4,"is_transit":true,"transit":true},{"transit":false,"i_lat":-6.212485,"time":2,"station_name":"Matraman","distance":1275,"is_transit":false,"i_long":106.858896,"line":1,"station_id":"MTR"},{"station_name":"Jatinegara","line":1,"distance":1377,"station_id":"JNG","is_transit":true,"transit":true,"i_lat":-6.215091,"i_long":106.86807400000001,"time":8},{"distance":1236,"station_id":"POK","is_transit":false,"line":11,"i_lat":-6.209188,"transit":false,"i_long":106.861737,"time":2,"station_name":"Pondok Jati"},{"i_lat":-6.193792,"is_transit":false,"time":2,"station_id":"KMT","line":11,"distance":1829,"transit":false,"station_name":"Kramat","i_long":106.855437},{"line":11,"time":1,"distance":973,"transit":false,"i_lat":-6.185975,"is_transit":false,"station_id":"GST","station_name":"Gang Sentiong","i_long":106.850107},{"line":11,"distance":1567,"is_transit":false,"i_lat":-6.174784,"station_id":"PSE","time":8,"transit":false,"station_name":"Pasar Senen","i_long":106.84368},{"station_id":"KMO","line":11,"time":4,"distance":1436,"i_long":106.839204,"station_name":"Kemayoran","i_lat":-6.161728,"is_transit":false,"transit":false},{"is_transit":false,"distance":1901,"station_name":"Rajawali","station_id":"RJW","i_long":106.836569,"transit":false,"i_lat":-6.14505,"line":11,"time":5},{"line":4,"station_name":"Kampung Bandan","distance":1444,"i_long":106.826365,"i_lat":-6.132549,"is_transit":true,"time":3,"station_id":"KPB","transit":true},{"station_id":"AK","i_lat":-6.144674,"station_name":"Angke","time":9,"distance":4102,"is_transit":false,"transit":false,"i_long":106.79867,"line":1},{"station_id":"DU","time":4,"line":1,"is_transit":true,"transit":true,"i_lat":-6.155215,"station_name":"Duri","distance":1230,"i_long":106.800832},{"time":3,"distance":1700,"i_lat":-6.162021,"line":5,"is_transit":false,"i_long":106.788277,"transit":false,"station_name":"Grogol","station_id":"GGL"},{"is_transit":false,"time":2,"distance":2036,"transit":false,"station_id":"PSG","station_name":"Pesing","i_long":106.771379,"line":5,"i_lat":-6.161433},{"line":5,"i_long":106.756522,"transit":false,"time":2,"station_id":"TKO","is_transit":false,"i_lat":-6.1587309999999995,"distance":1614,"station_name":"Taman Kota"},{"is_transit":false,"i_long":106.737035,"i_lat":-6.159876,"time":2,"transit":false,"station_id":"BOI","distance":2334,"station_name":"Bojongindah","line":5},{"i_lat":-6.162758,"transit":false,"station_name":"Rawa Buaya","distance":1152,"i_long":106.723064,"station_id":"RW","time":4,"is_transit":false,"line":5}],[{"station_name":"Manggabesar","transit":false,"is_transit":false,"i_lat":-6.149769,"station_id":"MGB","i_long":106.82482,"distance":0,"time":0,"line":2},{"station_name":"Jayakarta","time":2,"i_long":106.820901,"distance":1080,"i_lat":-6.141205,"is_transit":false,"station_id":"JAY","line":2,"transit":false},{"distance":1264,"station_id":"JAKK","is_transit":true,"station_name":"Jakarta Kota","i_long":106.812439,"line":2,"time":4,"transit":true,"i_lat":-6.137569},{"station_id":"KPB","is_transit":true,"station_name":"Kampung Bandan","i_lat":-6.132549,"time":3,"distance":1364,"line":4,"transit":true,"i_long":106.826365},{"transit":false,"is_transit":false,"station_id":"RJW","time":3,"i_lat":-6.14505,"line":11,"distance":1444,"i_long":106.836569,"station_name":"Rajawali"},{"time":5,"is_transit":false,"station_id":"KMO","transit":false,"distance":1901,"i_lat":-6.161728,"i_long":106.839204,"line":11,"station_name":"Kemayoran"},{"distance":1436,"is_transit":false,"transit":false,"time":4,"i_long":106.84368,"station_id":"PSE","line":11,"station_name":"Pasar Senen","i_lat":-6.174784},{"time":8,"i_lat":-6.185975,"is_transit":false,"transit":false,"station_name":"Gang Sentiong","i_long":106.850107,"station_id":"GST","line":11,"distance":1567},{"time":1,"station_id":"KMT","station_name":"Kramat","i_lat":-6.193792,"i_long":106.855437,"transit":false,"is_transit":false,"line":11,"distance":973},{"is_transit":false,"time":2,"line":11,"station_id":"POK","i_lat":-6.209188,"transit":false,"i_long":106.861737,"station_name":"Pondok Jati","distance":1829},{"is_transit":true,"transit":true,"distance":1236,"i_long":106.86807400000001,"station_name":"Jatinegara","line":1,"i_lat":-6.215091,"station_id":"JNG","time":9},{"time":2,"line":1,"i_long":106.858896,"distance":1377,"transit":false,"is_transit":false,"station_name":"Matraman","station_id":"MTR","i_lat":-6.212485},{"distance":1275,"transit":false,"station_name":"Manggarai","station_id":"MRI","is_transit":false,"time":2,"i_long":106.84912,"i_lat":-6.209883,"line":2},{"is_transit":false,"station_name":"Sudirman","time":4,"i_lat":-6.202263,"distance":3186,"station_id":"SUD","i_long":106.822649,"transit":false,"line":1},{"transit":false,"station_id":"SUDB","i_lat":-6.201433,"distance":280,"station_name":"Sudirman Baru","i_long":106.819881,"line":1,"is_transit":false,"time":1},{"i_lat":-6.20132,"i_long":106.816351,"line":1,"time":1,"is_transit":false,"station_id":"KAT","transit":false,"distance":471,"station_name":"Karet"},{"i_lat":-6.185545,"transit":false,"i_long":106.811091,"station_id":"THB","time":5,"distance":2029,"line":1,"is_transit":false,"station_name":"Tanah Abang"},{"i_lat":-6.155215,"line":1,"time":8,"station_id":"DU","transit":true,"distance":3632,"i_long":106.800832,"station_name":"Duri","is_transit":true},{"i_long":106.788277,"time":3,"transit":false,"station_name":"Grogol","distance":1700,"i_lat":-6.162021,"station_id":"GGL","is_transit":false,"line":5},{"distance":2036,"is_transit":false,"time":2,"i_lat":-6.161433,"transit":false,"station_name":"Pesing","i_long":106.771379,"station_id":"PSG","line":5},{"is_transit":false,"station_name":"Taman Kota","line":5,"time":2,"transit":false,"distance":1614,"i_lat":-6.1587309999999995,"station_id":"TKO","i_long":106.756522},{"station_id":"BOI","i_lat":-6.159876,"distance":2334,"time":2,"is_transit":false,"i_long":106.737035,"line":5,"transit":false,"station_name":"Bojongindah"},{"station_name":"Rawa Buaya","is_transit":false,"time":4,"station_id":"RW","distance":1152,"i_long":106.723064,"transit":false,"line":5,"i_lat":-6.162758}]]}