{"data":[[{"i_long":106.82482,"transit":false,"station_id":"MGB","station_name":"Manggabesar","i_lat":-6.149769,"is_transit":false,"distance":0,"line":2,"time":0},{"is_transit":false,"station_name":"Jayakarta","station_id":"JAY","i_lat":-6.141205,"line":7,"i_long":106.820901,"time":2,"transit":false,"distance":1080},{"station_id":"JAKK","station_name":"Jakarta Kota","time":4,"i_long":106.812439,"transit":true,"line":0,"i_lat":-6.137569,"distance":1264,"is_transit":true},{"line":0,"is_transit":true,"time":3,"transit":false,"station_id":"KPB","i_lat":-6.132549,"distance":1364,"i_long":106.826365,"station_name":"Kampung Bandan"},{"time":9,"station_id":"AK","i_lat":-6.144674,"i_long":106.79867,"transit":false,"line":0,"is_transit":false,"distance":4102,"station_name":"Angke"},{"station_id":"DU","time":4,"is_transit":true,"transit":true,"station_name":"Duri","i_long":106.800832,"distance":1230,"i_lat":-6.155215,"line":1},{"station_id":"GGL","transit":false,"distance":1700,"i_lat":-6.162021,"is_transit":false,"i_long":106.788277,"line":5,"time":3,"station_name":"Grogol"},{"station_id":"PSG","time":2,"is_transit":false,"line":5,"distance":2036,"station_name":"Pesing","i_lat":-6.161433,"transit":false,"i_long":106.771379},{"is_transit":false,"line":5,"station_id":"TKO","time":2,"station_name":"Taman Kota","i_lat":-6.1587309999999995,"i_long":106.756522,"transit":false,"distance":1614},{"is_transit":false,"distance":2334,"time":2,"station_id":"BOI","i_long":106.737035,"i_lat":-6.159876,"station_name":"Bojongindah","transit":false,"line":0},{"line":5,"station_id":"RW","distance":1152,"is_transit":false,"station_name":"Rawa Buaya","transit":false,"time":4,"i_long":106.723064,"i_lat":-6.162758}],[{"i_long":106.82482,"distance":0,"station_name":"Manggabesar","station_id":"MGB","transit":false,"is_transit":false,"time":0,"i_lat":-6.149769,"line":2},{"transit":false,"station_name":"Sawah Besar","i_lat":-6.160725,"time":2,"station_id":"SW","i_long":106.827103,"line":2,"is_transit":false,"distance":906},{"transit":false,"line":2,"i_long":106.828284,"is_transit":false,"i_lat":-6.166716,"distance":1149,"time":2,"station_name":"Juanda","station_id":"JUA"},{"is_transit":false,"station_id":"GDD","distance":2015,"transit":false,"i_long":106.832183,"i_lat":-6.186295,"time":4,"station_name":"Gondangdia","line":2},{"is_transit":false,"distance":1750,"station_name":"Cikini","i_long":106.840169,"i_lat":-6.198556,"line":0,"time":3,"transit":false,"station_id":"CKI"},{"time":4,"station_id":"MRI","transit":true,"i_lat":-6.209883,"i_long":106.84912,"station_name":"Manggarai","is_transit":true,"line":0,"distance":1590},{"i_lat":-6.202263,"distance":3186,"station_id":"SUD","line":1,"is_transit":false,"i_long":106.822649,"station_name":"Sudirman","time":4,"transit":false},{"station_name":"Sudirman Baru","transit":false,"is_transit":false,"line":1,"distance":280,"i_long":106.819881,"station_id":"SUDB","i_lat":-6.201433,"time":1},{"line":1,"time":1,"i_lat":-6.20132,"is_transit":false,"i_long":106.816351,"transit":false,"distance":471,"station_name":"Karet","station_id":"KAT"},{"i_long":106.811091,"distance":2029,"line":1,"transit":false,"i_lat":-6.185545,"is_transit":true,"time":5,"station_name":"Tanah Abang","station_id":"THB"},{"station_name":"Duri","i_lat":-6.155215,"is_transit":true,"i_long":106.800832,"transit":true,"distance":3632,"line":1,"time":8,"station_id":"DU"},{"transit":false,"line":5,"station_name":"Grogol","is_transit":false,"time":3,"distance":1700,"station_id":"GGL","i_lat":-6.162021,"i_long":106.788277},{"line":5,"station_id":"PSG","distance":2036,"time":2,"transit":false,"station_name":"Pesing","is_transit":false,"i_lat":-6.161433,"i_long":106.771379},{"time":2,"station_name":"Taman Kota","distance":1614,"transit":false,"station_id":"TKO","is_transit":false,"i_lat":-6.1587309999999995,"line":5,"i_long":106.756522},{"i_lat":-6.159876,"distance":2334,"i_long":106.737035,"line":0,"station_name":"Bojongindah","time":2,"is_transit":false,"station_id":"BOI","transit":false},{"distance":1152,"time":4,"is_transit":false,"station_name":"Rawa Buaya","i_long":106.723064,"i_lat":-6.162758,"station_id":"RW","transit":false,"line":5}],[{"time":0,"i_long":106.82482,"transit":false,"is_transit":false,"station_id":"MGB","distance":0,"station_name":"Manggabesar","line":2,"i_lat":-6.149769},{"transit":false,"time":2,"distance":906,"line":2,"station_name":"Sawah Besar","is_transit":false,"station_id":"SW","i_lat":-6.160725,"i_long":106.827103},{"line":2,"station_name":"Juanda","station_id":"JUA","i_lat":-6.166716,"is_transit":false,"distance":1149,"i_long":106.828284,"time":2,"transit":false},{"line":2,"i_lat":-6.186295,"transit":false,"distance":2015,"station_name":"Gondangdia","station_id":"GDD","i_long":106.832183,"time":4,"is_transit":false},{"station_name":"Cikini","is_transit":false,"i_lat":-6.198556,"transit":false,"line":0,"time":3,"station_id":"CKI","i_long":106.840169,"distance":1750},{"transit":true,"is_transit":true,"i_long":106.84912,"distance":1590,"line":0,"station_name":"Manggarai","station_id":"MRI","time":4,"i_lat":-6.209883},{"distance":1275,"station_name":"Matraman","station_id":"MTR","i_lat":-6.212485,"transit":false,"line":1,"time":2,"i_long":106.858896,"is_transit":false},{"time":8,"distance":1377,"station_id":"JNG","i_long":106.86807400000001,"is_transit":true,"station_name":"Jatinegara","transit":true,"i_lat":-6.215091,"line":0},{"station_name":"Pondok Jati","is_transit":false,"distance":1236,"transit":false,"i_lat":-6.209188,"time":2,"i_long":106.861737,"line":11,"station_id":"POK"},{"station_name":"Kramat","distance":1829,"transit":false,"station_id":"KMT","is_transit":false,"time":2,"i_long":106.855437,"line":11,"i_lat":-6.193792},{"station_name":"Gang Sentiong","station_id":"GST","is_transit":false,"i_long":106.850107,"distance":973,"time":1,"line":11,"i_lat":-6.185975,"transit":false},{"i_long":106.84368,"time":8,"station_name":"Pasar Senen","i_lat":-6.174784,"station_id":"PSE","is_transit":false,"line":11,"distance":1567,"transit":false},{"is_transit":false,"time":4,"station_name":"Kemayoran","transit":false,"distance":1436,"i_lat":-6.161728,"i_long":106.839204,"line":11,"station_id":"KMO"},{"station_name":"Rajawali","i_lat":-6.14505,"distance":1901,"line":11,"is_transit":false,"i_long":106.836569,"station_id":"RJW","transit":false,"time":5},{"time":3,"i_long":106.826365,"i_lat":-6.132549,"is_transit":true,"transit":true,"distance":1444,"station_name":"Kampung Bandan","line":0,"station_id":"KPB"},{"station_id":"AK","time":9,"transit":false,"i_long":106.79867,"is_transit":false,"i_lat":-6.144674,"line":0,"distance":4102,"station_name":"Angke"},{"is_transit":true,"station_id":"DU","line":1,"station_name":"Duri","time":4,"i_long":106.800832,"i_lat":-6.155215,"distance":1230,"transit":true},{"i_lat":-6.162021,"distance":1700,"station_id":"GGL","line":5,"i_long":106.788277,"transit":false,"station_name":"Grogol","time":3,"is_transit":false},{"i_long":106.771379,"is_transit":false,"station_id":"PSG","time":2,"transit":false,"i_lat":-6.161433,"line":5,"distance":2036,"station_name":"Pesing"},{"transit":false,"time":2,"station_name":"Taman Kota","line":5,"distance":1614,"is_transit":false,"station_id":"TKO","i_lat":-6.1587309999999995,"i_long":106.756522},{"i_long":106.737035,"i_lat":-6.159876,"station_name":"Bojongindah","line":0,"station_id":"BOI","transit":false,"time":2,"is_transit":false,"distance":2334},{"line":5,"station_id":"RW","transit":false,"distance":1152,"is_transit":false,"time":4,"i_lat":-6.162758,"i_long":106.723064,"station_name":"Rawa Buaya"}],[{"transit":false,"station_name":"Manggabesar","distance":0,"time":0,"i_lat":-6.149769,"i_long":106.82482,"is_transit":false,"line":2,"station_id":"MGB"},{"distance":1080,"transit":false,"i_long":106.820901,"time":2,"station_id":"JAY","line":7,"is_transit":false,"station_name":"Jayakarta","i_lat":-6.141205},{"time":4,"i_lat":-6.137569,"line":0,"transit":true,"is_transit":true,"i_long":106.812439,"station_name":"Jakarta Kota","distance":1264,"station_id":"JAKK"},{"time":3,"i_long":106.826365,"transit":true,"is_transit":true,"station_id":"KPB","station_name":"Kampung Bandan","i_lat":-6.132549,"distance":1364,"line":0},{"station_name":"Rajawali","transit":false,"time":3,"station_id":"RJW","is_transit":false,"i_lat":-6.14505,"distance":1444,"line":11,"i_long":106.836569},{"is_transit":false,"station_name":"Kemayoran","station_id":"KMO","distance":1901,"transit":false,"line":11,"i_lat":-6.161728,"time":5,"i_long":106.839204},{"is_transit":false,"line":11,"station_id":"PSE","i_long":106.84368,"transit":false,"distance":1436,"i_lat":-6.174784,"time":4,"station_name":"Pasar Senen"},{"i_long":106.850107,"station_id":"GST","line":11,"is_transit":false,"transit":false,"distance":1567,"time":8,"i_lat":-6.185975,"station_name":"Gang Sentiong"},{"line":11,"transit":false,"is_transit":false,"station_name":"Kramat","station_id":"KMT","distance":973,"time":1,"i_long":106.855437,"i_lat":-6.193792},{"station_id":"POK","transit":false,"distance":1829,"line":11,"is_transit":false,"i_long":106.861737,"time":2,"station_name":"Pondok Jati","i_lat":-6.209188},{"i_lat":-6.215091,"transit":true,"line":0,"station_id":"JNG","i_long":106.86807400000001,"time":9,"station_name":"Jatinegara","is_transit":true,"distance":1236},{"station_name":"Matraman","time":2,"is_transit":false,"transit":false,"i_lat":-6.212485,"station_id":"MTR","distance":1377,"line":1,"i_long":106.858896},{"i_long":106.84912,"is_transit":true,"line":0,"station_name":"Manggarai","i_lat":-6.209883,"time":2,"distance":1275,"station_id":"MRI","transit":false},{"transit":false,"i_lat":-6.202263,"i_long":106.822649,"distance":3186,"line":1,"is_transit":false,"station_name":"Sudirman","station_id":"SUD","time":4},{"time":1,"is_transit":false,"i_long":106.819881,"station_id":"SUDB","transit":false,"distance":280,"line":1,"station_name":"Sudirman Baru","i_lat":-6.201433},{"i_lat":-6.20132,"i_long":106.816351,"line":1,"is_transit":false,"time":1,"station_id":"KAT","transit":false,"station_name":"Karet","distance":471},{"i_lat":-6.185545,"i_long":106.811091,"line":1,"distance":2029,"time":5,"is_transit":true,"transit":false,"station_name":"Tanah Abang","station_id":"THB"},{"station_name":"Duri","i_long":106.800832,"station_id":"DU","i_lat":-6.155215,"is_transit":true,"distance":3632,"time":8,"transit":true,"line":1},{"i_long":106.788277,"station_name":"Grogol","time":3,"station_id":"GGL","distance":1700,"transit":false,"i_lat":-6.162021,"is_transit":false,"line":5},{"line":5,"is_transit":false,"station_id":"PSG","distance":2036,"station_name":"Pesing","i_lat":-6.161433,"i_long":106.771379,"time":2,"transit":false},{"station_id":"TKO","time":2,"distance":1614,"line":5,"i_long":106.756522,"station_name":"Taman Kota","is_transit":false,"transit":false,"i_lat":-6.1587309999999995},{"distance":2334,"line":0,"time":2,"i_long":106.737035,"is_transit":false,"transit":false,"station_name":"Bojongindah","station_id":"BOI","i_lat":-6.159876},{"is_transit":false,"i_long":106.723064,"station_id":"RW","station_name":"Rawa Buaya","line":5,"time":4,"transit":false,"distance":1152,"i_lat":-6.162758}]]}