{"data":[[{"station_name":"Manggabesar","transit":false,"i_lat":-6.149769,"i_long":106.82482,"time":0,"distance":0,"station_id":"MGB","is_transit":false,"line":2},{"time":2,"i_long":106.827103,"station_name":"Sawah Besar","i_lat":-6.160725,"line":2,"is_transit":false,"transit":false,"distance":906,"station_id":"SW"},{"distance":1149,"line":2,"transit":false,"i_long":106.828284,"station_name":"Juanda","is_transit":false,"time":2,"i_lat":-6.166716,"station_id":"JUA"},{"distance":2015,"transit":false,"i_long":106.832183,"is_transit":false,"time":4,"i_lat":-6.186295,"station_id":"GDD","line":2,"station_name":"Gondangdia"},{"distance":1750,"transit":false,"is_transit":false,"time":3,"station_id":"CKI","i_lat":-6.198556,"i_long":106.840169,"station_name":"Cikini","line":2},{"station_id":"MRI","i_long":106.84912,"time":4,"line":2,"transit":true,"is_transit":true,"distance":1590,"i_lat":-6.209883,"station_name":"Manggarai"},{"transit":false,"station_name":"Sudirman","i_lat":-6.202263,"time":4,"i_long":106.822649,"line":1,"distance":3186,"is_transit":false,"station_id":"SUD"},{"distance":280,"time":1,"station_id":"SUDB","line":1,"i_long":106.819881,"station_name":"Sudirman Baru","transit":false,"i_lat":-6.201433,"is_transit":false}],[{"distance":0,"i_lat":-6.149769,"is_transit":false,"station_id":"MGB","time":0,"i_long":106.82482,"transit":false,"line":2,"station_name":"Manggabesar"},{"time":2,"station_name":"Jayakarta","i_lat":-6.141205,"transit":false,"i_long":106.820901,"is_transit":false,"distance":1080,"line":2,"station_id":"JAY"},{"transit":true,"is_transit":true,"station_id":"JAKK","i_lat":-6.137569,"station_name":"Jakarta Kota","time":4,"line":2,"distance":1264,"i_long":106.812439},{"i_lat":-6.132549,"distance":1364,"i_long":106.826365,"station_name":"Kampung Bandan","is_transit":true,"time":3,"station_id":"KPB","line":4,"transit":true},{"distance":4102,"station_id":"AK","line":1,"station_name":"Angke","is_transit":false,"i_lat":-6.144674,"i_long":106.79867,"transit":false,"time":9},{"line":1,"station_name":"Duri","transit":false,"station_id":"DU","time":4,"i_lat":-6.155215,"is_transit":false,"distance":1230,"i_long":106.800832},{"is_transit":false,"i_lat":-6.185545,"i_long":106.811091,"line":1,"time":8,"transit":false,"distance":3632,"station_id":"THB","station_name":"Tanah Abang"},{"time":5,"transit":false,"station_name":"Karet","distance":2029,"i_lat":-6.20132,"is_transit":false,"station_id":"KAT","i_long":106.816351,"line":1},{"transit":false,"station_name":"Sudirman Baru","distance":471,"i_lat":-6.201433,"i_long":106.819881,"time":1,"station_id":"SUDB","is_transit":false,"line":1}],[{"i_lat":-6.149769,"distance":0,"station_id":"MGB","station_name":"Manggabesar","i_long":106.82482,"line":2,"is_transit":false,"time":0,"transit":false},{"distance":1080,"station_id":"JAY","time":2,"station_name":"Jayakarta","is_transit":false,"transit":false,"i_long":106.820901,"i_lat":-6.141205,"line":2},{"transit":true,"time":4,"is_transit":true,"station_id":"JAKK","i_long":106.812439,"i_lat":-6.137569,"distance":1264,"line":2,"station_name":"Jakarta Kota"},{"i_lat":-6.132549,"station_name":"Kampung Bandan","i_long":106.826365,"station_id":"KPB","time":3,"line":4,"transit":true,"is_transit":true,"distance":1364},{"is_transit":false,"time":3,"i_lat":-6.14505,"distance":1444,"station_name":"Rajawali","transit":false,"i_long":106.836569,"line":11,"station_id":"RJW"},{"is_transit":false,"transit":false,"station_id":"KMO","time":5,"i_long":106.839204,"station_name":"Kemayoran","i_lat":-6.161728,"distance":1901,"line":11},{"station_id":"PSE","i_long":106.84368,"time":4,"transit":false,"line":11,"is_transit":false,"i_lat":-6.174784,"station_name":"Pasar Senen","distance":1436},{"time":8,"i_lat":-6.185975,"line":11,"is_transit":false,"station_name":"Gang Sentiong","station_id":"GST","i_long":106.850107,"transit":false,"distance":1567},{"station_id":"KMT","i_lat":-6.193792,"i_long":106.855437,"line":11,"station_name":"Kramat","time":1,"is_transit":false,"transit":false,"distance":973},{"station_id":"POK","i_long":106.861737,"station_name":"Pondok Jati","transit":false,"time":2,"i_lat":-6.209188,"distance":1829,"line":11,"is_transit":false},{"time":9,"station_id":"JNG","station_name":"Jatinegara","distance":1236,"transit":true,"line":1,"i_long":106.86807400000001,"is_transit":true,"i_lat":-6.215091},{"station_name":"Matraman","station_id":"MTR","distance":1377,"time":2,"transit":false,"is_transit":false,"i_lat":-6.212485,"i_long":106.858896,"line":1},{"i_lat":-6.209883,"is_transit":false,"transit":false,"time":2,"distance":1275,"line":2,"i_long":106.84912,"station_id":"MRI","station_name":"Manggarai"},{"transit":false,"time":4,"i_lat":-6.202263,"i_long":106.822649,"station_name":"Sudirman","line":1,"station_id":"SUD","is_transit":false,"distance":3186},{"station_id":"SUDB","i_long":106.819881,"line":1,"i_lat":-6.201433,"is_transit":false,"station_name":"Sudirman Baru","transit":false,"distance":280,"time":1}],[{"i_long":106.82482,"distance":0,"is_transit":false,"line":2,"station_name":"Manggabesar","i_lat":-6.149769,"transit":false,"station_id":"MGB","time":0},{"distance":906,"transit":false,"station_id":"SW","line":2,"station_name":"Sawah Besar","i_long":106.827103,"i_lat":-6.160725,"is_transit":false,"time":2},{"distance":1149,"line":2,"i_lat":-6.166716,"time":2,"station_id":"JUA","station_name":"Juanda","transit":false,"is_transit":false,"i_long":106.828284},{"time":4,"line":2,"station_name":"Gondangdia","transit":false,"distance":2015,"station_id":"GDD","is_transit":false,"i_long":106.832183,"i_lat":-6.186295},{"distance":1750,"station_id":"CKI","i_long":106.840169,"line":2,"transit":false,"time":3,"station_name":"Cikini","is_transit":false,"i_lat":-6.198556},{"station_id":"MRI","distance":1590,"i_lat":-6.209883,"i_long":106.84912,"is_transit":true,"time":4,"transit":true,"line":2,"station_name":"Manggarai"},{"i_long":106.858896,"station_name":"Matraman","transit":false,"line":1,"is_transit":false,"station_id":"MTR","distance":1275,"time":2,"i_lat":-6.212485},{"i_long":106.86807400000001,"transit":true,"station_id":"JNG","time":8,"station_name":"Jatinegara","i_lat":-6.215091,"distance":1377,"is_transit":true,"line":1},{"transit":false,"distance":1236,"time":2,"line":11,"i_lat":-6.209188,"is_transit":false,"i_long":106.861737,"station_id":"POK","station_name":"Pondok Jati"},{"station_name":"Kramat","transit":false,"line":11,"i_lat":-6.193792,"is_transit":false,"i_long":106.855437,"station_id":"KMT","distance":1829,"time":2},{"distance":973,"line":11,"i_lat":-6.185975,"transit":false,"is_transit":false,"station_id":"GST","i_long":106.850107,"station_name":"Gang Sentiong","time":1},{"distance":1567,"i_long":106.84368,"time":8,"transit":false,"station_id":"PSE","i_lat":-6.174784,"line":11,"is_transit":false,"station_name":"Pasar Senen"},{"is_transit":false,"distance":1436,"station_id":"KMO","i_lat":-6.161728,"i_long":106.839204,"line":11,"time":4,"station_name":"Kemayoran","transit":false},{"transit":false,"is_transit":false,"i_long":106.836569,"i_lat":-6.14505,"distance":1901,"station_id":"RJW","time":5,"line":11,"station_name":"Rajawali"},{"transit":true,"is_transit":true,"i_long":106.826365,"distance":1444,"i_lat":-6.132549,"line":4,"time":3,"station_name":"Kampung Bandan","station_id":"KPB"},{"transit":false,"i_lat":-6.144674,"station_name":"Angke","time":9,"station_id":"AK","distance":4102,"is_transit":false,"i_long":106.79867,"line":1},{"station_id":"DU","is_transit":false,"time":4,"line":1,"distance":1230,"i_lat":-6.155215,"i_long":106.800832,"station_name":"Duri","transit":false},{"i_lat":-6.185545,"time":8,"is_transit":false,"i_long":106.811091,"distance":3632,"line":1,"station_name":"Tanah Abang","station_id":"THB","transit":false},{"time":5,"station_id":"KAT","transit":false,"i_lat":-6.20132,"i_long":106.816351,"line":1,"is_transit":false,"station_name":"Karet","distance":2029},{"transit":false,"time":1,"i_lat":-6.201433,"is_transit":false,"distance":471,"station_id":"SUDB","i_long":106.819881,"line":1,"station_name":"Sudirman Baru"}]]}