{"data":[[{"transit":false,"station_id":"MGB","is_transit":false,"i_lat":-6.149769,"i_long":106.82482,"time":0,"distance":0,"line":2,"station_name":"Manggabesar"},{"station_name":"Sawah Besar","station_id":"SW","i_long":106.827103,"distance":906,"is_transit":false,"i_lat":-6.160725,"line":2,"transit":false,"time":2},{"i_long":106.828284,"transit":false,"distance":1149,"station_name":"Juanda","time":2,"line":2,"station_id":"JUA","is_transit":false,"i_lat":-6.166716},{"transit":false,"station_name":"Gondangdia","i_long":106.832183,"is_transit":false,"i_lat":-6.186295,"line":2,"distance":2015,"station_id":"GDD","time":4},{"transit":false,"i_lat":-6.198556,"line":2,"time":3,"i_long":106.840169,"station_id":"CKI","distance":1750,"is_transit":false,"station_name":"Cikini"},{"time":4,"station_name":"Manggarai","is_transit":false,"transit":false,"i_long":106.84912,"line":2,"distance":1590,"station_id":"MRI","i_lat":-6.209883},{"transit":false,"station_id":"TEB","distance":2610,"time":4,"i_lat":-6.226659,"is_transit":false,"i_long":106.857948,"line":2,"station_name":"Tebet"},{"transit":false,"station_id":"CW","line":2,"station_name":"Cawang","time":2,"is_transit":false,"distance":1230,"i_lat":-6.242512,"i_long":106.856607},{"i_long":106.85449,"line":2,"station_id":"DRN","distance":1546,"transit":false,"station_name":"Duren Kalibata","is_transit":false,"time":3,"i_lat":-6.255332},{"line":2,"transit":false,"distance":824,"i_long":106.851577,"time":2,"is_transit":false,"station_id":"PSMB","station_name":"Pasar Minggu Baru","i_lat":-6.263214},{"distance":2380,"station_name":"Pasar Minggu","i_lat":-6.2842400000000005,"is_transit":false,"station_id":"PSM","line":2,"time":2,"i_long":106.843999,"transit":false},{"is_transit":false,"station_id":"TNT","i_long":106.838896,"station_name":"Tanjung Barat","transit":false,"line":2,"time":4,"i_lat":-6.3080680000000005,"distance":2820},{"i_lat":-6.330363,"line":2,"i_long":106.832616,"is_transit":false,"distance":2671,"transit":false,"station_name":"Lenteng Agung","time":3,"station_id":"LNA"},{"is_transit":false,"distance":1029,"i_lat":-6.339291,"i_long":106.834175,"station_id":"UP","line":2,"station_name":"Univ. Pancasila","transit":false,"time":2},{"time":3,"transit":false,"station_id":"UI","is_transit":false,"station_name":"Univ. Indonesia","i_lat":-6.360749,"i_long":106.831474,"distance":2264,"line":2},{"station_name":"Pondok Cina","line":2,"i_long":106.831114,"i_lat":-6.369073,"time":2,"transit":false,"station_id":"POC","is_transit":false,"distance":1109},{"distance":2727,"transit":false,"i_long":106.819451,"time":4,"station_id":"DPB","station_name":"Depokbaru","is_transit":false,"line":2,"i_lat":-6.391065},{"is_transit":false,"i_long":106.816926,"line":2,"transit":false,"station_id":"DP","time":3,"distance":1584,"station_name":"Depok","i_lat":-6.405256},{"station_name":"Citayam","i_long":106.800298,"distance":5084,"i_lat":-6.448811,"time":6,"station_id":"CTA","is_transit":false,"line":2,"transit":false},{"station_name":"Bojonggede","i_long":106.792719,"transit":false,"time":5,"distance":5197,"i_lat":-6.493243,"station_id":"BJD","line":2,"is_transit":false}],[{"station_name":"Manggabesar","i_long":106.82482,"line":2,"time":0,"station_id":"MGB","is_transit":false,"distance":0,"transit":false,"i_lat":-6.149769},{"i_long":106.820901,"i_lat":-6.141205,"is_transit":false,"station_id":"JAY","transit":false,"line":2,"distance":1080,"station_name":"Jayakarta","time":2},{"station_name":"Jakarta Kota","transit":true,"i_long":106.812439,"line":2,"station_id":"JAKK","distance":1264,"is_transit":true,"time":4,"i_lat":-6.137569},{"station_id":"KPB","distance":1364,"transit":true,"station_name":"Kampung Bandan","is_transit":true,"i_long":106.826365,"i_lat":-6.132549,"time":3,"line":4},{"time":9,"is_transit":false,"distance":4102,"i_long":106.79867,"station_name":"Angke","i_lat":-6.144674,"station_id":"AK","transit":false,"line":1},{"i_lat":-6.155215,"station_name":"Duri","is_transit":false,"line":1,"transit":false,"station_id":"DU","distance":1230,"i_long":106.800832,"time":4},{"line":1,"station_name":"Tanah Abang","time":8,"is_transit":false,"transit":false,"station_id":"THB","distance":3632,"i_long":106.811091,"i_lat":-6.185545},{"i_lat":-6.20132,"i_long":106.816351,"line":1,"distance":2029,"transit":false,"is_transit":false,"station_name":"Karet","station_id":"KAT","time":5},{"station_name":"Sudirman Baru","station_id":"SUDB","distance":471,"i_lat":-6.201433,"transit":false,"is_transit":false,"time":1,"line":1,"i_long":106.819881},{"distance":280,"line":1,"time":1,"i_lat":-6.202263,"i_long":106.822649,"transit":false,"station_name":"Sudirman","station_id":"SUD","is_transit":false},{"i_long":106.84912,"station_id":"MRI","transit":true,"station_name":"Manggarai","i_lat":-6.209883,"distance":3186,"time":4,"line":2,"is_transit":true},{"is_transit":false,"i_long":106.857948,"station_id":"TEB","time":4,"distance":2610,"station_name":"Tebet","transit":false,"line":2,"i_lat":-6.226659},{"station_id":"CW","station_name":"Cawang","time":2,"is_transit":false,"i_lat":-6.242512,"line":2,"transit":false,"i_long":106.856607,"distance":1230},{"i_long":106.85449,"line":2,"is_transit":false,"station_name":"Duren Kalibata","station_id":"DRN","distance":1546,"i_lat":-6.255332,"transit":false,"time":3},{"transit":false,"time":2,"distance":824,"is_transit":false,"line":2,"station_name":"Pasar Minggu Baru","station_id":"PSMB","i_lat":-6.263214,"i_long":106.851577},{"time":2,"distance":2380,"is_transit":false,"i_long":106.843999,"station_name":"Pasar Minggu","line":2,"i_lat":-6.2842400000000005,"station_id":"PSM","transit":false},{"station_id":"TNT","i_long":106.838896,"is_transit":false,"station_name":"Tanjung Barat","line":2,"time":4,"i_lat":-6.3080680000000005,"transit":false,"distance":2820},{"distance":2671,"station_name":"Lenteng Agung","i_lat":-6.330363,"station_id":"LNA","transit":false,"i_long":106.832616,"is_transit":false,"line":2,"time":3},{"station_name":"Univ. Pancasila","distance":1029,"i_lat":-6.339291,"transit":false,"line":2,"station_id":"UP","i_long":106.834175,"is_transit":false,"time":2},{"i_long":106.831474,"transit":false,"i_lat":-6.360749,"time":3,"line":2,"is_transit":false,"station_id":"UI","distance":2264,"station_name":"Univ. Indonesia"},{"distance":1109,"i_lat":-6.369073,"line":2,"transit":false,"station_id":"POC","time":2,"station_name":"Pondok Cina","i_long":106.831114,"is_transit":false},{"time":4,"transit":false,"i_lat":-6.391065,"is_transit":false,"station_name":"Depokbaru","distance":2727,"i_long":106.819451,"line":2,"station_id":"DPB"},{"transit":false,"i_long":106.816926,"i_lat":-6.405256,"station_id":"DP","is_transit":false,"station_name":"Depok","time":3,"distance":1584,"line":2},{"station_id":"CTA","is_transit":false,"i_lat":-6.448811,"i_long":106.800298,"line":2,"distance":5084,"station_name":"Citayam","transit":false,"time":6},{"line":2,"station_id":"BJD","station_name":"Bojonggede","i_lat":-6.493243,"distance":5197,"transit":false,"is_transit":false,"time":5,"i_long":106.792719}],[{"is_transit":false,"i_lat":-6.149769,"i_long":106.82482,"line":2,"transit":false,"distance":0,"time":0,"station_name":"Manggabesar","station_id":"MGB"},{"distance":1080,"line":2,"station_id":"JAY","i_long":106.820901,"is_transit":false,"i_lat":-6.141205,"station_name":"Jayakarta","time":2,"transit":false},{"is_transit":true,"station_id":"JAKK","station_name":"Jakarta Kota","i_lat":-6.137569,"transit":true,"time":4,"line":2,"i_long":106.812439,"distance":1264},{"i_lat":-6.132549,"line":4,"distance":1364,"station_id":"KPB","time":3,"i_long":106.826365,"station_name":"Kampung Bandan","transit":true,"is_transit":true},{"line":11,"station_name":"Rajawali","distance":1444,"transit":false,"station_id":"RJW","i_lat":-6.14505,"time":3,"is_transit":false,"i_long":106.836569},{"transit":false,"station_name":"Kemayoran","time":5,"distance":1901,"i_lat":-6.161728,"is_transit":false,"i_long":106.839204,"station_id":"KMO","line":11},{"station_id":"PSE","station_name":"Pasar Senen","is_transit":false,"time":4,"i_lat":-6.174784,"i_long":106.84368,"line":11,"transit":false,"distance":1436},{"station_id":"GST","transit":false,"time":8,"line":11,"is_transit":false,"i_lat":-6.185975,"i_long":106.850107,"distance":1567,"station_name":"Gang Sentiong"},{"line":11,"station_id":"KMT","transit":false,"time":1,"i_lat":-6.193792,"i_long":106.855437,"station_name":"Kramat","distance":973,"is_transit":false},{"transit":false,"is_transit":false,"i_long":106.861737,"station_name":"Pondok Jati","i_lat":-6.209188,"station_id":"POK","distance":1829,"time":2,"line":11},{"station_id":"JNG","is_transit":true,"distance":1236,"i_long":106.86807400000001,"i_lat":-6.215091,"station_name":"Jatinegara","transit":true,"time":9,"line":1},{"i_long":106.858896,"line":1,"distance":1377,"i_lat":-6.212485,"is_transit":false,"time":2,"station_name":"Matraman","transit":false,"station_id":"MTR"},{"i_long":106.84912,"station_name":"Manggarai","time":2,"i_lat":-6.209883,"distance":1275,"line":2,"station_id":"MRI","transit":true,"is_transit":true},{"i_lat":-6.226659,"is_transit":false,"station_name":"Tebet","time":4,"i_long":106.857948,"distance":2610,"station_id":"TEB","transit":false,"line":2},{"station_name":"Cawang","line":2,"station_id":"CW","i_long":106.856607,"distance":1230,"is_transit":false,"transit":false,"time":2,"i_lat":-6.242512},{"time":3,"transit":false,"i_long":106.85449,"is_transit":false,"line":2,"distance":1546,"station_id":"DRN","station_name":"Duren Kalibata","i_lat":-6.255332},{"station_name":"Pasar Minggu Baru","distance":824,"time":2,"i_lat":-6.263214,"is_transit":false,"line":2,"i_long":106.851577,"station_id":"PSMB","transit":false},{"station_name":"Pasar Minggu","time":2,"station_id":"PSM","distance":2380,"i_lat":-6.2842400000000005,"i_long":106.843999,"line":2,"is_transit":false,"transit":false},{"station_id":"TNT","is_transit":false,"time":4,"i_long":106.838896,"transit":false,"station_name":"Tanjung Barat","distance":2820,"i_lat":-6.3080680000000005,"line":2},{"time":3,"distance":2671,"station_id":"LNA","transit":false,"line":2,"is_transit":false,"station_name":"Lenteng Agung","i_lat":-6.330363,"i_long":106.832616},{"i_long":106.834175,"station_id":"UP","transit":false,"line":2,"time":2,"distance":1029,"i_lat":-6.339291,"station_name":"Univ. Pancasila","is_transit":false},{"station_name":"Univ. Indonesia","is_transit":false,"transit":false,"time":3,"i_long":106.831474,"station_id":"UI","distance":2264,"i_lat":-6.360749,"line":2},{"line":2,"distance":1109,"station_name":"Pondok Cina","transit":false,"time":2,"station_id":"POC","i_lat":-6.369073,"i_long":106.831114,"is_transit":false},{"i_lat":-6.391065,"is_transit":false,"time":4,"transit":false,"i_long":106.819451,"line":2,"station_id":"DPB","distance":2727,"station_name":"Depokbaru"},{"station_id":"DP","station_name":"Depok","transit":false,"distance":1584,"time":3,"i_long":106.816926,"line":2,"i_lat":-6.405256,"is_transit":false},{"line":2,"station_name":"Citayam","is_transit":false,"station_id":"CTA","distance":5084,"transit":false,"i_lat":-6.448811,"i_long":106.800298,"time":6},{"is_transit":false,"transit":false,"distance":5197,"i_lat":-6.493243,"station_id":"BJD","station_name":"Bojonggede","i_long":106.792719,"time":5,"line":2}]]}