{"data":[[{"distance":0,"station_id":"MGB","is_transit":false,"line":2,"time":0,"station_name":"Manggabesar","transit":false,"i_lat":-6.149769,"i_long":106.82482},{"is_transit":false,"distance":906,"transit":false,"station_id":"SW","station_name":"Sawah Besar","i_lat":-6.160725,"i_long":106.827103,"line":2,"time":2},{"line":2,"distance":1149,"i_long":106.828284,"transit":false,"is_transit":false,"station_id":"JUA","station_name":"Juanda","i_lat":-6.166716,"time":2},{"distance":2015,"i_long":106.832183,"station_name":"Gondangdia","is_transit":false,"transit":false,"line":2,"station_id":"GDD","time":4,"i_lat":-6.186295},{"time":3,"i_long":106.840169,"station_name":"Cikini","transit":false,"i_lat":-6.198556,"is_transit":false,"station_id":"CKI","line":2,"distance":1750},{"transit":true,"station_id":"MRI","line":2,"distance":1590,"i_lat":-6.209883,"station_name":"Manggarai","is_transit":true,"i_long":106.84912,"time":4},{"station_id":"SUD","distance":3186,"time":4,"station_name":"Sudirman","transit":false,"is_transit":false,"i_lat":-6.202263,"i_long":106.822649,"line":1},{"station_name":"Sudirman Baru","is_transit":false,"station_id":"SUDB","i_lat":-6.201433,"time":1,"i_long":106.819881,"line":1,"transit":false,"distance":280}],[{"station_name":"Manggabesar","transit":false,"time":0,"is_transit":false,"i_lat":-6.149769,"i_long":106.82482,"distance":0,"station_id":"MGB","line":2},{"station_name":"Jayakarta","time":2,"transit":false,"distance":1080,"station_id":"JAY","is_transit":false,"i_lat":-6.141205,"i_long":106.820901,"line":2},{"station_name":"Jakarta Kota","distance":1264,"time":4,"transit":true,"is_transit":true,"line":2,"i_long":106.812439,"i_lat":-6.137569,"station_id":"JAKK"},{"time":3,"station_name":"Kampung Bandan","is_transit":true,"i_long":106.826365,"distance":1364,"station_id":"KPB","line":4,"i_lat":-6.132549,"transit":true},{"i_long":106.79867,"station_id":"AK","transit":false,"station_name":"Angke","is_transit":false,"line":1,"distance":4102,"time":9,"i_lat":-6.144674},{"i_lat":-6.155215,"i_long":106.800832,"line":1,"time":4,"station_name":"Duri","station_id":"DU","distance":1230,"is_transit":false,"transit":false},{"transit":false,"i_long":106.811091,"station_name":"Tanah Abang","is_transit":false,"i_lat":-6.185545,"time":8,"line":1,"distance":3632,"station_id":"THB"},{"is_transit":false,"i_long":106.816351,"station_name":"Karet","station_id":"KAT","distance":2029,"time":5,"i_lat":-6.20132,"transit":false,"line":1},{"time":1,"line":1,"station_id":"SUDB","station_name":"Sudirman Baru","transit":false,"is_transit":false,"i_long":106.819881,"i_lat":-6.201433,"distance":471}],[{"i_lat":-6.149769,"distance":0,"is_transit":false,"i_long":106.82482,"line":2,"time":0,"station_id":"MGB","station_name":"Manggabesar","transit":false},{"time":2,"transit":false,"station_id":"JAY","distance":1080,"i_lat":-6.141205,"is_transit":false,"i_long":106.820901,"line":2,"station_name":"Jayakarta"},{"i_lat":-6.137569,"line":2,"station_name":"Jakarta Kota","i_long":106.812439,"time":4,"transit":true,"distance":1264,"station_id":"JAKK","is_transit":true},{"station_id":"KPB","i_lat":-6.132549,"is_transit":true,"transit":true,"station_name":"Kampung Bandan","line":4,"time":3,"i_long":106.826365,"distance":1364},{"distance":1444,"is_transit":false,"station_name":"Rajawali","i_long":106.836569,"time":3,"line":11,"transit":false,"station_id":"RJW","i_lat":-6.14505},{"station_id":"KMO","station_name":"Kemayoran","is_transit":false,"i_long":106.839204,"time":5,"distance":1901,"transit":false,"i_lat":-6.161728,"line":11},{"i_lat":-6.174784,"station_id":"PSE","time":4,"station_name":"Pasar Senen","distance":1436,"i_long":106.84368,"line":11,"is_transit":false,"transit":false},{"i_lat":-6.185975,"line":11,"i_long":106.850107,"is_transit":false,"station_name":"Gang Sentiong","distance":1567,"transit":false,"time":8,"station_id":"GST"},{"i_long":106.855437,"line":11,"station_name":"Kramat","time":1,"station_id":"KMT","transit":false,"is_transit":false,"distance":973,"i_lat":-6.193792},{"time":2,"station_name":"Pondok Jati","station_id":"POK","i_lat":-6.209188,"distance":1829,"i_long":106.861737,"line":11,"is_transit":false,"transit":false},{"i_long":106.86807400000001,"line":1,"station_name":"Jatinegara","transit":true,"time":9,"i_lat":-6.215091,"distance":1236,"station_id":"JNG","is_transit":true},{"distance":1377,"is_transit":false,"line":1,"time":2,"i_lat":-6.212485,"i_long":106.858896,"transit":false,"station_name":"Matraman","station_id":"MTR"},{"transit":false,"distance":1275,"i_lat":-6.209883,"station_id":"MRI","line":2,"time":2,"is_transit":false,"i_long":106.84912,"station_name":"Manggarai"},{"transit":false,"time":4,"i_long":106.822649,"station_name":"Sudirman","station_id":"SUD","distance":3186,"i_lat":-6.202263,"is_transit":false,"line":1},{"distance":280,"i_long":106.819881,"i_lat":-6.201433,"station_id":"SUDB","transit":false,"is_transit":false,"station_name":"Sudirman Baru","line":1,"time":1}],[{"station_name":"Manggabesar","transit":false,"i_lat":-6.149769,"time":0,"is_transit":false,"i_long":106.82482,"station_id":"MGB","distance":0,"line":2},{"is_transit":false,"transit":false,"station_name":"Sawah Besar","station_id":"SW","i_lat":-6.160725,"distance":906,"i_long":106.827103,"line":2,"time":2},{"time":2,"i_long":106.828284,"i_lat":-6.166716,"is_transit":false,"transit":false,"station_id":"JUA","station_name":"Juanda","distance":1149,"line":2},{"distance":2015,"is_transit":false,"i_lat":-6.186295,"station_name":"Gondangdia","transit":false,"i_long":106.832183,"line":2,"time":4,"station_id":"GDD"},{"station_name":"Cikini","transit":false,"distance":1750,"is_transit":false,"line":2,"time":3,"i_long":106.840169,"i_lat":-6.198556,"station_id":"CKI"},{"distance":1590,"time":4,"line":2,"station_id":"MRI","i_lat":-6.209883,"station_name":"Manggarai","is_transit":true,"i_long":106.84912,"transit":true},{"time":2,"station_id":"MTR","line":1,"is_transit":false,"i_long":106.858896,"station_name":"Matraman","transit":false,"i_lat":-6.212485,"distance":1275},{"line":1,"distance":1377,"i_long":106.86807400000001,"station_name":"Jatinegara","transit":true,"station_id":"JNG","i_lat":-6.215091,"is_transit":true,"time":8},{"time":2,"station_name":"Pondok Jati","i_lat":-6.209188,"distance":1236,"transit":false,"is_transit":false,"station_id":"POK","line":11,"i_long":106.861737},{"line":11,"is_transit":false,"i_long":106.855437,"station_id":"KMT","transit":false,"distance":1829,"station_name":"Kramat","i_lat":-6.193792,"time":2},{"line":11,"time":1,"station_id":"GST","transit":false,"is_transit":false,"i_long":106.850107,"distance":973,"station_name":"Gang Sentiong","i_lat":-6.185975},{"line":11,"i_lat":-6.174784,"i_long":106.84368,"station_name":"Pasar Senen","transit":false,"station_id":"PSE","distance":1567,"time":8,"is_transit":false},{"i_lat":-6.161728,"is_transit":false,"i_long":106.839204,"station_id":"KMO","time":4,"station_name":"Kemayoran","line":11,"distance":1436,"transit":false},{"i_lat":-6.14505,"distance":1901,"station_id":"RJW","line":11,"station_name":"Rajawali","transit":false,"i_long":106.836569,"is_transit":false,"time":5},{"time":3,"i_long":106.826365,"transit":true,"i_lat":-6.132549,"is_transit":true,"line":4,"station_name":"Kampung Bandan","distance":1444,"station_id":"KPB"},{"transit":false,"i_lat":-6.144674,"time":9,"distance":4102,"line":1,"is_transit":false,"i_long":106.79867,"station_id":"AK","station_name":"Angke"},{"time":4,"distance":1230,"i_lat":-6.155215,"station_id":"DU","transit":false,"is_transit":false,"station_name":"Duri","i_long":106.800832,"line":1},{"line":1,"transit":false,"is_transit":false,"station_id":"THB","station_name":"Tanah Abang","i_lat":-6.185545,"i_long":106.811091,"distance":3632,"time":8},{"station_name":"Karet","is_transit":false,"i_lat":-6.20132,"line":1,"time":5,"station_id":"KAT","i_long":106.816351,"transit":false,"distance":2029},{"i_long":106.819881,"station_id":"SUDB","time":1,"is_transit":false,"i_lat":-6.201433,"transit":false,"line":1,"station_name":"Sudirman Baru","distance":471}]]}