{"data":[[{"time":0,"distance":0,"i_lat":-6.149769,"is_transit":false,"station_id":"MGB","station_name":"Manggabesar","i_long":106.82482,"transit":false,"line":2},{"line":2,"time":2,"i_lat":-6.160725,"is_transit":false,"distance":906,"station_name":"Sawah Besar","station_id":"SW","i_long":106.827103,"transit":false},{"distance":1149,"station_name":"Juanda","i_lat":-6.166716,"station_id":"JUA","is_transit":false,"transit":false,"i_long":106.828284,"line":2,"time":2},{"time":4,"transit":false,"line":2,"i_lat":-6.186295,"i_long":106.832183,"station_name":"Gondangdia","distance":2015,"station_id":"GDD","is_transit":false},{"is_transit":false,"station_id":"CKI","time":3,"transit":false,"i_long":106.840169,"station_name":"Cikini","i_lat":-6.198556,"line":2,"distance":1750},{"is_transit":true,"time":4,"transit":true,"station_id":"MRI","line":2,"i_lat":-6.209883,"station_name":"Manggarai","distance":1590,"i_long":106.84912},{"station_id":"MTR","line":1,"transit":false,"distance":1275,"is_transit":false,"station_name":"Matraman","i_long":106.858896,"i_lat":-6.212485,"time":2}],[{"station_id":"MGB","i_lat":-6.149769,"i_long":106.82482,"line":2,"distance":0,"time":0,"transit":false,"station_name":"Manggabesar","is_transit":false},{"distance":1080,"line":2,"station_name":"Jayakarta","time":2,"transit":false,"station_id":"JAY","i_long":106.820901,"is_transit":false,"i_lat":-6.141205},{"station_name":"Jakarta Kota","time":4,"distance":1264,"is_transit":true,"station_id":"JAKK","i_lat":-6.137569,"line":2,"i_long":106.812439,"transit":true},{"station_name":"Kampung Bandan","is_transit":true,"time":3,"i_long":106.826365,"distance":1364,"line":4,"station_id":"KPB","i_lat":-6.132549,"transit":true},{"is_transit":false,"time":9,"station_id":"AK","distance":4102,"line":1,"station_name":"Angke","i_long":106.79867,"transit":false,"i_lat":-6.144674},{"station_id":"DU","time":4,"distance":1230,"i_lat":-6.155215,"line":1,"i_long":106.800832,"is_transit":false,"transit":false,"station_name":"Duri"},{"station_id":"THB","time":8,"is_transit":false,"i_lat":-6.185545,"station_name":"Tanah Abang","i_long":106.811091,"distance":3632,"line":1,"transit":false},{"station_name":"Karet","distance":2029,"i_long":106.816351,"station_id":"KAT","i_lat":-6.20132,"line":1,"transit":false,"is_transit":false,"time":5},{"time":1,"transit":false,"station_id":"SUDB","line":1,"is_transit":false,"i_long":106.819881,"station_name":"Sudirman Baru","i_lat":-6.201433,"distance":471},{"is_transit":false,"i_lat":-6.202263,"station_name":"Sudirman","time":1,"distance":280,"transit":false,"i_long":106.822649,"line":1,"station_id":"SUD"},{"distance":3186,"i_long":106.84912,"is_transit":false,"line":2,"transit":false,"time":4,"station_id":"MRI","i_lat":-6.209883,"station_name":"Manggarai"},{"line":1,"i_long":106.858896,"time":2,"station_name":"Matraman","distance":1275,"is_transit":false,"station_id":"MTR","i_lat":-6.212485,"transit":false}],[{"transit":false,"is_transit":false,"i_lat":-6.149769,"time":0,"distance":0,"station_id":"MGB","i_long":106.82482,"line":2,"station_name":"Manggabesar"},{"is_transit":false,"transit":false,"station_name":"Jayakarta","time":2,"i_lat":-6.141205,"i_long":106.820901,"distance":1080,"station_id":"JAY","line":2},{"station_name":"Jakarta Kota","i_long":106.812439,"line":2,"transit":true,"is_transit":true,"distance":1264,"station_id":"JAKK","i_lat":-6.137569,"time":4},{"line":4,"i_lat":-6.132549,"is_transit":true,"transit":true,"station_id":"KPB","distance":1364,"station_name":"Kampung Bandan","i_long":106.826365,"time":3},{"station_id":"RJW","line":11,"is_transit":false,"station_name":"Rajawali","distance":1444,"i_lat":-6.14505,"i_long":106.836569,"transit":false,"time":3},{"time":5,"i_long":106.839204,"station_id":"KMO","line":11,"station_name":"Kemayoran","is_transit":false,"distance":1901,"i_lat":-6.161728,"transit":false},{"line":11,"station_id":"PSE","is_transit":false,"i_lat":-6.174784,"i_long":106.84368,"time":4,"station_name":"Pasar Senen","transit":false,"distance":1436},{"station_name":"Gang Sentiong","distance":1567,"i_lat":-6.185975,"i_long":106.850107,"station_id":"GST","line":11,"is_transit":false,"time":8,"transit":false},{"is_transit":false,"transit":false,"station_id":"KMT","distance":973,"line":11,"i_lat":-6.193792,"station_name":"Kramat","i_long":106.855437,"time":1},{"is_transit":false,"distance":1829,"transit":false,"station_name":"Pondok Jati","i_lat":-6.209188,"time":2,"i_long":106.861737,"station_id":"POK","line":11},{"line":1,"transit":true,"station_name":"Jatinegara","distance":1236,"station_id":"JNG","time":9,"i_long":106.86807400000001,"i_lat":-6.215091,"is_transit":true},{"station_name":"Matraman","transit":false,"is_transit":false,"distance":1377,"station_id":"MTR","i_long":106.858896,"time":2,"line":1,"i_lat":-6.212485}],[{"time":0,"transit":false,"station_name":"Manggabesar","station_id":"MGB","is_transit":false,"i_lat":-6.149769,"distance":0,"i_long":106.82482,"line":2},{"i_long":106.827103,"transit":false,"station_name":"Sawah Besar","station_id":"SW","is_transit":false,"time":2,"i_lat":-6.160725,"distance":906,"line":2},{"time":2,"distance":1149,"transit":false,"i_long":106.828284,"is_transit":false,"line":2,"station_id":"JUA","station_name":"Juanda","i_lat":-6.166716},{"station_name":"Gondangdia","is_transit":false,"station_id":"GDD","i_long":106.832183,"line":2,"i_lat":-6.186295,"transit":false,"time":4,"distance":2015},{"is_transit":false,"time":3,"transit":false,"station_name":"Cikini","i_lat":-6.198556,"i_long":106.840169,"line":2,"distance":1750,"station_id":"CKI"},{"station_name":"Manggarai","i_long":106.84912,"line":2,"is_transit":true,"time":4,"transit":true,"station_id":"MRI","distance":1590,"i_lat":-6.209883},{"i_long":106.822649,"station_name":"Sudirman","distance":3186,"transit":false,"time":4,"station_id":"SUD","i_lat":-6.202263,"line":1,"is_transit":false},{"distance":280,"transit":false,"line":1,"time":1,"i_long":106.819881,"station_id":"SUDB","i_lat":-6.201433,"station_name":"Sudirman Baru","is_transit":false},{"i_lat":-6.20132,"time":1,"is_transit":false,"transit":false,"distance":471,"line":1,"i_long":106.816351,"station_id":"KAT","station_name":"Karet"},{"transit":false,"line":1,"time":5,"i_lat":-6.185545,"is_transit":false,"station_id":"THB","i_long":106.811091,"station_name":"Tanah Abang","distance":2029},{"transit":false,"time":8,"distance":3632,"i_lat":-6.155215,"station_id":"DU","is_transit":false,"i_long":106.800832,"line":1,"station_name":"Duri"},{"transit":false,"distance":1230,"station_id":"AK","i_lat":-6.144674,"time":4,"i_long":106.79867,"line":1,"is_transit":false,"station_name":"Angke"},{"time":9,"is_transit":true,"transit":true,"distance":4102,"station_name":"Kampung Bandan","station_id":"KPB","i_lat":-6.132549,"line":4,"i_long":106.826365},{"station_name":"Rajawali","distance":1444,"i_long":106.836569,"is_transit":false,"line":11,"transit":false,"i_lat":-6.14505,"station_id":"RJW","time":3},{"station_name":"Kemayoran","station_id":"KMO","distance":1901,"i_lat":-6.161728,"is_transit":false,"time":5,"transit":false,"line":11,"i_long":106.839204},{"transit":false,"i_long":106.84368,"line":11,"i_lat":-6.174784,"is_transit":false,"station_id":"PSE","distance":1436,"station_name":"Pasar Senen","time":4},{"transit":false,"distance":1567,"i_long":106.850107,"line":11,"time":8,"i_lat":-6.185975,"is_transit":false,"station_id":"GST","station_name":"Gang Sentiong"},{"i_long":106.855437,"time":1,"is_transit":false,"distance":973,"station_id":"KMT","i_lat":-6.193792,"line":11,"transit":false,"station_name":"Kramat"},{"transit":false,"i_lat":-6.209188,"time":2,"i_long":106.861737,"is_transit":false,"distance":1829,"station_id":"POK","line":11,"station_name":"Pondok Jati"},{"i_lat":-6.215091,"station_id":"JNG","i_long":106.86807400000001,"station_name":"Jatinegara","distance":1236,"line":1,"is_transit":true,"transit":true,"time":9},{"is_transit":false,"i_lat":-6.212485,"station_name":"Matraman","line":1,"distance":1377,"station_id":"MTR","transit":false,"time":2,"i_long":106.858896}]]}