{"data":[[{"transit":false,"time":0,"i_lat":-6.149769,"station_id":"MGB","line":2,"distance":0,"station_name":"Manggabesar","i_long":106.82482,"is_transit":false},{"i_lat":-6.160725,"time":2,"station_name":"Sawah Besar","i_long":106.827103,"station_id":"SW","line":2,"is_transit":false,"distance":906,"transit":false},{"is_transit":false,"distance":1149,"station_name":"Juanda","time":2,"i_long":106.828284,"line":2,"i_lat":-6.166716,"station_id":"JUA","transit":false},{"distance":2015,"transit":false,"is_transit":false,"i_long":106.832183,"station_name":"Gondangdia","time":4,"line":2,"i_lat":-6.186295,"station_id":"GDD"},{"line":2,"station_id":"CKI","transit":false,"is_transit":false,"distance":1750,"station_name":"Cikini","i_lat":-6.198556,"time":3,"i_long":106.840169},{"station_name":"Manggarai","i_lat":-6.209883,"transit":false,"distance":1590,"time":4,"line":2,"station_id":"MRI","is_transit":false,"i_long":106.84912},{"station_id":"TEB","i_lat":-6.226659,"is_transit":false,"time":4,"i_long":106.857948,"distance":2610,"transit":false,"station_name":"Tebet","line":2},{"station_name":"Cawang","station_id":"CW","distance":1230,"line":2,"time":2,"transit":false,"i_long":106.856607,"is_transit":false,"i_lat":-6.242512},{"distance":1546,"transit":false,"time":3,"is_transit":false,"line":2,"i_long":106.85449,"station_id":"DRN","i_lat":-6.255332,"station_name":"Duren Kalibata"},{"station_id":"PSMB","is_transit":false,"time":2,"station_name":"Pasar Minggu Baru","transit":false,"i_long":106.851577,"line":2,"distance":824,"i_lat":-6.263214},{"distance":2380,"line":2,"station_name":"Pasar Minggu","time":2,"i_lat":-6.2842400000000005,"is_transit":false,"transit":false,"station_id":"PSM","i_long":106.843999}],[{"i_lat":-6.149769,"station_id":"MGB","transit":false,"is_transit":false,"i_long":106.82482,"line":2,"time":0,"station_name":"Manggabesar","distance":0},{"station_id":"JAY","is_transit":false,"i_long":106.820901,"distance":1080,"transit":false,"time":2,"i_lat":-6.141205,"station_name":"Jayakarta","line":2},{"transit":true,"is_transit":true,"station_name":"Jakarta Kota","distance":1264,"station_id":"JAKK","time":4,"i_lat":-6.137569,"i_long":106.812439,"line":2},{"line":4,"distance":1364,"transit":true,"is_transit":true,"time":3,"i_long":106.826365,"i_lat":-6.132549,"station_name":"Kampung Bandan","station_id":"KPB"},{"i_lat":-6.144674,"station_id":"AK","is_transit":false,"line":1,"distance":4102,"station_name":"Angke","i_long":106.79867,"transit":false,"time":9},{"station_id":"DU","transit":false,"distance":1230,"i_lat":-6.155215,"is_transit":false,"station_name":"Duri","line":1,"time":4,"i_long":106.800832},{"line":1,"transit":false,"time":8,"i_lat":-6.185545,"distance":3632,"is_transit":false,"station_name":"Tanah Abang","station_id":"THB","i_long":106.811091},{"station_name":"Karet","station_id":"KAT","i_lat":-6.20132,"transit":false,"is_transit":false,"line":1,"time":5,"distance":2029,"i_long":106.816351},{"i_long":106.819881,"time":1,"transit":false,"station_name":"Sudirman Baru","line":1,"distance":471,"station_id":"SUDB","is_transit":false,"i_lat":-6.201433},{"station_id":"SUD","is_transit":false,"i_lat":-6.202263,"station_name":"Sudirman","transit":false,"i_long":106.822649,"time":1,"distance":280,"line":1},{"is_transit":true,"transit":true,"time":4,"i_long":106.84912,"station_name":"Manggarai","station_id":"MRI","line":2,"i_lat":-6.209883,"distance":3186},{"i_lat":-6.226659,"line":2,"distance":2610,"station_id":"TEB","time":4,"transit":false,"i_long":106.857948,"is_transit":false,"station_name":"Tebet"},{"station_name":"Cawang","station_id":"CW","time":2,"i_lat":-6.242512,"distance":1230,"is_transit":false,"transit":false,"i_long":106.856607,"line":2},{"i_long":106.85449,"is_transit":false,"station_name":"Duren Kalibata","station_id":"DRN","i_lat":-6.255332,"distance":1546,"transit":false,"time":3,"line":2},{"time":2,"transit":false,"station_name":"Pasar Minggu Baru","i_lat":-6.263214,"station_id":"PSMB","is_transit":false,"i_long":106.851577,"distance":824,"line":2},{"distance":2380,"time":2,"station_id":"PSM","i_long":106.843999,"transit":false,"i_lat":-6.2842400000000005,"is_transit":false,"line":2,"station_name":"Pasar Minggu"}],[{"station_name":"Manggabesar","transit":false,"i_long":106.82482,"station_id":"MGB","is_transit":false,"distance":0,"time":0,"line":2,"i_lat":-6.149769},{"distance":1080,"station_id":"JAY","is_transit":false,"time":2,"i_long":106.820901,"i_lat":-6.141205,"transit":false,"station_name":"Jayakarta","line":2},{"station_id":"JAKK","transit":true,"station_name":"Jakarta Kota","time":4,"i_long":106.812439,"i_lat":-6.137569,"is_transit":true,"line":2,"distance":1264},{"station_name":"Kampung Bandan","distance":1364,"transit":true,"line":4,"station_id":"KPB","time":3,"i_lat":-6.132549,"i_long":106.826365,"is_transit":true},{"distance":1444,"station_id":"RJW","is_transit":false,"transit":false,"line":11,"time":3,"i_lat":-6.14505,"i_long":106.836569,"station_name":"Rajawali"},{"time":5,"station_name":"Kemayoran","transit":false,"line":11,"station_id":"KMO","i_lat":-6.161728,"distance":1901,"i_long":106.839204,"is_transit":false},{"distance":1436,"i_long":106.84368,"station_name":"Pasar Senen","station_id":"PSE","i_lat":-6.174784,"transit":false,"time":4,"line":11,"is_transit":false},{"i_lat":-6.185975,"station_name":"Gang Sentiong","time":8,"is_transit":false,"distance":1567,"station_id":"GST","i_long":106.850107,"line":11,"transit":false},{"is_transit":false,"station_name":"Kramat","i_lat":-6.193792,"distance":973,"time":1,"station_id":"KMT","i_long":106.855437,"line":11,"transit":false},{"line":11,"time":2,"station_id":"POK","i_lat":-6.209188,"is_transit":false,"distance":1829,"station_name":"Pondok Jati","i_long":106.861737,"transit":false},{"i_lat":-6.215091,"time":9,"line":1,"transit":true,"station_name":"Jatinegara","distance":1236,"station_id":"JNG","is_transit":true,"i_long":106.86807400000001},{"time":2,"line":1,"distance":1377,"station_name":"Matraman","i_lat":-6.212485,"transit":false,"is_transit":false,"i_long":106.858896,"station_id":"MTR"},{"distance":1275,"transit":true,"time":2,"i_long":106.84912,"station_name":"Manggarai","line":2,"station_id":"MRI","i_lat":-6.209883,"is_transit":true},{"transit":false,"station_id":"TEB","line":2,"distance":2610,"i_lat":-6.226659,"station_name":"Tebet","i_long":106.857948,"is_transit":false,"time":4},{"is_transit":false,"i_long":106.856607,"time":2,"station_name":"Cawang","transit":false,"station_id":"CW","i_lat":-6.242512,"line":2,"distance":1230},{"i_lat":-6.255332,"station_id":"DRN","distance":1546,"transit":false,"i_long":106.85449,"station_name":"Duren Kalibata","is_transit":false,"line":2,"time":3},{"is_transit":false,"station_name":"Pasar Minggu Baru","distance":824,"time":2,"i_lat":-6.263214,"station_id":"PSMB","i_long":106.851577,"transit":false,"line":2},{"distance":2380,"transit":false,"station_id":"PSM","i_long":106.843999,"i_lat":-6.2842400000000005,"is_transit":false,"time":2,"station_name":"Pasar Minggu","line":2}]]}