{"data":[[{"distance":0,"i_long":106.82482,"transit":false,"is_transit":false,"line":2,"station_id":"MGB","i_lat":-6.149769,"time":0,"station_name":"Manggabesar"},{"line":2,"transit":false,"is_transit":false,"time":2,"i_long":106.827103,"station_name":"Sawah Besar","distance":906,"station_id":"SW","i_lat":-6.160725},{"is_transit":false,"distance":1149,"i_long":106.828284,"time":2,"station_id":"JUA","i_lat":-6.166716,"transit":false,"line":2,"station_name":"Juanda"},{"line":2,"time":4,"transit":false,"distance":2015,"is_transit":false,"station_id":"GDD","station_name":"Gondangdia","i_lat":-6.186295,"i_long":106.832183},{"distance":1750,"station_name":"Cikini","transit":false,"i_lat":-6.198556,"time":3,"line":0,"station_id":"CKI","i_long":106.840169,"is_transit":false},{"distance":1590,"transit":true,"i_lat":-6.209883,"station_name":"Manggarai","station_id":"MRI","i_long":106.84912,"line":0,"time":4,"is_transit":true},{"i_long":106.858896,"station_id":"MTR","distance":1275,"line":1,"time":2,"station_name":"Matraman","transit":false,"is_transit":false,"i_lat":-6.212485},{"station_name":"Jatinegara","time":8,"station_id":"JNG","transit":false,"i_lat":-6.215091,"is_transit":true,"line":0,"i_long":106.86807400000001,"distance":1377},{"distance":3395,"i_lat":-6.2135,"i_long":106.899548,"time":3,"transit":false,"station_name":"Klender","line":1,"is_transit":false,"station_id":"KLD"},{"station_id":"BUA","time":2,"is_transit":false,"transit":false,"i_lat":-6.215568,"line":0,"station_name":"Buaran","i_long":106.922662,"distance":3100},{"distance":1305,"time":1,"station_id":"KLDB","station_name":"Klenderbaru","i_long":106.939679,"i_lat":-6.217455,"is_transit":false,"transit":false,"line":1},{"station_id":"CUK","time":8,"distance":1385,"station_name":"Cakung","transit":false,"is_transit":false,"i_lat":-6.219053,"line":0,"i_long":106.951283},{"station_name":"Kranji","station_id":"KRI","i_long":106.977657,"transit":false,"is_transit":false,"time":3,"distance":3097,"line":1,"i_lat":-6.224515},{"station_id":"BKS","distance":2520,"is_transit":false,"time":4,"line":0,"i_lat":-6.236616,"transit":false,"station_name":"Bekasi","i_long":106.997013},{"i_lat":-6.248029,"line":0,"i_long":107.016735,"is_transit":false,"transit":false,"time":2,"distance":2368,"station_name":"Bekasi Timur","station_id":"BKST"},{"is_transit":false,"station_name":"Tambun","station_id":"TB","transit":false,"time":7,"i_lat":-6.258864,"i_long":107.055722,"line":1,"distance":4460}],[{"station_name":"Manggabesar","time":0,"i_long":106.82482,"line":2,"station_id":"MGB","transit":false,"is_transit":false,"distance":0,"i_lat":-6.149769},{"is_transit":false,"station_id":"JAY","time":2,"i_long":106.820901,"i_lat":-6.141205,"line":7,"station_name":"Jayakarta","distance":1080,"transit":false},{"time":4,"i_long":106.812439,"transit":true,"is_transit":true,"i_lat":-6.137569,"distance":1264,"line":0,"station_name":"Jakarta Kota","station_id":"JAKK"},{"is_transit":true,"i_long":106.826365,"line":0,"station_id":"KPB","transit":true,"station_name":"Kampung Bandan","time":3,"distance":1364,"i_lat":-6.132549},{"time":3,"station_name":"Rajawali","distance":1444,"station_id":"RJW","is_transit":false,"transit":false,"line":11,"i_lat":-6.14505,"i_long":106.836569},{"transit":false,"i_lat":-6.161728,"station_id":"KMO","i_long":106.839204,"line":11,"is_transit":false,"station_name":"Kemayoran","distance":1901,"time":5},{"station_id":"PSE","is_transit":false,"line":11,"station_name":"Pasar Senen","i_long":106.84368,"i_lat":-6.174784,"transit":false,"time":4,"distance":1436},{"transit":false,"time":8,"station_name":"Gang Sentiong","distance":1567,"station_id":"GST","is_transit":false,"i_long":106.850107,"i_lat":-6.185975,"line":11},{"station_name":"Kramat","transit":false,"line":11,"i_lat":-6.193792,"time":1,"is_transit":false,"i_long":106.855437,"distance":973,"station_id":"KMT"},{"station_id":"POK","station_name":"Pondok Jati","transit":false,"is_transit":false,"line":11,"distance":1829,"time":2,"i_lat":-6.209188,"i_long":106.861737},{"station_name":"Jatinegara","i_long":106.86807400000001,"station_id":"JNG","line":0,"transit":true,"is_transit":true,"time":9,"distance":1236,"i_lat":-6.215091},{"station_name":"Klender","station_id":"KLD","transit":false,"i_lat":-6.2135,"i_long":106.899548,"is_transit":false,"line":1,"distance":3395,"time":3},{"distance":3100,"station_id":"BUA","is_transit":false,"time":2,"station_name":"Buaran","transit":false,"i_long":106.922662,"i_lat":-6.215568,"line":0},{"line":1,"station_name":"Klenderbaru","is_transit":false,"time":1,"i_lat":-6.217455,"station_id":"KLDB","distance":1305,"transit":false,"i_long":106.939679},{"transit":false,"station_name":"Cakung","is_transit":false,"i_long":106.951283,"line":0,"station_id":"CUK","i_lat":-6.219053,"time":8,"distance":1385},{"distance":3097,"transit":false,"i_lat":-6.224515,"i_long":106.977657,"time":3,"station_id":"KRI","station_name":"Kranji","is_transit":false,"line":1},{"is_transit":false,"station_name":"Bekasi","transit":false,"distance":2520,"i_long":106.997013,"i_lat":-6.236616,"line":0,"station_id":"BKS","time":4},{"i_lat":-6.248029,"station_name":"Bekasi Timur","station_id":"BKST","line":0,"time":2,"i_long":107.016735,"distance":2368,"is_transit":false,"transit":false},{"is_transit":false,"time":7,"i_long":107.055722,"distance":4460,"line":1,"station_name":"Tambun","station_id":"TB","i_lat":-6.258864,"transit":false}],[{"line":2,"i_long":106.82482,"is_transit":false,"transit":false,"i_lat":-6.149769,"distance":0,"station_name":"Manggabesar","time":0,"station_id":"MGB"},{"transit":false,"time":2,"station_id":"JAY","is_transit":false,"line":7,"distance":1080,"i_long":106.820901,"station_name":"Jayakarta","i_lat":-6.141205},{"time":4,"station_name":"Jakarta Kota","is_transit":true,"i_lat":-6.137569,"line":0,"transit":true,"station_id":"JAKK","distance":1264,"i_long":106.812439},{"station_name":"Kampung Bandan","station_id":"KPB","i_lat":-6.132549,"is_transit":true,"distance":1364,"transit":false,"time":3,"i_long":106.826365,"line":0},{"transit":false,"distance":4102,"time":9,"station_name":"Angke","i_lat":-6.144674,"i_long":106.79867,"station_id":"AK","line":0,"is_transit":false},{"station_name":"Duri","i_lat":-6.155215,"is_transit":true,"line":1,"time":4,"station_id":"DU","transit":true,"distance":1230,"i_long":106.800832},{"is_transit":true,"distance":3632,"line":1,"station_id":"THB","i_lat":-6.185545,"transit":false,"time":8,"i_long":106.811091,"station_name":"Tanah Abang"},{"station_name":"Karet","distance":2029,"i_lat":-6.20132,"is_transit":false,"station_id":"KAT","i_long":106.816351,"line":1,"transit":false,"time":5},{"station_name":"Sudirman Baru","i_lat":-6.201433,"i_long":106.819881,"station_id":"SUDB","line":1,"is_transit":false,"time":1,"transit":false,"distance":471},{"station_name":"Sudirman","transit":false,"time":1,"i_long":106.822649,"is_transit":false,"line":1,"station_id":"SUD","distance":280,"i_lat":-6.202263},{"time":4,"distance":3186,"i_lat":-6.209883,"station_id":"MRI","is_transit":true,"line":0,"i_long":106.84912,"transit":false,"station_name":"Manggarai"},{"time":2,"station_name":"Matraman","transit":false,"i_long":106.858896,"distance":1275,"line":1,"station_id":"MTR","is_transit":false,"i_lat":-6.212485},{"station_name":"Jatinegara","i_long":106.86807400000001,"is_transit":true,"distance":1377,"time":8,"station_id":"JNG","i_lat":-6.215091,"transit":false,"line":0},{"station_name":"Klender","i_lat":-6.2135,"time":3,"i_long":106.899548,"line":1,"distance":3395,"transit":false,"station_id":"KLD","is_transit":false},{"i_long":106.922662,"line":0,"i_lat":-6.215568,"distance":3100,"is_transit":false,"time":2,"station_name":"Buaran","station_id":"BUA","transit":false},{"distance":1305,"station_name":"Klenderbaru","station_id":"KLDB","i_lat":-6.217455,"line":1,"is_transit":false,"transit":false,"time":1,"i_long":106.939679},{"station_id":"CUK","line":0,"time":8,"i_long":106.951283,"transit":false,"is_transit":false,"station_name":"Cakung","distance":1385,"i_lat":-6.219053},{"station_id":"KRI","transit":false,"station_name":"Kranji","is_transit":false,"time":3,"distance":3097,"i_lat":-6.224515,"i_long":106.977657,"line":1},{"station_id":"BKS","is_transit":false,"line":0,"time":4,"distance":2520,"i_long":106.997013,"transit":false,"station_name":"Bekasi","i_lat":-6.236616},{"station_name":"Bekasi Timur","station_id":"BKST","is_transit":false,"i_lat":-6.248029,"i_long":107.016735,"transit":false,"distance":2368,"line":0,"time":2},{"time":7,"is_transit":false,"transit":false,"line":1,"station_name":"Tambun","i_lat":-6.258864,"distance":4460,"i_long":107.055722,"station_id":"TB"}],[{"is_transit":false,"line":2,"station_name":"Manggabesar","station_id":"MGB","transit":false,"i_lat":-6.149769,"distance":0,"time":0,"i_long":106.82482},{"distance":906,"i_lat":-6.160725,"line":2,"is_transit":false,"station_id":"SW","time":2,"station_name":"Sawah Besar","transit":false,"i_long":106.827103},{"distance":1149,"station_id":"JUA","time":2,"line":2,"transit":false,"station_name":"Juanda","i_long":106.828284,"is_transit":false,"i_lat":-6.166716},{"transit":false,"i_long":106.832183,"station_name":"Gondangdia","is_transit":false,"station_id":"GDD","time":4,"distance":2015,"i_lat":-6.186295,"line":2},{"i_lat":-6.198556,"time":3,"i_long":106.840169,"line":0,"transit":false,"station_name":"Cikini","station_id":"CKI","is_transit":false,"distance":1750},{"transit":true,"distance":1590,"time":4,"station_name":"Manggarai","i_long":106.84912,"i_lat":-6.209883,"line":0,"station_id":"MRI","is_transit":true},{"time":4,"i_long":106.822649,"i_lat":-6.202263,"station_name":"Sudirman","line":1,"station_id":"SUD","is_transit":false,"distance":3186,"transit":false},{"station_name":"Sudirman Baru","distance":280,"station_id":"SUDB","i_long":106.819881,"time":1,"i_lat":-6.201433,"line":1,"is_transit":false,"transit":false},{"transit":false,"station_id":"KAT","is_transit":false,"station_name":"Karet","time":1,"i_lat":-6.20132,"line":1,"i_long":106.816351,"distance":471},{"time":5,"is_transit":true,"distance":2029,"i_long":106.811091,"station_name":"Tanah Abang","station_id":"THB","transit":false,"i_lat":-6.185545,"line":1},{"time":8,"is_transit":true,"transit":true,"i_long":106.800832,"station_name":"Duri","i_lat":-6.155215,"line":1,"station_id":"DU","distance":3632},{"station_name":"Angke","time":4,"station_id":"AK","distance":1230,"line":0,"transit":false,"is_transit":false,"i_lat":-6.144674,"i_long":106.79867},{"time":9,"transit":true,"i_long":106.826365,"line":0,"station_name":"Kampung Bandan","station_id":"KPB","is_transit":true,"distance":4102,"i_lat":-6.132549},{"i_lat":-6.14505,"station_name":"Rajawali","transit":false,"station_id":"RJW","time":3,"is_transit":false,"i_long":106.836569,"line":11,"distance":1444},{"time":5,"station_id":"KMO","i_long":106.839204,"line":11,"transit":false,"is_transit":false,"i_lat":-6.161728,"station_name":"Kemayoran","distance":1901},{"i_lat":-6.174784,"station_name":"Pasar Senen","is_transit":false,"station_id":"PSE","time":4,"line":11,"transit":false,"distance":1436,"i_long":106.84368},{"distance":1567,"is_transit":false,"i_long":106.850107,"time":8,"i_lat":-6.185975,"line":11,"station_name":"Gang Sentiong","station_id":"GST","transit":false},{"i_lat":-6.193792,"i_long":106.855437,"is_transit":false,"station_id":"KMT","transit":false,"time":1,"distance":973,"station_name":"Kramat","line":11},{"time":2,"station_id":"POK","line":11,"i_long":106.861737,"station_name":"Pondok Jati","distance":1829,"i_lat":-6.209188,"transit":false,"is_transit":false},{"transit":true,"station_id":"JNG","i_lat":-6.215091,"line":0,"time":9,"is_transit":true,"station_name":"Jatinegara","distance":1236,"i_long":106.86807400000001},{"station_name":"Klender","line":1,"transit":false,"i_lat":-6.2135,"station_id":"KLD","distance":3395,"is_transit":false,"i_long":106.899548,"time":3},{"station_name":"Buaran","time":2,"is_transit":false,"line":0,"i_long":106.922662,"station_id":"BUA","transit":false,"distance":3100,"i_lat":-6.215568},{"time":1,"i_long":106.939679,"line":1,"distance":1305,"station_name":"Klenderbaru","is_transit":false,"station_id":"KLDB","transit":false,"i_lat":-6.217455},{"i_lat":-6.219053,"time":8,"station_id":"CUK","station_name":"Cakung","transit":false,"distance":1385,"line":0,"is_transit":false,"i_long":106.951283},{"station_id":"KRI","i_lat":-6.224515,"i_long":106.977657,"line":1,"station_name":"Kranji","distance":3097,"transit":false,"is_transit":false,"time":3},{"line":0,"i_long":106.997013,"i_lat":-6.236616,"time":4,"distance":2520,"station_name":"Bekasi","is_transit":false,"station_id":"BKS","transit":false},{"i_long":107.016735,"line":0,"is_transit":false,"station_name":"Bekasi Timur","station_id":"BKST","transit":false,"distance":2368,"i_lat":-6.248029,"time":2},{"transit":false,"station_name":"Tambun","i_long":107.055722,"i_lat":-6.258864,"distance":4460,"line":1,"station_id":"TB","is_transit":false,"time":7}]]}