{"data":[[{"station_name":"Manggabesar","transit":false,"time":0,"station_id":"MGB","i_lat":-6.149769,"is_transit":false,"line":2,"distance":0,"i_long":106.82482},{"i_long":106.827103,"time":2,"i_lat":-6.160725,"station_id":"SW","is_transit":false,"station_name":"Sawah Besar","transit":false,"line":2,"distance":906},{"time":2,"distance":1149,"i_lat":-6.166716,"station_id":"JUA","transit":false,"is_transit":false,"i_long":106.828284,"line":2,"station_name":"Juanda"},{"time":4,"line":2,"distance":2015,"is_transit":false,"station_id":"GDD","i_long":106.832183,"station_name":"Gondangdia","transit":false,"i_lat":-6.186295},{"time":3,"station_id":"CKI","transit":false,"i_lat":-6.198556,"i_long":106.840169,"line":2,"station_name":"Cikini","distance":1750,"is_transit":false},{"time":4,"station_id":"MRI","i_long":106.84912,"transit":true,"distance":1590,"is_transit":true,"line":2,"station_name":"Manggarai","i_lat":-6.209883},{"transit":false,"line":1,"station_id":"MTR","time":2,"i_long":106.858896,"station_name":"Matraman","is_transit":false,"distance":1275,"i_lat":-6.212485},{"distance":1377,"i_lat":-6.215091,"line":1,"is_transit":false,"time":8,"station_name":"Jatinegara","station_id":"JNG","transit":false,"i_long":106.86807400000001},{"i_long":106.899548,"is_transit":false,"station_id":"KLD","transit":false,"line":1,"time":3,"distance":3395,"i_lat":-6.2135,"station_name":"Klender"},{"station_name":"Buaran","is_transit":false,"transit":false,"i_lat":-6.215568,"station_id":"BUA","i_long":106.922662,"distance":3100,"time":2,"line":1},{"time":1,"i_lat":-6.217455,"i_long":106.939679,"station_id":"KLDB","distance":1305,"station_name":"Klenderbaru","is_transit":false,"transit":false,"line":1},{"is_transit":false,"time":8,"transit":false,"station_name":"Cakung","distance":1385,"i_lat":-6.219053,"i_long":106.951283,"line":1,"station_id":"CUK"},{"station_id":"KRI","is_transit":false,"time":3,"transit":false,"line":1,"distance":3097,"i_lat":-6.224515,"i_long":106.977657,"station_name":"Kranji"},{"is_transit":false,"i_long":106.997013,"time":4,"distance":2520,"station_name":"Bekasi","line":1,"transit":false,"station_id":"BKS","i_lat":-6.236616},{"station_id":"BKST","i_lat":-6.248029,"i_long":107.016735,"distance":2368,"station_name":"Bekasi Timur","transit":false,"line":1,"time":2,"is_transit":false},{"is_transit":false,"transit":false,"i_lat":-6.258864,"station_name":"Tambun","i_long":107.055722,"time":7,"line":1,"station_id":"TB","distance":4460},{"station_name":"Cibitung","transit":false,"line":1,"i_long":107.083084,"is_transit":false,"i_lat":-6.261877,"station_id":"CIT","time":3,"distance":3420},{"distance":2800,"time":2,"i_lat":-6.262938,"is_transit":false,"station_id":"TLM","line":1,"transit":false,"station_name":"Metland Telaga Murni","i_long":107.093313},{"i_long":107.144613,"distance":3689,"is_transit":false,"station_id":"CKR","i_lat":-6.2553149999999995,"station_name":"Cikarang","time":4,"transit":false,"line":1}],[{"i_lat":-6.149769,"i_long":106.82482,"transit":false,"station_name":"Manggabesar","line":2,"time":0,"station_id":"MGB","distance":0,"is_transit":false},{"transit":false,"time":2,"is_transit":false,"station_id":"JAY","distance":1080,"i_lat":-6.141205,"line":2,"station_name":"Jayakarta","i_long":106.820901},{"i_long":106.812439,"time":4,"distance":1264,"station_id":"JAKK","station_name":"Jakarta Kota","line":2,"transit":true,"i_lat":-6.137569,"is_transit":true},{"i_lat":-6.132549,"transit":true,"is_transit":true,"station_id":"KPB","line":4,"time":3,"distance":1364,"station_name":"Kampung Bandan","i_long":106.826365},{"distance":1444,"i_lat":-6.14505,"station_name":"Rajawali","is_transit":false,"transit":false,"line":11,"station_id":"RJW","i_long":106.836569,"time":3},{"station_id":"KMO","distance":1901,"i_long":106.839204,"time":5,"transit":false,"is_transit":false,"station_name":"Kemayoran","i_lat":-6.161728,"line":11},{"i_long":106.84368,"is_transit":false,"transit":false,"line":11,"station_id":"PSE","i_lat":-6.174784,"distance":1436,"station_name":"Pasar Senen","time":4},{"distance":1567,"transit":false,"station_name":"Gang Sentiong","station_id":"GST","line":11,"i_lat":-6.185975,"i_long":106.850107,"time":8,"is_transit":false},{"station_name":"Kramat","time":1,"i_long":106.855437,"distance":973,"i_lat":-6.193792,"transit":false,"station_id":"KMT","line":11,"is_transit":false},{"i_lat":-6.209188,"i_long":106.861737,"line":11,"transit":false,"time":2,"station_id":"POK","is_transit":false,"station_name":"Pondok Jati","distance":1829},{"distance":1236,"line":1,"transit":true,"i_long":106.86807400000001,"time":9,"station_id":"JNG","is_transit":true,"station_name":"Jatinegara","i_lat":-6.215091},{"i_lat":-6.2135,"station_name":"Klender","line":1,"is_transit":false,"station_id":"KLD","distance":3395,"i_long":106.899548,"time":3,"transit":false},{"i_lat":-6.215568,"line":1,"time":2,"distance":3100,"station_id":"BUA","i_long":106.922662,"transit":false,"is_transit":false,"station_name":"Buaran"},{"distance":1305,"line":1,"station_id":"KLDB","i_long":106.939679,"time":1,"transit":false,"i_lat":-6.217455,"station_name":"Klenderbaru","is_transit":false},{"transit":false,"is_transit":false,"station_name":"Cakung","i_lat":-6.219053,"distance":1385,"time":8,"i_long":106.951283,"line":1,"station_id":"CUK"},{"distance":3097,"is_transit":false,"line":1,"station_name":"Kranji","transit":false,"i_lat":-6.224515,"i_long":106.977657,"station_id":"KRI","time":3},{"is_transit":false,"station_id":"BKS","line":1,"i_long":106.997013,"distance":2520,"transit":false,"time":4,"station_name":"Bekasi","i_lat":-6.236616},{"is_transit":false,"i_lat":-6.248029,"transit":false,"station_name":"Bekasi Timur","station_id":"BKST","line":1,"distance":2368,"time":2,"i_long":107.016735},{"i_long":107.055722,"distance":4460,"is_transit":false,"station_name":"Tambun","line":1,"transit":false,"station_id":"TB","i_lat":-6.258864,"time":7},{"station_id":"CIT","transit":false,"distance":3420,"station_name":"Cibitung","i_lat":-6.261877,"i_long":107.083084,"line":1,"is_transit":false,"time":3},{"i_lat":-6.262938,"is_transit":false,"station_id":"TLM","distance":2800,"line":1,"station_name":"Metland Telaga Murni","i_long":107.093313,"time":2,"transit":false},{"station_name":"Cikarang","is_transit":false,"distance":3689,"time":4,"station_id":"CKR","transit":false,"line":1,"i_lat":-6.2553149999999995,"i_long":107.144613}],[{"transit":false,"distance":0,"station_name":"Manggabesar","i_lat":-6.149769,"time":0,"line":2,"station_id":"MGB","is_transit":false,"i_long":106.82482},{"is_transit":false,"distance":1080,"transit":false,"time":2,"station_id":"JAY","i_lat":-6.141205,"line":2,"station_name":"Jayakarta","i_long":106.820901},{"station_id":"JAKK","station_name":"Jakarta Kota","i_lat":-6.137569,"is_transit":true,"i_long":106.812439,"transit":true,"line":2,"time":4,"distance":1264},{"station_name":"Kampung Bandan","is_transit":true,"distance":1364,"i_long":106.826365,"time":3,"station_id":"KPB","transit":true,"i_lat":-6.132549,"line":4},{"i_lat":-6.144674,"station_name":"Angke","is_transit":false,"transit":false,"time":9,"i_long":106.79867,"distance":4102,"station_id":"AK","line":1},{"time":4,"station_name":"Duri","i_lat":-6.155215,"line":1,"i_long":106.800832,"transit":false,"distance":1230,"is_transit":false,"station_id":"DU"},{"time":8,"distance":3632,"station_name":"Tanah Abang","is_transit":false,"station_id":"THB","i_lat":-6.185545,"transit":false,"i_long":106.811091,"line":1},{"distance":2029,"line":1,"i_long":106.816351,"transit":false,"time":5,"station_name":"Karet","station_id":"KAT","i_lat":-6.20132,"is_transit":false},{"i_long":106.819881,"station_id":"SUDB","distance":471,"transit":false,"i_lat":-6.201433,"is_transit":false,"station_name":"Sudirman Baru","line":1,"time":1},{"transit":false,"station_id":"SUD","i_long":106.822649,"line":1,"time":1,"i_lat":-6.202263,"station_name":"Sudirman","is_transit":false,"distance":280},{"transit":false,"time":4,"station_id":"MRI","line":2,"distance":3186,"station_name":"Manggarai","i_long":106.84912,"is_transit":false,"i_lat":-6.209883},{"station_id":"MTR","transit":false,"station_name":"Matraman","time":2,"is_transit":false,"distance":1275,"i_long":106.858896,"i_lat":-6.212485,"line":1},{"is_transit":false,"i_long":106.86807400000001,"station_name":"Jatinegara","distance":1377,"station_id":"JNG","time":8,"i_lat":-6.215091,"transit":false,"line":1},{"i_lat":-6.2135,"i_long":106.899548,"station_name":"Klender","is_transit":false,"line":1,"transit":false,"distance":3395,"time":3,"station_id":"KLD"},{"station_id":"BUA","station_name":"Buaran","is_transit":false,"distance":3100,"i_lat":-6.215568,"i_long":106.922662,"time":2,"transit":false,"line":1},{"i_long":106.939679,"transit":false,"distance":1305,"station_id":"KLDB","line":1,"station_name":"Klenderbaru","time":1,"is_transit":false,"i_lat":-6.217455},{"line":1,"i_long":106.951283,"distance":1385,"time":8,"station_id":"CUK","is_transit":false,"transit":false,"station_name":"Cakung","i_lat":-6.219053},{"distance":3097,"time":3,"station_id":"KRI","i_long":106.977657,"line":1,"station_name":"Kranji","transit":false,"is_transit":false,"i_lat":-6.224515},{"station_id":"BKS","is_transit":false,"i_lat":-6.236616,"time":4,"i_long":106.997013,"line":1,"distance":2520,"station_name":"Bekasi","transit":false},{"i_long":107.016735,"transit":false,"line":1,"time":2,"distance":2368,"station_id":"BKST","station_name":"Bekasi Timur","i_lat":-6.248029,"is_transit":false},{"station_id":"TB","i_long":107.055722,"distance":4460,"i_lat":-6.258864,"line":1,"transit":false,"time":7,"is_transit":false,"station_name":"Tambun"},{"station_id":"CIT","i_long":107.083084,"station_name":"Cibitung","i_lat":-6.261877,"is_transit":false,"line":1,"time":3,"transit":false,"distance":3420},{"is_transit":false,"station_name":"Metland Telaga Murni","i_lat":-6.262938,"i_long":107.093313,"time":2,"line":1,"transit":false,"station_id":"TLM","distance":2800},{"is_transit":false,"time":4,"distance":3689,"transit":false,"station_name":"Cikarang","i_lat":-6.2553149999999995,"i_long":107.144613,"line":1,"station_id":"CKR"}],[{"i_long":106.82482,"transit":false,"i_lat":-6.149769,"distance":0,"station_name":"Manggabesar","line":2,"is_transit":false,"time":0,"station_id":"MGB"},{"i_lat":-6.160725,"time":2,"distance":906,"line":2,"is_transit":false,"transit":false,"station_name":"Sawah Besar","station_id":"SW","i_long":106.827103},{"station_name":"Juanda","time":2,"station_id":"JUA","i_lat":-6.166716,"is_transit":false,"transit":false,"line":2,"distance":1149,"i_long":106.828284},{"transit":false,"time":4,"i_lat":-6.186295,"distance":2015,"line":2,"station_id":"GDD","is_transit":false,"station_name":"Gondangdia","i_long":106.832183},{"station_name":"Cikini","line":2,"transit":false,"is_transit":false,"time":3,"i_lat":-6.198556,"distance":1750,"i_long":106.840169,"station_id":"CKI"},{"i_lat":-6.209883,"is_transit":true,"distance":1590,"time":4,"station_name":"Manggarai","line":2,"transit":true,"station_id":"MRI","i_long":106.84912},{"distance":3186,"i_long":106.822649,"station_name":"Sudirman","line":1,"is_transit":false,"transit":false,"station_id":"SUD","i_lat":-6.202263,"time":4},{"i_long":106.819881,"time":1,"station_name":"Sudirman Baru","is_transit":false,"line":1,"i_lat":-6.201433,"distance":280,"station_id":"SUDB","transit":false},{"station_name":"Karet","station_id":"KAT","i_long":106.816351,"line":1,"is_transit":false,"time":1,"i_lat":-6.20132,"distance":471,"transit":false},{"station_name":"Tanah Abang","is_transit":false,"time":5,"i_lat":-6.185545,"line":1,"distance":2029,"i_long":106.811091,"station_id":"THB","transit":false},{"i_lat":-6.155215,"i_long":106.800832,"station_name":"Duri","is_transit":false,"station_id":"DU","line":1,"transit":false,"time":8,"distance":3632},{"i_long":106.79867,"station_name":"Angke","distance":1230,"line":1,"time":4,"i_lat":-6.144674,"transit":false,"is_transit":false,"station_id":"AK"},{"is_transit":true,"transit":true,"station_name":"Kampung Bandan","station_id":"KPB","line":4,"i_lat":-6.132549,"time":9,"i_long":106.826365,"distance":4102},{"i_long":106.836569,"transit":false,"line":11,"station_name":"Rajawali","i_lat":-6.14505,"distance":1444,"is_transit":false,"time":3,"station_id":"RJW"},{"station_id":"KMO","time":5,"transit":false,"i_lat":-6.161728,"distance":1901,"i_long":106.839204,"is_transit":false,"line":11,"station_name":"Kemayoran"},{"i_lat":-6.174784,"is_transit":false,"station_name":"Pasar Senen","transit":false,"station_id":"PSE","time":4,"distance":1436,"i_long":106.84368,"line":11},{"station_id":"GST","i_long":106.850107,"i_lat":-6.185975,"line":11,"time":8,"transit":false,"station_name":"Gang Sentiong","distance":1567,"is_transit":false},{"is_transit":false,"transit":false,"i_long":106.855437,"station_id":"KMT","i_lat":-6.193792,"station_name":"Kramat","line":11,"distance":973,"time":1},{"line":11,"transit":false,"i_lat":-6.209188,"time":2,"i_long":106.861737,"distance":1829,"station_name":"Pondok Jati","is_transit":false,"station_id":"POK"},{"i_lat":-6.215091,"distance":1236,"is_transit":true,"time":9,"transit":true,"line":1,"station_name":"Jatinegara","station_id":"JNG","i_long":106.86807400000001},{"is_transit":false,"distance":3395,"station_name":"Klender","station_id":"KLD","i_lat":-6.2135,"transit":false,"time":3,"i_long":106.899548,"line":1},{"is_transit":false,"station_id":"BUA","station_name":"Buaran","i_lat":-6.215568,"distance":3100,"line":1,"transit":false,"i_long":106.922662,"time":2},{"time":1,"is_transit":false,"transit":false,"station_id":"KLDB","line":1,"i_long":106.939679,"station_name":"Klenderbaru","distance":1305,"i_lat":-6.217455},{"transit":false,"station_name":"Cakung","is_transit":false,"time":8,"i_lat":-6.219053,"distance":1385,"station_id":"CUK","line":1,"i_long":106.951283},{"station_id":"KRI","transit":false,"i_long":106.977657,"line":1,"time":3,"station_name":"Kranji","distance":3097,"is_transit":false,"i_lat":-6.224515},{"line":1,"time":4,"i_lat":-6.236616,"distance":2520,"transit":false,"station_id":"BKS","station_name":"Bekasi","i_long":106.997013,"is_transit":false},{"transit":false,"line":1,"i_lat":-6.248029,"time":2,"distance":2368,"i_long":107.016735,"station_id":"BKST","is_transit":false,"station_name":"Bekasi Timur"},{"station_id":"TB","i_lat":-6.258864,"station_name":"Tambun","transit":false,"i_long":107.055722,"time":7,"is_transit":false,"distance":4460,"line":1},{"is_transit":false,"station_id":"CIT","transit":false,"i_long":107.083084,"time":3,"distance":3420,"station_name":"Cibitung","line":1,"i_lat":-6.261877},{"i_lat":-6.262938,"time":2,"transit":false,"station_name":"Metland Telaga Murni","line":1,"is_transit":false,"distance":2800,"i_long":107.093313,"station_id":"TLM"},{"i_long":107.144613,"station_name":"Cikarang","is_transit":false,"station_id":"CKR","i_lat":-6.2553149999999995,"time":4,"line":1,"distance":3689,"transit":false}]]}