{"data":[[{"i_lat":-6.149769,"time":0,"i_long":106.82482,"is_transit":false,"station_id":"MGB","line":2,"transit":false,"distance":0,"station_name":"Manggabesar"},{"line":2,"station_id":"SW","is_transit":false,"i_lat":-6.160725,"station_name":"Sawah Besar","time":2,"transit":false,"distance":906,"i_long":106.827103},{"is_transit":false,"time":2,"station_name":"Juanda","i_lat":-6.166716,"transit":false,"station_id":"JUA","distance":1149,"line":2,"i_long":106.828284},{"line":2,"is_transit":false,"station_id":"GDD","station_name":"Gondangdia","distance":2015,"i_long":106.832183,"i_lat":-6.186295,"time":4,"transit":false},{"station_name":"Cikini","i_lat":-6.198556,"station_id":"CKI","is_transit":false,"transit":false,"distance":1750,"time":3,"i_long":106.840169,"line":0},{"transit":true,"distance":1590,"line":0,"station_id":"MRI","i_lat":-6.209883,"i_long":106.84912,"is_transit":true,"station_name":"Manggarai","time":4},{"i_lat":-6.212485,"station_id":"MTR","distance":1275,"station_name":"Matraman","transit":false,"time":2,"i_long":106.858896,"is_transit":false,"line":1},{"transit":false,"station_id":"JNG","i_long":106.86807400000001,"time":8,"distance":1377,"line":0,"i_lat":-6.215091,"station_name":"Jatinegara","is_transit":true},{"transit":false,"i_lat":-6.2135,"station_id":"KLD","i_long":106.899548,"station_name":"Klender","line":1,"distance":3395,"is_transit":false,"time":3},{"i_long":106.922662,"line":0,"station_name":"Buaran","transit":false,"time":2,"station_id":"BUA","i_lat":-6.215568,"distance":3100,"is_transit":false},{"station_id":"KLDB","is_transit":false,"distance":1305,"transit":false,"time":1,"line":1,"i_long":106.939679,"station_name":"Klenderbaru","i_lat":-6.217455},{"is_transit":false,"time":8,"transit":false,"station_id":"CUK","i_lat":-6.219053,"i_long":106.951283,"line":0,"distance":1385,"station_name":"Cakung"}],[{"station_id":"MGB","station_name":"Manggabesar","line":2,"transit":false,"time":0,"i_long":106.82482,"distance":0,"i_lat":-6.149769,"is_transit":false},{"is_transit":false,"station_name":"Jayakarta","time":2,"i_long":106.820901,"station_id":"JAY","transit":false,"distance":1080,"i_lat":-6.141205,"line":7},{"i_long":106.812439,"line":0,"station_name":"Jakarta Kota","i_lat":-6.137569,"distance":1264,"transit":true,"station_id":"JAKK","is_transit":true,"time":4},{"is_transit":true,"time":3,"line":0,"distance":1364,"i_lat":-6.132549,"transit":true,"station_id":"KPB","i_long":106.826365,"station_name":"Kampung Bandan"},{"i_long":106.836569,"i_lat":-6.14505,"line":11,"time":3,"station_name":"Rajawali","distance":1444,"transit":false,"station_id":"RJW","is_transit":false},{"transit":false,"distance":1901,"i_long":106.839204,"time":5,"i_lat":-6.161728,"station_id":"KMO","is_transit":false,"line":11,"station_name":"Kemayoran"},{"i_long":106.84368,"station_name":"Pasar Senen","transit":false,"station_id":"PSE","line":11,"distance":1436,"time":4,"is_transit":false,"i_lat":-6.174784},{"distance":1567,"transit":false,"i_lat":-6.185975,"station_id":"GST","time":8,"i_long":106.850107,"line":11,"station_name":"Gang Sentiong","is_transit":false},{"line":11,"station_id":"KMT","time":1,"station_name":"Kramat","i_lat":-6.193792,"distance":973,"transit":false,"is_transit":false,"i_long":106.855437},{"station_name":"Pondok Jati","distance":1829,"transit":false,"time":2,"line":11,"is_transit":false,"i_lat":-6.209188,"station_id":"POK","i_long":106.861737},{"i_long":106.86807400000001,"distance":1236,"transit":true,"time":9,"is_transit":true,"station_id":"JNG","station_name":"Jatinegara","line":0,"i_lat":-6.215091},{"i_long":106.899548,"line":1,"transit":false,"distance":3395,"time":3,"station_id":"KLD","i_lat":-6.2135,"station_name":"Klender","is_transit":false},{"i_long":106.922662,"time":2,"station_id":"BUA","distance":3100,"i_lat":-6.215568,"station_name":"Buaran","is_transit":false,"line":0,"transit":false},{"i_long":106.939679,"i_lat":-6.217455,"station_name":"Klenderbaru","line":1,"is_transit":false,"distance":1305,"transit":false,"station_id":"KLDB","time":1},{"station_name":"Cakung","is_transit":false,"distance":1385,"line":0,"transit":false,"time":8,"station_id":"CUK","i_lat":-6.219053,"i_long":106.951283}],[{"is_transit":false,"station_id":"MGB","line":2,"i_lat":-6.149769,"distance":0,"transit":false,"i_long":106.82482,"station_name":"Manggabesar","time":0},{"distance":1080,"station_name":"Jayakarta","line":7,"station_id":"JAY","is_transit":false,"transit":false,"i_long":106.820901,"i_lat":-6.141205,"time":2},{"line":0,"time":4,"station_name":"Jakarta Kota","station_id":"JAKK","is_transit":true,"i_lat":-6.137569,"i_long":106.812439,"distance":1264,"transit":true},{"time":3,"distance":1364,"transit":false,"i_long":106.826365,"line":0,"is_transit":true,"station_id":"KPB","station_name":"Kampung Bandan","i_lat":-6.132549},{"i_lat":-6.144674,"station_name":"Angke","distance":4102,"transit":false,"station_id":"AK","time":9,"i_long":106.79867,"line":0,"is_transit":false},{"station_id":"DU","i_lat":-6.155215,"i_long":106.800832,"transit":true,"time":4,"station_name":"Duri","is_transit":true,"distance":1230,"line":1},{"is_transit":true,"station_id":"THB","distance":3632,"i_long":106.811091,"i_lat":-6.185545,"time":8,"station_name":"Tanah Abang","line":1,"transit":false},{"i_lat":-6.20132,"i_long":106.816351,"transit":false,"is_transit":false,"line":1,"station_name":"Karet","station_id":"KAT","time":5,"distance":2029},{"transit":false,"station_id":"SUDB","line":1,"distance":471,"is_transit":false,"i_lat":-6.201433,"station_name":"Sudirman Baru","time":1,"i_long":106.819881},{"transit":false,"i_lat":-6.202263,"station_name":"Sudirman","time":1,"distance":280,"i_long":106.822649,"line":1,"is_transit":false,"station_id":"SUD"},{"station_name":"Manggarai","line":0,"transit":false,"time":4,"distance":3186,"i_lat":-6.209883,"i_long":106.84912,"station_id":"MRI","is_transit":true},{"is_transit":false,"line":1,"transit":false,"i_lat":-6.212485,"i_long":106.858896,"station_id":"MTR","distance":1275,"time":2,"station_name":"Matraman"},{"i_lat":-6.215091,"transit":false,"station_name":"Jatinegara","time":8,"distance":1377,"i_long":106.86807400000001,"station_id":"JNG","line":0,"is_transit":true},{"time":3,"distance":3395,"transit":false,"i_lat":-6.2135,"station_name":"Klender","i_long":106.899548,"station_id":"KLD","line":1,"is_transit":false},{"transit":false,"i_lat":-6.215568,"i_long":106.922662,"distance":3100,"station_name":"Buaran","time":2,"line":0,"station_id":"BUA","is_transit":false},{"distance":1305,"station_id":"KLDB","time":1,"line":1,"transit":false,"i_lat":-6.217455,"is_transit":false,"i_long":106.939679,"station_name":"Klenderbaru"},{"station_id":"CUK","distance":1385,"i_lat":-6.219053,"time":8,"transit":false,"i_long":106.951283,"is_transit":false,"station_name":"Cakung","line":0}],[{"is_transit":false,"i_lat":-6.149769,"time":0,"station_id":"MGB","i_long":106.82482,"station_name":"Manggabesar","distance":0,"transit":false,"line":2},{"distance":906,"i_long":106.827103,"station_name":"Sawah Besar","time":2,"station_id":"SW","transit":false,"i_lat":-6.160725,"line":2,"is_transit":false},{"line":2,"station_id":"JUA","is_transit":false,"station_name":"Juanda","transit":false,"i_lat":-6.166716,"i_long":106.828284,"distance":1149,"time":2},{"station_name":"Gondangdia","line":2,"i_lat":-6.186295,"transit":false,"is_transit":false,"station_id":"GDD","distance":2015,"i_long":106.832183,"time":4},{"is_transit":false,"i_long":106.840169,"distance":1750,"i_lat":-6.198556,"time":3,"line":0,"station_id":"CKI","transit":false,"station_name":"Cikini"},{"is_transit":true,"time":4,"i_lat":-6.209883,"station_id":"MRI","i_long":106.84912,"station_name":"Manggarai","distance":1590,"transit":true,"line":0},{"station_name":"Sudirman","transit":false,"is_transit":false,"line":1,"station_id":"SUD","distance":3186,"i_long":106.822649,"i_lat":-6.202263,"time":4},{"i_lat":-6.201433,"station_name":"Sudirman Baru","time":1,"line":1,"transit":false,"station_id":"SUDB","is_transit":false,"distance":280,"i_long":106.819881},{"i_long":106.816351,"transit":false,"i_lat":-6.20132,"station_id":"KAT","distance":471,"line":1,"time":1,"is_transit":false,"station_name":"Karet"},{"station_id":"THB","is_transit":true,"distance":2029,"station_name":"Tanah Abang","line":1,"i_long":106.811091,"transit":false,"time":5,"i_lat":-6.185545},{"is_transit":true,"station_name":"Duri","station_id":"DU","i_long":106.800832,"i_lat":-6.155215,"line":1,"transit":true,"time":8,"distance":3632},{"i_long":106.79867,"is_transit":false,"station_name":"Angke","transit":false,"station_id":"AK","distance":1230,"i_lat":-6.144674,"time":4,"line":0},{"is_transit":true,"time":9,"station_id":"KPB","transit":true,"distance":4102,"i_long":106.826365,"i_lat":-6.132549,"line":0,"station_name":"Kampung Bandan"},{"distance":1444,"i_lat":-6.14505,"station_id":"RJW","station_name":"Rajawali","is_transit":false,"transit":false,"time":3,"i_long":106.836569,"line":11},{"time":5,"station_name":"Kemayoran","i_long":106.839204,"transit":false,"line":11,"distance":1901,"station_id":"KMO","is_transit":false,"i_lat":-6.161728},{"is_transit":false,"i_lat":-6.174784,"i_long":106.84368,"line":11,"station_name":"Pasar Senen","station_id":"PSE","transit":false,"distance":1436,"time":4},{"station_id":"GST","station_name":"Gang Sentiong","is_transit":false,"i_lat":-6.185975,"line":11,"transit":false,"time":8,"distance":1567,"i_long":106.850107},{"i_long":106.855437,"i_lat":-6.193792,"station_name":"Kramat","station_id":"KMT","distance":973,"transit":false,"time":1,"line":11,"is_transit":false},{"i_lat":-6.209188,"distance":1829,"transit":false,"line":11,"time":2,"station_name":"Pondok Jati","i_long":106.861737,"is_transit":false,"station_id":"POK"},{"is_transit":true,"i_lat":-6.215091,"distance":1236,"line":0,"time":9,"transit":true,"i_long":106.86807400000001,"station_name":"Jatinegara","station_id":"JNG"},{"transit":false,"i_lat":-6.2135,"station_id":"KLD","i_long":106.899548,"distance":3395,"is_transit":false,"station_name":"Klender","time":3,"line":1},{"time":2,"is_transit":false,"i_lat":-6.215568,"line":0,"distance":3100,"station_name":"Buaran","station_id":"BUA","transit":false,"i_long":106.922662},{"station_name":"Klenderbaru","line":1,"transit":false,"station_id":"KLDB","time":1,"i_lat":-6.217455,"is_transit":false,"distance":1305,"i_long":106.939679},{"time":8,"station_id":"CUK","distance":1385,"i_lat":-6.219053,"is_transit":false,"station_name":"Cakung","i_long":106.951283,"line":0,"transit":false}]]}