{"data":[[{"i_long":106.82482,"transit":false,"time":0,"line":2,"distance":0,"i_lat":-6.149769,"station_name":"Manggabesar","is_transit":false,"station_id":"MGB"},{"station_id":"JAY","is_transit":false,"line":7,"transit":false,"distance":1080,"station_name":"Jayakarta","i_long":106.820901,"time":2,"i_lat":-6.141205},{"station_id":"JAKK","line":0,"station_name":"Jakarta Kota","time":4,"distance":1264,"i_long":106.812439,"transit":true,"is_transit":true,"i_lat":-6.137569},{"i_long":106.826365,"i_lat":-6.132549,"distance":1364,"line":0,"time":3,"station_name":"Kampung Bandan","transit":false,"station_id":"KPB","is_transit":true},{"i_lat":-6.144674,"i_long":106.79867,"distance":4102,"is_transit":false,"time":9,"line":0,"transit":false,"station_name":"Angke","station_id":"AK"},{"station_name":"Duri","distance":1230,"transit":true,"station_id":"DU","time":4,"i_long":106.800832,"i_lat":-6.155215,"line":1,"is_transit":true},{"station_name":"Tanah Abang","line":1,"station_id":"THB","distance":3632,"transit":true,"is_transit":true,"i_lat":-6.185545,"time":8,"i_long":106.811091},{"transit":false,"is_transit":false,"i_long":106.79689,"i_lat":-6.207404,"line":6,"station_id":"PLM","distance":3191,"time":6,"station_name":"Palmerah"},{"distance":3737,"station_id":"KBY","transit":false,"is_transit":false,"i_lat":-6.237242,"i_long":106.780334,"station_name":"Kebayoran","time":7,"line":6}],[{"station_name":"Manggabesar","station_id":"MGB","time":0,"distance":0,"transit":false,"i_lat":-6.149769,"i_long":106.82482,"line":2,"is_transit":false},{"distance":906,"is_transit":false,"station_name":"Sawah Besar","station_id":"SW","transit":false,"i_lat":-6.160725,"time":2,"line":2,"i_long":106.827103},{"transit":false,"time":2,"station_id":"JUA","i_long":106.828284,"line":2,"station_name":"Juanda","is_transit":false,"distance":1149,"i_lat":-6.166716},{"station_name":"Gondangdia","distance":2015,"station_id":"GDD","transit":false,"is_transit":false,"i_long":106.832183,"time":4,"line":2,"i_lat":-6.186295},{"station_id":"CKI","time":3,"station_name":"Cikini","distance":1750,"is_transit":false,"i_long":106.840169,"i_lat":-6.198556,"transit":false,"line":0},{"distance":1590,"i_lat":-6.209883,"line":0,"is_transit":true,"transit":true,"station_name":"Manggarai","time":4,"i_long":106.84912,"station_id":"MRI"},{"line":1,"transit":false,"station_name":"Sudirman","station_id":"SUD","time":4,"distance":3186,"i_lat":-6.202263,"is_transit":false,"i_long":106.822649},{"station_name":"Sudirman Baru","is_transit":false,"time":1,"station_id":"SUDB","transit":false,"distance":280,"i_long":106.819881,"line":1,"i_lat":-6.201433},{"i_long":106.816351,"is_transit":false,"transit":false,"station_name":"Karet","station_id":"KAT","time":1,"line":1,"distance":471,"i_lat":-6.20132},{"station_id":"THB","i_long":106.811091,"station_name":"Tanah Abang","i_lat":-6.185545,"distance":2029,"line":1,"is_transit":true,"time":5,"transit":true},{"station_name":"Palmerah","time":6,"i_lat":-6.207404,"distance":3191,"line":6,"station_id":"PLM","transit":false,"i_long":106.79689,"is_transit":false},{"station_id":"KBY","transit":false,"line":6,"i_lat":-6.237242,"time":7,"is_transit":false,"distance":3737,"i_long":106.780334,"station_name":"Kebayoran"}],[{"station_name":"Manggabesar","i_lat":-6.149769,"transit":false,"distance":0,"time":0,"is_transit":false,"station_id":"MGB","i_long":106.82482,"line":2},{"is_transit":false,"i_long":106.820901,"distance":1080,"station_name":"Jayakarta","transit":false,"time":2,"station_id":"JAY","line":7,"i_lat":-6.141205},{"line":0,"station_name":"Jakarta Kota","transit":true,"station_id":"JAKK","time":4,"distance":1264,"is_transit":true,"i_lat":-6.137569,"i_long":106.812439},{"time":3,"distance":1364,"is_transit":true,"transit":true,"station_name":"Kampung Bandan","station_id":"KPB","i_lat":-6.132549,"line":0,"i_long":106.826365},{"transit":false,"distance":1444,"line":11,"time":3,"station_id":"RJW","i_lat":-6.14505,"is_transit":false,"station_name":"Rajawali","i_long":106.836569},{"station_name":"Kemayoran","distance":1901,"is_transit":false,"i_long":106.839204,"i_lat":-6.161728,"transit":false,"time":5,"station_id":"KMO","line":11},{"is_transit":false,"i_lat":-6.174784,"line":11,"station_name":"Pasar Senen","station_id":"PSE","i_long":106.84368,"transit":false,"distance":1436,"time":4},{"station_name":"Gang Sentiong","line":11,"i_lat":-6.185975,"station_id":"GST","i_long":106.850107,"distance":1567,"time":8,"transit":false,"is_transit":false},{"is_transit":false,"distance":973,"station_id":"KMT","transit":false,"line":11,"i_lat":-6.193792,"time":1,"station_name":"Kramat","i_long":106.855437},{"distance":1829,"transit":false,"station_id":"POK","is_transit":false,"i_long":106.861737,"i_lat":-6.209188,"line":11,"station_name":"Pondok Jati","time":2},{"line":0,"time":9,"distance":1236,"station_name":"Jatinegara","transit":true,"is_transit":true,"station_id":"JNG","i_lat":-6.215091,"i_long":106.86807400000001},{"station_name":"Matraman","distance":1377,"station_id":"MTR","transit":false,"is_transit":false,"i_lat":-6.212485,"i_long":106.858896,"time":2,"line":1},{"line":0,"station_id":"MRI","transit":false,"i_long":106.84912,"time":2,"station_name":"Manggarai","is_transit":true,"i_lat":-6.209883,"distance":1275},{"station_name":"Sudirman","distance":3186,"i_lat":-6.202263,"transit":false,"i_long":106.822649,"line":1,"is_transit":false,"station_id":"SUD","time":4},{"is_transit":false,"i_lat":-6.201433,"i_long":106.819881,"line":1,"distance":280,"station_name":"Sudirman Baru","time":1,"transit":false,"station_id":"SUDB"},{"station_id":"KAT","time":1,"i_long":106.816351,"distance":471,"line":1,"station_name":"Karet","transit":false,"i_lat":-6.20132,"is_transit":false},{"i_lat":-6.185545,"station_name":"Tanah Abang","line":1,"transit":true,"time":5,"i_long":106.811091,"distance":2029,"station_id":"THB","is_transit":true},{"transit":false,"time":6,"station_id":"PLM","is_transit":false,"station_name":"Palmerah","i_long":106.79689,"distance":3191,"i_lat":-6.207404,"line":6},{"station_id":"KBY","transit":false,"distance":3737,"i_lat":-6.237242,"is_transit":false,"i_long":106.780334,"line":6,"time":7,"station_name":"Kebayoran"}],[{"station_id":"MGB","time":0,"is_transit":false,"line":2,"distance":0,"station_name":"Manggabesar","i_lat":-6.149769,"transit":false,"i_long":106.82482},{"is_transit":false,"line":2,"station_id":"SW","time":2,"station_name":"Sawah Besar","i_lat":-6.160725,"i_long":106.827103,"transit":false,"distance":906},{"is_transit":false,"distance":1149,"time":2,"station_id":"JUA","i_long":106.828284,"i_lat":-6.166716,"station_name":"Juanda","transit":false,"line":2},{"line":2,"station_id":"GDD","distance":2015,"is_transit":false,"station_name":"Gondangdia","transit":false,"time":4,"i_long":106.832183,"i_lat":-6.186295},{"i_long":106.840169,"distance":1750,"station_name":"Cikini","station_id":"CKI","transit":false,"is_transit":false,"time":3,"i_lat":-6.198556,"line":0},{"transit":true,"station_name":"Manggarai","i_lat":-6.209883,"time":4,"station_id":"MRI","i_long":106.84912,"line":0,"is_transit":true,"distance":1590},{"transit":false,"line":1,"i_long":106.858896,"is_transit":false,"i_lat":-6.212485,"distance":1275,"time":2,"station_name":"Matraman","station_id":"MTR"},{"is_transit":true,"station_id":"JNG","distance":1377,"transit":true,"i_long":106.86807400000001,"i_lat":-6.215091,"time":8,"station_name":"Jatinegara","line":0},{"is_transit":false,"station_name":"Pondok Jati","distance":1236,"i_long":106.861737,"i_lat":-6.209188,"line":11,"time":2,"transit":false,"station_id":"POK"},{"time":2,"transit":false,"station_id":"KMT","i_lat":-6.193792,"i_long":106.855437,"station_name":"Kramat","is_transit":false,"line":11,"distance":1829},{"i_lat":-6.185975,"distance":973,"station_id":"GST","line":11,"is_transit":false,"i_long":106.850107,"station_name":"Gang Sentiong","time":1,"transit":false},{"station_name":"Pasar Senen","transit":false,"is_transit":false,"line":11,"distance":1567,"i_long":106.84368,"station_id":"PSE","i_lat":-6.174784,"time":8},{"line":11,"time":4,"i_lat":-6.161728,"is_transit":false,"i_long":106.839204,"transit":false,"distance":1436,"station_name":"Kemayoran","station_id":"KMO"},{"i_long":106.836569,"distance":1901,"line":11,"transit":false,"i_lat":-6.14505,"is_transit":false,"time":5,"station_name":"Rajawali","station_id":"RJW"},{"station_name":"Kampung Bandan","i_lat":-6.132549,"is_transit":true,"i_long":106.826365,"transit":true,"distance":1444,"line":0,"time":3,"station_id":"KPB"},{"transit":false,"line":0,"station_name":"Angke","is_transit":false,"time":9,"distance":4102,"station_id":"AK","i_lat":-6.144674,"i_long":106.79867},{"line":1,"station_id":"DU","distance":1230,"time":4,"transit":true,"station_name":"Duri","is_transit":true,"i_lat":-6.155215,"i_long":106.800832},{"distance":3632,"station_id":"THB","station_name":"Tanah Abang","is_transit":true,"transit":true,"time":8,"i_long":106.811091,"i_lat":-6.185545,"line":1},{"station_name":"Palmerah","is_transit":false,"transit":false,"station_id":"PLM","i_long":106.79689,"distance":3191,"time":6,"line":6,"i_lat":-6.207404},{"line":6,"i_lat":-6.237242,"is_transit":false,"station_id":"KBY","station_name":"Kebayoran","time":7,"distance":3737,"i_long":106.780334,"transit":false}]]}