{"data":[[{"station_name":"Manggabesar","is_transit":false,"distance":0,"time":0,"transit":false,"i_long":106.82482,"station_id":"MGB","i_lat":-6.149769,"line":2},{"station_name":"Jayakarta","transit":false,"distance":1080,"i_long":106.820901,"time":2,"line":2,"station_id":"JAY","is_transit":false,"i_lat":-6.141205},{"time":4,"line":2,"is_transit":true,"transit":true,"i_long":106.812439,"station_id":"JAKK","station_name":"Jakarta Kota","distance":1264,"i_lat":-6.137569},{"transit":true,"i_long":106.826365,"time":3,"is_transit":true,"distance":1364,"line":4,"station_name":"Kampung Bandan","station_id":"KPB","i_lat":-6.132549},{"transit":false,"time":4,"i_long":106.84464,"station_name":"Ancol","is_transit":false,"distance":2185,"station_id":"AC","i_lat":-6.128023,"line":4},{"is_transit":false,"i_lat":-6.1109480000000005,"time":9,"transit":false,"i_long":106.880089,"station_name":"Tanjung Priuk","distance":4566,"station_id":"TPK","line":4}],[{"station_name":"Manggabesar","i_lat":-6.149769,"station_id":"MGB","time":0,"transit":false,"is_transit":false,"distance":0,"i_long":106.82482,"line":2},{"time":2,"i_lat":-6.160725,"i_long":106.827103,"distance":906,"line":2,"station_name":"Sawah Besar","transit":false,"is_transit":false,"station_id":"SW"},{"time":2,"transit":false,"is_transit":false,"station_id":"JUA","i_lat":-6.166716,"i_long":106.828284,"station_name":"Juanda","line":2,"distance":1149},{"distance":2015,"time":4,"line":2,"station_name":"Gondangdia","transit":false,"i_lat":-6.186295,"i_long":106.832183,"station_id":"GDD","is_transit":false},{"i_lat":-6.198556,"station_id":"CKI","line":2,"transit":false,"distance":1750,"time":3,"i_long":106.840169,"is_transit":false,"station_name":"Cikini"},{"transit":true,"station_name":"Manggarai","i_long":106.84912,"distance":1590,"station_id":"MRI","time":4,"i_lat":-6.209883,"is_transit":true,"line":2},{"i_long":106.822649,"station_name":"Sudirman","is_transit":false,"transit":false,"time":4,"line":1,"station_id":"SUD","distance":3186,"i_lat":-6.202263},{"station_name":"Sudirman Baru","i_long":106.819881,"time":1,"line":1,"station_id":"SUDB","is_transit":false,"distance":280,"i_lat":-6.201433,"transit":false},{"time":1,"distance":471,"transit":false,"i_lat":-6.20132,"line":1,"station_name":"Karet","is_transit":false,"station_id":"KAT","i_long":106.816351},{"i_long":106.811091,"distance":2029,"station_id":"THB","time":5,"line":1,"is_transit":false,"station_name":"Tanah Abang","transit":false,"i_lat":-6.185545},{"is_transit":false,"transit":false,"distance":3632,"time":8,"i_long":106.800832,"station_id":"DU","line":1,"i_lat":-6.155215,"station_name":"Duri"},{"station_name":"Angke","time":4,"distance":1230,"station_id":"AK","is_transit":false,"i_lat":-6.144674,"i_long":106.79867,"transit":false,"line":1},{"time":9,"is_transit":true,"i_long":106.826365,"distance":4102,"transit":true,"i_lat":-6.132549,"line":4,"station_id":"KPB","station_name":"Kampung Bandan"},{"i_long":106.84464,"transit":false,"station_id":"AC","time":4,"is_transit":false,"i_lat":-6.128023,"line":4,"station_name":"Ancol","distance":2185},{"distance":4566,"line":4,"station_name":"Tanjung Priuk","time":9,"i_long":106.880089,"i_lat":-6.1109480000000005,"station_id":"TPK","transit":false,"is_transit":false}],[{"distance":0,"line":2,"station_name":"Manggabesar","is_transit":false,"i_long":106.82482,"i_lat":-6.149769,"time":0,"station_id":"MGB","transit":false},{"is_transit":false,"distance":906,"i_long":106.827103,"line":2,"station_id":"SW","i_lat":-6.160725,"station_name":"Sawah Besar","time":2,"transit":false},{"station_id":"JUA","station_name":"Juanda","is_transit":false,"i_long":106.828284,"i_lat":-6.166716,"line":2,"time":2,"transit":false,"distance":1149},{"transit":false,"line":2,"i_lat":-6.186295,"is_transit":false,"station_name":"Gondangdia","station_id":"GDD","time":4,"distance":2015,"i_long":106.832183},{"station_name":"Cikini","distance":1750,"line":2,"i_lat":-6.198556,"is_transit":false,"i_long":106.840169,"transit":false,"time":3,"station_id":"CKI"},{"transit":true,"i_lat":-6.209883,"is_transit":true,"station_name":"Manggarai","distance":1590,"i_long":106.84912,"time":4,"station_id":"MRI","line":2},{"time":2,"station_name":"Matraman","distance":1275,"i_lat":-6.212485,"station_id":"MTR","line":1,"i_long":106.858896,"is_transit":false,"transit":false},{"time":8,"line":1,"station_name":"Jatinegara","station_id":"JNG","distance":1377,"transit":true,"i_long":106.86807400000001,"i_lat":-6.215091,"is_transit":true},{"distance":1236,"i_long":106.861737,"transit":false,"station_id":"POK","time":2,"line":11,"is_transit":false,"i_lat":-6.209188,"station_name":"Pondok Jati"},{"transit":false,"station_id":"KMT","i_lat":-6.193792,"is_transit":false,"station_name":"Kramat","distance":1829,"line":11,"time":2,"i_long":106.855437},{"distance":973,"station_name":"Gang Sentiong","line":11,"i_long":106.850107,"station_id":"GST","transit":false,"i_lat":-6.185975,"is_transit":false,"time":1},{"station_name":"Pasar Senen","distance":1567,"i_lat":-6.174784,"i_long":106.84368,"line":11,"is_transit":false,"station_id":"PSE","time":8,"transit":false},{"time":4,"transit":false,"i_lat":-6.161728,"line":11,"is_transit":false,"distance":1436,"station_id":"KMO","i_long":106.839204,"station_name":"Kemayoran"},{"station_name":"Rajawali","distance":1901,"station_id":"RJW","transit":false,"time":5,"i_long":106.836569,"i_lat":-6.14505,"is_transit":false,"line":11},{"station_id":"KPB","distance":1444,"station_name":"Kampung Bandan","i_long":106.826365,"transit":true,"line":4,"time":3,"is_transit":true,"i_lat":-6.132549},{"station_name":"Ancol","is_transit":false,"i_lat":-6.128023,"station_id":"AC","line":4,"time":4,"transit":false,"i_long":106.84464,"distance":2185},{"line":4,"distance":4566,"time":9,"transit":false,"i_lat":-6.1109480000000005,"station_name":"Tanjung Priuk","station_id":"TPK","is_transit":false,"i_long":106.880089}]]}