{"data":[[{"station_name":"Manggabesar","time":0,"distance":0,"transit":false,"i_lat":-6.149769,"i_long":106.82482,"line":2,"is_transit":false,"station_id":"MGB"},{"station_name":"Jayakarta","distance":1080,"time":2,"is_transit":false,"line":2,"i_long":106.820901,"i_lat":-6.141205,"station_id":"JAY","transit":false},{"i_long":106.812439,"distance":1264,"is_transit":true,"transit":true,"line":2,"station_name":"Jakarta Kota","time":4,"station_id":"JAKK","i_lat":-6.137569},{"station_id":"KPB","distance":1364,"i_long":106.826365,"time":3,"transit":true,"is_transit":true,"i_lat":-6.132549,"line":4,"station_name":"Kampung Bandan"},{"i_lat":-6.144674,"line":1,"station_name":"Angke","transit":false,"is_transit":false,"station_id":"AK","distance":4102,"time":9,"i_long":106.79867},{"transit":false,"station_id":"DU","i_lat":-6.155215,"time":4,"is_transit":false,"line":1,"i_long":106.800832,"station_name":"Duri","distance":1230},{"line":1,"distance":3632,"i_lat":-6.185545,"i_long":106.811091,"station_name":"Tanah Abang","time":8,"transit":true,"station_id":"THB","is_transit":true},{"transit":false,"time":6,"is_transit":false,"distance":3191,"line":6,"i_long":106.79689,"i_lat":-6.207404,"station_id":"PLM","station_name":"Palmerah"},{"station_name":"Kebayoran","i_long":106.780334,"station_id":"KBY","i_lat":-6.237242,"line":6,"is_transit":false,"transit":false,"distance":3737,"time":7}],[{"station_id":"MGB","distance":0,"station_name":"Manggabesar","time":0,"i_long":106.82482,"i_lat":-6.149769,"transit":false,"is_transit":false,"line":2},{"i_lat":-6.160725,"line":2,"time":2,"station_name":"Sawah Besar","station_id":"SW","is_transit":false,"distance":906,"transit":false,"i_long":106.827103},{"station_name":"Juanda","time":2,"transit":false,"station_id":"JUA","distance":1149,"i_long":106.828284,"is_transit":false,"i_lat":-6.166716,"line":2},{"time":4,"station_name":"Gondangdia","distance":2015,"transit":false,"is_transit":false,"i_long":106.832183,"station_id":"GDD","i_lat":-6.186295,"line":2},{"time":3,"distance":1750,"i_long":106.840169,"line":2,"transit":false,"station_id":"CKI","i_lat":-6.198556,"station_name":"Cikini","is_transit":false},{"i_long":106.84912,"time":4,"station_name":"Manggarai","is_transit":true,"distance":1590,"i_lat":-6.209883,"line":2,"station_id":"MRI","transit":true},{"station_name":"Sudirman","time":4,"station_id":"SUD","transit":false,"is_transit":false,"line":1,"i_long":106.822649,"distance":3186,"i_lat":-6.202263},{"station_name":"Sudirman Baru","distance":280,"is_transit":false,"i_long":106.819881,"transit":false,"time":1,"line":1,"i_lat":-6.201433,"station_id":"SUDB"},{"distance":471,"time":1,"station_name":"Karet","i_lat":-6.20132,"is_transit":false,"i_long":106.816351,"line":1,"transit":false,"station_id":"KAT"},{"distance":2029,"station_name":"Tanah Abang","time":5,"transit":true,"station_id":"THB","i_lat":-6.185545,"line":1,"is_transit":true,"i_long":106.811091},{"i_lat":-6.207404,"station_name":"Palmerah","i_long":106.79689,"line":6,"time":6,"distance":3191,"transit":false,"station_id":"PLM","is_transit":false},{"is_transit":false,"station_name":"Kebayoran","i_long":106.780334,"distance":3737,"transit":false,"time":7,"station_id":"KBY","i_lat":-6.237242,"line":6}],[{"line":2,"station_name":"Manggabesar","time":0,"station_id":"MGB","distance":0,"i_long":106.82482,"transit":false,"is_transit":false,"i_lat":-6.149769},{"is_transit":false,"station_name":"Jayakarta","time":2,"i_lat":-6.141205,"distance":1080,"station_id":"JAY","line":2,"transit":false,"i_long":106.820901},{"time":4,"i_long":106.812439,"transit":true,"station_id":"JAKK","line":2,"is_transit":true,"distance":1264,"i_lat":-6.137569,"station_name":"Jakarta Kota"},{"station_name":"Kampung Bandan","time":3,"line":4,"transit":true,"station_id":"KPB","is_transit":true,"i_long":106.826365,"distance":1364,"i_lat":-6.132549},{"station_name":"Rajawali","transit":false,"is_transit":false,"station_id":"RJW","i_lat":-6.14505,"line":11,"time":3,"distance":1444,"i_long":106.836569},{"distance":1901,"i_lat":-6.161728,"transit":false,"time":5,"station_name":"Kemayoran","is_transit":false,"line":11,"station_id":"KMO","i_long":106.839204},{"time":4,"i_long":106.84368,"line":11,"station_name":"Pasar Senen","station_id":"PSE","is_transit":false,"transit":false,"distance":1436,"i_lat":-6.174784},{"time":8,"station_id":"GST","transit":false,"distance":1567,"i_lat":-6.185975,"station_name":"Gang Sentiong","is_transit":false,"i_long":106.850107,"line":11},{"i_lat":-6.193792,"i_long":106.855437,"transit":false,"station_id":"KMT","distance":973,"is_transit":false,"line":11,"time":1,"station_name":"Kramat"},{"distance":1829,"i_lat":-6.209188,"line":11,"station_name":"Pondok Jati","time":2,"station_id":"POK","i_long":106.861737,"transit":false,"is_transit":false},{"i_lat":-6.215091,"line":1,"transit":true,"is_transit":true,"i_long":106.86807400000001,"time":9,"station_id":"JNG","distance":1236,"station_name":"Jatinegara"},{"is_transit":false,"line":1,"i_long":106.858896,"station_name":"Matraman","time":2,"station_id":"MTR","distance":1377,"transit":false,"i_lat":-6.212485},{"i_lat":-6.209883,"transit":false,"line":2,"distance":1275,"i_long":106.84912,"time":2,"station_name":"Manggarai","station_id":"MRI","is_transit":false},{"station_id":"SUD","i_long":106.822649,"is_transit":false,"line":1,"time":4,"station_name":"Sudirman","distance":3186,"i_lat":-6.202263,"transit":false},{"is_transit":false,"i_lat":-6.201433,"i_long":106.819881,"distance":280,"line":1,"station_name":"Sudirman Baru","transit":false,"station_id":"SUDB","time":1},{"station_name":"Karet","time":1,"station_id":"KAT","transit":false,"distance":471,"i_long":106.816351,"i_lat":-6.20132,"line":1,"is_transit":false},{"transit":true,"line":1,"is_transit":true,"distance":2029,"i_lat":-6.185545,"station_id":"THB","time":5,"i_long":106.811091,"station_name":"Tanah Abang"},{"i_lat":-6.207404,"transit":false,"time":6,"station_id":"PLM","is_transit":false,"distance":3191,"i_long":106.79689,"line":6,"station_name":"Palmerah"},{"time":7,"is_transit":false,"distance":3737,"station_id":"KBY","i_long":106.780334,"station_name":"Kebayoran","i_lat":-6.237242,"transit":false,"line":6}],[{"station_name":"Manggabesar","time":0,"is_transit":false,"i_long":106.82482,"line":2,"transit":false,"i_lat":-6.149769,"station_id":"MGB","distance":0},{"distance":906,"i_lat":-6.160725,"station_name":"Sawah Besar","line":2,"is_transit":false,"time":2,"transit":false,"station_id":"SW","i_long":106.827103},{"station_id":"JUA","line":2,"time":2,"i_lat":-6.166716,"station_name":"Juanda","distance":1149,"transit":false,"is_transit":false,"i_long":106.828284},{"station_name":"Gondangdia","i_long":106.832183,"time":4,"distance":2015,"transit":false,"i_lat":-6.186295,"line":2,"station_id":"GDD","is_transit":false},{"station_name":"Cikini","time":3,"station_id":"CKI","distance":1750,"i_long":106.840169,"line":2,"i_lat":-6.198556,"transit":false,"is_transit":false},{"i_lat":-6.209883,"line":2,"is_transit":true,"transit":true,"i_long":106.84912,"distance":1590,"time":4,"station_name":"Manggarai","station_id":"MRI"},{"time":2,"station_id":"MTR","is_transit":false,"distance":1275,"i_long":106.858896,"line":1,"transit":false,"station_name":"Matraman","i_lat":-6.212485},{"i_lat":-6.215091,"line":1,"transit":true,"is_transit":true,"i_long":106.86807400000001,"station_name":"Jatinegara","time":8,"station_id":"JNG","distance":1377},{"i_lat":-6.209188,"is_transit":false,"station_name":"Pondok Jati","line":11,"station_id":"POK","transit":false,"i_long":106.861737,"distance":1236,"time":2},{"distance":1829,"line":11,"station_id":"KMT","i_lat":-6.193792,"time":2,"station_name":"Kramat","transit":false,"is_transit":false,"i_long":106.855437},{"distance":973,"time":1,"station_name":"Gang Sentiong","transit":false,"station_id":"GST","i_long":106.850107,"i_lat":-6.185975,"line":11,"is_transit":false},{"distance":1567,"station_name":"Pasar Senen","i_long":106.84368,"transit":false,"station_id":"PSE","i_lat":-6.174784,"is_transit":false,"time":8,"line":11},{"distance":1436,"station_id":"KMO","time":4,"transit":false,"i_lat":-6.161728,"i_long":106.839204,"line":11,"is_transit":false,"station_name":"Kemayoran"},{"station_name":"Rajawali","line":11,"time":5,"is_transit":false,"station_id":"RJW","transit":false,"distance":1901,"i_lat":-6.14505,"i_long":106.836569},{"i_long":106.826365,"station_name":"Kampung Bandan","line":4,"is_transit":true,"i_lat":-6.132549,"distance":1444,"transit":true,"station_id":"KPB","time":3},{"i_lat":-6.144674,"transit":false,"time":9,"line":1,"distance":4102,"station_id":"AK","station_name":"Angke","i_long":106.79867,"is_transit":false},{"station_id":"DU","i_long":106.800832,"station_name":"Duri","line":1,"i_lat":-6.155215,"distance":1230,"is_transit":false,"time":4,"transit":false},{"i_long":106.811091,"is_transit":true,"i_lat":-6.185545,"transit":true,"line":1,"distance":3632,"station_name":"Tanah Abang","time":8,"station_id":"THB"},{"station_name":"Palmerah","station_id":"PLM","i_long":106.79689,"distance":3191,"line":6,"transit":false,"time":6,"is_transit":false,"i_lat":-6.207404},{"station_name":"Kebayoran","time":7,"transit":false,"i_long":106.780334,"line":6,"station_id":"KBY","i_lat":-6.237242,"is_transit":false,"distance":3737}]]}