{"data":[[{"transit":false,"i_lat":-6.149769,"station_id":"MGB","is_transit":false,"time":0,"i_long":106.82482,"distance":0,"station_name":"Manggabesar","line":2},{"is_transit":false,"transit":false,"line":2,"i_long":106.820901,"time":2,"station_id":"JAY","distance":1080,"i_lat":-6.141205,"station_name":"Jayakarta"},{"i_lat":-6.137569,"line":2,"time":4,"station_id":"JAKK","i_long":106.812439,"transit":true,"station_name":"Jakarta Kota","distance":1264,"is_transit":true},{"time":3,"line":4,"station_id":"KPB","transit":true,"i_long":106.826365,"station_name":"Kampung Bandan","i_lat":-6.132549,"distance":1364,"is_transit":true},{"transit":false,"line":1,"time":9,"distance":4102,"i_lat":-6.144674,"station_name":"Angke","i_long":106.79867,"is_transit":false,"station_id":"AK"},{"station_id":"DU","distance":1230,"i_lat":-6.155215,"transit":true,"line":1,"is_transit":true,"i_long":106.800832,"station_name":"Duri","time":4},{"transit":false,"i_long":106.788277,"time":3,"is_transit":false,"station_name":"Grogol","distance":1700,"i_lat":-6.162021,"station_id":"GGL","line":5},{"station_name":"Pesing","distance":2036,"station_id":"PSG","transit":false,"is_transit":false,"time":2,"i_lat":-6.161433,"i_long":106.771379,"line":5},{"station_id":"TKO","time":2,"transit":false,"distance":1614,"station_name":"Taman Kota","line":5,"is_transit":false,"i_long":106.756522,"i_lat":-6.1587309999999995},{"i_long":106.737035,"time":2,"station_id":"BOI","station_name":"Bojongindah","transit":false,"distance":2334,"i_lat":-6.159876,"line":5,"is_transit":false},{"station_id":"RW","time":4,"distance":1152,"i_lat":-6.162758,"is_transit":false,"i_long":106.723064,"line":5,"station_name":"Rawa Buaya","transit":false}],[{"station_name":"Manggabesar","station_id":"MGB","distance":0,"is_transit":false,"transit":false,"i_lat":-6.149769,"time":0,"i_long":106.82482,"line":2},{"line":2,"distance":906,"i_lat":-6.160725,"i_long":106.827103,"station_name":"Sawah Besar","station_id":"SW","time":2,"transit":false,"is_transit":false},{"transit":false,"is_transit":false,"station_id":"JUA","line":2,"station_name":"Juanda","i_long":106.828284,"time":2,"distance":1149,"i_lat":-6.166716},{"transit":false,"time":4,"i_lat":-6.186295,"station_id":"GDD","is_transit":false,"i_long":106.832183,"line":2,"station_name":"Gondangdia","distance":2015},{"transit":false,"i_lat":-6.198556,"line":2,"is_transit":false,"station_name":"Cikini","station_id":"CKI","time":3,"i_long":106.840169,"distance":1750},{"station_name":"Manggarai","transit":true,"line":2,"is_transit":true,"i_lat":-6.209883,"station_id":"MRI","time":4,"distance":1590,"i_long":106.84912},{"station_id":"SUD","time":4,"i_long":106.822649,"is_transit":false,"line":1,"distance":3186,"transit":false,"station_name":"Sudirman","i_lat":-6.202263},{"line":1,"time":1,"station_id":"SUDB","distance":280,"transit":false,"is_transit":false,"i_lat":-6.201433,"i_long":106.819881,"station_name":"Sudirman Baru"},{"station_name":"Karet","transit":false,"i_long":106.816351,"line":1,"i_lat":-6.20132,"distance":471,"is_transit":false,"station_id":"KAT","time":1},{"distance":2029,"is_transit":false,"line":1,"station_name":"Tanah Abang","i_long":106.811091,"station_id":"THB","transit":false,"i_lat":-6.185545,"time":5},{"transit":true,"line":1,"station_name":"Duri","i_lat":-6.155215,"time":8,"station_id":"DU","i_long":106.800832,"distance":3632,"is_transit":true},{"is_transit":false,"i_lat":-6.162021,"station_id":"GGL","station_name":"Grogol","i_long":106.788277,"line":5,"time":3,"distance":1700,"transit":false},{"i_lat":-6.161433,"time":2,"station_name":"Pesing","distance":2036,"transit":false,"line":5,"is_transit":false,"i_long":106.771379,"station_id":"PSG"},{"i_long":106.756522,"station_id":"TKO","time":2,"i_lat":-6.1587309999999995,"transit":false,"line":5,"is_transit":false,"distance":1614,"station_name":"Taman Kota"},{"distance":2334,"station_name":"Bojongindah","time":2,"i_lat":-6.159876,"line":5,"is_transit":false,"i_long":106.737035,"station_id":"BOI","transit":false},{"is_transit":false,"transit":false,"i_long":106.723064,"time":4,"i_lat":-6.162758,"line":5,"distance":1152,"station_name":"Rawa Buaya","station_id":"RW"}],[{"i_lat":-6.149769,"station_id":"MGB","i_long":106.82482,"line":2,"distance":0,"is_transit":false,"time":0,"station_name":"Manggabesar","transit":false},{"i_lat":-6.160725,"distance":906,"i_long":106.827103,"time":2,"station_id":"SW","line":2,"is_transit":false,"transit":false,"station_name":"Sawah Besar"},{"transit":false,"distance":1149,"i_lat":-6.166716,"time":2,"is_transit":false,"station_id":"JUA","line":2,"i_long":106.828284,"station_name":"Juanda"},{"time":4,"transit":false,"distance":2015,"i_long":106.832183,"line":2,"station_name":"Gondangdia","is_transit":false,"station_id":"GDD","i_lat":-6.186295},{"i_lat":-6.198556,"station_id":"CKI","transit":false,"distance":1750,"i_long":106.840169,"station_name":"Cikini","line":2,"time":3,"is_transit":false},{"station_name":"Manggarai","station_id":"MRI","i_lat":-6.209883,"line":2,"i_long":106.84912,"time":4,"is_transit":true,"distance":1590,"transit":true},{"line":1,"is_transit":false,"time":2,"i_long":106.858896,"station_name":"Matraman","station_id":"MTR","distance":1275,"i_lat":-6.212485,"transit":false},{"i_long":106.86807400000001,"is_transit":true,"time":8,"station_name":"Jatinegara","transit":true,"line":1,"distance":1377,"station_id":"JNG","i_lat":-6.215091},{"station_id":"POK","distance":1236,"time":2,"station_name":"Pondok Jati","i_long":106.861737,"is_transit":false,"i_lat":-6.209188,"transit":false,"line":11},{"line":11,"is_transit":false,"transit":false,"station_id":"KMT","station_name":"Kramat","distance":1829,"i_long":106.855437,"time":2,"i_lat":-6.193792},{"distance":973,"line":11,"i_lat":-6.185975,"time":1,"is_transit":false,"station_id":"GST","transit":false,"station_name":"Gang Sentiong","i_long":106.850107},{"station_id":"PSE","transit":false,"is_transit":false,"station_name":"Pasar Senen","time":8,"i_lat":-6.174784,"line":11,"i_long":106.84368,"distance":1567},{"i_long":106.839204,"station_name":"Kemayoran","station_id":"KMO","transit":false,"distance":1436,"time":4,"is_transit":false,"i_lat":-6.161728,"line":11},{"station_name":"Rajawali","time":5,"i_lat":-6.14505,"distance":1901,"i_long":106.836569,"line":11,"is_transit":false,"transit":false,"station_id":"RJW"},{"transit":true,"station_id":"KPB","line":4,"station_name":"Kampung Bandan","i_long":106.826365,"i_lat":-6.132549,"is_transit":true,"time":3,"distance":1444},{"station_name":"Angke","transit":false,"station_id":"AK","time":9,"is_transit":false,"i_long":106.79867,"i_lat":-6.144674,"distance":4102,"line":1},{"station_id":"DU","i_lat":-6.155215,"line":1,"i_long":106.800832,"transit":true,"station_name":"Duri","time":4,"distance":1230,"is_transit":true},{"is_transit":false,"station_name":"Grogol","transit":false,"time":3,"distance":1700,"i_lat":-6.162021,"line":5,"i_long":106.788277,"station_id":"GGL"},{"is_transit":false,"station_id":"PSG","time":2,"distance":2036,"station_name":"Pesing","transit":false,"i_long":106.771379,"line":5,"i_lat":-6.161433},{"i_long":106.756522,"i_lat":-6.1587309999999995,"line":5,"is_transit":false,"transit":false,"station_name":"Taman Kota","time":2,"station_id":"TKO","distance":1614},{"distance":2334,"station_id":"BOI","transit":false,"time":2,"i_lat":-6.159876,"is_transit":false,"i_long":106.737035,"line":5,"station_name":"Bojongindah"},{"line":5,"i_long":106.723064,"i_lat":-6.162758,"station_name":"Rawa Buaya","time":4,"transit":false,"distance":1152,"is_transit":false,"station_id":"RW"}],[{"is_transit":false,"distance":0,"i_long":106.82482,"line":2,"transit":false,"station_id":"MGB","time":0,"station_name":"Manggabesar","i_lat":-6.149769},{"is_transit":false,"transit":false,"i_lat":-6.141205,"distance":1080,"line":2,"station_name":"Jayakarta","i_long":106.820901,"station_id":"JAY","time":2},{"transit":true,"station_id":"JAKK","i_lat":-6.137569,"line":2,"is_transit":true,"distance":1264,"i_long":106.812439,"station_name":"Jakarta Kota","time":4},{"i_long":106.826365,"station_id":"KPB","distance":1364,"i_lat":-6.132549,"line":4,"is_transit":true,"station_name":"Kampung Bandan","time":3,"transit":true},{"time":3,"line":11,"is_transit":false,"i_lat":-6.14505,"station_name":"Rajawali","transit":false,"i_long":106.836569,"station_id":"RJW","distance":1444},{"is_transit":false,"time":5,"i_long":106.839204,"distance":1901,"line":11,"station_name":"Kemayoran","transit":false,"station_id":"KMO","i_lat":-6.161728},{"i_lat":-6.174784,"line":11,"station_name":"Pasar Senen","time":4,"distance":1436,"transit":false,"station_id":"PSE","i_long":106.84368,"is_transit":false},{"station_id":"GST","i_lat":-6.185975,"time":8,"line":11,"is_transit":false,"distance":1567,"transit":false,"station_name":"Gang Sentiong","i_long":106.850107},{"line":11,"distance":973,"i_lat":-6.193792,"i_long":106.855437,"is_transit":false,"station_name":"Kramat","station_id":"KMT","transit":false,"time":1},{"transit":false,"i_long":106.861737,"line":11,"time":2,"distance":1829,"i_lat":-6.209188,"station_name":"Pondok Jati","is_transit":false,"station_id":"POK"},{"station_id":"JNG","transit":true,"i_long":106.86807400000001,"is_transit":true,"i_lat":-6.215091,"station_name":"Jatinegara","distance":1236,"line":1,"time":9},{"is_transit":false,"station_name":"Matraman","i_lat":-6.212485,"transit":false,"distance":1377,"line":1,"i_long":106.858896,"time":2,"station_id":"MTR"},{"station_id":"MRI","time":2,"transit":false,"distance":1275,"station_name":"Manggarai","is_transit":false,"i_long":106.84912,"line":2,"i_lat":-6.209883},{"station_name":"Sudirman","distance":3186,"line":1,"is_transit":false,"time":4,"transit":false,"station_id":"SUD","i_lat":-6.202263,"i_long":106.822649},{"transit":false,"is_transit":false,"time":1,"line":1,"i_long":106.819881,"i_lat":-6.201433,"station_name":"Sudirman Baru","distance":280,"station_id":"SUDB"},{"station_name":"Karet","station_id":"KAT","transit":false,"distance":471,"i_lat":-6.20132,"line":1,"i_long":106.816351,"time":1,"is_transit":false},{"station_id":"THB","transit":false,"distance":2029,"station_name":"Tanah Abang","time":5,"is_transit":false,"i_lat":-6.185545,"i_long":106.811091,"line":1},{"i_lat":-6.155215,"i_long":106.800832,"distance":3632,"station_id":"DU","line":1,"is_transit":true,"station_name":"Duri","transit":true,"time":8},{"distance":1700,"transit":false,"i_long":106.788277,"line":5,"time":3,"station_id":"GGL","i_lat":-6.162021,"is_transit":false,"station_name":"Grogol"},{"station_id":"PSG","station_name":"Pesing","time":2,"i_long":106.771379,"line":5,"is_transit":false,"transit":false,"i_lat":-6.161433,"distance":2036},{"distance":1614,"line":5,"i_lat":-6.1587309999999995,"station_id":"TKO","time":2,"station_name":"Taman Kota","is_transit":false,"transit":false,"i_long":106.756522},{"transit":false,"is_transit":false,"station_name":"Bojongindah","station_id":"BOI","i_lat":-6.159876,"i_long":106.737035,"line":5,"time":2,"distance":2334},{"i_lat":-6.162758,"distance":1152,"line":5,"is_transit":false,"transit":false,"time":4,"i_long":106.723064,"station_name":"Rawa Buaya","station_id":"RW"}]]}