{"data":[[{"i_long":106.82482,"line":2,"station_name":"Manggabesar","distance":0,"i_lat":-6.149769,"transit":false,"station_id":"MGB","time":0,"is_transit":false},{"line":2,"i_lat":-6.160725,"station_name":"Sawah Besar","time":2,"transit":false,"distance":906,"is_transit":false,"i_long":106.827103,"station_id":"SW"},{"time":2,"line":2,"station_id":"JUA","transit":false,"i_lat":-6.166716,"is_transit":false,"i_long":106.828284,"distance":1149,"station_name":"Juanda"},{"station_name":"Gondangdia","station_id":"GDD","time":4,"is_transit":false,"i_long":106.832183,"i_lat":-6.186295,"distance":2015,"line":2,"transit":false},{"time":3,"station_name":"Cikini","distance":1750,"is_transit":false,"transit":false,"i_long":106.840169,"station_id":"CKI","i_lat":-6.198556,"line":0},{"is_transit":true,"distance":1590,"i_long":106.84912,"time":4,"station_name":"Manggarai","station_id":"MRI","i_lat":-6.209883,"line":0,"transit":true},{"station_name":"Tebet","i_long":106.857948,"i_lat":-6.226659,"transit":false,"distance":2610,"is_transit":false,"station_id":"TEB","time":4,"line":2}],[{"distance":0,"i_long":106.82482,"transit":false,"station_name":"Manggabesar","line":2,"station_id":"MGB","time":0,"i_lat":-6.149769,"is_transit":false},{"time":2,"line":7,"i_lat":-6.141205,"transit":false,"station_name":"Jayakarta","is_transit":false,"station_id":"JAY","distance":1080,"i_long":106.820901},{"line":0,"time":4,"distance":1264,"i_lat":-6.137569,"i_long":106.812439,"station_id":"JAKK","station_name":"Jakarta Kota","transit":true,"is_transit":true},{"i_long":106.826365,"station_id":"KPB","line":0,"transit":false,"station_name":"Kampung Bandan","distance":1364,"i_lat":-6.132549,"is_transit":true,"time":3},{"distance":4102,"station_name":"Angke","line":0,"time":9,"is_transit":false,"station_id":"AK","i_lat":-6.144674,"i_long":106.79867,"transit":false},{"is_transit":true,"transit":true,"i_long":106.800832,"station_id":"DU","distance":1230,"line":1,"i_lat":-6.155215,"station_name":"Duri","time":4},{"transit":false,"station_name":"Tanah Abang","distance":3632,"i_lat":-6.185545,"i_long":106.811091,"is_transit":true,"station_id":"THB","line":1,"time":8},{"line":1,"station_id":"KAT","time":5,"transit":false,"is_transit":false,"i_lat":-6.20132,"i_long":106.816351,"station_name":"Karet","distance":2029},{"is_transit":false,"station_id":"SUDB","time":1,"station_name":"Sudirman Baru","i_lat":-6.201433,"distance":471,"i_long":106.819881,"transit":false,"line":1},{"i_lat":-6.202263,"station_id":"SUD","is_transit":false,"line":1,"transit":false,"station_name":"Sudirman","time":1,"distance":280,"i_long":106.822649},{"distance":3186,"line":0,"is_transit":true,"station_name":"Manggarai","station_id":"MRI","time":4,"transit":true,"i_lat":-6.209883,"i_long":106.84912},{"transit":false,"station_id":"TEB","distance":2610,"time":4,"i_long":106.857948,"is_transit":false,"line":2,"i_lat":-6.226659,"station_name":"Tebet"}],[{"i_lat":-6.149769,"station_name":"Manggabesar","distance":0,"line":2,"i_long":106.82482,"station_id":"MGB","is_transit":false,"time":0,"transit":false},{"station_id":"JAY","is_transit":false,"distance":1080,"i_long":106.820901,"line":7,"station_name":"Jayakarta","i_lat":-6.141205,"transit":false,"time":2},{"time":4,"station_id":"JAKK","distance":1264,"is_transit":true,"line":0,"i_lat":-6.137569,"i_long":106.812439,"station_name":"Jakarta Kota","transit":true},{"is_transit":true,"time":3,"i_lat":-6.132549,"i_long":106.826365,"transit":true,"line":0,"station_name":"Kampung Bandan","station_id":"KPB","distance":1364},{"i_lat":-6.14505,"i_long":106.836569,"station_name":"Rajawali","line":11,"time":3,"is_transit":false,"transit":false,"distance":1444,"station_id":"RJW"},{"station_name":"Kemayoran","station_id":"KMO","i_lat":-6.161728,"transit":false,"is_transit":false,"i_long":106.839204,"line":11,"time":5,"distance":1901},{"i_lat":-6.174784,"i_long":106.84368,"station_id":"PSE","line":11,"time":4,"distance":1436,"transit":false,"is_transit":false,"station_name":"Pasar Senen"},{"line":11,"station_id":"GST","time":8,"distance":1567,"is_transit":false,"i_lat":-6.185975,"i_long":106.850107,"transit":false,"station_name":"Gang Sentiong"},{"i_lat":-6.193792,"line":11,"is_transit":false,"station_id":"KMT","i_long":106.855437,"distance":973,"transit":false,"station_name":"Kramat","time":1},{"time":2,"station_name":"Pondok Jati","is_transit":false,"distance":1829,"i_long":106.861737,"i_lat":-6.209188,"line":11,"station_id":"POK","transit":false},{"transit":true,"station_id":"JNG","is_transit":true,"i_long":106.86807400000001,"line":0,"station_name":"Jatinegara","distance":1236,"i_lat":-6.215091,"time":9},{"station_name":"Matraman","distance":1377,"time":2,"transit":false,"station_id":"MTR","i_lat":-6.212485,"i_long":106.858896,"line":1,"is_transit":false},{"transit":true,"station_name":"Manggarai","distance":1275,"time":2,"i_long":106.84912,"line":0,"i_lat":-6.209883,"station_id":"MRI","is_transit":true},{"transit":false,"i_long":106.857948,"i_lat":-6.226659,"is_transit":false,"station_id":"TEB","time":4,"station_name":"Tebet","distance":2610,"line":2}]]}