{"data":[[{"line":2,"time":0,"station_name":"Manggabesar","distance":0,"station_id":"MGB","transit":false,"is_transit":false,"i_lat":-6.149769,"i_long":106.82482},{"station_id":"SW","station_name":"Sawah Besar","time":2,"is_transit":false,"transit":false,"i_long":106.827103,"line":2,"i_lat":-6.160725,"distance":906},{"transit":false,"distance":1149,"time":2,"station_name":"Juanda","i_lat":-6.166716,"i_long":106.828284,"line":2,"station_id":"JUA","is_transit":false},{"transit":false,"distance":2015,"is_transit":false,"time":4,"station_name":"Gondangdia","station_id":"GDD","i_lat":-6.186295,"i_long":106.832183,"line":2},{"distance":1750,"line":0,"time":3,"transit":false,"station_id":"CKI","is_transit":false,"station_name":"Cikini","i_long":106.840169,"i_lat":-6.198556},{"i_long":106.84912,"is_transit":true,"transit":true,"station_id":"MRI","time":4,"i_lat":-6.209883,"station_name":"Manggarai","distance":1590,"line":0},{"transit":false,"i_long":106.857948,"is_transit":false,"i_lat":-6.226659,"station_name":"Tebet","time":4,"distance":2610,"station_id":"TEB","line":2},{"station_id":"CW","distance":1230,"i_lat":-6.242512,"line":0,"transit":false,"is_transit":false,"station_name":"Cawang","time":2,"i_long":106.856607},{"is_transit":false,"time":3,"i_lat":-6.255332,"transit":false,"i_long":106.85449,"station_id":"DRN","distance":1546,"station_name":"Duren Kalibata","line":0},{"transit":false,"is_transit":false,"distance":824,"line":2,"station_id":"PSMB","station_name":"Pasar Minggu Baru","i_lat":-6.263214,"time":2,"i_long":106.851577},{"time":2,"station_id":"PSM","is_transit":false,"line":2,"i_long":106.843999,"station_name":"Pasar Minggu","distance":2380,"transit":false,"i_lat":-6.2842400000000005},{"distance":2820,"is_transit":false,"i_long":106.838896,"station_id":"TNT","transit":false,"line":2,"station_name":"Tanjung Barat","time":4,"i_lat":-6.3080680000000005},{"distance":2671,"i_lat":-6.330363,"line":2,"station_id":"LNA","i_long":106.832616,"time":3,"is_transit":false,"station_name":"Lenteng Agung","transit":false},{"distance":1029,"station_id":"UP","time":2,"is_transit":false,"i_long":106.834175,"transit":false,"station_name":"Univ. Pancasila","i_lat":-6.339291,"line":2},{"is_transit":false,"i_lat":-6.360749,"distance":2264,"station_id":"UI","station_name":"Univ. Indonesia","time":3,"i_long":106.831474,"line":2,"transit":false},{"transit":false,"is_transit":false,"station_id":"POC","time":2,"distance":1109,"i_lat":-6.369073,"line":2,"station_name":"Pondok Cina","i_long":106.831114},{"time":4,"i_long":106.819451,"station_id":"DPB","line":0,"i_lat":-6.391065,"transit":false,"distance":2727,"is_transit":false,"station_name":"Depokbaru"},{"station_name":"Depok","is_transit":false,"transit":false,"station_id":"DP","i_lat":-6.405256,"line":0,"time":3,"distance":1584,"i_long":106.816926},{"is_transit":true,"time":6,"transit":false,"station_name":"Citayam","i_lat":-6.448811,"i_long":106.800298,"line":1,"distance":5084,"station_id":"CTA"},{"is_transit":false,"i_lat":-6.493243,"time":5,"i_long":106.792719,"station_id":"BJD","line":0,"transit":false,"distance":5197,"station_name":"Bojonggede"}],[{"distance":0,"station_name":"Manggabesar","i_lat":-6.149769,"line":2,"time":0,"station_id":"MGB","i_long":106.82482,"is_transit":false,"transit":false},{"i_long":106.820901,"station_id":"JAY","line":7,"distance":1080,"station_name":"Jayakarta","transit":false,"time":2,"is_transit":false,"i_lat":-6.141205},{"i_long":106.812439,"transit":true,"time":4,"is_transit":true,"line":0,"station_id":"JAKK","i_lat":-6.137569,"distance":1264,"station_name":"Jakarta Kota"},{"station_id":"KPB","is_transit":true,"station_name":"Kampung Bandan","transit":false,"time":3,"i_long":106.826365,"distance":1364,"i_lat":-6.132549,"line":0},{"i_lat":-6.144674,"transit":false,"station_id":"AK","is_transit":false,"distance":4102,"time":9,"i_long":106.79867,"station_name":"Angke","line":0},{"i_lat":-6.155215,"station_name":"Duri","station_id":"DU","transit":true,"time":4,"i_long":106.800832,"is_transit":true,"line":1,"distance":1230},{"i_long":106.811091,"line":1,"is_transit":true,"transit":false,"distance":3632,"station_name":"Tanah Abang","i_lat":-6.185545,"station_id":"THB","time":8},{"time":5,"distance":2029,"station_name":"Karet","i_lat":-6.20132,"is_transit":false,"station_id":"KAT","transit":false,"i_long":106.816351,"line":1},{"station_id":"SUDB","transit":false,"time":1,"line":1,"station_name":"Sudirman Baru","i_lat":-6.201433,"i_long":106.819881,"is_transit":false,"distance":471},{"line":1,"station_id":"SUD","transit":false,"time":1,"station_name":"Sudirman","i_lat":-6.202263,"distance":280,"is_transit":false,"i_long":106.822649},{"is_transit":true,"transit":true,"line":0,"i_lat":-6.209883,"time":4,"distance":3186,"station_id":"MRI","i_long":106.84912,"station_name":"Manggarai"},{"distance":2610,"station_id":"TEB","station_name":"Tebet","line":2,"transit":false,"is_transit":false,"i_long":106.857948,"time":4,"i_lat":-6.226659},{"station_name":"Cawang","i_long":106.856607,"distance":1230,"is_transit":false,"station_id":"CW","i_lat":-6.242512,"transit":false,"time":2,"line":0},{"distance":1546,"transit":false,"time":3,"is_transit":false,"line":0,"station_name":"Duren Kalibata","i_long":106.85449,"i_lat":-6.255332,"station_id":"DRN"},{"time":2,"station_name":"Pasar Minggu Baru","station_id":"PSMB","transit":false,"line":2,"distance":824,"is_transit":false,"i_lat":-6.263214,"i_long":106.851577},{"distance":2380,"station_name":"Pasar Minggu","line":2,"station_id":"PSM","is_transit":false,"i_lat":-6.2842400000000005,"time":2,"i_long":106.843999,"transit":false},{"station_id":"TNT","i_long":106.838896,"i_lat":-6.3080680000000005,"time":4,"line":2,"station_name":"Tanjung Barat","transit":false,"distance":2820,"is_transit":false},{"is_transit":false,"transit":false,"station_name":"Lenteng Agung","distance":2671,"i_long":106.832616,"i_lat":-6.330363,"station_id":"LNA","time":3,"line":2},{"distance":1029,"transit":false,"i_lat":-6.339291,"station_id":"UP","station_name":"Univ. Pancasila","line":2,"time":2,"i_long":106.834175,"is_transit":false},{"station_name":"Univ. Indonesia","station_id":"UI","i_lat":-6.360749,"i_long":106.831474,"distance":2264,"time":3,"line":2,"transit":false,"is_transit":false},{"distance":1109,"station_id":"POC","i_long":106.831114,"is_transit":false,"station_name":"Pondok Cina","time":2,"i_lat":-6.369073,"line":2,"transit":false},{"i_long":106.819451,"station_id":"DPB","station_name":"Depokbaru","line":0,"distance":2727,"transit":false,"time":4,"is_transit":false,"i_lat":-6.391065},{"is_transit":false,"station_name":"Depok","transit":false,"i_long":106.816926,"time":3,"station_id":"DP","line":0,"distance":1584,"i_lat":-6.405256},{"station_name":"Citayam","distance":5084,"i_lat":-6.448811,"i_long":106.800298,"transit":false,"time":6,"line":1,"is_transit":true,"station_id":"CTA"},{"distance":5197,"station_id":"BJD","time":5,"i_long":106.792719,"transit":false,"line":0,"station_name":"Bojonggede","is_transit":false,"i_lat":-6.493243}],[{"transit":false,"i_lat":-6.149769,"distance":0,"station_name":"Manggabesar","time":0,"station_id":"MGB","is_transit":false,"line":2,"i_long":106.82482},{"station_id":"JAY","line":7,"station_name":"Jayakarta","time":2,"distance":1080,"is_transit":false,"i_lat":-6.141205,"transit":false,"i_long":106.820901},{"station_id":"JAKK","transit":true,"i_long":106.812439,"time":4,"is_transit":true,"station_name":"Jakarta Kota","distance":1264,"i_lat":-6.137569,"line":0},{"station_name":"Kampung Bandan","i_long":106.826365,"line":0,"station_id":"KPB","transit":true,"distance":1364,"is_transit":true,"time":3,"i_lat":-6.132549},{"time":3,"is_transit":false,"station_name":"Rajawali","line":11,"i_lat":-6.14505,"i_long":106.836569,"distance":1444,"station_id":"RJW","transit":false},{"distance":1901,"i_long":106.839204,"is_transit":false,"line":11,"station_name":"Kemayoran","station_id":"KMO","transit":false,"time":5,"i_lat":-6.161728},{"time":4,"i_lat":-6.174784,"station_name":"Pasar Senen","station_id":"PSE","line":11,"is_transit":false,"i_long":106.84368,"distance":1436,"transit":false},{"station_id":"GST","time":8,"station_name":"Gang Sentiong","transit":false,"i_lat":-6.185975,"distance":1567,"line":11,"i_long":106.850107,"is_transit":false},{"line":11,"transit":false,"time":1,"distance":973,"station_name":"Kramat","is_transit":false,"i_lat":-6.193792,"i_long":106.855437,"station_id":"KMT"},{"station_id":"POK","time":2,"is_transit":false,"distance":1829,"i_long":106.861737,"i_lat":-6.209188,"line":11,"station_name":"Pondok Jati","transit":false},{"station_id":"JNG","transit":true,"distance":1236,"station_name":"Jatinegara","is_transit":true,"time":9,"line":0,"i_long":106.86807400000001,"i_lat":-6.215091},{"time":2,"distance":1377,"i_lat":-6.212485,"line":1,"i_long":106.858896,"station_name":"Matraman","transit":false,"is_transit":false,"station_id":"MTR"},{"time":2,"station_name":"Manggarai","i_lat":-6.209883,"line":0,"distance":1275,"is_transit":true,"station_id":"MRI","transit":true,"i_long":106.84912},{"i_long":106.857948,"distance":2610,"line":2,"transit":false,"station_id":"TEB","is_transit":false,"station_name":"Tebet","time":4,"i_lat":-6.226659},{"station_id":"CW","line":0,"transit":false,"i_long":106.856607,"distance":1230,"is_transit":false,"station_name":"Cawang","time":2,"i_lat":-6.242512},{"station_id":"DRN","i_long":106.85449,"line":0,"is_transit":false,"transit":false,"i_lat":-6.255332,"distance":1546,"station_name":"Duren Kalibata","time":3},{"transit":false,"time":2,"i_lat":-6.263214,"is_transit":false,"line":2,"i_long":106.851577,"distance":824,"station_id":"PSMB","station_name":"Pasar Minggu Baru"},{"station_name":"Pasar Minggu","distance":2380,"transit":false,"is_transit":false,"station_id":"PSM","time":2,"line":2,"i_long":106.843999,"i_lat":-6.2842400000000005},{"i_lat":-6.3080680000000005,"distance":2820,"transit":false,"station_id":"TNT","is_transit":false,"i_long":106.838896,"line":2,"station_name":"Tanjung Barat","time":4},{"i_long":106.832616,"station_name":"Lenteng Agung","i_lat":-6.330363,"transit":false,"time":3,"line":2,"is_transit":false,"station_id":"LNA","distance":2671},{"i_long":106.834175,"line":2,"is_transit":false,"station_name":"Univ. Pancasila","station_id":"UP","time":2,"transit":false,"distance":1029,"i_lat":-6.339291},{"line":2,"station_id":"UI","station_name":"Univ. Indonesia","transit":false,"i_long":106.831474,"distance":2264,"is_transit":false,"time":3,"i_lat":-6.360749},{"i_lat":-6.369073,"station_id":"POC","station_name":"Pondok Cina","distance":1109,"transit":false,"time":2,"i_long":106.831114,"is_transit":false,"line":2},{"distance":2727,"is_transit":false,"station_name":"Depokbaru","line":0,"station_id":"DPB","transit":false,"i_lat":-6.391065,"i_long":106.819451,"time":4},{"station_id":"DP","station_name":"Depok","is_transit":false,"transit":false,"line":0,"distance":1584,"time":3,"i_lat":-6.405256,"i_long":106.816926},{"i_lat":-6.448811,"i_long":106.800298,"line":1,"distance":5084,"is_transit":true,"station_name":"Citayam","station_id":"CTA","transit":false,"time":6},{"distance":5197,"station_id":"BJD","station_name":"Bojonggede","time":5,"i_lat":-6.493243,"transit":false,"i_long":106.792719,"is_transit":false,"line":0}]]}