{"data":[[{"i_lat":-6.149769,"station_id":"MGB","distance":0,"time":0,"is_transit":false,"i_long":106.82482,"station_name":"Manggabesar","transit":false,"line":2},{"station_name":"Sawah Besar","is_transit":false,"i_lat":-6.160725,"time":2,"i_long":106.827103,"distance":906,"station_id":"SW","line":2,"transit":false},{"is_transit":false,"i_lat":-6.166716,"distance":1149,"station_name":"Juanda","i_long":106.828284,"station_id":"JUA","transit":false,"line":2,"time":2},{"station_id":"GDD","i_lat":-6.186295,"i_long":106.832183,"distance":2015,"transit":false,"station_name":"Gondangdia","is_transit":false,"time":4,"line":2},{"station_id":"CKI","time":3,"station_name":"Cikini","is_transit":false,"line":0,"distance":1750,"i_long":106.840169,"transit":false,"i_lat":-6.198556},{"station_id":"MRI","i_lat":-6.209883,"is_transit":true,"distance":1590,"line":0,"time":4,"transit":true,"station_name":"Manggarai","i_long":106.84912},{"transit":false,"i_long":106.822649,"i_lat":-6.202263,"station_name":"Sudirman","is_transit":false,"time":4,"distance":3186,"line":1,"station_id":"SUD"},{"transit":false,"i_long":106.819881,"station_id":"SUDB","station_name":"Sudirman Baru","distance":280,"time":1,"is_transit":false,"line":1,"i_lat":-6.201433}],[{"line":2,"station_name":"Manggabesar","distance":0,"time":0,"station_id":"MGB","transit":false,"is_transit":false,"i_long":106.82482,"i_lat":-6.149769},{"is_transit":false,"distance":1080,"station_name":"Jayakarta","transit":false,"i_lat":-6.141205,"station_id":"JAY","i_long":106.820901,"line":7,"time":2},{"is_transit":true,"i_long":106.812439,"line":0,"distance":1264,"i_lat":-6.137569,"time":4,"transit":true,"station_name":"Jakarta Kota","station_id":"JAKK"},{"distance":1364,"is_transit":true,"i_lat":-6.132549,"line":0,"station_id":"KPB","transit":false,"i_long":106.826365,"time":3,"station_name":"Kampung Bandan"},{"station_id":"AK","is_transit":false,"time":9,"line":0,"transit":false,"i_lat":-6.144674,"i_long":106.79867,"station_name":"Angke","distance":4102},{"station_name":"Duri","time":4,"i_lat":-6.155215,"is_transit":true,"transit":true,"distance":1230,"i_long":106.800832,"station_id":"DU","line":1},{"station_name":"Tanah Abang","distance":3632,"i_long":106.811091,"transit":false,"time":8,"line":1,"station_id":"THB","is_transit":true,"i_lat":-6.185545},{"is_transit":false,"i_long":106.816351,"station_id":"KAT","distance":2029,"transit":false,"station_name":"Karet","i_lat":-6.20132,"line":1,"time":5},{"i_lat":-6.201433,"is_transit":false,"line":1,"i_long":106.819881,"station_id":"SUDB","station_name":"Sudirman Baru","time":1,"transit":false,"distance":471}],[{"station_name":"Manggabesar","i_lat":-6.149769,"line":2,"time":0,"i_long":106.82482,"station_id":"MGB","distance":0,"transit":false,"is_transit":false},{"i_long":106.820901,"time":2,"transit":false,"is_transit":false,"distance":1080,"i_lat":-6.141205,"line":7,"station_id":"JAY","station_name":"Jayakarta"},{"i_lat":-6.137569,"station_name":"Jakarta Kota","transit":true,"line":0,"distance":1264,"time":4,"is_transit":true,"station_id":"JAKK","i_long":106.812439},{"line":0,"i_lat":-6.132549,"distance":1364,"i_long":106.826365,"station_id":"KPB","time":3,"station_name":"Kampung Bandan","transit":true,"is_transit":true},{"i_long":106.836569,"time":3,"is_transit":false,"transit":false,"i_lat":-6.14505,"distance":1444,"line":11,"station_name":"Rajawali","station_id":"RJW"},{"distance":1901,"is_transit":false,"station_id":"KMO","station_name":"Kemayoran","i_lat":-6.161728,"i_long":106.839204,"transit":false,"time":5,"line":11},{"transit":false,"i_lat":-6.174784,"i_long":106.84368,"is_transit":false,"station_id":"PSE","station_name":"Pasar Senen","time":4,"line":11,"distance":1436},{"time":8,"station_id":"GST","station_name":"Gang Sentiong","i_long":106.850107,"distance":1567,"line":11,"transit":false,"i_lat":-6.185975,"is_transit":false},{"station_id":"KMT","time":1,"distance":973,"is_transit":false,"station_name":"Kramat","line":11,"i_lat":-6.193792,"i_long":106.855437,"transit":false},{"time":2,"distance":1829,"transit":false,"i_long":106.861737,"station_name":"Pondok Jati","line":11,"station_id":"POK","is_transit":false,"i_lat":-6.209188},{"line":0,"distance":1236,"station_name":"Jatinegara","station_id":"JNG","i_long":106.86807400000001,"is_transit":true,"transit":true,"time":9,"i_lat":-6.215091},{"is_transit":false,"station_id":"MTR","distance":1377,"transit":false,"station_name":"Matraman","i_lat":-6.212485,"time":2,"i_long":106.858896,"line":1},{"transit":false,"time":2,"i_lat":-6.209883,"distance":1275,"station_name":"Manggarai","line":0,"station_id":"MRI","is_transit":true,"i_long":106.84912},{"distance":3186,"station_id":"SUD","transit":false,"time":4,"is_transit":false,"line":1,"i_long":106.822649,"station_name":"Sudirman","i_lat":-6.202263},{"line":1,"i_long":106.819881,"time":1,"transit":false,"station_id":"SUDB","distance":280,"station_name":"Sudirman Baru","is_transit":false,"i_lat":-6.201433}],[{"time":0,"transit":false,"is_transit":false,"station_id":"MGB","i_lat":-6.149769,"distance":0,"i_long":106.82482,"line":2,"station_name":"Manggabesar"},{"i_lat":-6.160725,"i_long":106.827103,"line":2,"is_transit":false,"time":2,"distance":906,"station_name":"Sawah Besar","station_id":"SW","transit":false},{"distance":1149,"station_name":"Juanda","i_long":106.828284,"station_id":"JUA","is_transit":false,"i_lat":-6.166716,"time":2,"line":2,"transit":false},{"station_name":"Gondangdia","transit":false,"is_transit":false,"time":4,"line":2,"i_lat":-6.186295,"station_id":"GDD","i_long":106.832183,"distance":2015},{"time":3,"i_long":106.840169,"i_lat":-6.198556,"station_name":"Cikini","transit":false,"distance":1750,"is_transit":false,"station_id":"CKI","line":0},{"line":0,"time":4,"distance":1590,"is_transit":true,"station_name":"Manggarai","i_lat":-6.209883,"i_long":106.84912,"transit":true,"station_id":"MRI"},{"time":2,"i_long":106.858896,"station_name":"Matraman","transit":false,"is_transit":false,"line":1,"distance":1275,"i_lat":-6.212485,"station_id":"MTR"},{"distance":1377,"time":8,"line":0,"station_id":"JNG","is_transit":true,"station_name":"Jatinegara","i_lat":-6.215091,"transit":true,"i_long":106.86807400000001},{"station_id":"POK","i_lat":-6.209188,"i_long":106.861737,"transit":false,"line":11,"distance":1236,"time":2,"station_name":"Pondok Jati","is_transit":false},{"time":2,"transit":false,"is_transit":false,"i_long":106.855437,"line":11,"station_id":"KMT","station_name":"Kramat","distance":1829,"i_lat":-6.193792},{"is_transit":false,"line":11,"i_lat":-6.185975,"time":1,"i_long":106.850107,"station_id":"GST","transit":false,"distance":973,"station_name":"Gang Sentiong"},{"i_lat":-6.174784,"station_name":"Pasar Senen","i_long":106.84368,"line":11,"time":8,"transit":false,"is_transit":false,"station_id":"PSE","distance":1567},{"station_name":"Kemayoran","i_lat":-6.161728,"is_transit":false,"transit":false,"line":11,"i_long":106.839204,"station_id":"KMO","time":4,"distance":1436},{"i_lat":-6.14505,"station_name":"Rajawali","station_id":"RJW","transit":false,"i_long":106.836569,"is_transit":false,"line":11,"time":5,"distance":1901},{"i_lat":-6.132549,"transit":true,"time":3,"i_long":106.826365,"distance":1444,"is_transit":true,"station_name":"Kampung Bandan","station_id":"KPB","line":0},{"is_transit":false,"i_lat":-6.144674,"line":0,"time":9,"i_long":106.79867,"station_id":"AK","distance":4102,"station_name":"Angke","transit":false},{"transit":true,"time":4,"is_transit":true,"i_long":106.800832,"i_lat":-6.155215,"distance":1230,"station_name":"Duri","line":1,"station_id":"DU"},{"i_long":106.811091,"transit":false,"station_id":"THB","i_lat":-6.185545,"station_name":"Tanah Abang","distance":3632,"is_transit":true,"time":8,"line":1},{"line":1,"transit":false,"i_lat":-6.20132,"is_transit":false,"distance":2029,"time":5,"i_long":106.816351,"station_name":"Karet","station_id":"KAT"},{"i_long":106.819881,"distance":471,"station_name":"Sudirman Baru","time":1,"i_lat":-6.201433,"is_transit":false,"station_id":"SUDB","line":1,"transit":false}]]}