{"data":[[{"time":0,"distance":0,"station_name":"Manggabesar","station_id":"MGB","i_lat":-6.149769,"i_long":106.82482,"transit":false,"line":2,"is_transit":false},{"time":2,"i_long":106.820901,"transit":false,"station_name":"Jayakarta","is_transit":false,"distance":1080,"i_lat":-6.141205,"station_id":"JAY","line":2},{"i_lat":-6.137569,"distance":1264,"time":4,"is_transit":true,"line":2,"i_long":106.812439,"station_name":"Jakarta Kota","transit":true,"station_id":"JAKK"},{"i_lat":-6.132549,"is_transit":true,"station_name":"Kampung Bandan","time":3,"i_long":106.826365,"transit":true,"distance":1364,"station_id":"KPB","line":4},{"i_lat":-6.144674,"distance":4102,"time":9,"transit":false,"station_id":"AK","i_long":106.79867,"line":1,"is_transit":false,"station_name":"Angke"},{"is_transit":false,"line":1,"station_id":"DU","station_name":"Duri","time":4,"distance":1230,"i_long":106.800832,"i_lat":-6.155215,"transit":false},{"distance":3632,"station_id":"THB","is_transit":true,"transit":true,"station_name":"Tanah Abang","i_long":106.811091,"time":8,"line":1,"i_lat":-6.185545},{"line":6,"i_long":106.79689,"time":6,"is_transit":false,"distance":3191,"transit":false,"station_id":"PLM","station_name":"Palmerah","i_lat":-6.207404},{"is_transit":false,"station_name":"Kebayoran","transit":false,"i_lat":-6.237242,"time":7,"line":6,"distance":3737,"station_id":"KBY","i_long":106.780334}],[{"transit":false,"i_lat":-6.149769,"is_transit":false,"time":0,"station_name":"Manggabesar","station_id":"MGB","distance":0,"i_long":106.82482,"line":2},{"i_lat":-6.160725,"station_name":"Sawah Besar","transit":false,"distance":906,"is_transit":false,"i_long":106.827103,"station_id":"SW","time":2,"line":2},{"station_name":"Juanda","distance":1149,"station_id":"JUA","is_transit":false,"i_lat":-6.166716,"line":2,"transit":false,"i_long":106.828284,"time":2},{"i_lat":-6.186295,"transit":false,"station_id":"GDD","time":4,"station_name":"Gondangdia","i_long":106.832183,"is_transit":false,"line":2,"distance":2015},{"is_transit":false,"i_long":106.840169,"station_id":"CKI","station_name":"Cikini","transit":false,"distance":1750,"i_lat":-6.198556,"line":2,"time":3},{"i_long":106.84912,"distance":1590,"is_transit":true,"line":2,"time":4,"i_lat":-6.209883,"station_name":"Manggarai","station_id":"MRI","transit":true},{"i_lat":-6.202263,"i_long":106.822649,"is_transit":false,"time":4,"station_id":"SUD","transit":false,"station_name":"Sudirman","line":1,"distance":3186},{"i_long":106.819881,"i_lat":-6.201433,"station_name":"Sudirman Baru","station_id":"SUDB","line":1,"transit":false,"is_transit":false,"distance":280,"time":1},{"station_name":"Karet","i_lat":-6.20132,"transit":false,"distance":471,"is_transit":false,"time":1,"i_long":106.816351,"line":1,"station_id":"KAT"},{"station_id":"THB","distance":2029,"station_name":"Tanah Abang","i_lat":-6.185545,"time":5,"transit":true,"line":1,"is_transit":true,"i_long":106.811091},{"distance":3191,"i_lat":-6.207404,"time":6,"is_transit":false,"station_name":"Palmerah","transit":false,"station_id":"PLM","i_long":106.79689,"line":6},{"is_transit":false,"time":7,"station_name":"Kebayoran","line":6,"i_lat":-6.237242,"distance":3737,"transit":false,"i_long":106.780334,"station_id":"KBY"}],[{"line":2,"station_id":"MGB","distance":0,"time":0,"is_transit":false,"transit":false,"i_long":106.82482,"i_lat":-6.149769,"station_name":"Manggabesar"},{"line":2,"station_id":"JAY","i_lat":-6.141205,"is_transit":false,"station_name":"Jayakarta","i_long":106.820901,"time":2,"transit":false,"distance":1080},{"is_transit":true,"station_id":"JAKK","transit":true,"i_lat":-6.137569,"time":4,"station_name":"Jakarta Kota","line":2,"i_long":106.812439,"distance":1264},{"line":4,"distance":1364,"transit":true,"is_transit":true,"i_lat":-6.132549,"time":3,"i_long":106.826365,"station_id":"KPB","station_name":"Kampung Bandan"},{"station_name":"Rajawali","i_long":106.836569,"station_id":"RJW","i_lat":-6.14505,"line":11,"time":3,"transit":false,"distance":1444,"is_transit":false},{"time":5,"is_transit":false,"transit":false,"distance":1901,"i_long":106.839204,"i_lat":-6.161728,"station_id":"KMO","station_name":"Kemayoran","line":11},{"distance":1436,"i_lat":-6.174784,"is_transit":false,"i_long":106.84368,"station_id":"PSE","time":4,"line":11,"transit":false,"station_name":"Pasar Senen"},{"station_name":"Gang Sentiong","i_lat":-6.185975,"transit":false,"is_transit":false,"time":8,"distance":1567,"station_id":"GST","i_long":106.850107,"line":11},{"station_name":"Kramat","station_id":"KMT","line":11,"transit":false,"i_long":106.855437,"time":1,"i_lat":-6.193792,"is_transit":false,"distance":973},{"i_long":106.861737,"is_transit":false,"time":2,"transit":false,"station_name":"Pondok Jati","i_lat":-6.209188,"station_id":"POK","distance":1829,"line":11},{"i_lat":-6.215091,"station_name":"Jatinegara","i_long":106.86807400000001,"line":1,"time":9,"station_id":"JNG","transit":true,"is_transit":true,"distance":1236},{"transit":false,"line":1,"time":2,"is_transit":false,"distance":1377,"station_name":"Matraman","i_lat":-6.212485,"i_long":106.858896,"station_id":"MTR"},{"is_transit":false,"station_name":"Manggarai","station_id":"MRI","i_lat":-6.209883,"i_long":106.84912,"transit":false,"time":2,"distance":1275,"line":2},{"transit":false,"distance":3186,"i_lat":-6.202263,"station_name":"Sudirman","station_id":"SUD","i_long":106.822649,"is_transit":false,"time":4,"line":1},{"i_long":106.819881,"is_transit":false,"time":1,"station_name":"Sudirman Baru","transit":false,"distance":280,"station_id":"SUDB","i_lat":-6.201433,"line":1},{"time":1,"i_lat":-6.20132,"is_transit":false,"transit":false,"line":1,"station_id":"KAT","i_long":106.816351,"station_name":"Karet","distance":471},{"line":1,"transit":true,"i_lat":-6.185545,"i_long":106.811091,"is_transit":true,"distance":2029,"station_name":"Tanah Abang","station_id":"THB","time":5},{"distance":3191,"time":6,"i_lat":-6.207404,"transit":false,"station_id":"PLM","is_transit":false,"station_name":"Palmerah","line":6,"i_long":106.79689},{"i_long":106.780334,"line":6,"is_transit":false,"time":7,"transit":false,"station_name":"Kebayoran","i_lat":-6.237242,"station_id":"KBY","distance":3737}],[{"is_transit":false,"i_lat":-6.149769,"transit":false,"time":0,"station_name":"Manggabesar","distance":0,"i_long":106.82482,"line":2,"station_id":"MGB"},{"station_id":"SW","line":2,"station_name":"Sawah Besar","is_transit":false,"transit":false,"time":2,"distance":906,"i_lat":-6.160725,"i_long":106.827103},{"distance":1149,"line":2,"i_long":106.828284,"station_id":"JUA","time":2,"is_transit":false,"i_lat":-6.166716,"transit":false,"station_name":"Juanda"},{"station_name":"Gondangdia","transit":false,"is_transit":false,"time":4,"i_lat":-6.186295,"i_long":106.832183,"line":2,"distance":2015,"station_id":"GDD"},{"is_transit":false,"station_name":"Cikini","distance":1750,"i_lat":-6.198556,"time":3,"station_id":"CKI","i_long":106.840169,"line":2,"transit":false},{"i_long":106.84912,"time":4,"station_name":"Manggarai","transit":true,"distance":1590,"i_lat":-6.209883,"station_id":"MRI","line":2,"is_transit":true},{"is_transit":false,"time":2,"i_long":106.858896,"station_name":"Matraman","line":1,"station_id":"MTR","transit":false,"distance":1275,"i_lat":-6.212485},{"line":1,"station_id":"JNG","transit":true,"time":8,"distance":1377,"i_lat":-6.215091,"is_transit":true,"station_name":"Jatinegara","i_long":106.86807400000001},{"line":11,"station_name":"Pondok Jati","i_lat":-6.209188,"i_long":106.861737,"is_transit":false,"station_id":"POK","time":2,"transit":false,"distance":1236},{"i_long":106.855437,"station_id":"KMT","line":11,"is_transit":false,"station_name":"Kramat","transit":false,"i_lat":-6.193792,"distance":1829,"time":2},{"i_long":106.850107,"time":1,"station_name":"Gang Sentiong","transit":false,"distance":973,"i_lat":-6.185975,"line":11,"is_transit":false,"station_id":"GST"},{"is_transit":false,"time":8,"station_name":"Pasar Senen","i_lat":-6.174784,"line":11,"i_long":106.84368,"station_id":"PSE","distance":1567,"transit":false},{"station_name":"Kemayoran","line":11,"distance":1436,"time":4,"is_transit":false,"transit":false,"station_id":"KMO","i_lat":-6.161728,"i_long":106.839204},{"i_long":106.836569,"line":11,"station_id":"RJW","transit":false,"is_transit":false,"time":5,"station_name":"Rajawali","i_lat":-6.14505,"distance":1901},{"line":4,"station_id":"KPB","transit":true,"i_lat":-6.132549,"i_long":106.826365,"is_transit":true,"distance":1444,"station_name":"Kampung Bandan","time":3},{"time":9,"is_transit":false,"distance":4102,"i_long":106.79867,"line":1,"station_name":"Angke","station_id":"AK","i_lat":-6.144674,"transit":false},{"distance":1230,"station_name":"Duri","i_long":106.800832,"is_transit":false,"station_id":"DU","line":1,"transit":false,"i_lat":-6.155215,"time":4},{"time":8,"station_name":"Tanah Abang","station_id":"THB","line":1,"i_long":106.811091,"is_transit":true,"i_lat":-6.185545,"transit":true,"distance":3632},{"is_transit":false,"distance":3191,"station_name":"Palmerah","station_id":"PLM","i_lat":-6.207404,"transit":false,"time":6,"i_long":106.79689,"line":6},{"is_transit":false,"station_name":"Kebayoran","station_id":"KBY","time":7,"transit":false,"distance":3737,"i_lat":-6.237242,"line":6,"i_long":106.780334}]]}