{"data":[[{"i_lat":-6.149769,"i_long":106.82482,"time":0,"station_id":"MGB","station_name":"Manggabesar","line":2,"transit":false,"distance":0,"is_transit":false},{"transit":false,"is_transit":false,"station_id":"SW","station_name":"Sawah Besar","i_long":106.827103,"distance":906,"time":2,"i_lat":-6.160725,"line":2},{"time":2,"i_lat":-6.166716,"distance":1149,"i_long":106.828284,"line":2,"transit":false,"station_name":"Juanda","station_id":"JUA","is_transit":false},{"station_name":"Gondangdia","i_lat":-6.186295,"line":2,"distance":2015,"transit":false,"station_id":"GDD","i_long":106.832183,"time":4,"is_transit":false},{"line":2,"is_transit":false,"transit":false,"time":3,"i_long":106.840169,"i_lat":-6.198556,"distance":1750,"station_name":"Cikini","station_id":"CKI"},{"station_id":"MRI","station_name":"Manggarai","distance":1590,"i_lat":-6.209883,"i_long":106.84912,"line":2,"transit":true,"time":4,"is_transit":true},{"station_id":"SUD","station_name":"Sudirman","is_transit":false,"i_long":106.822649,"transit":false,"distance":3186,"line":1,"i_lat":-6.202263,"time":4}],[{"transit":false,"station_name":"Manggabesar","station_id":"MGB","line":2,"is_transit":false,"i_lat":-6.149769,"distance":0,"time":0,"i_long":106.82482},{"station_name":"Jayakarta","distance":1080,"i_long":106.820901,"line":2,"station_id":"JAY","transit":false,"is_transit":false,"i_lat":-6.141205,"time":2},{"station_name":"Jakarta Kota","i_lat":-6.137569,"transit":true,"is_transit":true,"station_id":"JAKK","time":4,"i_long":106.812439,"line":2,"distance":1264},{"i_lat":-6.132549,"line":4,"transit":true,"station_id":"KPB","is_transit":true,"time":3,"distance":1364,"i_long":106.826365,"station_name":"Kampung Bandan"},{"station_id":"AK","i_lat":-6.144674,"i_long":106.79867,"transit":false,"station_name":"Angke","time":9,"line":1,"distance":4102,"is_transit":false},{"transit":false,"station_id":"DU","is_transit":false,"i_long":106.800832,"i_lat":-6.155215,"station_name":"Duri","time":4,"line":1,"distance":1230},{"distance":3632,"line":1,"i_long":106.811091,"is_transit":false,"time":8,"station_id":"THB","transit":false,"station_name":"Tanah Abang","i_lat":-6.185545},{"time":5,"i_long":106.816351,"station_id":"KAT","transit":false,"line":1,"station_name":"Karet","is_transit":false,"distance":2029,"i_lat":-6.20132},{"station_name":"Sudirman Baru","time":1,"distance":471,"i_long":106.819881,"transit":false,"line":1,"i_lat":-6.201433,"station_id":"SUDB","is_transit":false},{"i_lat":-6.202263,"distance":280,"station_id":"SUD","is_transit":false,"station_name":"Sudirman","transit":false,"i_long":106.822649,"line":1,"time":1}],[{"is_transit":false,"distance":0,"transit":false,"station_name":"Manggabesar","i_long":106.82482,"line":2,"station_id":"MGB","time":0,"i_lat":-6.149769},{"i_lat":-6.141205,"time":2,"i_long":106.820901,"station_name":"Jayakarta","transit":false,"station_id":"JAY","is_transit":false,"line":2,"distance":1080},{"i_long":106.812439,"is_transit":true,"distance":1264,"i_lat":-6.137569,"station_name":"Jakarta Kota","station_id":"JAKK","line":2,"time":4,"transit":true},{"i_long":106.826365,"time":3,"line":4,"distance":1364,"transit":true,"station_name":"Kampung Bandan","i_lat":-6.132549,"is_transit":true,"station_id":"KPB"},{"is_transit":false,"time":3,"line":11,"i_lat":-6.14505,"i_long":106.836569,"transit":false,"station_name":"Rajawali","station_id":"RJW","distance":1444},{"transit":false,"is_transit":false,"i_lat":-6.161728,"i_long":106.839204,"distance":1901,"line":11,"station_id":"KMO","time":5,"station_name":"Kemayoran"},{"i_long":106.84368,"is_transit":false,"distance":1436,"i_lat":-6.174784,"transit":false,"station_name":"Pasar Senen","line":11,"station_id":"PSE","time":4},{"i_lat":-6.185975,"distance":1567,"is_transit":false,"transit":false,"station_id":"GST","line":11,"i_long":106.850107,"station_name":"Gang Sentiong","time":8},{"line":11,"is_transit":false,"time":1,"i_long":106.855437,"distance":973,"transit":false,"station_id":"KMT","i_lat":-6.193792,"station_name":"Kramat"},{"is_transit":false,"i_long":106.861737,"line":11,"station_name":"Pondok Jati","station_id":"POK","time":2,"distance":1829,"transit":false,"i_lat":-6.209188},{"station_name":"Jatinegara","station_id":"JNG","i_lat":-6.215091,"i_long":106.86807400000001,"time":9,"distance":1236,"transit":true,"line":1,"is_transit":true},{"station_name":"Matraman","transit":false,"station_id":"MTR","i_lat":-6.212485,"i_long":106.858896,"time":2,"is_transit":false,"distance":1377,"line":1},{"time":2,"is_transit":false,"station_name":"Manggarai","distance":1275,"i_lat":-6.209883,"i_long":106.84912,"station_id":"MRI","line":2,"transit":false},{"line":1,"i_lat":-6.202263,"station_name":"Sudirman","station_id":"SUD","time":4,"is_transit":false,"distance":3186,"i_long":106.822649,"transit":false}],[{"i_lat":-6.149769,"line":2,"transit":false,"distance":0,"i_long":106.82482,"is_transit":false,"station_id":"MGB","station_name":"Manggabesar","time":0},{"i_lat":-6.160725,"distance":906,"line":2,"i_long":106.827103,"is_transit":false,"time":2,"station_name":"Sawah Besar","station_id":"SW","transit":false},{"i_lat":-6.166716,"line":2,"transit":false,"is_transit":false,"station_id":"JUA","time":2,"distance":1149,"station_name":"Juanda","i_long":106.828284},{"is_transit":false,"time":4,"i_lat":-6.186295,"i_long":106.832183,"line":2,"transit":false,"distance":2015,"station_id":"GDD","station_name":"Gondangdia"},{"time":3,"i_lat":-6.198556,"station_name":"Cikini","i_long":106.840169,"is_transit":false,"line":2,"distance":1750,"station_id":"CKI","transit":false},{"i_long":106.84912,"distance":1590,"i_lat":-6.209883,"line":2,"station_name":"Manggarai","time":4,"station_id":"MRI","transit":true,"is_transit":true},{"station_name":"Matraman","distance":1275,"i_long":106.858896,"line":1,"is_transit":false,"station_id":"MTR","time":2,"i_lat":-6.212485,"transit":false},{"i_lat":-6.215091,"is_transit":true,"line":1,"station_name":"Jatinegara","i_long":106.86807400000001,"distance":1377,"time":8,"transit":true,"station_id":"JNG"},{"i_lat":-6.209188,"station_id":"POK","is_transit":false,"transit":false,"i_long":106.861737,"distance":1236,"station_name":"Pondok Jati","time":2,"line":11},{"distance":1829,"transit":false,"line":11,"station_id":"KMT","is_transit":false,"i_lat":-6.193792,"station_name":"Kramat","i_long":106.855437,"time":2},{"time":1,"station_name":"Gang Sentiong","line":11,"i_lat":-6.185975,"i_long":106.850107,"transit":false,"station_id":"GST","is_transit":false,"distance":973},{"station_name":"Pasar Senen","station_id":"PSE","transit":false,"is_transit":false,"distance":1567,"i_lat":-6.174784,"time":8,"i_long":106.84368,"line":11},{"transit":false,"is_transit":false,"station_name":"Kemayoran","station_id":"KMO","time":4,"line":11,"i_long":106.839204,"i_lat":-6.161728,"distance":1436},{"transit":false,"i_long":106.836569,"station_id":"RJW","is_transit":false,"distance":1901,"station_name":"Rajawali","time":5,"i_lat":-6.14505,"line":11},{"line":4,"is_transit":true,"time":3,"station_name":"Kampung Bandan","distance":1444,"transit":true,"i_lat":-6.132549,"station_id":"KPB","i_long":106.826365},{"time":9,"station_id":"AK","distance":4102,"i_long":106.79867,"line":1,"station_name":"Angke","transit":false,"i_lat":-6.144674,"is_transit":false},{"station_name":"Duri","i_lat":-6.155215,"i_long":106.800832,"is_transit":false,"station_id":"DU","line":1,"transit":false,"distance":1230,"time":4},{"distance":3632,"transit":false,"line":1,"station_id":"THB","i_long":106.811091,"station_name":"Tanah Abang","is_transit":false,"i_lat":-6.185545,"time":8},{"i_long":106.816351,"line":1,"station_name":"Karet","distance":2029,"station_id":"KAT","is_transit":false,"transit":false,"i_lat":-6.20132,"time":5},{"transit":false,"station_name":"Sudirman Baru","station_id":"SUDB","distance":471,"is_transit":false,"time":1,"i_lat":-6.201433,"line":1,"i_long":106.819881},{"station_name":"Sudirman","i_long":106.822649,"line":1,"i_lat":-6.202263,"distance":280,"is_transit":false,"time":1,"transit":false,"station_id":"SUD"}]]}