{"data":[[{"distance":0,"transit":false,"station_name":"Manggabesar","time":0,"is_transit":false,"i_long":106.82482,"station_id":"MGB","i_lat":-6.149769,"line":2},{"line":2,"i_lat":-6.160725,"is_transit":false,"station_name":"Sawah Besar","i_long":106.827103,"time":2,"distance":906,"station_id":"SW","transit":false},{"transit":false,"station_id":"JUA","i_long":106.828284,"is_transit":false,"i_lat":-6.166716,"distance":1149,"station_name":"Juanda","time":2,"line":2},{"station_id":"GDD","station_name":"Gondangdia","transit":false,"line":2,"i_long":106.832183,"distance":2015,"is_transit":false,"time":4,"i_lat":-6.186295},{"transit":false,"time":3,"i_lat":-6.198556,"station_name":"Cikini","i_long":106.840169,"line":2,"distance":1750,"is_transit":false,"station_id":"CKI"},{"i_lat":-6.209883,"line":2,"is_transit":true,"time":4,"transit":true,"station_name":"Manggarai","distance":1590,"station_id":"MRI","i_long":106.84912},{"line":1,"transit":false,"station_id":"MTR","is_transit":false,"i_lat":-6.212485,"time":2,"distance":1275,"i_long":106.858896,"station_name":"Matraman"},{"transit":false,"i_lat":-6.215091,"is_transit":false,"line":1,"time":8,"station_id":"JNG","distance":1377,"i_long":106.86807400000001,"station_name":"Jatinegara"},{"i_long":106.899548,"line":1,"station_id":"KLD","i_lat":-6.2135,"distance":3395,"station_name":"Klender","is_transit":false,"time":3,"transit":false},{"line":1,"distance":3100,"station_name":"Buaran","is_transit":false,"time":2,"i_long":106.922662,"station_id":"BUA","transit":false,"i_lat":-6.215568},{"transit":false,"distance":1305,"i_lat":-6.217455,"time":1,"line":1,"station_name":"Klenderbaru","is_transit":false,"i_long":106.939679,"station_id":"KLDB"},{"station_id":"CUK","is_transit":false,"station_name":"Cakung","distance":1385,"i_lat":-6.219053,"transit":false,"time":8,"line":1,"i_long":106.951283}],[{"line":2,"time":0,"i_long":106.82482,"station_id":"MGB","transit":false,"is_transit":false,"distance":0,"i_lat":-6.149769,"station_name":"Manggabesar"},{"transit":false,"i_lat":-6.141205,"station_name":"Jayakarta","i_long":106.820901,"is_transit":false,"time":2,"line":2,"distance":1080,"station_id":"JAY"},{"is_transit":true,"station_id":"JAKK","station_name":"Jakarta Kota","i_long":106.812439,"line":2,"distance":1264,"i_lat":-6.137569,"time":4,"transit":true},{"station_name":"Kampung Bandan","line":4,"transit":true,"station_id":"KPB","time":3,"distance":1364,"i_long":106.826365,"is_transit":true,"i_lat":-6.132549},{"time":3,"line":11,"distance":1444,"station_name":"Rajawali","i_lat":-6.14505,"i_long":106.836569,"station_id":"RJW","is_transit":false,"transit":false},{"i_long":106.839204,"line":11,"station_name":"Kemayoran","i_lat":-6.161728,"is_transit":false,"station_id":"KMO","transit":false,"time":5,"distance":1901},{"station_id":"PSE","i_long":106.84368,"distance":1436,"station_name":"Pasar Senen","is_transit":false,"i_lat":-6.174784,"transit":false,"line":11,"time":4},{"is_transit":false,"transit":false,"station_name":"Gang Sentiong","line":11,"station_id":"GST","i_lat":-6.185975,"i_long":106.850107,"distance":1567,"time":8},{"distance":973,"station_name":"Kramat","i_long":106.855437,"line":11,"time":1,"transit":false,"i_lat":-6.193792,"is_transit":false,"station_id":"KMT"},{"distance":1829,"is_transit":false,"transit":false,"station_id":"POK","i_lat":-6.209188,"time":2,"line":11,"i_long":106.861737,"station_name":"Pondok Jati"},{"time":9,"line":1,"i_lat":-6.215091,"distance":1236,"i_long":106.86807400000001,"station_name":"Jatinegara","is_transit":true,"transit":true,"station_id":"JNG"},{"distance":3395,"transit":false,"station_name":"Klender","station_id":"KLD","is_transit":false,"line":1,"time":3,"i_lat":-6.2135,"i_long":106.899548},{"transit":false,"i_lat":-6.215568,"time":2,"distance":3100,"is_transit":false,"i_long":106.922662,"line":1,"station_id":"BUA","station_name":"Buaran"},{"transit":false,"is_transit":false,"line":1,"station_id":"KLDB","distance":1305,"i_lat":-6.217455,"time":1,"station_name":"Klenderbaru","i_long":106.939679},{"transit":false,"station_name":"Cakung","i_lat":-6.219053,"distance":1385,"i_long":106.951283,"station_id":"CUK","is_transit":false,"time":8,"line":1}],[{"distance":0,"is_transit":false,"station_name":"Manggabesar","time":0,"station_id":"MGB","transit":false,"line":2,"i_lat":-6.149769,"i_long":106.82482},{"is_transit":false,"time":2,"distance":1080,"station_name":"Jayakarta","station_id":"JAY","i_long":106.820901,"line":2,"transit":false,"i_lat":-6.141205},{"i_long":106.812439,"distance":1264,"transit":true,"is_transit":true,"station_id":"JAKK","i_lat":-6.137569,"station_name":"Jakarta Kota","line":2,"time":4},{"is_transit":true,"station_name":"Kampung Bandan","i_lat":-6.132549,"line":4,"time":3,"transit":true,"distance":1364,"station_id":"KPB","i_long":106.826365},{"line":1,"transit":false,"distance":4102,"station_name":"Angke","is_transit":false,"i_lat":-6.144674,"station_id":"AK","time":9,"i_long":106.79867},{"i_lat":-6.155215,"i_long":106.800832,"station_name":"Duri","transit":false,"is_transit":false,"distance":1230,"line":1,"time":4,"station_id":"DU"},{"is_transit":false,"time":8,"i_lat":-6.185545,"line":1,"distance":3632,"i_long":106.811091,"transit":false,"station_name":"Tanah Abang","station_id":"THB"},{"is_transit":false,"station_id":"KAT","transit":false,"time":5,"i_lat":-6.20132,"line":1,"distance":2029,"station_name":"Karet","i_long":106.816351},{"distance":471,"station_name":"Sudirman Baru","transit":false,"time":1,"line":1,"station_id":"SUDB","i_lat":-6.201433,"is_transit":false,"i_long":106.819881},{"is_transit":false,"line":1,"station_name":"Sudirman","time":1,"transit":false,"i_lat":-6.202263,"distance":280,"station_id":"SUD","i_long":106.822649},{"transit":false,"station_id":"MRI","station_name":"Manggarai","is_transit":false,"i_long":106.84912,"i_lat":-6.209883,"time":4,"line":2,"distance":3186},{"time":2,"station_id":"MTR","distance":1275,"is_transit":false,"i_long":106.858896,"line":1,"i_lat":-6.212485,"transit":false,"station_name":"Matraman"},{"transit":false,"station_id":"JNG","is_transit":false,"time":8,"distance":1377,"station_name":"Jatinegara","i_long":106.86807400000001,"i_lat":-6.215091,"line":1},{"transit":false,"i_long":106.899548,"station_id":"KLD","station_name":"Klender","is_transit":false,"i_lat":-6.2135,"time":3,"distance":3395,"line":1},{"transit":false,"station_id":"BUA","time":2,"station_name":"Buaran","distance":3100,"i_lat":-6.215568,"i_long":106.922662,"line":1,"is_transit":false},{"i_lat":-6.217455,"line":1,"is_transit":false,"time":1,"distance":1305,"i_long":106.939679,"station_id":"KLDB","transit":false,"station_name":"Klenderbaru"},{"line":1,"is_transit":false,"i_lat":-6.219053,"station_name":"Cakung","transit":false,"time":8,"i_long":106.951283,"station_id":"CUK","distance":1385}],[{"i_lat":-6.149769,"station_id":"MGB","transit":false,"i_long":106.82482,"distance":0,"station_name":"Manggabesar","is_transit":false,"time":0,"line":2},{"transit":false,"station_name":"Sawah Besar","time":2,"line":2,"i_lat":-6.160725,"station_id":"SW","distance":906,"is_transit":false,"i_long":106.827103},{"i_lat":-6.166716,"line":2,"transit":false,"time":2,"station_id":"JUA","station_name":"Juanda","i_long":106.828284,"is_transit":false,"distance":1149},{"time":4,"station_id":"GDD","i_long":106.832183,"transit":false,"station_name":"Gondangdia","is_transit":false,"distance":2015,"line":2,"i_lat":-6.186295},{"time":3,"station_name":"Cikini","i_long":106.840169,"line":2,"is_transit":false,"distance":1750,"transit":false,"station_id":"CKI","i_lat":-6.198556},{"distance":1590,"i_lat":-6.209883,"i_long":106.84912,"line":2,"is_transit":true,"transit":true,"station_name":"Manggarai","station_id":"MRI","time":4},{"time":4,"i_lat":-6.202263,"is_transit":false,"i_long":106.822649,"line":1,"station_name":"Sudirman","station_id":"SUD","distance":3186,"transit":false},{"station_name":"Sudirman Baru","distance":280,"station_id":"SUDB","i_long":106.819881,"time":1,"i_lat":-6.201433,"is_transit":false,"line":1,"transit":false},{"time":1,"i_long":106.816351,"is_transit":false,"line":1,"distance":471,"i_lat":-6.20132,"station_name":"Karet","station_id":"KAT","transit":false},{"station_name":"Tanah Abang","i_lat":-6.185545,"station_id":"THB","is_transit":false,"distance":2029,"i_long":106.811091,"transit":false,"time":5,"line":1},{"transit":false,"time":8,"line":1,"i_lat":-6.155215,"station_name":"Duri","i_long":106.800832,"station_id":"DU","is_transit":false,"distance":3632},{"station_name":"Angke","i_long":106.79867,"i_lat":-6.144674,"station_id":"AK","time":4,"distance":1230,"is_transit":false,"line":1,"transit":false},{"i_long":106.826365,"time":9,"line":4,"transit":true,"distance":4102,"is_transit":true,"station_name":"Kampung Bandan","station_id":"KPB","i_lat":-6.132549},{"time":3,"line":11,"station_name":"Rajawali","i_lat":-6.14505,"transit":false,"station_id":"RJW","distance":1444,"i_long":106.836569,"is_transit":false},{"line":11,"transit":false,"station_name":"Kemayoran","is_transit":false,"distance":1901,"station_id":"KMO","i_lat":-6.161728,"time":5,"i_long":106.839204},{"station_name":"Pasar Senen","distance":1436,"is_transit":false,"transit":false,"time":4,"line":11,"i_lat":-6.174784,"station_id":"PSE","i_long":106.84368},{"line":11,"transit":false,"i_lat":-6.185975,"time":8,"station_id":"GST","distance":1567,"i_long":106.850107,"station_name":"Gang Sentiong","is_transit":false},{"station_id":"KMT","i_lat":-6.193792,"i_long":106.855437,"line":11,"time":1,"station_name":"Kramat","is_transit":false,"transit":false,"distance":973},{"transit":false,"i_long":106.861737,"station_name":"Pondok Jati","i_lat":-6.209188,"time":2,"distance":1829,"station_id":"POK","line":11,"is_transit":false},{"is_transit":true,"time":9,"station_name":"Jatinegara","station_id":"JNG","i_long":106.86807400000001,"line":1,"transit":true,"distance":1236,"i_lat":-6.215091},{"station_name":"Klender","line":1,"time":3,"station_id":"KLD","transit":false,"distance":3395,"i_lat":-6.2135,"i_long":106.899548,"is_transit":false},{"time":2,"distance":3100,"i_long":106.922662,"line":1,"is_transit":false,"i_lat":-6.215568,"station_id":"BUA","transit":false,"station_name":"Buaran"},{"is_transit":false,"i_lat":-6.217455,"i_long":106.939679,"time":1,"line":1,"transit":false,"distance":1305,"station_id":"KLDB","station_name":"Klenderbaru"},{"distance":1385,"i_long":106.951283,"line":1,"time":8,"is_transit":false,"transit":false,"i_lat":-6.219053,"station_name":"Cakung","station_id":"CUK"}]]}