{"data":[[{"station_id":"MGB","line":2,"distance":0,"station_name":"Manggabesar","time":0,"i_lat":-6.149769,"is_transit":false,"i_long":106.82482,"transit":false},{"i_lat":-6.141205,"distance":1080,"station_name":"Jayakarta","line":2,"is_transit":false,"transit":false,"i_long":106.820901,"station_id":"JAY","time":2},{"line":2,"is_transit":true,"i_long":106.812439,"i_lat":-6.137569,"distance":1264,"transit":true,"station_name":"Jakarta Kota","station_id":"JAKK","time":4},{"is_transit":true,"time":3,"i_lat":-6.132549,"transit":true,"distance":1364,"station_name":"Kampung Bandan","station_id":"KPB","line":4,"i_long":106.826365},{"station_name":"Angke","i_lat":-6.144674,"line":1,"transit":false,"distance":4102,"i_long":106.79867,"station_id":"AK","time":9,"is_transit":false},{"distance":1230,"time":4,"transit":false,"line":1,"station_name":"Duri","i_lat":-6.155215,"station_id":"DU","is_transit":false,"i_long":106.800832},{"is_transit":false,"line":1,"station_id":"THB","i_lat":-6.185545,"time":8,"i_long":106.811091,"transit":false,"station_name":"Tanah Abang","distance":3632},{"station_id":"KAT","i_lat":-6.20132,"time":5,"i_long":106.816351,"line":1,"is_transit":false,"transit":false,"distance":2029,"station_name":"Karet"}],[{"time":0,"line":2,"is_transit":false,"i_long":106.82482,"station_id":"MGB","station_name":"Manggabesar","transit":false,"distance":0,"i_lat":-6.149769},{"is_transit":false,"line":2,"i_lat":-6.160725,"station_name":"Sawah Besar","station_id":"SW","time":2,"transit":false,"distance":906,"i_long":106.827103},{"i_long":106.828284,"line":2,"i_lat":-6.166716,"transit":false,"station_id":"JUA","time":2,"is_transit":false,"distance":1149,"station_name":"Juanda"},{"station_name":"Gondangdia","i_long":106.832183,"distance":2015,"is_transit":false,"station_id":"GDD","transit":false,"time":4,"i_lat":-6.186295,"line":2},{"station_name":"Cikini","distance":1750,"station_id":"CKI","i_lat":-6.198556,"i_long":106.840169,"is_transit":false,"transit":false,"line":2,"time":3},{"i_lat":-6.209883,"line":2,"is_transit":true,"i_long":106.84912,"station_id":"MRI","distance":1590,"transit":true,"station_name":"Manggarai","time":4},{"station_name":"Sudirman","i_long":106.822649,"is_transit":false,"time":4,"i_lat":-6.202263,"line":1,"distance":3186,"transit":false,"station_id":"SUD"},{"time":1,"i_lat":-6.201433,"transit":false,"i_long":106.819881,"is_transit":false,"distance":280,"station_name":"Sudirman Baru","line":1,"station_id":"SUDB"},{"station_id":"KAT","time":1,"distance":471,"station_name":"Karet","i_lat":-6.20132,"i_long":106.816351,"line":1,"is_transit":false,"transit":false}],[{"time":0,"i_long":106.82482,"transit":false,"station_name":"Manggabesar","i_lat":-6.149769,"station_id":"MGB","is_transit":false,"distance":0,"line":2},{"line":2,"station_name":"Jayakarta","time":2,"i_long":106.820901,"station_id":"JAY","distance":1080,"i_lat":-6.141205,"is_transit":false,"transit":false},{"line":2,"station_id":"JAKK","i_lat":-6.137569,"i_long":106.812439,"transit":true,"distance":1264,"time":4,"is_transit":true,"station_name":"Jakarta Kota"},{"distance":1364,"i_lat":-6.132549,"station_id":"KPB","station_name":"Kampung Bandan","time":3,"i_long":106.826365,"is_transit":true,"line":4,"transit":true},{"distance":1444,"transit":false,"line":11,"station_name":"Rajawali","time":3,"i_long":106.836569,"is_transit":false,"station_id":"RJW","i_lat":-6.14505},{"time":5,"line":11,"station_id":"KMO","is_transit":false,"distance":1901,"transit":false,"i_lat":-6.161728,"i_long":106.839204,"station_name":"Kemayoran"},{"station_id":"PSE","is_transit":false,"station_name":"Pasar Senen","transit":false,"i_lat":-6.174784,"time":4,"i_long":106.84368,"distance":1436,"line":11},{"transit":false,"i_long":106.850107,"line":11,"time":8,"is_transit":false,"station_id":"GST","distance":1567,"i_lat":-6.185975,"station_name":"Gang Sentiong"},{"transit":false,"station_name":"Kramat","distance":973,"time":1,"station_id":"KMT","is_transit":false,"i_lat":-6.193792,"i_long":106.855437,"line":11},{"i_long":106.861737,"station_name":"Pondok Jati","i_lat":-6.209188,"line":11,"is_transit":false,"distance":1829,"time":2,"station_id":"POK","transit":false},{"is_transit":true,"line":1,"time":9,"station_id":"JNG","distance":1236,"station_name":"Jatinegara","i_lat":-6.215091,"transit":true,"i_long":106.86807400000001},{"distance":1377,"i_lat":-6.212485,"transit":false,"i_long":106.858896,"time":2,"line":1,"is_transit":false,"station_name":"Matraman","station_id":"MTR"},{"time":2,"i_lat":-6.209883,"transit":false,"station_name":"Manggarai","i_long":106.84912,"is_transit":false,"distance":1275,"line":2,"station_id":"MRI"},{"transit":false,"is_transit":false,"station_name":"Sudirman","station_id":"SUD","distance":3186,"time":4,"i_long":106.822649,"i_lat":-6.202263,"line":1},{"i_lat":-6.201433,"station_name":"Sudirman Baru","i_long":106.819881,"station_id":"SUDB","transit":false,"is_transit":false,"distance":280,"time":1,"line":1},{"time":1,"transit":false,"distance":471,"i_long":106.816351,"station_id":"KAT","station_name":"Karet","i_lat":-6.20132,"is_transit":false,"line":1}],[{"station_name":"Manggabesar","is_transit":false,"transit":false,"station_id":"MGB","distance":0,"time":0,"line":2,"i_lat":-6.149769,"i_long":106.82482},{"station_name":"Sawah Besar","distance":906,"station_id":"SW","i_long":106.827103,"time":2,"i_lat":-6.160725,"transit":false,"is_transit":false,"line":2},{"i_long":106.828284,"time":2,"is_transit":false,"i_lat":-6.166716,"line":2,"distance":1149,"station_name":"Juanda","station_id":"JUA","transit":false},{"line":2,"transit":false,"station_id":"GDD","distance":2015,"is_transit":false,"station_name":"Gondangdia","i_long":106.832183,"i_lat":-6.186295,"time":4},{"i_long":106.840169,"station_name":"Cikini","time":3,"station_id":"CKI","transit":false,"is_transit":false,"i_lat":-6.198556,"distance":1750,"line":2},{"transit":true,"station_name":"Manggarai","time":4,"line":2,"is_transit":true,"i_long":106.84912,"i_lat":-6.209883,"station_id":"MRI","distance":1590},{"time":2,"station_id":"MTR","line":1,"transit":false,"distance":1275,"station_name":"Matraman","i_long":106.858896,"i_lat":-6.212485,"is_transit":false},{"time":8,"line":1,"is_transit":true,"station_id":"JNG","station_name":"Jatinegara","distance":1377,"i_lat":-6.215091,"transit":true,"i_long":106.86807400000001},{"station_name":"Pondok Jati","is_transit":false,"distance":1236,"transit":false,"station_id":"POK","i_long":106.861737,"line":11,"i_lat":-6.209188,"time":2},{"transit":false,"line":11,"is_transit":false,"station_id":"KMT","distance":1829,"i_lat":-6.193792,"time":2,"i_long":106.855437,"station_name":"Kramat"},{"distance":973,"station_name":"Gang Sentiong","station_id":"GST","i_lat":-6.185975,"i_long":106.850107,"transit":false,"time":1,"is_transit":false,"line":11},{"distance":1567,"station_id":"PSE","is_transit":false,"i_lat":-6.174784,"i_long":106.84368,"station_name":"Pasar Senen","transit":false,"time":8,"line":11},{"time":4,"transit":false,"is_transit":false,"distance":1436,"station_name":"Kemayoran","i_lat":-6.161728,"station_id":"KMO","i_long":106.839204,"line":11},{"is_transit":false,"transit":false,"i_lat":-6.14505,"station_id":"RJW","distance":1901,"i_long":106.836569,"line":11,"station_name":"Rajawali","time":5},{"i_lat":-6.132549,"station_name":"Kampung Bandan","i_long":106.826365,"transit":true,"distance":1444,"time":3,"is_transit":true,"line":4,"station_id":"KPB"},{"is_transit":false,"distance":4102,"time":9,"line":1,"station_name":"Angke","i_long":106.79867,"station_id":"AK","transit":false,"i_lat":-6.144674},{"i_lat":-6.155215,"transit":false,"station_id":"DU","distance":1230,"station_name":"Duri","is_transit":false,"i_long":106.800832,"line":1,"time":4},{"station_id":"THB","station_name":"Tanah Abang","i_lat":-6.185545,"line":1,"i_long":106.811091,"time":8,"is_transit":false,"distance":3632,"transit":false},{"line":1,"is_transit":false,"time":5,"i_long":106.816351,"station_name":"Karet","station_id":"KAT","distance":2029,"i_lat":-6.20132,"transit":false}]]}