{"data":[[{"station_name":"Manggabesar","i_lat":-6.149769,"is_transit":false,"i_long":106.82482,"station_id":"MGB","transit":false,"line":2,"time":0,"distance":0},{"time":2,"station_name":"Sawah Besar","i_long":106.827103,"distance":906,"is_transit":false,"line":2,"i_lat":-6.160725,"station_id":"SW","transit":false},{"i_long":106.828284,"time":2,"distance":1149,"i_lat":-6.166716,"line":2,"station_id":"JUA","station_name":"Juanda","is_transit":false,"transit":false},{"i_long":106.832183,"is_transit":false,"station_id":"GDD","transit":false,"distance":2015,"time":4,"station_name":"Gondangdia","i_lat":-6.186295,"line":2},{"time":3,"distance":1750,"transit":false,"line":2,"is_transit":false,"station_id":"CKI","station_name":"Cikini","i_lat":-6.198556,"i_long":106.840169},{"station_id":"MRI","i_long":106.84912,"time":4,"transit":true,"station_name":"Manggarai","line":2,"distance":1590,"is_transit":true,"i_lat":-6.209883},{"is_transit":false,"line":1,"station_id":"SUD","distance":3186,"transit":false,"station_name":"Sudirman","i_lat":-6.202263,"i_long":106.822649,"time":4}],[{"i_lat":-6.149769,"i_long":106.82482,"station_name":"Manggabesar","line":2,"time":0,"station_id":"MGB","is_transit":false,"transit":false,"distance":0},{"i_long":106.820901,"time":2,"distance":1080,"is_transit":false,"transit":false,"station_name":"Jayakarta","station_id":"JAY","line":2,"i_lat":-6.141205},{"distance":1264,"station_name":"Jakarta Kota","i_lat":-6.137569,"line":2,"station_id":"JAKK","time":4,"transit":true,"is_transit":true,"i_long":106.812439},{"is_transit":true,"transit":true,"station_id":"KPB","time":3,"station_name":"Kampung Bandan","i_lat":-6.132549,"distance":1364,"line":4,"i_long":106.826365},{"station_name":"Angke","is_transit":false,"distance":4102,"i_long":106.79867,"station_id":"AK","time":9,"i_lat":-6.144674,"transit":false,"line":1},{"i_lat":-6.155215,"station_id":"DU","distance":1230,"i_long":106.800832,"transit":false,"station_name":"Duri","is_transit":false,"line":1,"time":4},{"station_id":"THB","i_lat":-6.185545,"i_long":106.811091,"is_transit":false,"time":8,"station_name":"Tanah Abang","line":1,"transit":false,"distance":3632},{"time":5,"station_id":"KAT","is_transit":false,"station_name":"Karet","transit":false,"distance":2029,"i_long":106.816351,"line":1,"i_lat":-6.20132},{"i_lat":-6.201433,"station_id":"SUDB","distance":471,"line":1,"time":1,"station_name":"Sudirman Baru","transit":false,"is_transit":false,"i_long":106.819881},{"line":1,"i_lat":-6.202263,"is_transit":false,"station_id":"SUD","time":1,"station_name":"Sudirman","distance":280,"transit":false,"i_long":106.822649}],[{"station_name":"Manggabesar","is_transit":false,"transit":false,"time":0,"line":2,"i_lat":-6.149769,"distance":0,"station_id":"MGB","i_long":106.82482},{"line":2,"station_id":"JAY","i_long":106.820901,"transit":false,"time":2,"distance":1080,"station_name":"Jayakarta","i_lat":-6.141205,"is_transit":false},{"i_long":106.812439,"time":4,"station_name":"Jakarta Kota","transit":true,"i_lat":-6.137569,"line":2,"is_transit":true,"distance":1264,"station_id":"JAKK"},{"transit":true,"station_name":"Kampung Bandan","is_transit":true,"i_long":106.826365,"station_id":"KPB","time":3,"i_lat":-6.132549,"line":4,"distance":1364},{"station_name":"Rajawali","is_transit":false,"time":3,"transit":false,"i_lat":-6.14505,"station_id":"RJW","line":11,"i_long":106.836569,"distance":1444},{"station_name":"Kemayoran","is_transit":false,"time":5,"distance":1901,"station_id":"KMO","i_lat":-6.161728,"i_long":106.839204,"transit":false,"line":11},{"i_long":106.84368,"line":11,"is_transit":false,"time":4,"i_lat":-6.174784,"station_id":"PSE","station_name":"Pasar Senen","distance":1436,"transit":false},{"line":11,"station_name":"Gang Sentiong","i_lat":-6.185975,"time":8,"is_transit":false,"transit":false,"i_long":106.850107,"station_id":"GST","distance":1567},{"i_long":106.855437,"line":11,"is_transit":false,"i_lat":-6.193792,"distance":973,"time":1,"station_name":"Kramat","station_id":"KMT","transit":false},{"time":2,"i_lat":-6.209188,"distance":1829,"station_name":"Pondok Jati","transit":false,"is_transit":false,"line":11,"station_id":"POK","i_long":106.861737},{"station_id":"JNG","transit":true,"distance":1236,"i_long":106.86807400000001,"time":9,"line":1,"is_transit":true,"station_name":"Jatinegara","i_lat":-6.215091},{"distance":1377,"i_long":106.858896,"is_transit":false,"time":2,"station_name":"Matraman","transit":false,"station_id":"MTR","i_lat":-6.212485,"line":1},{"transit":false,"is_transit":false,"i_lat":-6.209883,"station_id":"MRI","station_name":"Manggarai","distance":1275,"i_long":106.84912,"time":2,"line":2},{"line":1,"i_long":106.822649,"distance":3186,"i_lat":-6.202263,"station_name":"Sudirman","time":4,"station_id":"SUD","transit":false,"is_transit":false}],[{"i_long":106.82482,"station_name":"Manggabesar","distance":0,"line":2,"time":0,"i_lat":-6.149769,"transit":false,"station_id":"MGB","is_transit":false},{"is_transit":false,"station_name":"Sawah Besar","transit":false,"station_id":"SW","line":2,"i_lat":-6.160725,"time":2,"i_long":106.827103,"distance":906},{"i_long":106.828284,"transit":false,"line":2,"station_name":"Juanda","i_lat":-6.166716,"distance":1149,"station_id":"JUA","time":2,"is_transit":false},{"station_name":"Gondangdia","time":4,"transit":false,"i_lat":-6.186295,"distance":2015,"i_long":106.832183,"is_transit":false,"line":2,"station_id":"GDD"},{"i_lat":-6.198556,"is_transit":false,"station_name":"Cikini","station_id":"CKI","transit":false,"time":3,"distance":1750,"i_long":106.840169,"line":2},{"station_id":"MRI","i_long":106.84912,"i_lat":-6.209883,"line":2,"time":4,"station_name":"Manggarai","transit":true,"distance":1590,"is_transit":true},{"station_id":"MTR","i_long":106.858896,"station_name":"Matraman","line":1,"time":2,"distance":1275,"i_lat":-6.212485,"is_transit":false,"transit":false},{"station_name":"Jatinegara","i_lat":-6.215091,"is_transit":true,"i_long":106.86807400000001,"time":8,"distance":1377,"line":1,"transit":true,"station_id":"JNG"},{"is_transit":false,"i_lat":-6.209188,"i_long":106.861737,"distance":1236,"line":11,"station_id":"POK","station_name":"Pondok Jati","transit":false,"time":2},{"station_id":"KMT","transit":false,"i_long":106.855437,"distance":1829,"station_name":"Kramat","i_lat":-6.193792,"line":11,"is_transit":false,"time":2},{"time":1,"line":11,"i_long":106.850107,"station_name":"Gang Sentiong","distance":973,"is_transit":false,"station_id":"GST","i_lat":-6.185975,"transit":false},{"is_transit":false,"time":8,"i_lat":-6.174784,"line":11,"station_id":"PSE","i_long":106.84368,"distance":1567,"station_name":"Pasar Senen","transit":false},{"station_name":"Kemayoran","i_long":106.839204,"station_id":"KMO","transit":false,"line":11,"i_lat":-6.161728,"distance":1436,"is_transit":false,"time":4},{"i_lat":-6.14505,"line":11,"station_name":"Rajawali","station_id":"RJW","transit":false,"time":5,"is_transit":false,"distance":1901,"i_long":106.836569},{"distance":1444,"i_long":106.826365,"is_transit":true,"i_lat":-6.132549,"time":3,"line":4,"transit":true,"station_id":"KPB","station_name":"Kampung Bandan"},{"station_name":"Angke","is_transit":false,"station_id":"AK","time":9,"i_long":106.79867,"line":1,"transit":false,"distance":4102,"i_lat":-6.144674},{"time":4,"is_transit":false,"i_long":106.800832,"line":1,"transit":false,"distance":1230,"station_id":"DU","i_lat":-6.155215,"station_name":"Duri"},{"distance":3632,"station_name":"Tanah Abang","is_transit":false,"time":8,"transit":false,"line":1,"station_id":"THB","i_lat":-6.185545,"i_long":106.811091},{"distance":2029,"i_lat":-6.20132,"time":5,"is_transit":false,"transit":false,"station_id":"KAT","i_long":106.816351,"line":1,"station_name":"Karet"},{"station_name":"Sudirman Baru","transit":false,"is_transit":false,"station_id":"SUDB","time":1,"distance":471,"i_long":106.819881,"line":1,"i_lat":-6.201433},{"i_long":106.822649,"time":1,"station_id":"SUD","i_lat":-6.202263,"line":1,"transit":false,"station_name":"Sudirman","is_transit":false,"distance":280}]]}