{"data":[[{"transit":false,"line":2,"station_id":"MGB","is_transit":false,"i_long":106.82482,"i_lat":-6.149769,"station_name":"Manggabesar","distance":0,"time":0},{"time":2,"distance":1080,"station_id":"JAY","transit":false,"line":2,"station_name":"Jayakarta","i_long":106.820901,"is_transit":false,"i_lat":-6.141205},{"time":4,"distance":1264,"station_id":"JAKK","station_name":"Jakarta Kota","transit":true,"i_long":106.812439,"line":2,"i_lat":-6.137569,"is_transit":true},{"station_name":"Kampung Bandan","station_id":"KPB","transit":true,"i_lat":-6.132549,"line":4,"i_long":106.826365,"distance":1364,"time":3,"is_transit":true},{"i_long":106.79867,"line":1,"station_id":"AK","time":9,"transit":false,"is_transit":false,"distance":4102,"station_name":"Angke","i_lat":-6.144674},{"station_name":"Duri","time":4,"is_transit":false,"i_lat":-6.155215,"i_long":106.800832,"line":1,"transit":false,"distance":1230,"station_id":"DU"},{"station_id":"THB","time":8,"distance":3632,"is_transit":false,"transit":false,"i_lat":-6.185545,"station_name":"Tanah Abang","line":1,"i_long":106.811091},{"station_id":"KAT","i_long":106.816351,"transit":false,"station_name":"Karet","line":1,"distance":2029,"is_transit":false,"time":5,"i_lat":-6.20132}],[{"station_id":"MGB","transit":false,"line":2,"distance":0,"station_name":"Manggabesar","time":0,"is_transit":false,"i_long":106.82482,"i_lat":-6.149769},{"time":2,"i_long":106.827103,"distance":906,"is_transit":false,"station_id":"SW","station_name":"Sawah Besar","transit":false,"i_lat":-6.160725,"line":2},{"i_lat":-6.166716,"station_name":"Juanda","time":2,"i_long":106.828284,"line":2,"distance":1149,"station_id":"JUA","transit":false,"is_transit":false},{"station_name":"Gondangdia","line":2,"distance":2015,"time":4,"transit":false,"i_lat":-6.186295,"i_long":106.832183,"station_id":"GDD","is_transit":false},{"station_name":"Cikini","is_transit":false,"transit":false,"i_lat":-6.198556,"line":2,"distance":1750,"i_long":106.840169,"station_id":"CKI","time":3},{"time":4,"line":2,"station_name":"Manggarai","station_id":"MRI","is_transit":true,"transit":true,"i_long":106.84912,"i_lat":-6.209883,"distance":1590},{"distance":3186,"transit":false,"time":4,"station_name":"Sudirman","station_id":"SUD","i_long":106.822649,"line":1,"i_lat":-6.202263,"is_transit":false},{"distance":280,"i_long":106.819881,"is_transit":false,"time":1,"station_name":"Sudirman Baru","i_lat":-6.201433,"station_id":"SUDB","transit":false,"line":1},{"is_transit":false,"distance":471,"transit":false,"station_name":"Karet","time":1,"station_id":"KAT","i_lat":-6.20132,"i_long":106.816351,"line":1}],[{"i_long":106.82482,"distance":0,"transit":false,"line":2,"station_name":"Manggabesar","time":0,"station_id":"MGB","is_transit":false,"i_lat":-6.149769},{"time":2,"station_name":"Jayakarta","i_long":106.820901,"distance":1080,"is_transit":false,"i_lat":-6.141205,"station_id":"JAY","transit":false,"line":2},{"distance":1264,"transit":true,"station_id":"JAKK","i_lat":-6.137569,"i_long":106.812439,"line":2,"is_transit":true,"time":4,"station_name":"Jakarta Kota"},{"transit":true,"is_transit":true,"station_id":"KPB","station_name":"Kampung Bandan","line":4,"i_lat":-6.132549,"i_long":106.826365,"time":3,"distance":1364},{"i_lat":-6.14505,"line":11,"is_transit":false,"station_name":"Rajawali","time":3,"transit":false,"distance":1444,"station_id":"RJW","i_long":106.836569},{"station_id":"KMO","i_lat":-6.161728,"i_long":106.839204,"line":11,"time":5,"is_transit":false,"distance":1901,"transit":false,"station_name":"Kemayoran"},{"line":11,"station_id":"PSE","distance":1436,"i_long":106.84368,"is_transit":false,"time":4,"station_name":"Pasar Senen","i_lat":-6.174784,"transit":false},{"station_id":"GST","time":8,"i_long":106.850107,"line":11,"is_transit":false,"distance":1567,"i_lat":-6.185975,"station_name":"Gang Sentiong","transit":false},{"line":11,"station_id":"KMT","station_name":"Kramat","i_lat":-6.193792,"is_transit":false,"i_long":106.855437,"distance":973,"time":1,"transit":false},{"i_lat":-6.209188,"i_long":106.861737,"line":11,"station_name":"Pondok Jati","time":2,"station_id":"POK","transit":false,"is_transit":false,"distance":1829},{"distance":1236,"line":1,"i_lat":-6.215091,"is_transit":true,"time":9,"station_name":"Jatinegara","transit":true,"station_id":"JNG","i_long":106.86807400000001},{"line":1,"distance":1377,"station_id":"MTR","station_name":"Matraman","i_long":106.858896,"i_lat":-6.212485,"time":2,"transit":false,"is_transit":false},{"transit":false,"station_name":"Manggarai","line":2,"time":2,"is_transit":false,"distance":1275,"i_lat":-6.209883,"i_long":106.84912,"station_id":"MRI"},{"i_lat":-6.202263,"time":4,"station_name":"Sudirman","station_id":"SUD","i_long":106.822649,"distance":3186,"is_transit":false,"line":1,"transit":false},{"station_id":"SUDB","i_lat":-6.201433,"line":1,"is_transit":false,"transit":false,"time":1,"i_long":106.819881,"distance":280,"station_name":"Sudirman Baru"},{"time":1,"distance":471,"station_id":"KAT","i_long":106.816351,"station_name":"Karet","is_transit":false,"i_lat":-6.20132,"transit":false,"line":1}],[{"station_name":"Manggabesar","time":0,"line":2,"station_id":"MGB","transit":false,"distance":0,"i_lat":-6.149769,"i_long":106.82482,"is_transit":false},{"i_lat":-6.160725,"station_id":"SW","is_transit":false,"transit":false,"line":2,"time":2,"i_long":106.827103,"distance":906,"station_name":"Sawah Besar"},{"station_id":"JUA","time":2,"station_name":"Juanda","i_long":106.828284,"distance":1149,"i_lat":-6.166716,"line":2,"transit":false,"is_transit":false},{"distance":2015,"station_id":"GDD","i_lat":-6.186295,"time":4,"station_name":"Gondangdia","transit":false,"i_long":106.832183,"is_transit":false,"line":2},{"line":2,"time":3,"i_lat":-6.198556,"station_name":"Cikini","station_id":"CKI","i_long":106.840169,"distance":1750,"is_transit":false,"transit":false},{"i_long":106.84912,"i_lat":-6.209883,"is_transit":true,"line":2,"transit":true,"station_name":"Manggarai","time":4,"station_id":"MRI","distance":1590},{"transit":false,"line":1,"is_transit":false,"distance":1275,"i_lat":-6.212485,"i_long":106.858896,"station_id":"MTR","station_name":"Matraman","time":2},{"time":8,"i_lat":-6.215091,"line":1,"i_long":106.86807400000001,"distance":1377,"station_id":"JNG","is_transit":true,"transit":true,"station_name":"Jatinegara"},{"distance":1236,"line":11,"is_transit":false,"time":2,"i_lat":-6.209188,"station_id":"POK","i_long":106.861737,"station_name":"Pondok Jati","transit":false},{"line":11,"distance":1829,"i_lat":-6.193792,"i_long":106.855437,"transit":false,"station_id":"KMT","station_name":"Kramat","is_transit":false,"time":2},{"station_name":"Gang Sentiong","i_long":106.850107,"time":1,"is_transit":false,"line":11,"station_id":"GST","i_lat":-6.185975,"transit":false,"distance":973},{"is_transit":false,"station_name":"Pasar Senen","transit":false,"distance":1567,"i_long":106.84368,"i_lat":-6.174784,"line":11,"time":8,"station_id":"PSE"},{"i_lat":-6.161728,"distance":1436,"station_name":"Kemayoran","line":11,"transit":false,"time":4,"is_transit":false,"station_id":"KMO","i_long":106.839204},{"station_id":"RJW","station_name":"Rajawali","is_transit":false,"time":5,"distance":1901,"transit":false,"i_long":106.836569,"i_lat":-6.14505,"line":11},{"station_id":"KPB","time":3,"distance":1444,"is_transit":true,"i_lat":-6.132549,"i_long":106.826365,"station_name":"Kampung Bandan","transit":true,"line":4},{"station_name":"Angke","i_lat":-6.144674,"time":9,"is_transit":false,"line":1,"station_id":"AK","transit":false,"distance":4102,"i_long":106.79867},{"time":4,"is_transit":false,"transit":false,"station_name":"Duri","station_id":"DU","i_long":106.800832,"distance":1230,"line":1,"i_lat":-6.155215},{"i_long":106.811091,"station_name":"Tanah Abang","line":1,"is_transit":false,"time":8,"station_id":"THB","distance":3632,"transit":false,"i_lat":-6.185545},{"transit":false,"station_name":"Karet","line":1,"i_long":106.816351,"distance":2029,"time":5,"is_transit":false,"i_lat":-6.20132,"station_id":"KAT"}]]}