{"data":[[{"is_transit":false,"line":2,"transit":false,"time":0,"station_name":"Manggabesar","i_lat":-6.149769,"distance":0,"station_id":"MGB","i_long":106.82482},{"transit":false,"time":2,"distance":1080,"station_name":"Jayakarta","is_transit":false,"station_id":"JAY","i_long":106.820901,"line":7,"i_lat":-6.141205},{"i_lat":-6.137569,"is_transit":true,"station_id":"JAKK","station_name":"Jakarta Kota","time":4,"i_long":106.812439,"line":0,"distance":1264,"transit":true},{"line":0,"i_long":106.826365,"distance":1364,"i_lat":-6.132549,"station_name":"Kampung Bandan","is_transit":true,"time":3,"transit":false,"station_id":"KPB"},{"station_name":"Angke","line":0,"i_lat":-6.144674,"station_id":"AK","distance":4102,"time":9,"i_long":106.79867,"transit":false,"is_transit":false},{"time":4,"station_id":"DU","station_name":"Duri","line":1,"distance":1230,"transit":true,"i_long":106.800832,"i_lat":-6.155215,"is_transit":true},{"distance":3632,"is_transit":true,"station_name":"Tanah Abang","line":1,"i_long":106.811091,"transit":true,"time":8,"i_lat":-6.185545,"station_id":"THB"},{"station_id":"PLM","i_lat":-6.207404,"transit":false,"station_name":"Palmerah","distance":3191,"line":6,"i_long":106.79689,"is_transit":false,"time":6},{"is_transit":false,"i_long":106.780334,"time":7,"station_id":"KBY","transit":false,"distance":3737,"station_name":"Kebayoran","i_lat":-6.237242,"line":6},{"station_id":"PDJ","line":6,"distance":6218,"i_long":106.74273,"time":8,"transit":false,"is_transit":false,"station_name":"Pondokranji","i_lat":-6.276362},{"is_transit":false,"time":3,"i_lat":-6.288927,"station_name":"Jurangmangu","distance":2179,"line":6,"transit":false,"i_long":106.728916,"station_id":"JMU"},{"is_transit":false,"station_name":"Sudimara","i_long":106.712277,"station_id":"SDM","transit":false,"distance":1994,"time":4,"i_lat":-6.296963,"line":6},{"i_lat":-6.314823,"transit":false,"distance":4566,"line":6,"time":6,"i_long":106.675475,"is_transit":false,"station_name":"Rawa Buntu","station_id":"RU"},{"is_transit":false,"distance":2413,"station_id":"SRP","time":4,"transit":false,"i_lat":-6.319871,"i_long":106.66566,"line":6,"station_name":"Serpong"},{"is_transit":false,"line":0,"transit":false,"station_name":"Cisauk","distance":1784,"i_lat":-6.32484,"i_long":106.640411,"time":4,"station_id":"CSK"},{"i_long":106.617853,"is_transit":false,"transit":false,"distance":2519,"line":0,"time":4,"station_id":"CC","i_lat":-6.329547,"station_name":"Cicayur"},{"station_id":"PRP","i_lat":-6.3441410000000005,"i_long":106.568863,"line":6,"transit":false,"time":8,"distance":5968,"station_name":"Parung Panjang","is_transit":false},{"time":9,"i_lat":-6.354349,"station_name":"Cilejit","line":0,"transit":false,"station_id":"CJT","distance":7025,"i_long":106.508482,"is_transit":false}],[{"time":0,"station_id":"MGB","i_lat":-6.149769,"i_long":106.82482,"transit":false,"station_name":"Manggabesar","distance":0,"line":2,"is_transit":false},{"time":2,"i_long":106.827103,"station_id":"SW","station_name":"Sawah Besar","transit":false,"is_transit":false,"distance":906,"i_lat":-6.160725,"line":2},{"transit":false,"i_lat":-6.166716,"is_transit":false,"line":2,"station_id":"JUA","i_long":106.828284,"distance":1149,"time":2,"station_name":"Juanda"},{"distance":2015,"i_long":106.832183,"station_name":"Gondangdia","station_id":"GDD","i_lat":-6.186295,"transit":false,"is_transit":false,"time":4,"line":2},{"transit":false,"time":3,"i_lat":-6.198556,"i_long":106.840169,"is_transit":false,"distance":1750,"line":0,"station_name":"Cikini","station_id":"CKI"},{"i_long":106.84912,"line":0,"distance":1590,"station_name":"Manggarai","transit":true,"is_transit":true,"station_id":"MRI","i_lat":-6.209883,"time":4},{"station_id":"SUD","transit":false,"line":1,"distance":3186,"station_name":"Sudirman","time":4,"i_long":106.822649,"i_lat":-6.202263,"is_transit":false},{"time":1,"line":1,"is_transit":false,"i_long":106.819881,"distance":280,"transit":false,"station_name":"Sudirman Baru","station_id":"SUDB","i_lat":-6.201433},{"i_long":106.816351,"transit":false,"line":1,"station_id":"KAT","i_lat":-6.20132,"is_transit":false,"distance":471,"station_name":"Karet","time":1},{"station_id":"THB","station_name":"Tanah Abang","distance":2029,"i_lat":-6.185545,"transit":true,"time":5,"is_transit":true,"line":1,"i_long":106.811091},{"transit":false,"distance":3191,"i_long":106.79689,"i_lat":-6.207404,"is_transit":false,"station_name":"Palmerah","time":6,"station_id":"PLM","line":6},{"time":7,"transit":false,"is_transit":false,"station_name":"Kebayoran","distance":3737,"i_lat":-6.237242,"i_long":106.780334,"station_id":"KBY","line":6},{"i_long":106.74273,"i_lat":-6.276362,"line":6,"station_name":"Pondokranji","is_transit":false,"transit":false,"time":8,"distance":6218,"station_id":"PDJ"},{"station_name":"Jurangmangu","line":6,"transit":false,"distance":2179,"is_transit":false,"i_long":106.728916,"time":3,"station_id":"JMU","i_lat":-6.288927},{"station_id":"SDM","i_long":106.712277,"line":6,"time":4,"is_transit":false,"i_lat":-6.296963,"transit":false,"distance":1994,"station_name":"Sudimara"},{"station_name":"Rawa Buntu","i_long":106.675475,"time":6,"station_id":"RU","line":6,"distance":4566,"transit":false,"i_lat":-6.314823,"is_transit":false},{"line":6,"station_id":"SRP","i_lat":-6.319871,"i_long":106.66566,"station_name":"Serpong","transit":false,"distance":2413,"is_transit":false,"time":4},{"line":0,"i_lat":-6.32484,"time":4,"is_transit":false,"station_name":"Cisauk","transit":false,"i_long":106.640411,"station_id":"CSK","distance":1784},{"is_transit":false,"station_id":"CC","i_long":106.617853,"transit":false,"distance":2519,"line":0,"i_lat":-6.329547,"station_name":"Cicayur","time":4},{"line":6,"i_lat":-6.3441410000000005,"transit":false,"i_long":106.568863,"is_transit":false,"distance":5968,"station_name":"Parung Panjang","station_id":"PRP","time":8},{"station_id":"CJT","i_lat":-6.354349,"i_long":106.508482,"time":9,"is_transit":false,"distance":7025,"transit":false,"line":0,"station_name":"Cilejit"}],[{"is_transit":false,"line":2,"transit":false,"station_name":"Manggabesar","time":0,"station_id":"MGB","i_lat":-6.149769,"distance":0,"i_long":106.82482},{"distance":1080,"station_id":"JAY","station_name":"Jayakarta","i_lat":-6.141205,"line":7,"i_long":106.820901,"time":2,"is_transit":false,"transit":false},{"time":4,"i_long":106.812439,"line":0,"distance":1264,"transit":true,"station_name":"Jakarta Kota","station_id":"JAKK","i_lat":-6.137569,"is_transit":true},{"is_transit":true,"distance":1364,"i_lat":-6.132549,"station_name":"Kampung Bandan","i_long":106.826365,"transit":true,"station_id":"KPB","line":0,"time":3},{"time":3,"i_lat":-6.14505,"transit":false,"station_id":"RJW","i_long":106.836569,"is_transit":false,"line":11,"distance":1444,"station_name":"Rajawali"},{"transit":false,"time":5,"distance":1901,"i_long":106.839204,"is_transit":false,"line":11,"i_lat":-6.161728,"station_name":"Kemayoran","station_id":"KMO"},{"station_id":"PSE","transit":false,"line":11,"time":4,"i_long":106.84368,"is_transit":false,"i_lat":-6.174784,"distance":1436,"station_name":"Pasar Senen"},{"time":8,"i_lat":-6.185975,"line":11,"distance":1567,"station_id":"GST","i_long":106.850107,"station_name":"Gang Sentiong","is_transit":false,"transit":false},{"i_long":106.855437,"is_transit":false,"time":1,"i_lat":-6.193792,"transit":false,"distance":973,"station_name":"Kramat","line":11,"station_id":"KMT"},{"i_lat":-6.209188,"transit":false,"line":11,"time":2,"distance":1829,"station_id":"POK","station_name":"Pondok Jati","i_long":106.861737,"is_transit":false},{"distance":1236,"time":9,"i_lat":-6.215091,"station_name":"Jatinegara","station_id":"JNG","i_long":106.86807400000001,"line":0,"is_transit":true,"transit":true},{"distance":1377,"i_long":106.858896,"time":2,"is_transit":false,"station_name":"Matraman","transit":false,"i_lat":-6.212485,"line":1,"station_id":"MTR"},{"is_transit":true,"station_name":"Manggarai","line":0,"time":2,"transit":false,"distance":1275,"station_id":"MRI","i_lat":-6.209883,"i_long":106.84912},{"i_lat":-6.202263,"station_id":"SUD","is_transit":false,"station_name":"Sudirman","line":1,"distance":3186,"time":4,"i_long":106.822649,"transit":false},{"is_transit":false,"time":1,"transit":false,"line":1,"station_id":"SUDB","station_name":"Sudirman Baru","i_lat":-6.201433,"distance":280,"i_long":106.819881},{"i_lat":-6.20132,"distance":471,"station_name":"Karet","time":1,"line":1,"is_transit":false,"i_long":106.816351,"station_id":"KAT","transit":false},{"i_long":106.811091,"time":5,"i_lat":-6.185545,"transit":true,"line":1,"is_transit":true,"station_id":"THB","distance":2029,"station_name":"Tanah Abang"},{"line":6,"time":6,"station_id":"PLM","distance":3191,"transit":false,"station_name":"Palmerah","is_transit":false,"i_lat":-6.207404,"i_long":106.79689},{"distance":3737,"station_id":"KBY","transit":false,"i_lat":-6.237242,"is_transit":false,"time":7,"line":6,"station_name":"Kebayoran","i_long":106.780334},{"station_name":"Pondokranji","i_lat":-6.276362,"distance":6218,"line":6,"is_transit":false,"transit":false,"station_id":"PDJ","time":8,"i_long":106.74273},{"time":3,"i_lat":-6.288927,"is_transit":false,"line":6,"distance":2179,"station_id":"JMU","i_long":106.728916,"transit":false,"station_name":"Jurangmangu"},{"line":6,"i_lat":-6.296963,"is_transit":false,"time":4,"transit":false,"station_name":"Sudimara","distance":1994,"station_id":"SDM","i_long":106.712277},{"is_transit":false,"distance":4566,"transit":false,"station_id":"RU","time":6,"i_long":106.675475,"station_name":"Rawa Buntu","line":6,"i_lat":-6.314823},{"transit":false,"time":4,"i_lat":-6.319871,"station_name":"Serpong","i_long":106.66566,"station_id":"SRP","line":6,"distance":2413,"is_transit":false},{"line":0,"station_id":"CSK","distance":1784,"time":4,"is_transit":false,"transit":false,"station_name":"Cisauk","i_lat":-6.32484,"i_long":106.640411},{"is_transit":false,"distance":2519,"time":4,"i_long":106.617853,"i_lat":-6.329547,"transit":false,"line":0,"station_id":"CC","station_name":"Cicayur"},{"station_id":"PRP","distance":5968,"line":6,"station_name":"Parung Panjang","transit":false,"i_lat":-6.3441410000000005,"i_long":106.568863,"time":8,"is_transit":false},{"distance":7025,"is_transit":false,"transit":false,"time":9,"station_id":"CJT","i_long":106.508482,"line":0,"station_name":"Cilejit","i_lat":-6.354349}],[{"time":0,"i_long":106.82482,"is_transit":false,"line":2,"i_lat":-6.149769,"distance":0,"station_name":"Manggabesar","station_id":"MGB","transit":false},{"transit":false,"station_id":"SW","line":2,"distance":906,"station_name":"Sawah Besar","i_long":106.827103,"i_lat":-6.160725,"is_transit":false,"time":2},{"time":2,"station_id":"JUA","transit":false,"i_lat":-6.166716,"distance":1149,"station_name":"Juanda","is_transit":false,"i_long":106.828284,"line":2},{"i_lat":-6.186295,"distance":2015,"station_name":"Gondangdia","transit":false,"i_long":106.832183,"station_id":"GDD","is_transit":false,"line":2,"time":4},{"station_name":"Cikini","time":3,"station_id":"CKI","transit":false,"i_lat":-6.198556,"i_long":106.840169,"distance":1750,"is_transit":false,"line":0},{"time":4,"distance":1590,"transit":true,"station_id":"MRI","is_transit":true,"station_name":"Manggarai","i_long":106.84912,"line":0,"i_lat":-6.209883},{"is_transit":false,"time":2,"station_name":"Matraman","i_lat":-6.212485,"line":1,"i_long":106.858896,"transit":false,"distance":1275,"station_id":"MTR"},{"station_name":"Jatinegara","station_id":"JNG","i_lat":-6.215091,"line":0,"transit":true,"i_long":106.86807400000001,"time":8,"is_transit":true,"distance":1377},{"i_lat":-6.209188,"is_transit":false,"i_long":106.861737,"distance":1236,"station_id":"POK","line":11,"transit":false,"station_name":"Pondok Jati","time":2},{"time":2,"line":11,"i_lat":-6.193792,"station_id":"KMT","station_name":"Kramat","i_long":106.855437,"is_transit":false,"transit":false,"distance":1829},{"line":11,"is_transit":false,"time":1,"distance":973,"transit":false,"station_name":"Gang Sentiong","station_id":"GST","i_lat":-6.185975,"i_long":106.850107},{"i_long":106.84368,"line":11,"time":8,"station_id":"PSE","station_name":"Pasar Senen","i_lat":-6.174784,"transit":false,"is_transit":false,"distance":1567},{"i_long":106.839204,"station_id":"KMO","station_name":"Kemayoran","i_lat":-6.161728,"transit":false,"is_transit":false,"time":4,"distance":1436,"line":11},{"time":5,"i_lat":-6.14505,"i_long":106.836569,"distance":1901,"line":11,"is_transit":false,"station_id":"RJW","transit":false,"station_name":"Rajawali"},{"station_id":"KPB","i_long":106.826365,"line":0,"distance":1444,"station_name":"Kampung Bandan","i_lat":-6.132549,"is_transit":true,"transit":true,"time":3},{"transit":false,"distance":4102,"station_name":"Angke","line":0,"is_transit":false,"time":9,"station_id":"AK","i_lat":-6.144674,"i_long":106.79867},{"i_long":106.800832,"is_transit":true,"transit":true,"station_name":"Duri","time":4,"station_id":"DU","distance":1230,"line":1,"i_lat":-6.155215},{"i_long":106.811091,"transit":true,"i_lat":-6.185545,"station_name":"Tanah Abang","is_transit":true,"station_id":"THB","line":1,"time":8,"distance":3632},{"distance":3191,"i_lat":-6.207404,"i_long":106.79689,"is_transit":false,"line":6,"station_id":"PLM","station_name":"Palmerah","time":6,"transit":false},{"is_transit":false,"i_lat":-6.237242,"transit":false,"station_name":"Kebayoran","time":7,"distance":3737,"i_long":106.780334,"station_id":"KBY","line":6},{"transit":false,"station_name":"Pondokranji","i_long":106.74273,"is_transit":false,"line":6,"distance":6218,"time":8,"i_lat":-6.276362,"station_id":"PDJ"},{"is_transit":false,"transit":false,"time":3,"distance":2179,"station_name":"Jurangmangu","line":6,"station_id":"JMU","i_lat":-6.288927,"i_long":106.728916},{"transit":false,"time":4,"i_long":106.712277,"is_transit":false,"distance":1994,"station_id":"SDM","station_name":"Sudimara","i_lat":-6.296963,"line":6},{"line":6,"i_long":106.675475,"is_transit":false,"transit":false,"time":6,"station_id":"RU","i_lat":-6.314823,"distance":4566,"station_name":"Rawa Buntu"},{"i_lat":-6.319871,"distance":2413,"station_name":"Serpong","line":6,"time":4,"is_transit":false,"i_long":106.66566,"transit":false,"station_id":"SRP"},{"line":0,"i_lat":-6.32484,"station_name":"Cisauk","time":4,"is_transit":false,"distance":1784,"station_id":"CSK","transit":false,"i_long":106.640411},{"station_id":"CC","line":0,"transit":false,"station_name":"Cicayur","is_transit":false,"i_lat":-6.329547,"distance":2519,"i_long":106.617853,"time":4},{"transit":false,"i_lat":-6.3441410000000005,"station_id":"PRP","i_long":106.568863,"is_transit":false,"distance":5968,"station_name":"Parung Panjang","time":8,"line":6},{"transit":false,"distance":7025,"station_name":"Cilejit","time":9,"station_id":"CJT","is_transit":false,"i_long":106.508482,"line":0,"i_lat":-6.354349}]]}