{"data":[[{"is_transit":false,"station_id":"MGB","i_lat":-6.149769,"distance":0,"station_name":"Manggabesar","transit":false,"time":0,"line":2,"i_long":106.82482},{"transit":false,"station_name":"Sawah Besar","is_transit":false,"station_id":"SW","distance":906,"i_lat":-6.160725,"i_long":106.827103,"line":2,"time":2},{"i_long":106.828284,"is_transit":false,"station_id":"JUA","distance":1149,"i_lat":-6.166716,"line":2,"station_name":"Juanda","transit":false,"time":2},{"transit":false,"is_transit":false,"i_lat":-6.186295,"line":2,"station_name":"Gondangdia","station_id":"GDD","distance":2015,"time":4,"i_long":106.832183},{"is_transit":false,"i_long":106.840169,"line":2,"i_lat":-6.198556,"transit":false,"station_id":"CKI","station_name":"Cikini","time":3,"distance":1750},{"time":4,"i_lat":-6.209883,"station_name":"Manggarai","is_transit":true,"station_id":"MRI","line":2,"i_long":106.84912,"transit":true,"distance":1590},{"station_id":"MTR","station_name":"Matraman","line":1,"transit":false,"i_lat":-6.212485,"i_long":106.858896,"is_transit":false,"distance":1275,"time":2},{"station_name":"Jatinegara","is_transit":false,"i_lat":-6.215091,"time":8,"distance":1377,"transit":false,"i_long":106.86807400000001,"line":1,"station_id":"JNG"},{"station_name":"Klender","time":3,"i_long":106.899548,"is_transit":false,"line":1,"station_id":"KLD","distance":3395,"i_lat":-6.2135,"transit":false},{"distance":3100,"is_transit":false,"transit":false,"station_name":"Buaran","i_long":106.922662,"station_id":"BUA","line":1,"i_lat":-6.215568,"time":2},{"station_id":"KLDB","i_long":106.939679,"station_name":"Klenderbaru","transit":false,"i_lat":-6.217455,"time":1,"line":1,"is_transit":false,"distance":1305},{"station_id":"CUK","i_long":106.951283,"transit":false,"line":1,"is_transit":false,"station_name":"Cakung","time":8,"distance":1385,"i_lat":-6.219053}],[{"is_transit":false,"i_long":106.82482,"transit":false,"time":0,"station_id":"MGB","line":2,"distance":0,"i_lat":-6.149769,"station_name":"Manggabesar"},{"is_transit":false,"line":2,"i_lat":-6.141205,"i_long":106.820901,"station_name":"Jayakarta","time":2,"transit":false,"distance":1080,"station_id":"JAY"},{"line":2,"transit":true,"is_transit":true,"distance":1264,"station_name":"Jakarta Kota","time":4,"i_long":106.812439,"i_lat":-6.137569,"station_id":"JAKK"},{"line":4,"distance":1364,"station_name":"Kampung Bandan","i_lat":-6.132549,"station_id":"KPB","transit":true,"is_transit":true,"time":3,"i_long":106.826365},{"i_long":106.836569,"is_transit":false,"distance":1444,"line":11,"transit":false,"i_lat":-6.14505,"time":3,"station_id":"RJW","station_name":"Rajawali"},{"i_lat":-6.161728,"i_long":106.839204,"line":11,"transit":false,"distance":1901,"station_name":"Kemayoran","is_transit":false,"time":5,"station_id":"KMO"},{"distance":1436,"transit":false,"station_name":"Pasar Senen","i_long":106.84368,"line":11,"is_transit":false,"time":4,"station_id":"PSE","i_lat":-6.174784},{"station_id":"GST","i_lat":-6.185975,"time":8,"i_long":106.850107,"line":11,"transit":false,"station_name":"Gang Sentiong","distance":1567,"is_transit":false},{"distance":973,"i_lat":-6.193792,"station_id":"KMT","i_long":106.855437,"line":11,"station_name":"Kramat","transit":false,"is_transit":false,"time":1},{"station_id":"POK","distance":1829,"line":11,"is_transit":false,"i_lat":-6.209188,"i_long":106.861737,"time":2,"station_name":"Pondok Jati","transit":false},{"station_id":"JNG","line":1,"is_transit":true,"distance":1236,"i_long":106.86807400000001,"i_lat":-6.215091,"transit":true,"station_name":"Jatinegara","time":9},{"station_name":"Klender","i_lat":-6.2135,"line":1,"transit":false,"is_transit":false,"distance":3395,"time":3,"i_long":106.899548,"station_id":"KLD"},{"station_id":"BUA","i_long":106.922662,"i_lat":-6.215568,"line":1,"distance":3100,"transit":false,"station_name":"Buaran","is_transit":false,"time":2},{"i_long":106.939679,"distance":1305,"station_name":"Klenderbaru","transit":false,"station_id":"KLDB","i_lat":-6.217455,"is_transit":false,"line":1,"time":1},{"is_transit":false,"i_long":106.951283,"transit":false,"station_name":"Cakung","time":8,"i_lat":-6.219053,"distance":1385,"station_id":"CUK","line":1}],[{"distance":0,"time":0,"i_lat":-6.149769,"line":2,"station_name":"Manggabesar","is_transit":false,"station_id":"MGB","i_long":106.82482,"transit":false},{"station_id":"JAY","transit":false,"time":2,"station_name":"Jayakarta","i_lat":-6.141205,"is_transit":false,"distance":1080,"line":2,"i_long":106.820901},{"i_lat":-6.137569,"i_long":106.812439,"distance":1264,"station_name":"Jakarta Kota","station_id":"JAKK","is_transit":true,"time":4,"line":2,"transit":true},{"station_name":"Kampung Bandan","distance":1364,"station_id":"KPB","line":4,"transit":true,"is_transit":true,"time":3,"i_lat":-6.132549,"i_long":106.826365},{"station_id":"AK","station_name":"Angke","i_lat":-6.144674,"transit":false,"is_transit":false,"distance":4102,"time":9,"i_long":106.79867,"line":1},{"is_transit":false,"station_id":"DU","station_name":"Duri","i_long":106.800832,"transit":false,"distance":1230,"time":4,"i_lat":-6.155215,"line":1},{"distance":3632,"time":8,"station_name":"Tanah Abang","transit":false,"i_lat":-6.185545,"is_transit":false,"i_long":106.811091,"line":1,"station_id":"THB"},{"transit":false,"time":5,"station_id":"KAT","i_lat":-6.20132,"distance":2029,"is_transit":false,"line":1,"i_long":106.816351,"station_name":"Karet"},{"i_long":106.819881,"distance":471,"station_id":"SUDB","line":1,"i_lat":-6.201433,"transit":false,"is_transit":false,"station_name":"Sudirman Baru","time":1},{"line":1,"is_transit":false,"station_name":"Sudirman","time":1,"i_lat":-6.202263,"i_long":106.822649,"station_id":"SUD","transit":false,"distance":280},{"line":2,"is_transit":false,"i_lat":-6.209883,"i_long":106.84912,"distance":3186,"station_id":"MRI","station_name":"Manggarai","transit":false,"time":4},{"station_name":"Matraman","line":1,"distance":1275,"transit":false,"i_lat":-6.212485,"station_id":"MTR","is_transit":false,"i_long":106.858896,"time":2},{"station_name":"Jatinegara","line":1,"i_long":106.86807400000001,"distance":1377,"i_lat":-6.215091,"station_id":"JNG","transit":false,"time":8,"is_transit":false},{"transit":false,"station_id":"KLD","line":1,"i_long":106.899548,"distance":3395,"station_name":"Klender","i_lat":-6.2135,"time":3,"is_transit":false},{"transit":false,"distance":3100,"time":2,"station_name":"Buaran","i_lat":-6.215568,"i_long":106.922662,"line":1,"is_transit":false,"station_id":"BUA"},{"distance":1305,"is_transit":false,"i_long":106.939679,"line":1,"station_id":"KLDB","station_name":"Klenderbaru","time":1,"i_lat":-6.217455,"transit":false},{"station_id":"CUK","i_lat":-6.219053,"is_transit":false,"transit":false,"i_long":106.951283,"distance":1385,"line":1,"station_name":"Cakung","time":8}],[{"i_long":106.82482,"transit":false,"station_name":"Manggabesar","is_transit":false,"time":0,"station_id":"MGB","i_lat":-6.149769,"distance":0,"line":2},{"station_id":"SW","distance":906,"i_long":106.827103,"transit":false,"i_lat":-6.160725,"is_transit":false,"line":2,"station_name":"Sawah Besar","time":2},{"transit":false,"is_transit":false,"line":2,"distance":1149,"station_name":"Juanda","time":2,"i_lat":-6.166716,"station_id":"JUA","i_long":106.828284},{"i_long":106.832183,"station_name":"Gondangdia","transit":false,"is_transit":false,"station_id":"GDD","i_lat":-6.186295,"time":4,"distance":2015,"line":2},{"line":2,"time":3,"transit":false,"i_long":106.840169,"station_name":"Cikini","distance":1750,"is_transit":false,"i_lat":-6.198556,"station_id":"CKI"},{"station_id":"MRI","station_name":"Manggarai","i_lat":-6.209883,"transit":true,"is_transit":true,"time":4,"i_long":106.84912,"line":2,"distance":1590},{"i_lat":-6.202263,"i_long":106.822649,"line":1,"time":4,"station_id":"SUD","station_name":"Sudirman","distance":3186,"transit":false,"is_transit":false},{"transit":false,"i_long":106.819881,"is_transit":false,"distance":280,"station_name":"Sudirman Baru","line":1,"i_lat":-6.201433,"time":1,"station_id":"SUDB"},{"i_lat":-6.20132,"distance":471,"is_transit":false,"station_id":"KAT","line":1,"station_name":"Karet","time":1,"i_long":106.816351,"transit":false},{"i_long":106.811091,"transit":false,"station_name":"Tanah Abang","line":1,"station_id":"THB","i_lat":-6.185545,"time":5,"distance":2029,"is_transit":false},{"transit":false,"i_long":106.800832,"time":8,"distance":3632,"station_name":"Duri","i_lat":-6.155215,"station_id":"DU","is_transit":false,"line":1},{"station_name":"Angke","line":1,"time":4,"distance":1230,"i_lat":-6.144674,"i_long":106.79867,"transit":false,"station_id":"AK","is_transit":false},{"station_name":"Kampung Bandan","distance":4102,"i_lat":-6.132549,"i_long":106.826365,"line":4,"station_id":"KPB","is_transit":true,"time":9,"transit":true},{"i_long":106.836569,"line":11,"is_transit":false,"station_name":"Rajawali","time":3,"i_lat":-6.14505,"transit":false,"distance":1444,"station_id":"RJW"},{"station_name":"Kemayoran","is_transit":false,"distance":1901,"transit":false,"station_id":"KMO","line":11,"i_lat":-6.161728,"time":5,"i_long":106.839204},{"station_name":"Pasar Senen","distance":1436,"i_long":106.84368,"time":4,"transit":false,"i_lat":-6.174784,"station_id":"PSE","is_transit":false,"line":11},{"distance":1567,"line":11,"station_id":"GST","i_lat":-6.185975,"time":8,"transit":false,"station_name":"Gang Sentiong","is_transit":false,"i_long":106.850107},{"transit":false,"time":1,"i_long":106.855437,"i_lat":-6.193792,"station_id":"KMT","line":11,"is_transit":false,"station_name":"Kramat","distance":973},{"distance":1829,"i_lat":-6.209188,"transit":false,"is_transit":false,"i_long":106.861737,"time":2,"line":11,"station_id":"POK","station_name":"Pondok Jati"},{"transit":true,"i_long":106.86807400000001,"line":1,"station_name":"Jatinegara","time":9,"is_transit":true,"distance":1236,"station_id":"JNG","i_lat":-6.215091},{"station_id":"KLD","station_name":"Klender","is_transit":false,"i_lat":-6.2135,"i_long":106.899548,"line":1,"distance":3395,"transit":false,"time":3},{"i_long":106.922662,"time":2,"station_id":"BUA","distance":3100,"line":1,"transit":false,"station_name":"Buaran","i_lat":-6.215568,"is_transit":false},{"i_lat":-6.217455,"station_id":"KLDB","is_transit":false,"transit":false,"time":1,"station_name":"Klenderbaru","distance":1305,"i_long":106.939679,"line":1},{"station_id":"CUK","i_lat":-6.219053,"transit":false,"i_long":106.951283,"time":8,"distance":1385,"station_name":"Cakung","line":1,"is_transit":false}]]}