{"data":[[{"transit":false,"line":2,"station_id":"MGB","time":0,"distance":0,"is_transit":false,"i_lat":-6.149769,"i_long":106.82482,"station_name":"Manggabesar"},{"distance":1080,"station_id":"JAY","station_name":"Jayakarta","time":2,"transit":false,"is_transit":false,"i_long":106.820901,"line":7,"i_lat":-6.141205},{"i_long":106.812439,"distance":1264,"time":4,"line":0,"is_transit":true,"transit":true,"station_id":"JAKK","i_lat":-6.137569,"station_name":"Jakarta Kota"},{"line":0,"i_long":106.826365,"transit":false,"time":3,"distance":1364,"i_lat":-6.132549,"is_transit":true,"station_name":"Kampung Bandan","station_id":"KPB"},{"time":9,"line":0,"distance":4102,"i_lat":-6.144674,"station_id":"AK","is_transit":false,"i_long":106.79867,"transit":false,"station_name":"Angke"},{"time":4,"i_long":106.800832,"line":1,"is_transit":true,"station_name":"Duri","distance":1230,"transit":true,"station_id":"DU","i_lat":-6.155215},{"is_transit":true,"i_lat":-6.185545,"line":1,"i_long":106.811091,"transit":true,"station_id":"THB","station_name":"Tanah Abang","distance":3632,"time":8},{"i_lat":-6.207404,"station_name":"Palmerah","distance":3191,"station_id":"PLM","is_transit":false,"time":6,"transit":false,"i_long":106.79689,"line":6},{"i_lat":-6.237242,"is_transit":false,"transit":false,"station_id":"KBY","line":6,"time":7,"station_name":"Kebayoran","distance":3737,"i_long":106.780334},{"time":8,"transit":false,"i_long":106.74273,"is_transit":false,"station_id":"PDJ","line":6,"distance":6218,"i_lat":-6.276362,"station_name":"Pondokranji"},{"time":3,"distance":2179,"line":6,"is_transit":false,"station_name":"Jurangmangu","station_id":"JMU","i_long":106.728916,"i_lat":-6.288927,"transit":false},{"line":6,"distance":1994,"i_long":106.712277,"is_transit":false,"i_lat":-6.296963,"transit":false,"station_id":"SDM","time":4,"station_name":"Sudimara"},{"line":6,"is_transit":false,"station_name":"Rawa Buntu","time":6,"station_id":"RU","transit":false,"i_lat":-6.314823,"i_long":106.675475,"distance":4566},{"is_transit":false,"time":4,"distance":2413,"i_lat":-6.319871,"i_long":106.66566,"line":6,"transit":false,"station_name":"Serpong","station_id":"SRP"},{"time":4,"station_id":"CSK","transit":false,"i_long":106.640411,"station_name":"Cisauk","is_transit":false,"line":0,"distance":1784,"i_lat":-6.32484},{"i_long":106.617853,"station_id":"CC","line":0,"station_name":"Cicayur","is_transit":false,"time":4,"distance":2519,"i_lat":-6.329547,"transit":false},{"station_id":"PRP","line":6,"transit":false,"time":8,"is_transit":false,"i_lat":-6.3441410000000005,"station_name":"Parung Panjang","i_long":106.568863,"distance":5968},{"station_name":"Cilejit","station_id":"CJT","line":0,"is_transit":false,"transit":false,"time":9,"distance":7025,"i_lat":-6.354349,"i_long":106.508482},{"is_transit":false,"transit":false,"station_name":"Daru","i_lat":-6.338021,"i_long":106.491338,"line":0,"distance":2675,"time":6,"station_id":"DAR"},{"line":6,"i_lat":-6.327251,"transit":false,"is_transit":false,"time":5,"distance":3902,"station_id":"TEJ","i_long":106.460812,"station_name":"Tenjo"},{"transit":false,"line":6,"station_id":"TGS","i_lat":-6.328533,"is_transit":false,"time":5,"station_name":"Tigaraksa","distance":2974,"i_long":106.425991},{"transit":false,"i_long":106.411216,"distance":2651,"time":3,"station_name":"Cikoya","is_transit":false,"station_id":"CKY","i_lat":-6.33561,"line":0},{"transit":false,"station_id":"MJ","i_long":106.394373,"is_transit":false,"i_lat":-6.332307,"time":4,"line":6,"distance":1853,"station_name":"Maja"},{"time":10,"station_id":"CTR","station_name":"Citeras","i_lat":-6.334892,"line":0,"is_transit":false,"distance":7293,"i_long":106.332092,"transit":false}],[{"time":0,"line":2,"is_transit":false,"distance":0,"i_lat":-6.149769,"i_long":106.82482,"station_name":"Manggabesar","transit":false,"station_id":"MGB"},{"line":2,"distance":906,"is_transit":false,"station_name":"Sawah Besar","station_id":"SW","i_long":106.827103,"i_lat":-6.160725,"time":2,"transit":false},{"station_id":"JUA","line":2,"is_transit":false,"distance":1149,"i_lat":-6.166716,"i_long":106.828284,"transit":false,"time":2,"station_name":"Juanda"},{"line":2,"i_long":106.832183,"transit":false,"station_name":"Gondangdia","station_id":"GDD","is_transit":false,"time":4,"i_lat":-6.186295,"distance":2015},{"transit":false,"i_long":106.840169,"is_transit":false,"line":0,"station_name":"Cikini","time":3,"distance":1750,"i_lat":-6.198556,"station_id":"CKI"},{"station_id":"MRI","transit":true,"i_long":106.84912,"is_transit":true,"line":0,"i_lat":-6.209883,"time":4,"station_name":"Manggarai","distance":1590},{"distance":3186,"station_name":"Sudirman","line":1,"i_lat":-6.202263,"transit":false,"i_long":106.822649,"is_transit":false,"time":4,"station_id":"SUD"},{"time":1,"is_transit":false,"distance":280,"i_long":106.819881,"line":1,"station_name":"Sudirman Baru","transit":false,"i_lat":-6.201433,"station_id":"SUDB"},{"i_lat":-6.20132,"station_name":"Karet","i_long":106.816351,"time":1,"is_transit":false,"distance":471,"line":1,"transit":false,"station_id":"KAT"},{"i_long":106.811091,"transit":true,"line":1,"is_transit":true,"i_lat":-6.185545,"distance":2029,"time":5,"station_name":"Tanah Abang","station_id":"THB"},{"i_lat":-6.207404,"is_transit":false,"time":6,"distance":3191,"station_name":"Palmerah","transit":false,"i_long":106.79689,"station_id":"PLM","line":6},{"is_transit":false,"i_long":106.780334,"station_name":"Kebayoran","i_lat":-6.237242,"line":6,"time":7,"station_id":"KBY","transit":false,"distance":3737},{"station_name":"Pondokranji","station_id":"PDJ","time":8,"distance":6218,"line":6,"is_transit":false,"transit":false,"i_lat":-6.276362,"i_long":106.74273},{"distance":2179,"station_name":"Jurangmangu","transit":false,"time":3,"station_id":"JMU","i_long":106.728916,"is_transit":false,"line":6,"i_lat":-6.288927},{"transit":false,"distance":1994,"time":4,"station_id":"SDM","station_name":"Sudimara","line":6,"is_transit":false,"i_lat":-6.296963,"i_long":106.712277},{"distance":4566,"i_lat":-6.314823,"station_id":"RU","time":6,"line":6,"transit":false,"station_name":"Rawa Buntu","is_transit":false,"i_long":106.675475},{"station_id":"SRP","station_name":"Serpong","time":4,"i_lat":-6.319871,"is_transit":false,"i_long":106.66566,"transit":false,"line":6,"distance":2413},{"transit":false,"station_name":"Cisauk","station_id":"CSK","i_lat":-6.32484,"distance":1784,"is_transit":false,"time":4,"i_long":106.640411,"line":0},{"station_name":"Cicayur","i_lat":-6.329547,"transit":false,"line":0,"distance":2519,"station_id":"CC","is_transit":false,"time":4,"i_long":106.617853},{"i_long":106.568863,"station_id":"PRP","transit":false,"is_transit":false,"station_name":"Parung Panjang","distance":5968,"i_lat":-6.3441410000000005,"line":6,"time":8},{"is_transit":false,"line":0,"distance":7025,"time":9,"i_lat":-6.354349,"station_id":"CJT","i_long":106.508482,"transit":false,"station_name":"Cilejit"},{"line":0,"time":6,"transit":false,"i_lat":-6.338021,"station_name":"Daru","i_long":106.491338,"is_transit":false,"station_id":"DAR","distance":2675},{"station_id":"TEJ","station_name":"Tenjo","transit":false,"is_transit":false,"time":5,"i_long":106.460812,"i_lat":-6.327251,"line":6,"distance":3902},{"i_lat":-6.328533,"transit":false,"station_id":"TGS","time":5,"i_long":106.425991,"distance":2974,"line":6,"station_name":"Tigaraksa","is_transit":false},{"line":0,"i_lat":-6.33561,"transit":false,"is_transit":false,"station_name":"Cikoya","station_id":"CKY","i_long":106.411216,"time":3,"distance":2651},{"i_lat":-6.332307,"i_long":106.394373,"station_id":"MJ","line":6,"station_name":"Maja","time":4,"transit":false,"is_transit":false,"distance":1853},{"i_long":106.332092,"is_transit":false,"line":0,"transit":false,"station_name":"Citeras","time":10,"distance":7293,"i_lat":-6.334892,"station_id":"CTR"}],[{"time":0,"i_long":106.82482,"i_lat":-6.149769,"distance":0,"line":2,"is_transit":false,"transit":false,"station_id":"MGB","station_name":"Manggabesar"},{"station_name":"Jayakarta","distance":1080,"i_lat":-6.141205,"is_transit":false,"line":7,"time":2,"transit":false,"station_id":"JAY","i_long":106.820901},{"is_transit":true,"transit":true,"station_id":"JAKK","time":4,"station_name":"Jakarta Kota","distance":1264,"i_lat":-6.137569,"i_long":106.812439,"line":0},{"i_lat":-6.132549,"time":3,"transit":true,"distance":1364,"line":0,"is_transit":true,"station_name":"Kampung Bandan","i_long":106.826365,"station_id":"KPB"},{"is_transit":false,"i_lat":-6.14505,"line":11,"distance":1444,"station_id":"RJW","i_long":106.836569,"time":3,"station_name":"Rajawali","transit":false},{"distance":1901,"transit":false,"is_transit":false,"station_id":"KMO","i_long":106.839204,"station_name":"Kemayoran","i_lat":-6.161728,"time":5,"line":11},{"station_name":"Pasar Senen","station_id":"PSE","i_lat":-6.174784,"is_transit":false,"line":11,"i_long":106.84368,"transit":false,"time":4,"distance":1436},{"i_long":106.850107,"station_name":"Gang Sentiong","i_lat":-6.185975,"is_transit":false,"time":8,"line":11,"distance":1567,"station_id":"GST","transit":false},{"is_transit":false,"transit":false,"station_name":"Kramat","time":1,"station_id":"KMT","i_lat":-6.193792,"i_long":106.855437,"distance":973,"line":11},{"is_transit":false,"station_id":"POK","station_name":"Pondok Jati","time":2,"distance":1829,"i_lat":-6.209188,"transit":false,"i_long":106.861737,"line":11},{"i_lat":-6.215091,"distance":1236,"i_long":106.86807400000001,"transit":true,"is_transit":true,"station_name":"Jatinegara","station_id":"JNG","time":9,"line":0},{"transit":false,"i_long":106.858896,"i_lat":-6.212485,"line":1,"distance":1377,"time":2,"station_id":"MTR","is_transit":false,"station_name":"Matraman"},{"transit":false,"station_id":"MRI","distance":1275,"i_lat":-6.209883,"station_name":"Manggarai","is_transit":true,"time":2,"i_long":106.84912,"line":0},{"i_lat":-6.202263,"station_name":"Sudirman","time":4,"distance":3186,"is_transit":false,"transit":false,"i_long":106.822649,"station_id":"SUD","line":1},{"station_id":"SUDB","is_transit":false,"time":1,"transit":false,"i_lat":-6.201433,"line":1,"distance":280,"i_long":106.819881,"station_name":"Sudirman Baru"},{"distance":471,"station_name":"Karet","i_lat":-6.20132,"time":1,"line":1,"transit":false,"is_transit":false,"station_id":"KAT","i_long":106.816351},{"line":1,"station_name":"Tanah Abang","distance":2029,"station_id":"THB","i_lat":-6.185545,"time":5,"transit":true,"is_transit":true,"i_long":106.811091},{"line":6,"time":6,"distance":3191,"i_long":106.79689,"is_transit":false,"station_name":"Palmerah","station_id":"PLM","i_lat":-6.207404,"transit":false},{"i_lat":-6.237242,"station_name":"Kebayoran","time":7,"distance":3737,"is_transit":false,"i_long":106.780334,"station_id":"KBY","transit":false,"line":6},{"distance":6218,"station_id":"PDJ","i_lat":-6.276362,"time":8,"i_long":106.74273,"line":6,"station_name":"Pondokranji","transit":false,"is_transit":false},{"i_lat":-6.288927,"i_long":106.728916,"distance":2179,"transit":false,"line":6,"station_name":"Jurangmangu","is_transit":false,"time":3,"station_id":"JMU"},{"distance":1994,"transit":false,"i_long":106.712277,"line":6,"station_id":"SDM","time":4,"station_name":"Sudimara","i_lat":-6.296963,"is_transit":false},{"line":6,"i_long":106.675475,"distance":4566,"station_id":"RU","i_lat":-6.314823,"is_transit":false,"time":6,"station_name":"Rawa Buntu","transit":false},{"station_name":"Serpong","is_transit":false,"i_lat":-6.319871,"i_long":106.66566,"transit":false,"line":6,"time":4,"distance":2413,"station_id":"SRP"},{"station_id":"CSK","line":0,"station_name":"Cisauk","transit":false,"time":4,"i_lat":-6.32484,"is_transit":false,"distance":1784,"i_long":106.640411},{"time":4,"station_id":"CC","i_lat":-6.329547,"line":0,"transit":false,"is_transit":false,"i_long":106.617853,"distance":2519,"station_name":"Cicayur"},{"station_name":"Parung Panjang","is_transit":false,"transit":false,"i_long":106.568863,"i_lat":-6.3441410000000005,"time":8,"distance":5968,"station_id":"PRP","line":6},{"is_transit":false,"line":0,"time":9,"distance":7025,"station_id":"CJT","i_long":106.508482,"transit":false,"i_lat":-6.354349,"station_name":"Cilejit"},{"i_long":106.491338,"distance":2675,"i_lat":-6.338021,"time":6,"line":0,"is_transit":false,"station_id":"DAR","station_name":"Daru","transit":false},{"distance":3902,"is_transit":false,"station_name":"Tenjo","station_id":"TEJ","i_lat":-6.327251,"line":6,"time":5,"i_long":106.460812,"transit":false},{"i_lat":-6.328533,"i_long":106.425991,"distance":2974,"is_transit":false,"station_name":"Tigaraksa","time":5,"station_id":"TGS","line":6,"transit":false},{"station_name":"Cikoya","station_id":"CKY","i_lat":-6.33561,"transit":false,"i_long":106.411216,"distance":2651,"is_transit":false,"time":3,"line":0},{"time":4,"station_name":"Maja","is_transit":false,"station_id":"MJ","i_long":106.394373,"transit":false,"line":6,"distance":1853,"i_lat":-6.332307},{"distance":7293,"time":10,"station_id":"CTR","i_lat":-6.334892,"is_transit":false,"i_long":106.332092,"transit":false,"line":0,"station_name":"Citeras"}],[{"is_transit":false,"station_id":"MGB","transit":false,"i_lat":-6.149769,"line":2,"station_name":"Manggabesar","time":0,"distance":0,"i_long":106.82482},{"time":2,"transit":false,"i_long":106.827103,"is_transit":false,"station_name":"Sawah Besar","distance":906,"station_id":"SW","line":2,"i_lat":-6.160725},{"i_lat":-6.166716,"station_name":"Juanda","station_id":"JUA","line":2,"time":2,"distance":1149,"i_long":106.828284,"is_transit":false,"transit":false},{"i_lat":-6.186295,"i_long":106.832183,"line":2,"station_id":"GDD","is_transit":false,"transit":false,"time":4,"station_name":"Gondangdia","distance":2015},{"i_lat":-6.198556,"i_long":106.840169,"station_id":"CKI","line":0,"time":3,"transit":false,"distance":1750,"station_name":"Cikini","is_transit":false},{"distance":1590,"line":0,"transit":true,"i_long":106.84912,"is_transit":true,"time":4,"i_lat":-6.209883,"station_name":"Manggarai","station_id":"MRI"},{"line":1,"transit":false,"distance":1275,"i_lat":-6.212485,"time":2,"station_id":"MTR","i_long":106.858896,"is_transit":false,"station_name":"Matraman"},{"station_id":"JNG","is_transit":true,"distance":1377,"i_lat":-6.215091,"station_name":"Jatinegara","transit":true,"line":0,"i_long":106.86807400000001,"time":8},{"line":11,"station_name":"Pondok Jati","time":2,"i_long":106.861737,"distance":1236,"transit":false,"station_id":"POK","is_transit":false,"i_lat":-6.209188},{"i_long":106.855437,"i_lat":-6.193792,"line":11,"station_name":"Kramat","transit":false,"station_id":"KMT","is_transit":false,"distance":1829,"time":2},{"distance":973,"station_id":"GST","is_transit":false,"time":1,"station_name":"Gang Sentiong","transit":false,"i_long":106.850107,"i_lat":-6.185975,"line":11},{"time":8,"distance":1567,"station_id":"PSE","station_name":"Pasar Senen","i_long":106.84368,"transit":false,"is_transit":false,"i_lat":-6.174784,"line":11},{"distance":1436,"i_lat":-6.161728,"transit":false,"i_long":106.839204,"line":11,"is_transit":false,"time":4,"station_name":"Kemayoran","station_id":"KMO"},{"i_lat":-6.14505,"is_transit":false,"time":5,"distance":1901,"transit":false,"station_id":"RJW","station_name":"Rajawali","i_long":106.836569,"line":11},{"transit":true,"i_long":106.826365,"line":0,"station_id":"KPB","time":3,"is_transit":true,"station_name":"Kampung Bandan","distance":1444,"i_lat":-6.132549},{"i_lat":-6.144674,"line":0,"is_transit":false,"distance":4102,"transit":false,"station_name":"Angke","time":9,"station_id":"AK","i_long":106.79867},{"station_name":"Duri","line":1,"transit":true,"distance":1230,"i_long":106.800832,"time":4,"station_id":"DU","i_lat":-6.155215,"is_transit":true},{"distance":3632,"i_lat":-6.185545,"is_transit":true,"i_long":106.811091,"time":8,"transit":true,"station_name":"Tanah Abang","station_id":"THB","line":1},{"distance":3191,"station_id":"PLM","time":6,"is_transit":false,"station_name":"Palmerah","transit":false,"i_lat":-6.207404,"i_long":106.79689,"line":6},{"transit":false,"i_lat":-6.237242,"i_long":106.780334,"distance":3737,"station_name":"Kebayoran","time":7,"is_transit":false,"station_id":"KBY","line":6},{"line":6,"is_transit":false,"station_id":"PDJ","time":8,"transit":false,"i_long":106.74273,"i_lat":-6.276362,"station_name":"Pondokranji","distance":6218},{"i_long":106.728916,"line":6,"distance":2179,"time":3,"station_name":"Jurangmangu","transit":false,"is_transit":false,"station_id":"JMU","i_lat":-6.288927},{"station_name":"Sudimara","time":4,"distance":1994,"i_lat":-6.296963,"station_id":"SDM","i_long":106.712277,"line":6,"is_transit":false,"transit":false},{"distance":4566,"station_name":"Rawa Buntu","line":6,"is_transit":false,"time":6,"transit":false,"i_lat":-6.314823,"i_long":106.675475,"station_id":"RU"},{"line":6,"is_transit":false,"time":4,"i_lat":-6.319871,"transit":false,"station_id":"SRP","distance":2413,"i_long":106.66566,"station_name":"Serpong"},{"transit":false,"i_lat":-6.32484,"station_id":"CSK","distance":1784,"is_transit":false,"time":4,"station_name":"Cisauk","i_long":106.640411,"line":0},{"i_lat":-6.329547,"transit":false,"time":4,"station_name":"Cicayur","station_id":"CC","line":0,"is_transit":false,"distance":2519,"i_long":106.617853},{"transit":false,"i_long":106.568863,"distance":5968,"time":8,"station_name":"Parung Panjang","station_id":"PRP","i_lat":-6.3441410000000005,"is_transit":false,"line":6},{"i_lat":-6.354349,"station_name":"Cilejit","transit":false,"station_id":"CJT","i_long":106.508482,"line":0,"is_transit":false,"distance":7025,"time":9},{"i_long":106.491338,"is_transit":false,"station_id":"DAR","line":0,"time":6,"transit":false,"station_name":"Daru","distance":2675,"i_lat":-6.338021},{"time":5,"station_name":"Tenjo","transit":false,"i_long":106.460812,"line":6,"station_id":"TEJ","distance":3902,"is_transit":false,"i_lat":-6.327251},{"i_lat":-6.328533,"i_long":106.425991,"station_id":"TGS","transit":false,"line":6,"station_name":"Tigaraksa","is_transit":false,"time":5,"distance":2974},{"station_name":"Cikoya","line":0,"is_transit":false,"time":3,"station_id":"CKY","i_lat":-6.33561,"distance":2651,"transit":false,"i_long":106.411216},{"distance":1853,"i_long":106.394373,"time":4,"line":6,"transit":false,"station_name":"Maja","i_lat":-6.332307,"station_id":"MJ","is_transit":false},{"station_name":"Citeras","station_id":"CTR","line":0,"time":10,"i_long":106.332092,"is_transit":false,"transit":false,"distance":7293,"i_lat":-6.334892}]]}