{"data":[[{"time":0,"distance":0,"i_long":106.82482,"station_id":"MGB","transit":false,"i_lat":-6.149769,"line":2,"station_name":"Manggabesar","is_transit":false},{"is_transit":false,"i_lat":-6.141205,"line":2,"time":2,"i_long":106.820901,"station_name":"Jayakarta","transit":false,"station_id":"JAY","distance":1080},{"line":2,"station_id":"JAKK","i_long":106.812439,"is_transit":true,"distance":1264,"time":4,"i_lat":-6.137569,"transit":true,"station_name":"Jakarta Kota"},{"is_transit":true,"distance":1364,"i_lat":-6.132549,"i_long":106.826365,"transit":true,"time":3,"line":4,"station_name":"Kampung Bandan","station_id":"KPB"},{"distance":4102,"station_name":"Angke","line":1,"time":9,"transit":false,"i_lat":-6.144674,"station_id":"AK","i_long":106.79867,"is_transit":false},{"i_lat":-6.155215,"station_name":"Duri","station_id":"DU","transit":false,"time":4,"distance":1230,"i_long":106.800832,"is_transit":false,"line":1},{"station_name":"Tanah Abang","is_transit":true,"line":1,"i_long":106.811091,"distance":3632,"time":8,"transit":true,"station_id":"THB","i_lat":-6.185545},{"transit":false,"station_id":"PLM","is_transit":false,"i_long":106.79689,"distance":3191,"station_name":"Palmerah","i_lat":-6.207404,"time":6,"line":6},{"time":7,"i_long":106.780334,"station_id":"KBY","distance":3737,"i_lat":-6.237242,"is_transit":false,"transit":false,"line":6,"station_name":"Kebayoran"},{"i_long":106.74273,"time":8,"distance":6218,"is_transit":false,"line":6,"transit":false,"station_name":"Pondokranji","station_id":"PDJ","i_lat":-6.276362},{"i_long":106.728916,"station_id":"JMU","line":6,"time":3,"distance":2179,"transit":false,"i_lat":-6.288927,"station_name":"Jurangmangu","is_transit":false},{"time":4,"transit":false,"i_long":106.712277,"i_lat":-6.296963,"is_transit":false,"station_id":"SDM","station_name":"Sudimara","distance":1994,"line":6},{"i_lat":-6.314823,"i_long":106.675475,"station_name":"Rawa Buntu","station_id":"RU","line":6,"time":6,"distance":4566,"is_transit":false,"transit":false},{"line":6,"station_id":"SRP","i_long":106.66566,"distance":2413,"i_lat":-6.319871,"transit":false,"time":4,"is_transit":false,"station_name":"Serpong"},{"transit":false,"i_lat":-6.32484,"line":3,"i_long":106.640411,"time":4,"station_id":"CSK","station_name":"Cisauk","is_transit":false,"distance":1784},{"station_id":"CC","station_name":"Cicayur","is_transit":false,"i_long":106.617853,"line":3,"time":4,"distance":2519,"i_lat":-6.329547,"transit":false},{"station_id":"PRP","transit":false,"i_lat":-6.3441410000000005,"distance":5968,"i_long":106.568863,"station_name":"Parung Panjang","time":8,"is_transit":false,"line":6},{"i_lat":-6.354349,"line":3,"is_transit":false,"time":9,"distance":7025,"transit":false,"station_id":"CJT","i_long":106.508482,"station_name":"Cilejit"},{"is_transit":false,"time":6,"line":0,"station_name":"Daru","distance":2675,"station_id":"DAR","i_long":106.491338,"transit":false,"i_lat":-6.338021},{"transit":false,"station_id":"TEJ","is_transit":false,"i_lat":-6.327251,"i_long":106.460812,"station_name":"Tenjo","distance":3902,"time":5,"line":6},{"station_name":"Tigaraksa","distance":2974,"station_id":"TGS","transit":false,"i_long":106.425991,"is_transit":false,"line":6,"i_lat":-6.328533,"time":5},{"station_id":"CKY","time":3,"i_lat":-6.33561,"i_long":106.411216,"station_name":"Cikoya","transit":false,"is_transit":false,"distance":2651,"line":3},{"is_transit":false,"line":6,"station_id":"MJ","i_lat":-6.332307,"time":4,"i_long":106.394373,"transit":false,"station_name":"Maja","distance":1853},{"station_name":"Citeras","line":3,"is_transit":false,"distance":7293,"time":10,"transit":false,"station_id":"CTR","i_lat":-6.334892,"i_long":106.332092}],[{"station_id":"MGB","i_long":106.82482,"is_transit":false,"i_lat":-6.149769,"station_name":"Manggabesar","line":2,"transit":false,"time":0,"distance":0},{"is_transit":false,"station_id":"SW","station_name":"Sawah Besar","distance":906,"i_lat":-6.160725,"transit":false,"line":2,"i_long":106.827103,"time":2},{"i_lat":-6.166716,"is_transit":false,"station_name":"Juanda","time":2,"i_long":106.828284,"distance":1149,"transit":false,"station_id":"JUA","line":2},{"time":4,"distance":2015,"transit":false,"i_lat":-6.186295,"line":2,"is_transit":false,"station_id":"GDD","station_name":"Gondangdia","i_long":106.832183},{"time":3,"station_id":"CKI","line":2,"i_lat":-6.198556,"station_name":"Cikini","is_transit":false,"distance":1750,"transit":false,"i_long":106.840169},{"is_transit":true,"station_name":"Manggarai","time":4,"i_lat":-6.209883,"transit":true,"station_id":"MRI","i_long":106.84912,"distance":1590,"line":2},{"station_id":"SUD","i_lat":-6.202263,"is_transit":false,"transit":false,"time":4,"station_name":"Sudirman","distance":3186,"i_long":106.822649,"line":1},{"station_name":"Sudirman Baru","i_lat":-6.201433,"i_long":106.819881,"station_id":"SUDB","is_transit":false,"time":1,"distance":280,"line":1,"transit":false},{"distance":471,"is_transit":false,"line":1,"transit":false,"time":1,"station_name":"Karet","i_lat":-6.20132,"station_id":"KAT","i_long":106.816351},{"i_lat":-6.185545,"is_transit":true,"distance":2029,"station_id":"THB","station_name":"Tanah Abang","time":5,"transit":true,"line":1,"i_long":106.811091},{"is_transit":false,"i_lat":-6.207404,"station_id":"PLM","time":6,"distance":3191,"station_name":"Palmerah","transit":false,"line":6,"i_long":106.79689},{"transit":false,"station_id":"KBY","i_lat":-6.237242,"station_name":"Kebayoran","is_transit":false,"line":6,"time":7,"i_long":106.780334,"distance":3737},{"time":8,"station_id":"PDJ","is_transit":false,"station_name":"Pondokranji","transit":false,"i_long":106.74273,"line":6,"distance":6218,"i_lat":-6.276362},{"transit":false,"station_id":"JMU","i_lat":-6.288927,"line":6,"distance":2179,"i_long":106.728916,"is_transit":false,"time":3,"station_name":"Jurangmangu"},{"station_name":"Sudimara","station_id":"SDM","is_transit":false,"i_long":106.712277,"time":4,"i_lat":-6.296963,"line":6,"transit":false,"distance":1994},{"transit":false,"station_name":"Rawa Buntu","i_lat":-6.314823,"i_long":106.675475,"line":6,"station_id":"RU","is_transit":false,"time":6,"distance":4566},{"line":6,"i_lat":-6.319871,"is_transit":false,"station_name":"Serpong","time":4,"transit":false,"distance":2413,"i_long":106.66566,"station_id":"SRP"},{"is_transit":false,"distance":1784,"i_long":106.640411,"station_name":"Cisauk","i_lat":-6.32484,"transit":false,"station_id":"CSK","line":3,"time":4},{"i_lat":-6.329547,"line":3,"station_id":"CC","is_transit":false,"distance":2519,"i_long":106.617853,"station_name":"Cicayur","transit":false,"time":4},{"i_long":106.568863,"line":6,"time":8,"is_transit":false,"distance":5968,"i_lat":-6.3441410000000005,"station_id":"PRP","transit":false,"station_name":"Parung Panjang"},{"is_transit":false,"station_id":"CJT","transit":false,"distance":7025,"time":9,"station_name":"Cilejit","i_long":106.508482,"i_lat":-6.354349,"line":3},{"is_transit":false,"time":6,"i_long":106.491338,"line":0,"i_lat":-6.338021,"transit":false,"distance":2675,"station_name":"Daru","station_id":"DAR"},{"distance":3902,"transit":false,"is_transit":false,"time":5,"station_name":"Tenjo","station_id":"TEJ","i_lat":-6.327251,"i_long":106.460812,"line":6},{"distance":2974,"i_long":106.425991,"line":6,"station_id":"TGS","station_name":"Tigaraksa","is_transit":false,"time":5,"i_lat":-6.328533,"transit":false},{"transit":false,"station_id":"CKY","time":3,"line":3,"is_transit":false,"i_long":106.411216,"station_name":"Cikoya","i_lat":-6.33561,"distance":2651},{"station_id":"MJ","transit":false,"i_lat":-6.332307,"is_transit":false,"distance":1853,"line":6,"time":4,"i_long":106.394373,"station_name":"Maja"},{"distance":7293,"i_long":106.332092,"line":3,"transit":false,"station_id":"CTR","station_name":"Citeras","time":10,"is_transit":false,"i_lat":-6.334892}],[{"i_lat":-6.149769,"i_long":106.82482,"station_name":"Manggabesar","transit":false,"time":0,"line":2,"is_transit":false,"station_id":"MGB","distance":0},{"station_id":"JAY","time":2,"i_long":106.820901,"is_transit":false,"distance":1080,"i_lat":-6.141205,"station_name":"Jayakarta","transit":false,"line":2},{"i_long":106.812439,"i_lat":-6.137569,"is_transit":true,"distance":1264,"transit":true,"station_id":"JAKK","time":4,"line":2,"station_name":"Jakarta Kota"},{"is_transit":true,"time":3,"i_long":106.826365,"line":4,"distance":1364,"station_id":"KPB","transit":true,"i_lat":-6.132549,"station_name":"Kampung Bandan"},{"i_lat":-6.14505,"is_transit":false,"i_long":106.836569,"transit":false,"station_name":"Rajawali","station_id":"RJW","distance":1444,"line":11,"time":3},{"is_transit":false,"time":5,"i_long":106.839204,"line":11,"i_lat":-6.161728,"station_name":"Kemayoran","station_id":"KMO","transit":false,"distance":1901},{"is_transit":false,"i_lat":-6.174784,"line":11,"station_id":"PSE","time":4,"i_long":106.84368,"station_name":"Pasar Senen","distance":1436,"transit":false},{"i_long":106.850107,"line":11,"station_id":"GST","i_lat":-6.185975,"time":8,"distance":1567,"station_name":"Gang Sentiong","transit":false,"is_transit":false},{"transit":false,"i_lat":-6.193792,"line":11,"station_name":"Kramat","time":1,"distance":973,"station_id":"KMT","i_long":106.855437,"is_transit":false},{"is_transit":false,"i_lat":-6.209188,"line":11,"i_long":106.861737,"station_id":"POK","distance":1829,"station_name":"Pondok Jati","time":2,"transit":false},{"station_id":"JNG","time":9,"i_lat":-6.215091,"is_transit":true,"distance":1236,"line":1,"transit":true,"station_name":"Jatinegara","i_long":106.86807400000001},{"i_long":106.858896,"distance":1377,"station_id":"MTR","transit":false,"station_name":"Matraman","is_transit":false,"time":2,"i_lat":-6.212485,"line":1},{"transit":false,"time":2,"i_long":106.84912,"i_lat":-6.209883,"station_id":"MRI","is_transit":false,"distance":1275,"station_name":"Manggarai","line":2},{"station_id":"SUD","station_name":"Sudirman","line":1,"is_transit":false,"i_lat":-6.202263,"distance":3186,"time":4,"transit":false,"i_long":106.822649},{"station_name":"Sudirman Baru","distance":280,"line":1,"i_long":106.819881,"is_transit":false,"transit":false,"station_id":"SUDB","time":1,"i_lat":-6.201433},{"distance":471,"i_long":106.816351,"station_id":"KAT","i_lat":-6.20132,"time":1,"station_name":"Karet","line":1,"is_transit":false,"transit":false},{"i_lat":-6.185545,"station_name":"Tanah Abang","line":1,"station_id":"THB","distance":2029,"is_transit":true,"time":5,"i_long":106.811091,"transit":true},{"transit":false,"station_id":"PLM","is_transit":false,"i_long":106.79689,"line":6,"station_name":"Palmerah","time":6,"i_lat":-6.207404,"distance":3191},{"transit":false,"i_lat":-6.237242,"line":6,"distance":3737,"station_id":"KBY","station_name":"Kebayoran","time":7,"i_long":106.780334,"is_transit":false},{"station_name":"Pondokranji","is_transit":false,"time":8,"i_long":106.74273,"station_id":"PDJ","i_lat":-6.276362,"distance":6218,"transit":false,"line":6},{"transit":false,"time":3,"distance":2179,"line":6,"station_name":"Jurangmangu","station_id":"JMU","is_transit":false,"i_lat":-6.288927,"i_long":106.728916},{"time":4,"station_id":"SDM","transit":false,"distance":1994,"i_long":106.712277,"line":6,"is_transit":false,"i_lat":-6.296963,"station_name":"Sudimara"},{"line":6,"distance":4566,"station_id":"RU","transit":false,"time":6,"i_lat":-6.314823,"i_long":106.675475,"is_transit":false,"station_name":"Rawa Buntu"},{"is_transit":false,"station_name":"Serpong","time":4,"station_id":"SRP","i_long":106.66566,"distance":2413,"transit":false,"line":6,"i_lat":-6.319871},{"distance":1784,"is_transit":false,"line":3,"time":4,"station_name":"Cisauk","station_id":"CSK","i_lat":-6.32484,"i_long":106.640411,"transit":false},{"station_id":"CC","i_long":106.617853,"station_name":"Cicayur","distance":2519,"line":3,"transit":false,"time":4,"is_transit":false,"i_lat":-6.329547},{"station_name":"Parung Panjang","transit":false,"is_transit":false,"i_long":106.568863,"station_id":"PRP","line":6,"time":8,"distance":5968,"i_lat":-6.3441410000000005},{"line":3,"station_name":"Cilejit","time":9,"distance":7025,"transit":false,"i_long":106.508482,"i_lat":-6.354349,"station_id":"CJT","is_transit":false},{"transit":false,"line":0,"is_transit":false,"distance":2675,"station_id":"DAR","i_lat":-6.338021,"i_long":106.491338,"time":6,"station_name":"Daru"},{"distance":3902,"i_lat":-6.327251,"transit":false,"station_name":"Tenjo","station_id":"TEJ","line":6,"i_long":106.460812,"is_transit":false,"time":5},{"time":5,"station_id":"TGS","i_long":106.425991,"transit":false,"line":6,"distance":2974,"is_transit":false,"i_lat":-6.328533,"station_name":"Tigaraksa"},{"transit":false,"i_lat":-6.33561,"line":3,"station_id":"CKY","station_name":"Cikoya","is_transit":false,"i_long":106.411216,"distance":2651,"time":3},{"station_name":"Maja","transit":false,"time":4,"distance":1853,"i_lat":-6.332307,"i_long":106.394373,"is_transit":false,"station_id":"MJ","line":6},{"i_lat":-6.334892,"distance":7293,"line":3,"time":10,"transit":false,"station_name":"Citeras","is_transit":false,"station_id":"CTR","i_long":106.332092}],[{"i_lat":-6.149769,"transit":false,"station_id":"MGB","is_transit":false,"i_long":106.82482,"station_name":"Manggabesar","line":2,"time":0,"distance":0},{"transit":false,"i_lat":-6.160725,"station_id":"SW","time":2,"distance":906,"station_name":"Sawah Besar","is_transit":false,"i_long":106.827103,"line":2},{"station_name":"Juanda","station_id":"JUA","is_transit":false,"line":2,"i_long":106.828284,"time":2,"distance":1149,"i_lat":-6.166716,"transit":false},{"time":4,"line":2,"transit":false,"station_id":"GDD","i_lat":-6.186295,"is_transit":false,"i_long":106.832183,"distance":2015,"station_name":"Gondangdia"},{"station_id":"CKI","station_name":"Cikini","distance":1750,"i_long":106.840169,"is_transit":false,"transit":false,"i_lat":-6.198556,"line":2,"time":3},{"is_transit":true,"distance":1590,"i_long":106.84912,"line":2,"time":4,"i_lat":-6.209883,"station_id":"MRI","transit":true,"station_name":"Manggarai"},{"i_lat":-6.212485,"i_long":106.858896,"is_transit":false,"station_name":"Matraman","line":1,"station_id":"MTR","transit":false,"time":2,"distance":1275},{"station_id":"JNG","time":8,"station_name":"Jatinegara","transit":true,"i_lat":-6.215091,"is_transit":true,"i_long":106.86807400000001,"line":1,"distance":1377},{"distance":1236,"i_lat":-6.209188,"line":11,"time":2,"i_long":106.861737,"station_name":"Pondok Jati","is_transit":false,"transit":false,"station_id":"POK"},{"station_id":"KMT","distance":1829,"transit":false,"is_transit":false,"time":2,"i_lat":-6.193792,"station_name":"Kramat","i_long":106.855437,"line":11},{"is_transit":false,"i_lat":-6.185975,"i_long":106.850107,"line":11,"station_id":"GST","transit":false,"time":1,"station_name":"Gang Sentiong","distance":973},{"transit":false,"station_name":"Pasar Senen","station_id":"PSE","is_transit":false,"time":8,"distance":1567,"i_lat":-6.174784,"i_long":106.84368,"line":11},{"distance":1436,"i_lat":-6.161728,"station_id":"KMO","i_long":106.839204,"line":11,"station_name":"Kemayoran","is_transit":false,"transit":false,"time":4},{"i_lat":-6.14505,"distance":1901,"time":5,"transit":false,"i_long":106.836569,"line":11,"station_name":"Rajawali","station_id":"RJW","is_transit":false},{"i_lat":-6.132549,"distance":1444,"i_long":106.826365,"transit":true,"station_name":"Kampung Bandan","line":4,"is_transit":true,"time":3,"station_id":"KPB"},{"transit":false,"is_transit":false,"time":9,"line":1,"distance":4102,"station_name":"Angke","i_lat":-6.144674,"i_long":106.79867,"station_id":"AK"},{"i_lat":-6.155215,"i_long":106.800832,"time":4,"station_name":"Duri","distance":1230,"station_id":"DU","transit":false,"line":1,"is_transit":false},{"is_transit":true,"i_long":106.811091,"station_name":"Tanah Abang","distance":3632,"line":1,"i_lat":-6.185545,"transit":true,"station_id":"THB","time":8},{"is_transit":false,"station_name":"Palmerah","distance":3191,"line":6,"station_id":"PLM","i_long":106.79689,"i_lat":-6.207404,"transit":false,"time":6},{"time":7,"transit":false,"i_lat":-6.237242,"i_long":106.780334,"is_transit":false,"station_id":"KBY","distance":3737,"station_name":"Kebayoran","line":6},{"station_id":"PDJ","line":6,"distance":6218,"time":8,"i_lat":-6.276362,"transit":false,"i_long":106.74273,"station_name":"Pondokranji","is_transit":false},{"station_name":"Jurangmangu","time":3,"station_id":"JMU","i_lat":-6.288927,"i_long":106.728916,"is_transit":false,"line":6,"distance":2179,"transit":false},{"distance":1994,"is_transit":false,"transit":false,"i_lat":-6.296963,"i_long":106.712277,"station_id":"SDM","line":6,"station_name":"Sudimara","time":4},{"distance":4566,"station_name":"Rawa Buntu","is_transit":false,"station_id":"RU","line":6,"transit":false,"i_long":106.675475,"time":6,"i_lat":-6.314823},{"station_name":"Serpong","is_transit":false,"time":4,"distance":2413,"station_id":"SRP","transit":false,"i_long":106.66566,"line":6,"i_lat":-6.319871},{"i_lat":-6.32484,"station_id":"CSK","distance":1784,"station_name":"Cisauk","transit":false,"is_transit":false,"time":4,"i_long":106.640411,"line":3},{"transit":false,"i_long":106.617853,"distance":2519,"station_name":"Cicayur","is_transit":false,"i_lat":-6.329547,"station_id":"CC","time":4,"line":3},{"station_id":"PRP","station_name":"Parung Panjang","is_transit":false,"i_lat":-6.3441410000000005,"time":8,"transit":false,"i_long":106.568863,"line":6,"distance":5968},{"i_long":106.508482,"transit":false,"is_transit":false,"distance":7025,"station_id":"CJT","station_name":"Cilejit","time":9,"i_lat":-6.354349,"line":3},{"time":6,"i_lat":-6.338021,"station_name":"Daru","distance":2675,"i_long":106.491338,"is_transit":false,"station_id":"DAR","line":0,"transit":false},{"i_long":106.460812,"i_lat":-6.327251,"transit":false,"distance":3902,"station_id":"TEJ","line":6,"station_name":"Tenjo","time":5,"is_transit":false},{"line":6,"transit":false,"is_transit":false,"time":5,"i_long":106.425991,"station_name":"Tigaraksa","station_id":"TGS","distance":2974,"i_lat":-6.328533},{"station_id":"CKY","i_lat":-6.33561,"line":3,"transit":false,"i_long":106.411216,"is_transit":false,"distance":2651,"time":3,"station_name":"Cikoya"},{"distance":1853,"is_transit":false,"i_lat":-6.332307,"time":4,"line":6,"i_long":106.394373,"station_name":"Maja","station_id":"MJ","transit":false},{"i_lat":-6.334892,"line":3,"i_long":106.332092,"station_name":"Citeras","station_id":"CTR","is_transit":false,"time":10,"transit":false,"distance":7293}]]}