{"data":[[{"is_transit":false,"i_lat":-6.149769,"transit":false,"i_long":106.82482,"line":2,"time":0,"station_name":"Manggabesar","station_id":"MGB","distance":0},{"station_id":"SW","i_lat":-6.160725,"i_long":106.827103,"line":2,"time":2,"station_name":"Sawah Besar","transit":false,"is_transit":false,"distance":906},{"distance":1149,"time":2,"i_long":106.828284,"station_name":"Juanda","transit":false,"line":2,"is_transit":false,"station_id":"JUA","i_lat":-6.166716},{"is_transit":false,"i_lat":-6.186295,"distance":2015,"station_name":"Gondangdia","i_long":106.832183,"line":2,"station_id":"GDD","transit":false,"time":4},{"i_lat":-6.198556,"distance":1750,"is_transit":false,"line":2,"transit":false,"time":3,"station_name":"Cikini","i_long":106.840169,"station_id":"CKI"},{"distance":1590,"time":4,"i_lat":-6.209883,"line":2,"station_id":"MRI","station_name":"Manggarai","is_transit":false,"i_long":106.84912,"transit":false},{"time":4,"station_id":"TEB","i_long":106.857948,"line":2,"distance":2610,"is_transit":false,"transit":false,"station_name":"Tebet","i_lat":-6.226659}],[{"distance":0,"i_lat":-6.149769,"station_id":"MGB","transit":false,"line":2,"i_long":106.82482,"station_name":"Manggabesar","is_transit":false,"time":0},{"distance":1080,"station_name":"Jayakarta","time":2,"is_transit":false,"i_lat":-6.141205,"i_long":106.820901,"line":2,"transit":false,"station_id":"JAY"},{"is_transit":true,"time":4,"distance":1264,"station_id":"JAKK","transit":true,"i_lat":-6.137569,"line":2,"station_name":"Jakarta Kota","i_long":106.812439},{"transit":true,"distance":1364,"is_transit":true,"station_name":"Kampung Bandan","station_id":"KPB","time":3,"i_lat":-6.132549,"line":4,"i_long":106.826365},{"i_long":106.79867,"line":1,"i_lat":-6.144674,"transit":false,"time":9,"is_transit":false,"distance":4102,"station_id":"AK","station_name":"Angke"},{"time":4,"station_name":"Duri","line":1,"i_lat":-6.155215,"distance":1230,"transit":false,"is_transit":false,"station_id":"DU","i_long":106.800832},{"distance":3632,"i_long":106.811091,"time":8,"station_id":"THB","station_name":"Tanah Abang","transit":false,"i_lat":-6.185545,"is_transit":false,"line":1},{"i_long":106.816351,"i_lat":-6.20132,"station_id":"KAT","is_transit":false,"distance":2029,"station_name":"Karet","line":1,"transit":false,"time":5},{"is_transit":false,"i_long":106.819881,"distance":471,"station_name":"Sudirman Baru","i_lat":-6.201433,"time":1,"transit":false,"station_id":"SUDB","line":1},{"station_name":"Sudirman","station_id":"SUD","time":1,"line":1,"i_lat":-6.202263,"i_long":106.822649,"transit":false,"is_transit":false,"distance":280},{"is_transit":true,"distance":3186,"time":4,"line":2,"i_lat":-6.209883,"i_long":106.84912,"station_name":"Manggarai","station_id":"MRI","transit":true},{"transit":false,"is_transit":false,"i_long":106.857948,"line":2,"station_id":"TEB","time":4,"distance":2610,"i_lat":-6.226659,"station_name":"Tebet"}],[{"line":2,"i_lat":-6.149769,"i_long":106.82482,"distance":0,"station_id":"MGB","time":0,"transit":false,"is_transit":false,"station_name":"Manggabesar"},{"distance":1080,"time":2,"is_transit":false,"i_long":106.820901,"line":2,"station_name":"Jayakarta","station_id":"JAY","transit":false,"i_lat":-6.141205},{"is_transit":true,"line":2,"time":4,"i_long":106.812439,"station_id":"JAKK","i_lat":-6.137569,"transit":true,"station_name":"Jakarta Kota","distance":1264},{"station_name":"Kampung Bandan","time":3,"station_id":"KPB","is_transit":true,"i_lat":-6.132549,"transit":true,"line":4,"distance":1364,"i_long":106.826365},{"station_id":"RJW","i_long":106.836569,"line":11,"transit":false,"station_name":"Rajawali","distance":1444,"is_transit":false,"time":3,"i_lat":-6.14505},{"line":11,"time":5,"i_long":106.839204,"i_lat":-6.161728,"transit":false,"is_transit":false,"station_id":"KMO","station_name":"Kemayoran","distance":1901},{"line":11,"distance":1436,"station_id":"PSE","transit":false,"is_transit":false,"station_name":"Pasar Senen","time":4,"i_long":106.84368,"i_lat":-6.174784},{"station_id":"GST","distance":1567,"i_long":106.850107,"time":8,"i_lat":-6.185975,"line":11,"is_transit":false,"station_name":"Gang Sentiong","transit":false},{"is_transit":false,"i_lat":-6.193792,"transit":false,"time":1,"i_long":106.855437,"station_id":"KMT","station_name":"Kramat","line":11,"distance":973},{"distance":1829,"is_transit":false,"station_name":"Pondok Jati","station_id":"POK","i_lat":-6.209188,"line":11,"transit":false,"i_long":106.861737,"time":2},{"station_id":"JNG","i_long":106.86807400000001,"i_lat":-6.215091,"station_name":"Jatinegara","time":9,"is_transit":true,"distance":1236,"transit":true,"line":1},{"i_lat":-6.212485,"distance":1377,"transit":false,"station_id":"MTR","line":1,"is_transit":false,"station_name":"Matraman","i_long":106.858896,"time":2},{"distance":1275,"station_name":"Manggarai","i_lat":-6.209883,"line":2,"transit":true,"station_id":"MRI","is_transit":true,"time":2,"i_long":106.84912},{"i_long":106.857948,"is_transit":false,"line":2,"station_name":"Tebet","transit":false,"i_lat":-6.226659,"time":4,"station_id":"TEB","distance":2610}]]}