{"data":[[{"station_id":"MGB","i_lat":-6.149769,"is_transit":false,"station_name":"Manggabesar","time":0,"transit":false,"distance":0,"i_long":106.82482,"line":2},{"is_transit":false,"line":2,"transit":false,"distance":1080,"i_long":106.820901,"station_name":"Jayakarta","time":2,"i_lat":-6.141205,"station_id":"JAY"},{"station_id":"JAKK","time":4,"station_name":"Jakarta Kota","is_transit":true,"i_lat":-6.137569,"i_long":106.812439,"line":2,"transit":true,"distance":1264},{"station_id":"KPB","is_transit":true,"time":3,"transit":true,"station_name":"Kampung Bandan","distance":1364,"line":4,"i_lat":-6.132549,"i_long":106.826365},{"station_name":"Angke","i_long":106.79867,"distance":4102,"station_id":"AK","is_transit":false,"line":1,"time":9,"i_lat":-6.144674,"transit":false},{"i_long":106.800832,"distance":1230,"line":1,"is_transit":true,"transit":true,"i_lat":-6.155215,"station_id":"DU","station_name":"Duri","time":4},{"distance":1700,"station_id":"GGL","time":3,"station_name":"Grogol","i_long":106.788277,"i_lat":-6.162021,"line":5,"transit":false,"is_transit":false},{"time":2,"line":5,"transit":false,"distance":2036,"station_id":"PSG","station_name":"Pesing","i_lat":-6.161433,"i_long":106.771379,"is_transit":false},{"line":5,"distance":1614,"station_name":"Taman Kota","time":2,"transit":false,"is_transit":false,"i_long":106.756522,"station_id":"TKO","i_lat":-6.1587309999999995},{"distance":2334,"transit":false,"time":2,"station_name":"Bojongindah","i_long":106.737035,"i_lat":-6.159876,"is_transit":false,"station_id":"BOI","line":5},{"transit":false,"is_transit":false,"time":4,"i_lat":-6.162758,"station_name":"Rawa Buaya","i_long":106.723064,"distance":1152,"line":5,"station_id":"RW"},{"transit":false,"distance":2504,"station_id":"KDS","i_long":106.701612,"is_transit":false,"line":5,"station_name":"Kalideres","time":3,"i_lat":-6.166068},{"i_long":106.679458,"station_id":"PI","time":3,"station_name":"Poris","is_transit":false,"distance":2548,"line":5,"transit":false,"i_lat":-6.169933},{"transit":false,"station_id":"BPR","time":3,"station_name":"Batuceper","distance":1834,"line":5,"i_long":106.665036,"is_transit":false,"i_lat":-6.171811}],[{"transit":false,"distance":0,"i_lat":-6.149769,"station_id":"MGB","is_transit":false,"i_long":106.82482,"time":0,"line":2,"station_name":"Manggabesar"},{"i_lat":-6.160725,"i_long":106.827103,"line":2,"time":2,"station_id":"SW","transit":false,"distance":906,"station_name":"Sawah Besar","is_transit":false},{"station_name":"Juanda","i_long":106.828284,"transit":false,"i_lat":-6.166716,"station_id":"JUA","is_transit":false,"time":2,"line":2,"distance":1149},{"is_transit":false,"station_name":"Gondangdia","time":4,"station_id":"GDD","distance":2015,"i_lat":-6.186295,"i_long":106.832183,"line":2,"transit":false},{"distance":1750,"transit":false,"station_id":"CKI","station_name":"Cikini","i_lat":-6.198556,"time":3,"line":2,"i_long":106.840169,"is_transit":false},{"station_id":"MRI","transit":true,"distance":1590,"station_name":"Manggarai","i_lat":-6.209883,"time":4,"is_transit":true,"i_long":106.84912,"line":2},{"distance":3186,"station_name":"Sudirman","time":4,"station_id":"SUD","line":1,"transit":false,"is_transit":false,"i_lat":-6.202263,"i_long":106.822649},{"distance":280,"line":1,"time":1,"transit":false,"station_name":"Sudirman Baru","i_lat":-6.201433,"station_id":"SUDB","is_transit":false,"i_long":106.819881},{"time":1,"transit":false,"i_lat":-6.20132,"distance":471,"station_id":"KAT","is_transit":false,"station_name":"Karet","i_long":106.816351,"line":1},{"transit":false,"is_transit":false,"station_id":"THB","i_lat":-6.185545,"station_name":"Tanah Abang","time":5,"i_long":106.811091,"line":1,"distance":2029},{"time":8,"distance":3632,"i_lat":-6.155215,"i_long":106.800832,"line":1,"transit":true,"station_name":"Duri","station_id":"DU","is_transit":true},{"line":5,"distance":1700,"transit":false,"time":3,"i_lat":-6.162021,"i_long":106.788277,"station_id":"GGL","station_name":"Grogol","is_transit":false},{"line":5,"transit":false,"station_name":"Pesing","i_long":106.771379,"time":2,"station_id":"PSG","distance":2036,"i_lat":-6.161433,"is_transit":false},{"i_long":106.756522,"station_id":"TKO","is_transit":false,"time":2,"i_lat":-6.1587309999999995,"distance":1614,"transit":false,"line":5,"station_name":"Taman Kota"},{"distance":2334,"i_lat":-6.159876,"line":5,"time":2,"transit":false,"station_name":"Bojongindah","i_long":106.737035,"station_id":"BOI","is_transit":false},{"i_long":106.723064,"station_name":"Rawa Buaya","is_transit":false,"line":5,"station_id":"RW","time":4,"distance":1152,"i_lat":-6.162758,"transit":false},{"time":3,"line":5,"station_id":"KDS","i_lat":-6.166068,"station_name":"Kalideres","transit":false,"is_transit":false,"distance":2504,"i_long":106.701612},{"line":5,"station_id":"PI","i_long":106.679458,"distance":2548,"i_lat":-6.169933,"transit":false,"time":3,"is_transit":false,"station_name":"Poris"},{"transit":false,"i_lat":-6.171811,"line":5,"i_long":106.665036,"time":3,"station_id":"BPR","station_name":"Batuceper","is_transit":false,"distance":1834}],[{"station_id":"MGB","station_name":"Manggabesar","is_transit":false,"i_long":106.82482,"line":2,"time":0,"distance":0,"i_lat":-6.149769,"transit":false},{"station_id":"SW","transit":false,"i_lat":-6.160725,"distance":906,"i_long":106.827103,"station_name":"Sawah Besar","time":2,"is_transit":false,"line":2},{"transit":false,"line":2,"time":2,"i_lat":-6.166716,"station_id":"JUA","i_long":106.828284,"distance":1149,"is_transit":false,"station_name":"Juanda"},{"transit":false,"station_name":"Gondangdia","station_id":"GDD","i_lat":-6.186295,"is_transit":false,"distance":2015,"line":2,"time":4,"i_long":106.832183},{"i_lat":-6.198556,"is_transit":false,"i_long":106.840169,"station_id":"CKI","station_name":"Cikini","line":2,"time":3,"distance":1750,"transit":false},{"i_lat":-6.209883,"distance":1590,"station_id":"MRI","time":4,"is_transit":true,"i_long":106.84912,"line":2,"station_name":"Manggarai","transit":true},{"is_transit":false,"line":1,"i_lat":-6.212485,"station_id":"MTR","time":2,"distance":1275,"i_long":106.858896,"station_name":"Matraman","transit":false},{"is_transit":true,"station_name":"Jatinegara","i_lat":-6.215091,"time":8,"distance":1377,"i_long":106.86807400000001,"transit":true,"station_id":"JNG","line":1},{"time":2,"i_lat":-6.209188,"is_transit":false,"station_name":"Pondok Jati","station_id":"POK","i_long":106.861737,"transit":false,"distance":1236,"line":11},{"i_long":106.855437,"transit":false,"time":2,"distance":1829,"i_lat":-6.193792,"line":11,"is_transit":false,"station_id":"KMT","station_name":"Kramat"},{"transit":false,"i_lat":-6.185975,"i_long":106.850107,"station_id":"GST","time":1,"is_transit":false,"line":11,"distance":973,"station_name":"Gang Sentiong"},{"station_id":"PSE","distance":1567,"is_transit":false,"line":11,"transit":false,"i_long":106.84368,"i_lat":-6.174784,"station_name":"Pasar Senen","time":8},{"i_lat":-6.161728,"line":11,"station_id":"KMO","station_name":"Kemayoran","i_long":106.839204,"transit":false,"distance":1436,"is_transit":false,"time":4},{"time":5,"i_lat":-6.14505,"station_name":"Rajawali","is_transit":false,"i_long":106.836569,"transit":false,"station_id":"RJW","distance":1901,"line":11},{"line":4,"station_id":"KPB","i_lat":-6.132549,"distance":1444,"i_long":106.826365,"station_name":"Kampung Bandan","transit":true,"is_transit":true,"time":3},{"is_transit":false,"i_lat":-6.144674,"line":1,"station_id":"AK","station_name":"Angke","distance":4102,"transit":false,"time":9,"i_long":106.79867},{"station_id":"DU","i_long":106.800832,"line":1,"time":4,"transit":true,"station_name":"Duri","distance":1230,"is_transit":true,"i_lat":-6.155215},{"distance":1700,"is_transit":false,"line":5,"transit":false,"time":3,"station_name":"Grogol","i_lat":-6.162021,"station_id":"GGL","i_long":106.788277},{"i_lat":-6.161433,"is_transit":false,"distance":2036,"station_id":"PSG","station_name":"Pesing","time":2,"transit":false,"line":5,"i_long":106.771379},{"is_transit":false,"i_lat":-6.1587309999999995,"station_id":"TKO","time":2,"distance":1614,"station_name":"Taman Kota","transit":false,"line":5,"i_long":106.756522},{"transit":false,"station_id":"BOI","i_lat":-6.159876,"station_name":"Bojongindah","is_transit":false,"line":5,"time":2,"i_long":106.737035,"distance":2334},{"time":4,"station_id":"RW","is_transit":false,"station_name":"Rawa Buaya","transit":false,"i_long":106.723064,"line":5,"distance":1152,"i_lat":-6.162758},{"transit":false,"station_id":"KDS","i_lat":-6.166068,"line":5,"distance":2504,"i_long":106.701612,"is_transit":false,"time":3,"station_name":"Kalideres"},{"station_name":"Poris","station_id":"PI","is_transit":false,"i_long":106.679458,"time":3,"i_lat":-6.169933,"line":5,"transit":false,"distance":2548},{"transit":false,"station_name":"Batuceper","i_lat":-6.171811,"i_long":106.665036,"line":5,"station_id":"BPR","is_transit":false,"time":3,"distance":1834}],[{"line":2,"i_lat":-6.149769,"is_transit":false,"station_name":"Manggabesar","time":0,"transit":false,"distance":0,"i_long":106.82482,"station_id":"MGB"},{"distance":1080,"station_name":"Jayakarta","station_id":"JAY","i_long":106.820901,"line":2,"transit":false,"i_lat":-6.141205,"is_transit":false,"time":2},{"i_long":106.812439,"is_transit":true,"time":4,"i_lat":-6.137569,"transit":true,"line":2,"distance":1264,"station_name":"Jakarta Kota","station_id":"JAKK"},{"transit":true,"line":4,"is_transit":true,"i_lat":-6.132549,"distance":1364,"station_name":"Kampung Bandan","station_id":"KPB","time":3,"i_long":106.826365},{"i_long":106.836569,"is_transit":false,"transit":false,"i_lat":-6.14505,"distance":1444,"station_id":"RJW","station_name":"Rajawali","line":11,"time":3},{"distance":1901,"i_long":106.839204,"station_id":"KMO","is_transit":false,"station_name":"Kemayoran","line":11,"time":5,"i_lat":-6.161728,"transit":false},{"station_id":"PSE","time":4,"distance":1436,"transit":false,"i_long":106.84368,"line":11,"is_transit":false,"i_lat":-6.174784,"station_name":"Pasar Senen"},{"distance":1567,"line":11,"station_name":"Gang Sentiong","is_transit":false,"station_id":"GST","time":8,"i_long":106.850107,"transit":false,"i_lat":-6.185975},{"station_name":"Kramat","is_transit":false,"distance":973,"i_lat":-6.193792,"station_id":"KMT","line":11,"i_long":106.855437,"time":1,"transit":false},{"transit":false,"i_lat":-6.209188,"i_long":106.861737,"station_name":"Pondok Jati","station_id":"POK","line":11,"is_transit":false,"distance":1829,"time":2},{"station_id":"JNG","station_name":"Jatinegara","i_lat":-6.215091,"i_long":106.86807400000001,"distance":1236,"is_transit":true,"time":9,"line":1,"transit":true},{"time":2,"i_long":106.858896,"station_id":"MTR","i_lat":-6.212485,"transit":false,"line":1,"distance":1377,"station_name":"Matraman","is_transit":false},{"time":2,"i_lat":-6.209883,"station_id":"MRI","line":2,"transit":false,"station_name":"Manggarai","i_long":106.84912,"is_transit":false,"distance":1275},{"is_transit":false,"station_name":"Sudirman","station_id":"SUD","distance":3186,"time":4,"line":1,"i_lat":-6.202263,"transit":false,"i_long":106.822649},{"i_lat":-6.201433,"is_transit":false,"time":1,"transit":false,"station_name":"Sudirman Baru","i_long":106.819881,"station_id":"SUDB","distance":280,"line":1},{"station_name":"Karet","i_lat":-6.20132,"distance":471,"transit":false,"is_transit":false,"line":1,"time":1,"station_id":"KAT","i_long":106.816351},{"transit":false,"distance":2029,"time":5,"station_id":"THB","line":1,"is_transit":false,"i_long":106.811091,"i_lat":-6.185545,"station_name":"Tanah Abang"},{"is_transit":true,"i_lat":-6.155215,"line":1,"station_id":"DU","time":8,"i_long":106.800832,"station_name":"Duri","distance":3632,"transit":true},{"i_long":106.788277,"line":5,"station_id":"GGL","i_lat":-6.162021,"time":3,"distance":1700,"station_name":"Grogol","transit":false,"is_transit":false},{"transit":false,"i_lat":-6.161433,"line":5,"station_name":"Pesing","time":2,"distance":2036,"station_id":"PSG","i_long":106.771379,"is_transit":false},{"is_transit":false,"i_lat":-6.1587309999999995,"line":5,"i_long":106.756522,"station_id":"TKO","distance":1614,"station_name":"Taman Kota","time":2,"transit":false},{"station_id":"BOI","time":2,"i_lat":-6.159876,"is_transit":false,"distance":2334,"line":5,"transit":false,"station_name":"Bojongindah","i_long":106.737035},{"transit":false,"station_id":"RW","distance":1152,"line":5,"station_name":"Rawa Buaya","is_transit":false,"time":4,"i_lat":-6.162758,"i_long":106.723064},{"transit":false,"station_id":"KDS","is_transit":false,"time":3,"i_lat":-6.166068,"distance":2504,"line":5,"station_name":"Kalideres","i_long":106.701612},{"station_id":"PI","distance":2548,"line":5,"station_name":"Poris","transit":false,"time":3,"i_lat":-6.169933,"i_long":106.679458,"is_transit":false},{"i_lat":-6.171811,"station_id":"BPR","time":3,"station_name":"Batuceper","i_long":106.665036,"transit":false,"line":5,"distance":1834,"is_transit":false}]]}