{"data":[[{"distance":0,"transit":false,"station_name":"Manggabesar","station_id":"MGB","i_lat":-6.149769,"i_long":106.82482,"line":2,"is_transit":false,"time":0},{"station_id":"SW","station_name":"Sawah Besar","transit":false,"i_long":106.827103,"line":2,"i_lat":-6.160725,"time":2,"is_transit":false,"distance":906},{"is_transit":false,"line":2,"station_id":"JUA","transit":false,"i_lat":-6.166716,"i_long":106.828284,"station_name":"Juanda","time":2,"distance":1149},{"time":4,"distance":2015,"transit":false,"i_lat":-6.186295,"i_long":106.832183,"station_name":"Gondangdia","is_transit":false,"line":2,"station_id":"GDD"},{"time":3,"is_transit":false,"station_id":"CKI","transit":false,"i_lat":-6.198556,"line":0,"i_long":106.840169,"distance":1750,"station_name":"Cikini"},{"station_id":"MRI","i_lat":-6.209883,"distance":1590,"transit":true,"i_long":106.84912,"time":4,"line":0,"is_transit":true,"station_name":"Manggarai"},{"time":2,"distance":1275,"is_transit":false,"i_lat":-6.212485,"station_name":"Matraman","line":1,"station_id":"MTR","transit":false,"i_long":106.858896}],[{"distance":0,"station_id":"MGB","line":2,"time":0,"i_lat":-6.149769,"i_long":106.82482,"station_name":"Manggabesar","transit":false,"is_transit":false},{"i_lat":-6.141205,"i_long":106.820901,"line":7,"time":2,"distance":1080,"transit":false,"station_name":"Jayakarta","station_id":"JAY","is_transit":false},{"time":4,"station_id":"JAKK","is_transit":true,"distance":1264,"station_name":"Jakarta Kota","line":0,"transit":true,"i_lat":-6.137569,"i_long":106.812439},{"time":3,"i_long":106.826365,"station_name":"Kampung Bandan","i_lat":-6.132549,"station_id":"KPB","line":0,"distance":1364,"transit":true,"is_transit":true},{"station_id":"RJW","transit":false,"station_name":"Rajawali","i_lat":-6.14505,"is_transit":false,"line":11,"i_long":106.836569,"time":3,"distance":1444},{"i_long":106.839204,"i_lat":-6.161728,"station_name":"Kemayoran","station_id":"KMO","distance":1901,"line":11,"is_transit":false,"time":5,"transit":false},{"i_long":106.84368,"station_name":"Pasar Senen","distance":1436,"is_transit":false,"line":11,"station_id":"PSE","transit":false,"i_lat":-6.174784,"time":4},{"i_lat":-6.185975,"time":8,"distance":1567,"station_id":"GST","transit":false,"i_long":106.850107,"is_transit":false,"station_name":"Gang Sentiong","line":11},{"line":11,"station_name":"Kramat","time":1,"distance":973,"station_id":"KMT","is_transit":false,"transit":false,"i_lat":-6.193792,"i_long":106.855437},{"line":11,"i_lat":-6.209188,"transit":false,"station_name":"Pondok Jati","time":2,"is_transit":false,"i_long":106.861737,"distance":1829,"station_id":"POK"},{"i_lat":-6.215091,"is_transit":true,"time":9,"distance":1236,"station_id":"JNG","line":0,"transit":true,"station_name":"Jatinegara","i_long":106.86807400000001},{"is_transit":false,"station_name":"Matraman","i_lat":-6.212485,"transit":false,"station_id":"MTR","distance":1377,"time":2,"i_long":106.858896,"line":1}],[{"time":0,"distance":0,"transit":false,"station_id":"MGB","i_long":106.82482,"is_transit":false,"station_name":"Manggabesar","i_lat":-6.149769,"line":2},{"distance":1080,"transit":false,"station_name":"Jayakarta","i_long":106.820901,"time":2,"station_id":"JAY","i_lat":-6.141205,"is_transit":false,"line":7},{"i_long":106.812439,"station_name":"Jakarta Kota","station_id":"JAKK","time":4,"is_transit":true,"line":0,"transit":true,"i_lat":-6.137569,"distance":1264},{"time":3,"station_id":"KPB","transit":false,"line":0,"is_transit":true,"i_lat":-6.132549,"distance":1364,"i_long":106.826365,"station_name":"Kampung Bandan"},{"station_name":"Angke","i_lat":-6.144674,"time":9,"distance":4102,"is_transit":false,"i_long":106.79867,"station_id":"AK","line":0,"transit":false},{"i_lat":-6.155215,"is_transit":true,"station_id":"DU","transit":true,"line":1,"distance":1230,"time":4,"station_name":"Duri","i_long":106.800832},{"is_transit":true,"station_name":"Tanah Abang","transit":false,"station_id":"THB","i_lat":-6.185545,"i_long":106.811091,"time":8,"distance":3632,"line":1},{"i_long":106.816351,"line":1,"station_id":"KAT","station_name":"Karet","i_lat":-6.20132,"is_transit":false,"time":5,"distance":2029,"transit":false},{"i_long":106.819881,"station_name":"Sudirman Baru","distance":471,"line":1,"time":1,"transit":false,"station_id":"SUDB","is_transit":false,"i_lat":-6.201433},{"station_id":"SUD","i_long":106.822649,"transit":false,"time":1,"station_name":"Sudirman","is_transit":false,"line":1,"i_lat":-6.202263,"distance":280},{"time":4,"distance":3186,"station_id":"MRI","i_lat":-6.209883,"is_transit":true,"station_name":"Manggarai","transit":false,"i_long":106.84912,"line":0},{"i_lat":-6.212485,"is_transit":false,"distance":1275,"station_id":"MTR","i_long":106.858896,"time":2,"station_name":"Matraman","line":1,"transit":false}],[{"line":2,"is_transit":false,"transit":false,"i_lat":-6.149769,"station_id":"MGB","i_long":106.82482,"time":0,"station_name":"Manggabesar","distance":0},{"i_lat":-6.160725,"station_id":"SW","distance":906,"time":2,"is_transit":false,"i_long":106.827103,"line":2,"station_name":"Sawah Besar","transit":false},{"is_transit":false,"distance":1149,"i_lat":-6.166716,"transit":false,"station_id":"JUA","station_name":"Juanda","i_long":106.828284,"time":2,"line":2},{"distance":2015,"station_name":"Gondangdia","transit":false,"is_transit":false,"i_lat":-6.186295,"i_long":106.832183,"station_id":"GDD","line":2,"time":4},{"station_name":"Cikini","i_long":106.840169,"distance":1750,"is_transit":false,"transit":false,"line":0,"station_id":"CKI","i_lat":-6.198556,"time":3},{"i_lat":-6.209883,"line":0,"station_id":"MRI","transit":true,"time":4,"distance":1590,"is_transit":true,"station_name":"Manggarai","i_long":106.84912},{"transit":false,"i_lat":-6.202263,"line":1,"station_name":"Sudirman","station_id":"SUD","i_long":106.822649,"distance":3186,"time":4,"is_transit":false},{"line":1,"is_transit":false,"i_lat":-6.201433,"station_name":"Sudirman Baru","i_long":106.819881,"time":1,"transit":false,"distance":280,"station_id":"SUDB"},{"time":1,"station_name":"Karet","distance":471,"transit":false,"station_id":"KAT","is_transit":false,"i_long":106.816351,"line":1,"i_lat":-6.20132},{"i_long":106.811091,"line":1,"station_name":"Tanah Abang","station_id":"THB","time":5,"transit":false,"i_lat":-6.185545,"is_transit":true,"distance":2029},{"i_lat":-6.155215,"time":8,"station_id":"DU","line":1,"is_transit":true,"distance":3632,"transit":true,"station_name":"Duri","i_long":106.800832},{"station_name":"Angke","station_id":"AK","is_transit":false,"i_long":106.79867,"transit":false,"time":4,"line":0,"i_lat":-6.144674,"distance":1230},{"transit":true,"time":9,"i_lat":-6.132549,"line":0,"station_name":"Kampung Bandan","i_long":106.826365,"distance":4102,"is_transit":true,"station_id":"KPB"},{"is_transit":false,"station_name":"Rajawali","station_id":"RJW","i_lat":-6.14505,"i_long":106.836569,"line":11,"distance":1444,"time":3,"transit":false},{"station_name":"Kemayoran","line":11,"distance":1901,"is_transit":false,"transit":false,"i_lat":-6.161728,"time":5,"i_long":106.839204,"station_id":"KMO"},{"is_transit":false,"i_lat":-6.174784,"line":11,"i_long":106.84368,"station_name":"Pasar Senen","distance":1436,"transit":false,"station_id":"PSE","time":4},{"i_long":106.850107,"station_id":"GST","station_name":"Gang Sentiong","distance":1567,"line":11,"time":8,"transit":false,"is_transit":false,"i_lat":-6.185975},{"station_id":"KMT","line":11,"time":1,"is_transit":false,"distance":973,"i_lat":-6.193792,"transit":false,"station_name":"Kramat","i_long":106.855437},{"station_id":"POK","i_long":106.861737,"i_lat":-6.209188,"station_name":"Pondok Jati","is_transit":false,"transit":false,"line":11,"time":2,"distance":1829},{"station_name":"Jatinegara","transit":true,"i_long":106.86807400000001,"time":9,"is_transit":true,"distance":1236,"line":0,"station_id":"JNG","i_lat":-6.215091},{"line":1,"station_name":"Matraman","transit":false,"is_transit":false,"time":2,"distance":1377,"station_id":"MTR","i_lat":-6.212485,"i_long":106.858896}]]}