{"data":[[{"i_lat":-6.149769,"distance":0,"station_id":"MGB","i_long":106.82482,"time":0,"station_name":"Manggabesar","is_transit":false,"line":2,"transit":false},{"i_lat":-6.160725,"distance":906,"i_long":106.827103,"line":2,"time":2,"is_transit":false,"station_name":"Sawah Besar","transit":false,"station_id":"SW"},{"i_lat":-6.166716,"line":2,"is_transit":false,"station_name":"Juanda","transit":false,"i_long":106.828284,"station_id":"JUA","distance":1149,"time":2},{"line":2,"station_id":"GDD","transit":false,"time":4,"distance":2015,"station_name":"Gondangdia","i_long":106.832183,"i_lat":-6.186295,"is_transit":false},{"i_lat":-6.198556,"distance":1750,"station_id":"CKI","is_transit":false,"i_long":106.840169,"time":3,"line":2,"station_name":"Cikini","transit":false},{"i_long":106.84912,"transit":false,"is_transit":false,"i_lat":-6.209883,"line":2,"distance":1590,"station_id":"MRI","station_name":"Manggarai","time":4},{"distance":2610,"station_id":"TEB","i_long":106.857948,"is_transit":false,"i_lat":-6.226659,"station_name":"Tebet","transit":false,"line":2,"time":4},{"i_lat":-6.242512,"i_long":106.856607,"transit":false,"line":2,"distance":1230,"is_transit":false,"time":2,"station_id":"CW","station_name":"Cawang"},{"line":2,"station_name":"Duren Kalibata","time":3,"i_lat":-6.255332,"transit":false,"i_long":106.85449,"distance":1546,"is_transit":false,"station_id":"DRN"},{"distance":824,"time":2,"i_lat":-6.263214,"i_long":106.851577,"station_id":"PSMB","station_name":"Pasar Minggu Baru","transit":false,"line":2,"is_transit":false}],[{"station_id":"MGB","i_lat":-6.149769,"i_long":106.82482,"distance":0,"station_name":"Manggabesar","transit":false,"time":0,"line":2,"is_transit":false},{"station_id":"JAY","station_name":"Jayakarta","line":2,"is_transit":false,"i_lat":-6.141205,"distance":1080,"transit":false,"time":2,"i_long":106.820901},{"is_transit":true,"i_lat":-6.137569,"time":4,"line":2,"transit":true,"station_name":"Jakarta Kota","station_id":"JAKK","i_long":106.812439,"distance":1264},{"i_lat":-6.132549,"station_id":"KPB","transit":true,"distance":1364,"i_long":106.826365,"is_transit":true,"station_name":"Kampung Bandan","line":4,"time":3},{"i_lat":-6.144674,"station_name":"Angke","is_transit":false,"line":1,"distance":4102,"station_id":"AK","i_long":106.79867,"time":9,"transit":false},{"is_transit":false,"time":4,"distance":1230,"line":1,"station_name":"Duri","i_lat":-6.155215,"transit":false,"station_id":"DU","i_long":106.800832},{"station_name":"Tanah Abang","time":8,"i_long":106.811091,"station_id":"THB","distance":3632,"i_lat":-6.185545,"transit":false,"line":1,"is_transit":false},{"station_id":"KAT","i_lat":-6.20132,"distance":2029,"i_long":106.816351,"time":5,"line":1,"transit":false,"station_name":"Karet","is_transit":false},{"is_transit":false,"distance":471,"station_id":"SUDB","i_lat":-6.201433,"time":1,"transit":false,"station_name":"Sudirman Baru","line":1,"i_long":106.819881},{"station_name":"Sudirman","distance":280,"station_id":"SUD","time":1,"transit":false,"i_lat":-6.202263,"is_transit":false,"i_long":106.822649,"line":1},{"i_long":106.84912,"transit":true,"distance":3186,"time":4,"i_lat":-6.209883,"line":2,"station_name":"Manggarai","is_transit":true,"station_id":"MRI"},{"i_lat":-6.226659,"station_id":"TEB","transit":false,"station_name":"Tebet","is_transit":false,"line":2,"i_long":106.857948,"time":4,"distance":2610},{"transit":false,"i_lat":-6.242512,"i_long":106.856607,"is_transit":false,"time":2,"line":2,"station_name":"Cawang","distance":1230,"station_id":"CW"},{"is_transit":false,"distance":1546,"transit":false,"station_name":"Duren Kalibata","i_long":106.85449,"station_id":"DRN","time":3,"line":2,"i_lat":-6.255332},{"is_transit":false,"i_lat":-6.263214,"i_long":106.851577,"time":2,"distance":824,"station_id":"PSMB","transit":false,"station_name":"Pasar Minggu Baru","line":2}],[{"is_transit":false,"i_lat":-6.149769,"transit":false,"distance":0,"i_long":106.82482,"time":0,"station_name":"Manggabesar","station_id":"MGB","line":2},{"is_transit":false,"station_name":"Jayakarta","i_long":106.820901,"i_lat":-6.141205,"station_id":"JAY","line":2,"transit":false,"distance":1080,"time":2},{"is_transit":true,"station_name":"Jakarta Kota","distance":1264,"time":4,"station_id":"JAKK","i_long":106.812439,"i_lat":-6.137569,"transit":true,"line":2},{"distance":1364,"station_name":"Kampung Bandan","station_id":"KPB","line":4,"is_transit":true,"time":3,"i_long":106.826365,"i_lat":-6.132549,"transit":true},{"distance":1444,"time":3,"line":11,"is_transit":false,"transit":false,"station_name":"Rajawali","station_id":"RJW","i_lat":-6.14505,"i_long":106.836569},{"station_name":"Kemayoran","i_long":106.839204,"is_transit":false,"station_id":"KMO","distance":1901,"line":11,"time":5,"i_lat":-6.161728,"transit":false},{"transit":false,"station_id":"PSE","i_lat":-6.174784,"distance":1436,"i_long":106.84368,"is_transit":false,"station_name":"Pasar Senen","time":4,"line":11},{"is_transit":false,"station_id":"GST","time":8,"i_long":106.850107,"line":11,"distance":1567,"station_name":"Gang Sentiong","transit":false,"i_lat":-6.185975},{"is_transit":false,"transit":false,"time":1,"i_lat":-6.193792,"i_long":106.855437,"distance":973,"line":11,"station_name":"Kramat","station_id":"KMT"},{"station_id":"POK","i_lat":-6.209188,"is_transit":false,"station_name":"Pondok Jati","transit":false,"distance":1829,"i_long":106.861737,"line":11,"time":2},{"time":9,"station_id":"JNG","distance":1236,"is_transit":true,"i_long":106.86807400000001,"station_name":"Jatinegara","i_lat":-6.215091,"line":1,"transit":true},{"station_id":"MTR","i_lat":-6.212485,"time":2,"i_long":106.858896,"transit":false,"distance":1377,"is_transit":false,"station_name":"Matraman","line":1},{"station_id":"MRI","i_lat":-6.209883,"i_long":106.84912,"is_transit":true,"time":2,"distance":1275,"line":2,"transit":true,"station_name":"Manggarai"},{"time":4,"transit":false,"is_transit":false,"i_long":106.857948,"station_name":"Tebet","distance":2610,"i_lat":-6.226659,"station_id":"TEB","line":2},{"is_transit":false,"station_id":"CW","line":2,"time":2,"i_long":106.856607,"i_lat":-6.242512,"station_name":"Cawang","transit":false,"distance":1230},{"distance":1546,"station_name":"Duren Kalibata","i_lat":-6.255332,"line":2,"is_transit":false,"transit":false,"station_id":"DRN","i_long":106.85449,"time":3},{"i_lat":-6.263214,"time":2,"is_transit":false,"station_name":"Pasar Minggu Baru","i_long":106.851577,"distance":824,"transit":false,"station_id":"PSMB","line":2}]]}