{"data":[[{"i_long":106.82482,"station_name":"Manggabesar","distance":0,"station_id":"MGB","transit":false,"i_lat":-6.149769,"is_transit":false,"time":0,"line":2},{"i_lat":-6.141205,"line":2,"time":2,"distance":1080,"i_long":106.820901,"transit":false,"is_transit":false,"station_name":"Jayakarta","station_id":"JAY"},{"distance":1264,"transit":true,"is_transit":true,"line":2,"station_name":"Jakarta Kota","station_id":"JAKK","time":4,"i_long":106.812439,"i_lat":-6.137569},{"station_name":"Kampung Bandan","is_transit":true,"i_long":106.826365,"time":3,"station_id":"KPB","line":4,"i_lat":-6.132549,"distance":1364,"transit":true},{"station_name":"Angke","station_id":"AK","is_transit":false,"i_lat":-6.144674,"time":9,"transit":false,"i_long":106.79867,"distance":4102,"line":1},{"time":4,"station_name":"Duri","i_long":106.800832,"line":1,"is_transit":false,"distance":1230,"station_id":"DU","transit":false,"i_lat":-6.155215},{"station_id":"THB","distance":3632,"line":1,"i_long":106.811091,"transit":true,"time":8,"i_lat":-6.185545,"station_name":"Tanah Abang","is_transit":true},{"i_long":106.79689,"is_transit":false,"distance":3191,"time":6,"station_name":"Palmerah","station_id":"PLM","line":6,"i_lat":-6.207404,"transit":false},{"i_lat":-6.237242,"distance":3737,"i_long":106.780334,"is_transit":false,"transit":false,"station_id":"KBY","station_name":"Kebayoran","time":7,"line":6},{"distance":6218,"i_long":106.74273,"transit":false,"station_id":"PDJ","line":6,"is_transit":false,"station_name":"Pondokranji","time":8,"i_lat":-6.276362},{"station_name":"Jurangmangu","is_transit":false,"transit":false,"station_id":"JMU","i_lat":-6.288927,"i_long":106.728916,"distance":2179,"time":3,"line":6},{"station_id":"SDM","is_transit":false,"transit":false,"station_name":"Sudimara","time":4,"i_lat":-6.296963,"i_long":106.712277,"line":6,"distance":1994},{"station_id":"RU","time":6,"i_lat":-6.314823,"is_transit":false,"i_long":106.675475,"line":6,"station_name":"Rawa Buntu","transit":false,"distance":4566},{"line":6,"distance":2413,"station_id":"SRP","i_lat":-6.319871,"time":4,"i_long":106.66566,"station_name":"Serpong","transit":false,"is_transit":false},{"time":4,"distance":1784,"i_lat":-6.32484,"i_long":106.640411,"line":3,"station_id":"CSK","station_name":"Cisauk","transit":false,"is_transit":false},{"transit":false,"distance":2519,"station_name":"Cicayur","i_lat":-6.329547,"i_long":106.617853,"line":3,"is_transit":false,"station_id":"CC","time":4},{"distance":5968,"i_lat":-6.3441410000000005,"time":8,"transit":false,"line":6,"station_id":"PRP","is_transit":false,"i_long":106.568863,"station_name":"Parung Panjang"},{"line":3,"is_transit":false,"i_long":106.508482,"station_name":"Cilejit","station_id":"CJT","distance":7025,"i_lat":-6.354349,"time":9,"transit":false}],[{"distance":0,"station_id":"MGB","is_transit":false,"line":2,"station_name":"Manggabesar","transit":false,"i_long":106.82482,"i_lat":-6.149769,"time":0},{"time":2,"distance":906,"is_transit":false,"i_long":106.827103,"i_lat":-6.160725,"line":2,"station_name":"Sawah Besar","station_id":"SW","transit":false},{"i_lat":-6.166716,"time":2,"line":2,"is_transit":false,"station_id":"JUA","transit":false,"i_long":106.828284,"distance":1149,"station_name":"Juanda"},{"station_id":"GDD","distance":2015,"time":4,"i_lat":-6.186295,"i_long":106.832183,"is_transit":false,"line":2,"transit":false,"station_name":"Gondangdia"},{"station_id":"CKI","is_transit":false,"time":3,"distance":1750,"station_name":"Cikini","i_lat":-6.198556,"transit":false,"line":2,"i_long":106.840169},{"is_transit":true,"station_name":"Manggarai","distance":1590,"line":2,"i_lat":-6.209883,"station_id":"MRI","i_long":106.84912,"time":4,"transit":true},{"station_id":"SUD","station_name":"Sudirman","time":4,"i_long":106.822649,"is_transit":false,"i_lat":-6.202263,"transit":false,"line":1,"distance":3186},{"transit":false,"station_name":"Sudirman Baru","station_id":"SUDB","time":1,"distance":280,"line":1,"i_lat":-6.201433,"is_transit":false,"i_long":106.819881},{"is_transit":false,"i_lat":-6.20132,"distance":471,"transit":false,"time":1,"i_long":106.816351,"station_name":"Karet","station_id":"KAT","line":1},{"is_transit":true,"distance":2029,"i_lat":-6.185545,"station_id":"THB","i_long":106.811091,"station_name":"Tanah Abang","transit":true,"line":1,"time":5},{"distance":3191,"i_long":106.79689,"station_id":"PLM","is_transit":false,"line":6,"time":6,"i_lat":-6.207404,"transit":false,"station_name":"Palmerah"},{"distance":3737,"transit":false,"line":6,"i_lat":-6.237242,"station_id":"KBY","time":7,"station_name":"Kebayoran","is_transit":false,"i_long":106.780334},{"i_long":106.74273,"i_lat":-6.276362,"transit":false,"is_transit":false,"station_name":"Pondokranji","time":8,"line":6,"station_id":"PDJ","distance":6218},{"is_transit":false,"i_long":106.728916,"transit":false,"station_name":"Jurangmangu","station_id":"JMU","distance":2179,"i_lat":-6.288927,"line":6,"time":3},{"line":6,"station_id":"SDM","is_transit":false,"i_lat":-6.296963,"time":4,"distance":1994,"i_long":106.712277,"transit":false,"station_name":"Sudimara"},{"i_lat":-6.314823,"transit":false,"station_name":"Rawa Buntu","is_transit":false,"distance":4566,"line":6,"i_long":106.675475,"time":6,"station_id":"RU"},{"time":4,"station_name":"Serpong","transit":false,"station_id":"SRP","is_transit":false,"i_lat":-6.319871,"line":6,"distance":2413,"i_long":106.66566},{"station_name":"Cisauk","time":4,"line":3,"transit":false,"i_lat":-6.32484,"i_long":106.640411,"is_transit":false,"station_id":"CSK","distance":1784},{"station_name":"Cicayur","station_id":"CC","transit":false,"time":4,"distance":2519,"i_lat":-6.329547,"line":3,"is_transit":false,"i_long":106.617853},{"i_lat":-6.3441410000000005,"line":6,"station_name":"Parung Panjang","is_transit":false,"i_long":106.568863,"distance":5968,"time":8,"transit":false,"station_id":"PRP"},{"station_name":"Cilejit","distance":7025,"time":9,"station_id":"CJT","is_transit":false,"transit":false,"i_lat":-6.354349,"i_long":106.508482,"line":3}],[{"time":0,"line":2,"station_name":"Manggabesar","is_transit":false,"i_lat":-6.149769,"distance":0,"station_id":"MGB","i_long":106.82482,"transit":false},{"i_lat":-6.141205,"is_transit":false,"distance":1080,"time":2,"i_long":106.820901,"line":2,"station_id":"JAY","transit":false,"station_name":"Jayakarta"},{"i_lat":-6.137569,"transit":true,"i_long":106.812439,"station_name":"Jakarta Kota","is_transit":true,"line":2,"time":4,"station_id":"JAKK","distance":1264},{"station_id":"KPB","time":3,"i_long":106.826365,"line":4,"is_transit":true,"station_name":"Kampung Bandan","distance":1364,"i_lat":-6.132549,"transit":true},{"i_long":106.836569,"station_id":"RJW","is_transit":false,"i_lat":-6.14505,"station_name":"Rajawali","line":11,"time":3,"transit":false,"distance":1444},{"distance":1901,"i_long":106.839204,"line":11,"station_id":"KMO","i_lat":-6.161728,"transit":false,"is_transit":false,"station_name":"Kemayoran","time":5},{"transit":false,"distance":1436,"i_long":106.84368,"is_transit":false,"time":4,"line":11,"station_id":"PSE","i_lat":-6.174784,"station_name":"Pasar Senen"},{"distance":1567,"station_id":"GST","i_lat":-6.185975,"line":11,"is_transit":false,"station_name":"Gang Sentiong","transit":false,"i_long":106.850107,"time":8},{"line":11,"station_name":"Kramat","distance":973,"i_lat":-6.193792,"transit":false,"time":1,"station_id":"KMT","is_transit":false,"i_long":106.855437},{"line":11,"distance":1829,"i_lat":-6.209188,"is_transit":false,"i_long":106.861737,"time":2,"station_id":"POK","station_name":"Pondok Jati","transit":false},{"time":9,"transit":true,"distance":1236,"line":1,"station_id":"JNG","station_name":"Jatinegara","i_lat":-6.215091,"i_long":106.86807400000001,"is_transit":true},{"i_lat":-6.212485,"i_long":106.858896,"time":2,"station_name":"Matraman","distance":1377,"is_transit":false,"line":1,"station_id":"MTR","transit":false},{"station_id":"MRI","i_long":106.84912,"distance":1275,"transit":false,"is_transit":false,"time":2,"line":2,"i_lat":-6.209883,"station_name":"Manggarai"},{"station_name":"Sudirman","is_transit":false,"time":4,"i_long":106.822649,"i_lat":-6.202263,"transit":false,"line":1,"station_id":"SUD","distance":3186},{"i_long":106.819881,"transit":false,"time":1,"i_lat":-6.201433,"station_name":"Sudirman Baru","station_id":"SUDB","distance":280,"is_transit":false,"line":1},{"is_transit":false,"distance":471,"line":1,"time":1,"i_long":106.816351,"station_name":"Karet","station_id":"KAT","i_lat":-6.20132,"transit":false},{"transit":true,"distance":2029,"time":5,"i_long":106.811091,"line":1,"station_id":"THB","i_lat":-6.185545,"station_name":"Tanah Abang","is_transit":true},{"distance":3191,"i_lat":-6.207404,"transit":false,"line":6,"station_id":"PLM","time":6,"station_name":"Palmerah","is_transit":false,"i_long":106.79689},{"distance":3737,"station_name":"Kebayoran","time":7,"line":6,"transit":false,"station_id":"KBY","is_transit":false,"i_lat":-6.237242,"i_long":106.780334},{"distance":6218,"line":6,"time":8,"station_name":"Pondokranji","is_transit":false,"i_long":106.74273,"transit":false,"i_lat":-6.276362,"station_id":"PDJ"},{"i_long":106.728916,"line":6,"time":3,"station_name":"Jurangmangu","is_transit":false,"distance":2179,"station_id":"JMU","transit":false,"i_lat":-6.288927},{"transit":false,"time":4,"i_lat":-6.296963,"station_name":"Sudimara","is_transit":false,"i_long":106.712277,"station_id":"SDM","line":6,"distance":1994},{"i_lat":-6.314823,"line":6,"time":6,"station_id":"RU","is_transit":false,"i_long":106.675475,"station_name":"Rawa Buntu","transit":false,"distance":4566},{"i_lat":-6.319871,"station_id":"SRP","line":6,"is_transit":false,"time":4,"i_long":106.66566,"transit":false,"station_name":"Serpong","distance":2413},{"i_long":106.640411,"i_lat":-6.32484,"is_transit":false,"line":3,"station_id":"CSK","time":4,"distance":1784,"transit":false,"station_name":"Cisauk"},{"transit":false,"station_id":"CC","is_transit":false,"i_lat":-6.329547,"line":3,"time":4,"i_long":106.617853,"station_name":"Cicayur","distance":2519},{"station_name":"Parung Panjang","is_transit":false,"time":8,"i_long":106.568863,"line":6,"distance":5968,"transit":false,"station_id":"PRP","i_lat":-6.3441410000000005},{"transit":false,"station_id":"CJT","station_name":"Cilejit","is_transit":false,"i_lat":-6.354349,"time":9,"i_long":106.508482,"line":3,"distance":7025}],[{"transit":false,"station_id":"MGB","station_name":"Manggabesar","distance":0,"is_transit":false,"i_long":106.82482,"line":2,"time":0,"i_lat":-6.149769},{"station_name":"Sawah Besar","i_lat":-6.160725,"transit":false,"i_long":106.827103,"station_id":"SW","distance":906,"line":2,"is_transit":false,"time":2},{"station_id":"JUA","line":2,"is_transit":false,"i_long":106.828284,"time":2,"distance":1149,"i_lat":-6.166716,"station_name":"Juanda","transit":false},{"station_name":"Gondangdia","i_lat":-6.186295,"i_long":106.832183,"line":2,"station_id":"GDD","is_transit":false,"time":4,"distance":2015,"transit":false},{"i_lat":-6.198556,"station_id":"CKI","station_name":"Cikini","transit":false,"distance":1750,"time":3,"line":2,"is_transit":false,"i_long":106.840169},{"transit":true,"station_id":"MRI","i_lat":-6.209883,"line":2,"station_name":"Manggarai","time":4,"is_transit":true,"distance":1590,"i_long":106.84912},{"i_lat":-6.212485,"i_long":106.858896,"station_id":"MTR","time":2,"line":1,"station_name":"Matraman","transit":false,"distance":1275,"is_transit":false},{"station_id":"JNG","station_name":"Jatinegara","i_lat":-6.215091,"transit":true,"time":8,"i_long":106.86807400000001,"line":1,"is_transit":true,"distance":1377},{"i_lat":-6.209188,"station_name":"Pondok Jati","station_id":"POK","transit":false,"is_transit":false,"distance":1236,"time":2,"i_long":106.861737,"line":11},{"line":11,"station_name":"Kramat","transit":false,"i_long":106.855437,"i_lat":-6.193792,"distance":1829,"station_id":"KMT","time":2,"is_transit":false},{"line":11,"is_transit":false,"station_id":"GST","transit":false,"station_name":"Gang Sentiong","time":1,"distance":973,"i_lat":-6.185975,"i_long":106.850107},{"i_long":106.84368,"transit":false,"line":11,"time":8,"is_transit":false,"station_name":"Pasar Senen","station_id":"PSE","distance":1567,"i_lat":-6.174784},{"time":4,"line":11,"is_transit":false,"station_id":"KMO","station_name":"Kemayoran","transit":false,"i_lat":-6.161728,"i_long":106.839204,"distance":1436},{"transit":false,"is_transit":false,"time":5,"station_name":"Rajawali","distance":1901,"i_lat":-6.14505,"i_long":106.836569,"line":11,"station_id":"RJW"},{"distance":1444,"i_lat":-6.132549,"i_long":106.826365,"station_id":"KPB","transit":true,"station_name":"Kampung Bandan","line":4,"is_transit":true,"time":3},{"transit":false,"station_name":"Angke","time":9,"distance":4102,"line":1,"is_transit":false,"i_lat":-6.144674,"i_long":106.79867,"station_id":"AK"},{"transit":false,"station_name":"Duri","time":4,"station_id":"DU","i_lat":-6.155215,"is_transit":false,"i_long":106.800832,"distance":1230,"line":1},{"distance":3632,"i_lat":-6.185545,"transit":true,"is_transit":true,"time":8,"i_long":106.811091,"station_name":"Tanah Abang","station_id":"THB","line":1},{"line":6,"time":6,"station_name":"Palmerah","distance":3191,"is_transit":false,"i_long":106.79689,"station_id":"PLM","i_lat":-6.207404,"transit":false},{"distance":3737,"i_lat":-6.237242,"time":7,"is_transit":false,"station_name":"Kebayoran","i_long":106.780334,"transit":false,"line":6,"station_id":"KBY"},{"is_transit":false,"time":8,"transit":false,"station_name":"Pondokranji","station_id":"PDJ","distance":6218,"i_long":106.74273,"line":6,"i_lat":-6.276362},{"i_lat":-6.288927,"station_name":"Jurangmangu","time":3,"distance":2179,"i_long":106.728916,"station_id":"JMU","line":6,"transit":false,"is_transit":false},{"transit":false,"i_long":106.712277,"line":6,"station_name":"Sudimara","distance":1994,"station_id":"SDM","i_lat":-6.296963,"time":4,"is_transit":false},{"time":6,"station_id":"RU","distance":4566,"i_long":106.675475,"transit":false,"station_name":"Rawa Buntu","is_transit":false,"i_lat":-6.314823,"line":6},{"i_lat":-6.319871,"is_transit":false,"transit":false,"i_long":106.66566,"time":4,"distance":2413,"station_name":"Serpong","station_id":"SRP","line":6},{"distance":1784,"station_name":"Cisauk","is_transit":false,"time":4,"line":3,"station_id":"CSK","i_lat":-6.32484,"i_long":106.640411,"transit":false},{"station_name":"Cicayur","time":4,"station_id":"CC","distance":2519,"is_transit":false,"i_lat":-6.329547,"i_long":106.617853,"line":3,"transit":false},{"is_transit":false,"line":6,"distance":5968,"time":8,"transit":false,"station_id":"PRP","station_name":"Parung Panjang","i_lat":-6.3441410000000005,"i_long":106.568863},{"is_transit":false,"distance":7025,"station_name":"Cilejit","line":3,"i_lat":-6.354349,"transit":false,"i_long":106.508482,"time":9,"station_id":"CJT"}]]}