{"data":[[{"station_id":"MGB","distance":0,"transit":false,"is_transit":false,"line":2,"i_lat":-6.149769,"station_name":"Manggabesar","time":0,"i_long":106.82482},{"is_transit":false,"i_lat":-6.141205,"distance":1080,"line":2,"time":2,"station_id":"JAY","station_name":"Jayakarta","i_long":106.820901,"transit":false},{"i_lat":-6.137569,"station_id":"JAKK","transit":true,"time":4,"line":2,"station_name":"Jakarta Kota","i_long":106.812439,"distance":1264,"is_transit":true},{"i_lat":-6.132549,"line":4,"transit":true,"i_long":106.826365,"station_id":"KPB","time":3,"is_transit":true,"distance":1364,"station_name":"Kampung Bandan"},{"station_id":"AK","i_lat":-6.144674,"station_name":"Angke","i_long":106.79867,"is_transit":false,"line":1,"transit":false,"time":9,"distance":4102},{"station_id":"DU","station_name":"Duri","transit":false,"i_lat":-6.155215,"is_transit":false,"distance":1230,"i_long":106.800832,"line":1,"time":4},{"is_transit":false,"station_name":"Tanah Abang","i_long":106.811091,"i_lat":-6.185545,"line":1,"transit":false,"station_id":"THB","time":8,"distance":3632},{"distance":2029,"transit":false,"i_lat":-6.20132,"line":1,"is_transit":false,"time":5,"station_id":"KAT","i_long":106.816351,"station_name":"Karet"}],[{"i_lat":-6.149769,"is_transit":false,"i_long":106.82482,"transit":false,"station_id":"MGB","distance":0,"station_name":"Manggabesar","line":2,"time":0},{"i_long":106.827103,"line":2,"station_name":"Sawah Besar","time":2,"distance":906,"i_lat":-6.160725,"is_transit":false,"transit":false,"station_id":"SW"},{"is_transit":false,"time":2,"station_name":"Juanda","transit":false,"station_id":"JUA","line":2,"distance":1149,"i_lat":-6.166716,"i_long":106.828284},{"i_lat":-6.186295,"line":2,"distance":2015,"i_long":106.832183,"transit":false,"is_transit":false,"station_name":"Gondangdia","time":4,"station_id":"GDD"},{"transit":false,"i_lat":-6.198556,"time":3,"i_long":106.840169,"is_transit":false,"line":2,"station_id":"CKI","distance":1750,"station_name":"Cikini"},{"i_lat":-6.209883,"is_transit":true,"distance":1590,"i_long":106.84912,"line":2,"time":4,"station_name":"Manggarai","transit":true,"station_id":"MRI"},{"i_lat":-6.202263,"station_name":"Sudirman","i_long":106.822649,"station_id":"SUD","time":4,"transit":false,"is_transit":false,"distance":3186,"line":1},{"i_long":106.819881,"distance":280,"time":1,"station_id":"SUDB","is_transit":false,"i_lat":-6.201433,"line":1,"station_name":"Sudirman Baru","transit":false},{"station_name":"Karet","transit":false,"i_lat":-6.20132,"i_long":106.816351,"line":1,"time":1,"is_transit":false,"station_id":"KAT","distance":471}],[{"distance":0,"time":0,"transit":false,"station_name":"Manggabesar","i_lat":-6.149769,"line":2,"station_id":"MGB","i_long":106.82482,"is_transit":false},{"distance":1080,"i_long":106.820901,"station_id":"JAY","transit":false,"time":2,"line":2,"is_transit":false,"station_name":"Jayakarta","i_lat":-6.141205},{"time":4,"distance":1264,"station_id":"JAKK","line":2,"transit":true,"i_lat":-6.137569,"is_transit":true,"station_name":"Jakarta Kota","i_long":106.812439},{"i_lat":-6.132549,"i_long":106.826365,"is_transit":true,"distance":1364,"transit":true,"station_name":"Kampung Bandan","time":3,"station_id":"KPB","line":4},{"i_long":106.836569,"line":11,"is_transit":false,"station_id":"RJW","i_lat":-6.14505,"transit":false,"time":3,"station_name":"Rajawali","distance":1444},{"line":11,"i_long":106.839204,"station_name":"Kemayoran","is_transit":false,"station_id":"KMO","distance":1901,"transit":false,"time":5,"i_lat":-6.161728},{"i_lat":-6.174784,"time":4,"station_id":"PSE","transit":false,"station_name":"Pasar Senen","i_long":106.84368,"is_transit":false,"distance":1436,"line":11},{"i_lat":-6.185975,"is_transit":false,"time":8,"transit":false,"line":11,"distance":1567,"station_name":"Gang Sentiong","station_id":"GST","i_long":106.850107},{"station_name":"Kramat","is_transit":false,"i_long":106.855437,"transit":false,"station_id":"KMT","line":11,"i_lat":-6.193792,"time":1,"distance":973},{"i_long":106.861737,"distance":1829,"station_name":"Pondok Jati","time":2,"i_lat":-6.209188,"line":11,"is_transit":false,"station_id":"POK","transit":false},{"station_id":"JNG","is_transit":true,"distance":1236,"station_name":"Jatinegara","i_lat":-6.215091,"time":9,"line":1,"i_long":106.86807400000001,"transit":true},{"is_transit":false,"time":2,"i_lat":-6.212485,"distance":1377,"station_id":"MTR","transit":false,"station_name":"Matraman","i_long":106.858896,"line":1},{"station_id":"MRI","time":2,"distance":1275,"station_name":"Manggarai","i_lat":-6.209883,"i_long":106.84912,"transit":false,"line":2,"is_transit":false},{"transit":false,"station_name":"Sudirman","line":1,"distance":3186,"time":4,"station_id":"SUD","i_lat":-6.202263,"i_long":106.822649,"is_transit":false},{"transit":false,"time":1,"i_lat":-6.201433,"station_id":"SUDB","distance":280,"is_transit":false,"i_long":106.819881,"station_name":"Sudirman Baru","line":1},{"station_id":"KAT","is_transit":false,"i_long":106.816351,"line":1,"time":1,"station_name":"Karet","distance":471,"i_lat":-6.20132,"transit":false}],[{"i_lat":-6.149769,"transit":false,"time":0,"station_name":"Manggabesar","i_long":106.82482,"is_transit":false,"distance":0,"station_id":"MGB","line":2},{"station_id":"SW","transit":false,"station_name":"Sawah Besar","is_transit":false,"i_lat":-6.160725,"distance":906,"i_long":106.827103,"line":2,"time":2},{"station_id":"JUA","transit":false,"time":2,"station_name":"Juanda","i_long":106.828284,"i_lat":-6.166716,"is_transit":false,"line":2,"distance":1149},{"transit":false,"i_lat":-6.186295,"is_transit":false,"time":4,"i_long":106.832183,"station_id":"GDD","distance":2015,"station_name":"Gondangdia","line":2},{"distance":1750,"i_long":106.840169,"i_lat":-6.198556,"line":2,"transit":false,"time":3,"is_transit":false,"station_name":"Cikini","station_id":"CKI"},{"i_long":106.84912,"station_name":"Manggarai","transit":true,"station_id":"MRI","is_transit":true,"line":2,"i_lat":-6.209883,"distance":1590,"time":4},{"station_id":"MTR","distance":1275,"is_transit":false,"station_name":"Matraman","time":2,"i_lat":-6.212485,"i_long":106.858896,"transit":false,"line":1},{"time":8,"i_long":106.86807400000001,"is_transit":true,"distance":1377,"line":1,"station_name":"Jatinegara","transit":true,"station_id":"JNG","i_lat":-6.215091},{"station_id":"POK","time":2,"distance":1236,"i_lat":-6.209188,"i_long":106.861737,"line":11,"transit":false,"station_name":"Pondok Jati","is_transit":false},{"station_name":"Kramat","distance":1829,"is_transit":false,"time":2,"i_lat":-6.193792,"station_id":"KMT","transit":false,"line":11,"i_long":106.855437},{"i_lat":-6.185975,"i_long":106.850107,"line":11,"time":1,"station_id":"GST","transit":false,"is_transit":false,"distance":973,"station_name":"Gang Sentiong"},{"line":11,"is_transit":false,"time":8,"station_id":"PSE","transit":false,"station_name":"Pasar Senen","i_lat":-6.174784,"i_long":106.84368,"distance":1567},{"time":4,"distance":1436,"station_name":"Kemayoran","transit":false,"line":11,"is_transit":false,"station_id":"KMO","i_lat":-6.161728,"i_long":106.839204},{"distance":1901,"is_transit":false,"station_id":"RJW","station_name":"Rajawali","transit":false,"i_lat":-6.14505,"i_long":106.836569,"time":5,"line":11},{"time":3,"station_id":"KPB","line":4,"i_long":106.826365,"i_lat":-6.132549,"transit":true,"distance":1444,"station_name":"Kampung Bandan","is_transit":true},{"i_long":106.79867,"transit":false,"is_transit":false,"i_lat":-6.144674,"station_id":"AK","distance":4102,"line":1,"time":9,"station_name":"Angke"},{"line":1,"is_transit":false,"transit":false,"time":4,"i_long":106.800832,"station_id":"DU","distance":1230,"i_lat":-6.155215,"station_name":"Duri"},{"line":1,"station_name":"Tanah Abang","is_transit":false,"transit":false,"i_long":106.811091,"distance":3632,"i_lat":-6.185545,"time":8,"station_id":"THB"},{"line":1,"station_id":"KAT","transit":false,"i_long":106.816351,"distance":2029,"is_transit":false,"station_name":"Karet","i_lat":-6.20132,"time":5}]]}