{"data":[[{"station_name":"Manggabesar","i_lat":-6.149769,"time":0,"i_long":106.82482,"station_id":"MGB","distance":0,"line":2,"is_transit":false,"transit":false},{"distance":906,"i_long":106.827103,"station_id":"SW","transit":false,"is_transit":false,"line":2,"i_lat":-6.160725,"station_name":"Sawah Besar","time":2},{"transit":false,"station_name":"Juanda","i_lat":-6.166716,"time":2,"distance":1149,"station_id":"JUA","is_transit":false,"i_long":106.828284,"line":2},{"is_transit":false,"station_name":"Gondangdia","station_id":"GDD","line":2,"time":4,"i_long":106.832183,"transit":false,"i_lat":-6.186295,"distance":2015},{"line":2,"distance":1750,"station_name":"Cikini","station_id":"CKI","is_transit":false,"transit":false,"i_long":106.840169,"i_lat":-6.198556,"time":3},{"station_id":"MRI","i_lat":-6.209883,"is_transit":false,"line":2,"station_name":"Manggarai","distance":1590,"transit":false,"i_long":106.84912,"time":4},{"i_long":106.857948,"transit":false,"station_id":"TEB","line":2,"i_lat":-6.226659,"time":4,"station_name":"Tebet","is_transit":false,"distance":2610}],[{"station_id":"MGB","transit":false,"station_name":"Manggabesar","line":2,"distance":0,"time":0,"is_transit":false,"i_lat":-6.149769,"i_long":106.82482},{"time":2,"i_long":106.820901,"i_lat":-6.141205,"is_transit":false,"station_id":"JAY","station_name":"Jayakarta","transit":false,"distance":1080,"line":2},{"i_lat":-6.137569,"i_long":106.812439,"transit":true,"station_name":"Jakarta Kota","station_id":"JAKK","line":2,"time":4,"is_transit":true,"distance":1264},{"i_long":106.826365,"i_lat":-6.132549,"line":4,"station_id":"KPB","is_transit":true,"transit":true,"distance":1364,"station_name":"Kampung Bandan","time":3},{"distance":4102,"time":9,"i_lat":-6.144674,"station_name":"Angke","is_transit":false,"line":1,"transit":false,"i_long":106.79867,"station_id":"AK"},{"i_lat":-6.155215,"i_long":106.800832,"line":1,"is_transit":false,"station_name":"Duri","distance":1230,"transit":false,"station_id":"DU","time":4},{"station_name":"Tanah Abang","distance":3632,"i_lat":-6.185545,"is_transit":false,"transit":false,"i_long":106.811091,"station_id":"THB","time":8,"line":1},{"is_transit":false,"station_name":"Karet","station_id":"KAT","i_lat":-6.20132,"line":1,"transit":false,"time":5,"distance":2029,"i_long":106.816351},{"line":1,"station_id":"SUDB","transit":false,"station_name":"Sudirman Baru","time":1,"i_long":106.819881,"is_transit":false,"i_lat":-6.201433,"distance":471},{"is_transit":false,"station_name":"Sudirman","line":1,"station_id":"SUD","distance":280,"i_lat":-6.202263,"i_long":106.822649,"transit":false,"time":1},{"i_long":106.84912,"time":4,"distance":3186,"line":2,"station_id":"MRI","station_name":"Manggarai","transit":true,"is_transit":true,"i_lat":-6.209883},{"i_long":106.857948,"line":2,"time":4,"distance":2610,"i_lat":-6.226659,"transit":false,"station_id":"TEB","station_name":"Tebet","is_transit":false}],[{"station_id":"MGB","line":2,"station_name":"Manggabesar","is_transit":false,"distance":0,"i_lat":-6.149769,"transit":false,"i_long":106.82482,"time":0},{"line":2,"distance":1080,"i_long":106.820901,"transit":false,"station_name":"Jayakarta","station_id":"JAY","is_transit":false,"time":2,"i_lat":-6.141205},{"line":2,"time":4,"i_long":106.812439,"transit":true,"station_name":"Jakarta Kota","station_id":"JAKK","is_transit":true,"distance":1264,"i_lat":-6.137569},{"station_id":"KPB","time":3,"transit":true,"is_transit":true,"line":4,"station_name":"Kampung Bandan","distance":1364,"i_long":106.826365,"i_lat":-6.132549},{"is_transit":false,"time":3,"line":11,"station_id":"RJW","transit":false,"station_name":"Rajawali","distance":1444,"i_lat":-6.14505,"i_long":106.836569},{"i_lat":-6.161728,"line":11,"transit":false,"station_name":"Kemayoran","station_id":"KMO","is_transit":false,"time":5,"i_long":106.839204,"distance":1901},{"i_lat":-6.174784,"i_long":106.84368,"station_name":"Pasar Senen","transit":false,"station_id":"PSE","time":4,"distance":1436,"line":11,"is_transit":false},{"distance":1567,"i_long":106.850107,"line":11,"is_transit":false,"station_name":"Gang Sentiong","transit":false,"time":8,"station_id":"GST","i_lat":-6.185975},{"station_id":"KMT","is_transit":false,"i_lat":-6.193792,"line":11,"i_long":106.855437,"station_name":"Kramat","distance":973,"transit":false,"time":1},{"i_lat":-6.209188,"transit":false,"i_long":106.861737,"line":11,"time":2,"is_transit":false,"distance":1829,"station_id":"POK","station_name":"Pondok Jati"},{"line":1,"i_long":106.86807400000001,"station_id":"JNG","is_transit":true,"transit":true,"station_name":"Jatinegara","i_lat":-6.215091,"time":9,"distance":1236},{"i_lat":-6.212485,"station_name":"Matraman","i_long":106.858896,"transit":false,"time":2,"line":1,"station_id":"MTR","distance":1377,"is_transit":false},{"time":2,"transit":true,"station_name":"Manggarai","station_id":"MRI","i_lat":-6.209883,"line":2,"i_long":106.84912,"is_transit":true,"distance":1275},{"is_transit":false,"transit":false,"time":4,"i_lat":-6.226659,"i_long":106.857948,"line":2,"station_name":"Tebet","distance":2610,"station_id":"TEB"}]]}