{"data":[[{"time":0,"i_lat":-6.149769,"line":2,"transit":false,"station_name":"Manggabesar","is_transit":false,"i_long":106.82482,"station_id":"MGB","distance":0},{"i_long":106.827103,"time":2,"i_lat":-6.160725,"line":2,"station_name":"Sawah Besar","transit":false,"is_transit":false,"station_id":"SW","distance":906},{"station_id":"JUA","is_transit":false,"i_lat":-6.166716,"i_long":106.828284,"transit":false,"station_name":"Juanda","distance":1149,"line":2,"time":2},{"line":2,"time":4,"transit":false,"is_transit":false,"station_id":"GDD","distance":2015,"station_name":"Gondangdia","i_lat":-6.186295,"i_long":106.832183},{"time":3,"i_long":106.840169,"distance":1750,"line":2,"transit":false,"is_transit":false,"station_id":"CKI","station_name":"Cikini","i_lat":-6.198556},{"station_name":"Manggarai","i_lat":-6.209883,"distance":1590,"station_id":"MRI","time":4,"transit":false,"i_long":106.84912,"line":2,"is_transit":false},{"i_lat":-6.226659,"transit":false,"station_id":"TEB","line":2,"distance":2610,"time":4,"i_long":106.857948,"is_transit":false,"station_name":"Tebet"},{"distance":1230,"station_id":"CW","line":2,"transit":false,"station_name":"Cawang","is_transit":false,"time":2,"i_long":106.856607,"i_lat":-6.242512},{"transit":false,"is_transit":false,"i_lat":-6.255332,"station_name":"Duren Kalibata","station_id":"DRN","i_long":106.85449,"line":2,"time":3,"distance":1546},{"station_id":"PSMB","time":2,"transit":false,"i_lat":-6.263214,"station_name":"Pasar Minggu Baru","i_long":106.851577,"line":2,"distance":824,"is_transit":false},{"station_id":"PSM","i_lat":-6.2842400000000005,"transit":false,"station_name":"Pasar Minggu","distance":2380,"time":2,"line":2,"i_long":106.843999,"is_transit":false}],[{"line":2,"distance":0,"station_name":"Manggabesar","time":0,"i_long":106.82482,"station_id":"MGB","transit":false,"is_transit":false,"i_lat":-6.149769},{"i_long":106.820901,"transit":false,"i_lat":-6.141205,"line":2,"is_transit":false,"distance":1080,"station_name":"Jayakarta","station_id":"JAY","time":2},{"is_transit":true,"line":2,"i_lat":-6.137569,"station_name":"Jakarta Kota","transit":true,"distance":1264,"time":4,"i_long":106.812439,"station_id":"JAKK"},{"station_name":"Kampung Bandan","line":4,"station_id":"KPB","i_long":106.826365,"is_transit":true,"time":3,"i_lat":-6.132549,"transit":true,"distance":1364},{"is_transit":false,"station_name":"Angke","i_lat":-6.144674,"transit":false,"line":1,"time":9,"distance":4102,"i_long":106.79867,"station_id":"AK"},{"time":4,"distance":1230,"station_id":"DU","station_name":"Duri","i_lat":-6.155215,"transit":false,"i_long":106.800832,"is_transit":false,"line":1},{"i_lat":-6.185545,"transit":false,"is_transit":false,"time":8,"station_id":"THB","line":1,"distance":3632,"i_long":106.811091,"station_name":"Tanah Abang"},{"distance":2029,"is_transit":false,"transit":false,"station_id":"KAT","time":5,"i_lat":-6.20132,"line":1,"i_long":106.816351,"station_name":"Karet"},{"station_name":"Sudirman Baru","is_transit":false,"station_id":"SUDB","i_lat":-6.201433,"line":1,"time":1,"distance":471,"transit":false,"i_long":106.819881},{"time":1,"station_name":"Sudirman","is_transit":false,"transit":false,"distance":280,"i_long":106.822649,"station_id":"SUD","i_lat":-6.202263,"line":1},{"station_name":"Manggarai","time":4,"is_transit":true,"station_id":"MRI","distance":3186,"i_lat":-6.209883,"transit":true,"i_long":106.84912,"line":2},{"station_id":"TEB","line":2,"i_lat":-6.226659,"transit":false,"i_long":106.857948,"time":4,"distance":2610,"station_name":"Tebet","is_transit":false},{"is_transit":false,"transit":false,"time":2,"station_id":"CW","line":2,"i_lat":-6.242512,"station_name":"Cawang","distance":1230,"i_long":106.856607},{"station_name":"Duren Kalibata","time":3,"line":2,"i_long":106.85449,"distance":1546,"is_transit":false,"i_lat":-6.255332,"transit":false,"station_id":"DRN"},{"i_long":106.851577,"i_lat":-6.263214,"distance":824,"station_name":"Pasar Minggu Baru","time":2,"transit":false,"station_id":"PSMB","line":2,"is_transit":false},{"i_long":106.843999,"station_id":"PSM","is_transit":false,"line":2,"transit":false,"i_lat":-6.2842400000000005,"station_name":"Pasar Minggu","distance":2380,"time":2}],[{"distance":0,"i_lat":-6.149769,"i_long":106.82482,"time":0,"line":2,"is_transit":false,"station_id":"MGB","station_name":"Manggabesar","transit":false},{"transit":false,"station_name":"Jayakarta","is_transit":false,"time":2,"distance":1080,"i_lat":-6.141205,"station_id":"JAY","line":2,"i_long":106.820901},{"distance":1264,"line":2,"station_name":"Jakarta Kota","station_id":"JAKK","i_lat":-6.137569,"transit":true,"i_long":106.812439,"is_transit":true,"time":4},{"line":4,"transit":true,"station_id":"KPB","i_lat":-6.132549,"station_name":"Kampung Bandan","is_transit":true,"time":3,"i_long":106.826365,"distance":1364},{"i_lat":-6.14505,"distance":1444,"i_long":106.836569,"line":11,"is_transit":false,"station_id":"RJW","station_name":"Rajawali","time":3,"transit":false},{"time":5,"i_lat":-6.161728,"i_long":106.839204,"is_transit":false,"station_id":"KMO","line":11,"station_name":"Kemayoran","distance":1901,"transit":false},{"i_lat":-6.174784,"transit":false,"i_long":106.84368,"is_transit":false,"line":11,"time":4,"distance":1436,"station_id":"PSE","station_name":"Pasar Senen"},{"station_id":"GST","time":8,"distance":1567,"is_transit":false,"station_name":"Gang Sentiong","i_lat":-6.185975,"line":11,"transit":false,"i_long":106.850107},{"i_lat":-6.193792,"i_long":106.855437,"station_id":"KMT","distance":973,"line":11,"transit":false,"station_name":"Kramat","is_transit":false,"time":1},{"station_id":"POK","transit":false,"time":2,"distance":1829,"line":11,"i_lat":-6.209188,"station_name":"Pondok Jati","i_long":106.861737,"is_transit":false},{"time":9,"distance":1236,"station_name":"Jatinegara","station_id":"JNG","i_long":106.86807400000001,"i_lat":-6.215091,"line":1,"transit":true,"is_transit":true},{"transit":false,"station_name":"Matraman","station_id":"MTR","is_transit":false,"line":1,"distance":1377,"i_long":106.858896,"i_lat":-6.212485,"time":2},{"time":2,"transit":true,"station_name":"Manggarai","is_transit":true,"distance":1275,"i_lat":-6.209883,"i_long":106.84912,"line":2,"station_id":"MRI"},{"line":2,"transit":false,"station_id":"TEB","station_name":"Tebet","is_transit":false,"time":4,"distance":2610,"i_lat":-6.226659,"i_long":106.857948},{"station_name":"Cawang","time":2,"line":2,"transit":false,"is_transit":false,"i_lat":-6.242512,"station_id":"CW","distance":1230,"i_long":106.856607},{"time":3,"i_lat":-6.255332,"station_name":"Duren Kalibata","distance":1546,"line":2,"i_long":106.85449,"is_transit":false,"station_id":"DRN","transit":false},{"is_transit":false,"transit":false,"i_lat":-6.263214,"line":2,"station_name":"Pasar Minggu Baru","i_long":106.851577,"distance":824,"station_id":"PSMB","time":2},{"transit":false,"is_transit":false,"distance":2380,"i_long":106.843999,"i_lat":-6.2842400000000005,"line":2,"station_name":"Pasar Minggu","time":2,"station_id":"PSM"}]]}