{"data":[[{"transit":false,"i_lat":-6.149769,"is_transit":false,"i_long":106.82482,"station_id":"MGB","line":2,"time":0,"station_name":"Manggabesar","distance":0},{"station_id":"JAY","is_transit":false,"transit":false,"distance":1080,"i_long":106.820901,"station_name":"Jayakarta","i_lat":-6.141205,"time":2,"line":2},{"distance":1264,"time":4,"i_long":106.812439,"is_transit":true,"line":2,"i_lat":-6.137569,"transit":true,"station_id":"JAKK","station_name":"Jakarta Kota"},{"i_lat":-6.132549,"is_transit":true,"line":4,"distance":1364,"time":3,"station_name":"Kampung Bandan","station_id":"KPB","transit":true,"i_long":106.826365},{"is_transit":false,"i_lat":-6.144674,"i_long":106.79867,"transit":false,"line":1,"time":9,"station_id":"AK","station_name":"Angke","distance":4102},{"line":1,"station_name":"Duri","distance":1230,"transit":true,"station_id":"DU","time":4,"is_transit":true,"i_long":106.800832,"i_lat":-6.155215},{"transit":false,"station_name":"Grogol","line":5,"i_long":106.788277,"time":3,"distance":1700,"station_id":"GGL","is_transit":false,"i_lat":-6.162021},{"distance":2036,"line":5,"station_name":"Pesing","time":2,"is_transit":false,"station_id":"PSG","transit":false,"i_lat":-6.161433,"i_long":106.771379},{"transit":false,"station_name":"Taman Kota","station_id":"TKO","line":5,"distance":1614,"is_transit":false,"i_long":106.756522,"time":2,"i_lat":-6.1587309999999995},{"line":5,"transit":false,"i_long":106.737035,"station_name":"Bojongindah","station_id":"BOI","is_transit":false,"i_lat":-6.159876,"time":2,"distance":2334},{"station_id":"RW","distance":1152,"is_transit":false,"i_lat":-6.162758,"line":5,"time":4,"station_name":"Rawa Buaya","i_long":106.723064,"transit":false}],[{"distance":0,"i_lat":-6.149769,"i_long":106.82482,"station_name":"Manggabesar","line":2,"station_id":"MGB","is_transit":false,"transit":false,"time":0},{"distance":906,"i_lat":-6.160725,"station_id":"SW","transit":false,"time":2,"is_transit":false,"line":2,"i_long":106.827103,"station_name":"Sawah Besar"},{"station_name":"Juanda","time":2,"distance":1149,"station_id":"JUA","transit":false,"i_lat":-6.166716,"is_transit":false,"line":2,"i_long":106.828284},{"line":2,"i_long":106.832183,"i_lat":-6.186295,"station_name":"Gondangdia","distance":2015,"is_transit":false,"station_id":"GDD","transit":false,"time":4},{"i_long":106.840169,"line":2,"distance":1750,"time":3,"station_id":"CKI","station_name":"Cikini","is_transit":false,"i_lat":-6.198556,"transit":false},{"i_lat":-6.209883,"transit":true,"time":4,"distance":1590,"is_transit":true,"station_name":"Manggarai","i_long":106.84912,"station_id":"MRI","line":2},{"line":1,"time":4,"is_transit":false,"transit":false,"station_name":"Sudirman","station_id":"SUD","i_lat":-6.202263,"i_long":106.822649,"distance":3186},{"i_long":106.819881,"transit":false,"i_lat":-6.201433,"station_id":"SUDB","station_name":"Sudirman Baru","distance":280,"time":1,"line":1,"is_transit":false},{"station_id":"KAT","distance":471,"i_lat":-6.20132,"time":1,"transit":false,"is_transit":false,"line":1,"i_long":106.816351,"station_name":"Karet"},{"is_transit":false,"station_id":"THB","station_name":"Tanah Abang","i_lat":-6.185545,"i_long":106.811091,"time":5,"distance":2029,"line":1,"transit":false},{"i_lat":-6.155215,"line":1,"distance":3632,"station_id":"DU","time":8,"transit":true,"is_transit":true,"i_long":106.800832,"station_name":"Duri"},{"time":3,"transit":false,"distance":1700,"is_transit":false,"i_long":106.788277,"line":5,"station_id":"GGL","station_name":"Grogol","i_lat":-6.162021},{"station_id":"PSG","is_transit":false,"distance":2036,"i_lat":-6.161433,"station_name":"Pesing","time":2,"transit":false,"i_long":106.771379,"line":5},{"station_name":"Taman Kota","distance":1614,"station_id":"TKO","is_transit":false,"i_long":106.756522,"transit":false,"i_lat":-6.1587309999999995,"time":2,"line":5},{"transit":false,"station_id":"BOI","station_name":"Bojongindah","distance":2334,"time":2,"i_long":106.737035,"is_transit":false,"line":5,"i_lat":-6.159876},{"distance":1152,"time":4,"is_transit":false,"i_long":106.723064,"station_id":"RW","i_lat":-6.162758,"station_name":"Rawa Buaya","line":5,"transit":false}],[{"station_id":"MGB","line":2,"distance":0,"time":0,"transit":false,"i_long":106.82482,"is_transit":false,"i_lat":-6.149769,"station_name":"Manggabesar"},{"is_transit":false,"station_id":"SW","station_name":"Sawah Besar","i_lat":-6.160725,"i_long":106.827103,"line":2,"time":2,"transit":false,"distance":906},{"i_long":106.828284,"station_name":"Juanda","line":2,"time":2,"transit":false,"distance":1149,"is_transit":false,"i_lat":-6.166716,"station_id":"JUA"},{"time":4,"station_name":"Gondangdia","distance":2015,"is_transit":false,"transit":false,"line":2,"i_long":106.832183,"station_id":"GDD","i_lat":-6.186295},{"distance":1750,"station_id":"CKI","i_lat":-6.198556,"i_long":106.840169,"line":2,"time":3,"is_transit":false,"station_name":"Cikini","transit":false},{"station_id":"MRI","transit":true,"is_transit":true,"line":2,"time":4,"i_long":106.84912,"station_name":"Manggarai","distance":1590,"i_lat":-6.209883},{"station_name":"Matraman","distance":1275,"transit":false,"i_lat":-6.212485,"line":1,"station_id":"MTR","time":2,"is_transit":false,"i_long":106.858896},{"station_name":"Jatinegara","i_long":106.86807400000001,"time":8,"is_transit":true,"distance":1377,"line":1,"i_lat":-6.215091,"transit":true,"station_id":"JNG"},{"distance":1236,"is_transit":false,"time":2,"transit":false,"station_id":"POK","i_long":106.861737,"i_lat":-6.209188,"station_name":"Pondok Jati","line":11},{"is_transit":false,"distance":1829,"transit":false,"i_long":106.855437,"station_name":"Kramat","station_id":"KMT","line":11,"time":2,"i_lat":-6.193792},{"line":11,"transit":false,"station_id":"GST","i_long":106.850107,"station_name":"Gang Sentiong","i_lat":-6.185975,"is_transit":false,"distance":973,"time":1},{"transit":false,"distance":1567,"station_id":"PSE","line":11,"station_name":"Pasar Senen","i_lat":-6.174784,"i_long":106.84368,"time":8,"is_transit":false},{"time":4,"is_transit":false,"transit":false,"station_name":"Kemayoran","line":11,"distance":1436,"i_lat":-6.161728,"station_id":"KMO","i_long":106.839204},{"station_name":"Rajawali","station_id":"RJW","distance":1901,"transit":false,"i_long":106.836569,"i_lat":-6.14505,"line":11,"time":5,"is_transit":false},{"transit":true,"i_lat":-6.132549,"time":3,"station_id":"KPB","is_transit":true,"i_long":106.826365,"line":4,"station_name":"Kampung Bandan","distance":1444},{"transit":false,"station_name":"Angke","i_long":106.79867,"line":1,"distance":4102,"time":9,"i_lat":-6.144674,"station_id":"AK","is_transit":false},{"line":1,"station_name":"Duri","time":4,"i_long":106.800832,"i_lat":-6.155215,"transit":true,"is_transit":true,"distance":1230,"station_id":"DU"},{"transit":false,"distance":1700,"is_transit":false,"i_lat":-6.162021,"line":5,"station_id":"GGL","i_long":106.788277,"time":3,"station_name":"Grogol"},{"is_transit":false,"i_long":106.771379,"line":5,"i_lat":-6.161433,"station_name":"Pesing","station_id":"PSG","distance":2036,"time":2,"transit":false},{"i_lat":-6.1587309999999995,"time":2,"station_name":"Taman Kota","i_long":106.756522,"line":5,"transit":false,"distance":1614,"is_transit":false,"station_id":"TKO"},{"i_lat":-6.159876,"time":2,"i_long":106.737035,"is_transit":false,"transit":false,"distance":2334,"station_name":"Bojongindah","station_id":"BOI","line":5},{"station_id":"RW","distance":1152,"i_long":106.723064,"i_lat":-6.162758,"is_transit":false,"station_name":"Rawa Buaya","line":5,"transit":false,"time":4}],[{"distance":0,"i_long":106.82482,"time":0,"station_id":"MGB","line":2,"station_name":"Manggabesar","transit":false,"is_transit":false,"i_lat":-6.149769},{"time":2,"station_id":"JAY","transit":false,"is_transit":false,"i_lat":-6.141205,"i_long":106.820901,"line":2,"station_name":"Jayakarta","distance":1080},{"station_id":"JAKK","is_transit":true,"distance":1264,"i_long":106.812439,"station_name":"Jakarta Kota","line":2,"i_lat":-6.137569,"time":4,"transit":true},{"line":4,"distance":1364,"time":3,"station_name":"Kampung Bandan","is_transit":true,"station_id":"KPB","transit":true,"i_lat":-6.132549,"i_long":106.826365},{"transit":false,"line":11,"is_transit":false,"i_lat":-6.14505,"station_id":"RJW","distance":1444,"time":3,"i_long":106.836569,"station_name":"Rajawali"},{"time":5,"station_id":"KMO","transit":false,"station_name":"Kemayoran","distance":1901,"is_transit":false,"i_long":106.839204,"line":11,"i_lat":-6.161728},{"transit":false,"line":11,"i_lat":-6.174784,"station_id":"PSE","station_name":"Pasar Senen","distance":1436,"time":4,"is_transit":false,"i_long":106.84368},{"transit":false,"distance":1567,"station_name":"Gang Sentiong","station_id":"GST","is_transit":false,"i_lat":-6.185975,"line":11,"time":8,"i_long":106.850107},{"line":11,"time":1,"station_id":"KMT","i_lat":-6.193792,"i_long":106.855437,"transit":false,"station_name":"Kramat","is_transit":false,"distance":973},{"line":11,"distance":1829,"i_long":106.861737,"station_name":"Pondok Jati","is_transit":false,"i_lat":-6.209188,"station_id":"POK","time":2,"transit":false},{"is_transit":true,"time":9,"i_lat":-6.215091,"i_long":106.86807400000001,"transit":true,"station_id":"JNG","station_name":"Jatinegara","distance":1236,"line":1},{"i_lat":-6.212485,"station_id":"MTR","line":1,"distance":1377,"i_long":106.858896,"station_name":"Matraman","time":2,"transit":false,"is_transit":false},{"station_name":"Manggarai","transit":false,"distance":1275,"line":2,"is_transit":false,"time":2,"station_id":"MRI","i_lat":-6.209883,"i_long":106.84912},{"is_transit":false,"transit":false,"i_lat":-6.202263,"time":4,"station_name":"Sudirman","station_id":"SUD","distance":3186,"i_long":106.822649,"line":1},{"i_long":106.819881,"distance":280,"station_name":"Sudirman Baru","transit":false,"time":1,"station_id":"SUDB","is_transit":false,"i_lat":-6.201433,"line":1},{"transit":false,"distance":471,"is_transit":false,"i_lat":-6.20132,"line":1,"i_long":106.816351,"station_id":"KAT","station_name":"Karet","time":1},{"line":1,"i_lat":-6.185545,"station_id":"THB","station_name":"Tanah Abang","time":5,"distance":2029,"i_long":106.811091,"transit":false,"is_transit":false},{"station_name":"Duri","i_lat":-6.155215,"time":8,"transit":true,"i_long":106.800832,"line":1,"is_transit":true,"distance":3632,"station_id":"DU"},{"transit":false,"line":5,"i_long":106.788277,"distance":1700,"is_transit":false,"i_lat":-6.162021,"time":3,"station_id":"GGL","station_name":"Grogol"},{"time":2,"is_transit":false,"line":5,"station_id":"PSG","i_long":106.771379,"station_name":"Pesing","distance":2036,"transit":false,"i_lat":-6.161433},{"station_name":"Taman Kota","station_id":"TKO","i_lat":-6.1587309999999995,"transit":false,"i_long":106.756522,"time":2,"line":5,"distance":1614,"is_transit":false},{"i_lat":-6.159876,"distance":2334,"station_id":"BOI","time":2,"transit":false,"station_name":"Bojongindah","i_long":106.737035,"line":5,"is_transit":false},{"station_id":"RW","station_name":"Rawa Buaya","is_transit":false,"time":4,"transit":false,"i_long":106.723064,"distance":1152,"i_lat":-6.162758,"line":5}]]}