{"data":[[{"station_name":"Manggabesar","i_long":106.82482,"distance":0,"i_lat":-6.149769,"time":0,"station_id":"MGB","is_transit":false,"line":2,"transit":false},{"station_name":"Sawah Besar","i_long":106.827103,"transit":false,"time":2,"distance":906,"i_lat":-6.160725,"station_id":"SW","line":2,"is_transit":false},{"station_name":"Juanda","i_long":106.828284,"line":2,"time":2,"station_id":"JUA","is_transit":false,"distance":1149,"transit":false,"i_lat":-6.166716},{"i_long":106.832183,"i_lat":-6.186295,"is_transit":false,"station_id":"GDD","transit":false,"line":2,"distance":2015,"station_name":"Gondangdia","time":4},{"station_name":"Cikini","transit":false,"i_long":106.840169,"line":2,"station_id":"CKI","distance":1750,"is_transit":false,"time":3,"i_lat":-6.198556},{"station_id":"MRI","distance":1590,"transit":true,"station_name":"Manggarai","is_transit":true,"i_long":106.84912,"i_lat":-6.209883,"time":4,"line":2},{"time":2,"is_transit":false,"distance":1275,"i_long":106.858896,"station_name":"Matraman","i_lat":-6.212485,"station_id":"MTR","transit":false,"line":1},{"i_lat":-6.215091,"station_name":"Jatinegara","is_transit":false,"line":1,"transit":false,"station_id":"JNG","distance":1377,"i_long":106.86807400000001,"time":8},{"line":1,"station_name":"Klender","time":3,"is_transit":false,"transit":false,"station_id":"KLD","distance":3395,"i_long":106.899548,"i_lat":-6.2135},{"i_lat":-6.215568,"i_long":106.922662,"line":1,"distance":3100,"transit":false,"is_transit":false,"station_name":"Buaran","station_id":"BUA","time":2},{"station_name":"Klenderbaru","station_id":"KLDB","distance":1305,"i_lat":-6.217455,"transit":false,"is_transit":false,"time":1,"line":1,"i_long":106.939679},{"distance":1385,"line":1,"time":8,"i_lat":-6.219053,"i_long":106.951283,"transit":false,"station_name":"Cakung","station_id":"CUK","is_transit":false},{"i_long":106.977657,"station_id":"KRI","transit":false,"station_name":"Kranji","i_lat":-6.224515,"distance":3097,"time":3,"line":1,"is_transit":false},{"is_transit":false,"i_long":106.997013,"station_id":"BKS","time":4,"distance":2520,"station_name":"Bekasi","transit":false,"line":1,"i_lat":-6.236616},{"station_id":"BKST","station_name":"Bekasi Timur","time":2,"is_transit":false,"i_lat":-6.248029,"line":1,"transit":false,"i_long":107.016735,"distance":2368},{"i_long":107.055722,"line":1,"is_transit":false,"station_name":"Tambun","station_id":"TB","distance":4460,"i_lat":-6.258864,"transit":false,"time":7},{"transit":false,"time":3,"distance":3420,"is_transit":false,"line":1,"station_name":"Cibitung","station_id":"CIT","i_lat":-6.261877,"i_long":107.083084},{"station_id":"TLM","station_name":"Metland Telaga Murni","time":2,"line":1,"i_lat":-6.262938,"i_long":107.093313,"distance":2800,"is_transit":false,"transit":false},{"i_lat":-6.2553149999999995,"transit":false,"distance":3689,"station_name":"Cikarang","is_transit":false,"i_long":107.144613,"station_id":"CKR","line":1,"time":4}],[{"distance":0,"station_name":"Manggabesar","i_lat":-6.149769,"station_id":"MGB","transit":false,"i_long":106.82482,"is_transit":false,"line":2,"time":0},{"station_name":"Jayakarta","distance":1080,"i_lat":-6.141205,"transit":false,"line":2,"station_id":"JAY","i_long":106.820901,"is_transit":false,"time":2},{"i_long":106.812439,"transit":true,"i_lat":-6.137569,"time":4,"line":2,"is_transit":true,"station_id":"JAKK","distance":1264,"station_name":"Jakarta Kota"},{"distance":1364,"i_lat":-6.132549,"line":4,"transit":true,"station_id":"KPB","time":3,"station_name":"Kampung Bandan","i_long":106.826365,"is_transit":true},{"time":3,"transit":false,"i_lat":-6.14505,"is_transit":false,"station_name":"Rajawali","distance":1444,"i_long":106.836569,"line":11,"station_id":"RJW"},{"transit":false,"i_long":106.839204,"i_lat":-6.161728,"station_id":"KMO","is_transit":false,"station_name":"Kemayoran","time":5,"distance":1901,"line":11},{"station_id":"PSE","is_transit":false,"i_lat":-6.174784,"i_long":106.84368,"line":11,"distance":1436,"station_name":"Pasar Senen","transit":false,"time":4},{"line":11,"station_id":"GST","station_name":"Gang Sentiong","i_lat":-6.185975,"distance":1567,"transit":false,"is_transit":false,"time":8,"i_long":106.850107},{"is_transit":false,"i_lat":-6.193792,"i_long":106.855437,"line":11,"transit":false,"distance":973,"time":1,"station_name":"Kramat","station_id":"KMT"},{"distance":1829,"line":11,"station_id":"POK","i_long":106.861737,"is_transit":false,"i_lat":-6.209188,"station_name":"Pondok Jati","time":2,"transit":false},{"is_transit":true,"station_id":"JNG","station_name":"Jatinegara","i_lat":-6.215091,"transit":true,"time":9,"line":1,"i_long":106.86807400000001,"distance":1236},{"i_lat":-6.2135,"line":1,"distance":3395,"station_id":"KLD","time":3,"i_long":106.899548,"station_name":"Klender","transit":false,"is_transit":false},{"line":1,"station_name":"Buaran","distance":3100,"transit":false,"station_id":"BUA","i_lat":-6.215568,"time":2,"is_transit":false,"i_long":106.922662},{"transit":false,"station_name":"Klenderbaru","time":1,"distance":1305,"i_lat":-6.217455,"is_transit":false,"i_long":106.939679,"station_id":"KLDB","line":1},{"station_id":"CUK","station_name":"Cakung","is_transit":false,"time":8,"i_lat":-6.219053,"i_long":106.951283,"line":1,"transit":false,"distance":1385},{"station_id":"KRI","transit":false,"time":3,"line":1,"is_transit":false,"i_lat":-6.224515,"i_long":106.977657,"distance":3097,"station_name":"Kranji"},{"line":1,"station_id":"BKS","transit":false,"time":4,"i_lat":-6.236616,"i_long":106.997013,"station_name":"Bekasi","distance":2520,"is_transit":false},{"i_lat":-6.248029,"station_id":"BKST","line":1,"distance":2368,"time":2,"station_name":"Bekasi Timur","transit":false,"i_long":107.016735,"is_transit":false},{"line":1,"is_transit":false,"distance":4460,"station_id":"TB","i_lat":-6.258864,"i_long":107.055722,"station_name":"Tambun","transit":false,"time":7},{"transit":false,"time":3,"is_transit":false,"i_long":107.083084,"i_lat":-6.261877,"station_id":"CIT","distance":3420,"line":1,"station_name":"Cibitung"},{"i_long":107.093313,"transit":false,"is_transit":false,"time":2,"distance":2800,"line":1,"station_name":"Metland Telaga Murni","station_id":"TLM","i_lat":-6.262938},{"transit":false,"time":4,"station_name":"Cikarang","station_id":"CKR","is_transit":false,"distance":3689,"i_lat":-6.2553149999999995,"line":1,"i_long":107.144613}],[{"time":0,"is_transit":false,"station_id":"MGB","distance":0,"i_lat":-6.149769,"i_long":106.82482,"station_name":"Manggabesar","line":2,"transit":false},{"i_lat":-6.141205,"is_transit":false,"line":2,"station_id":"JAY","i_long":106.820901,"station_name":"Jayakarta","transit":false,"time":2,"distance":1080},{"station_id":"JAKK","i_lat":-6.137569,"i_long":106.812439,"station_name":"Jakarta Kota","time":4,"line":2,"is_transit":true,"transit":true,"distance":1264},{"station_name":"Kampung Bandan","time":3,"station_id":"KPB","distance":1364,"i_lat":-6.132549,"i_long":106.826365,"line":4,"is_transit":true,"transit":true},{"station_id":"AK","is_transit":false,"time":9,"i_long":106.79867,"transit":false,"station_name":"Angke","distance":4102,"i_lat":-6.144674,"line":1},{"time":4,"distance":1230,"station_id":"DU","transit":false,"line":1,"is_transit":false,"station_name":"Duri","i_lat":-6.155215,"i_long":106.800832},{"i_long":106.811091,"station_id":"THB","transit":false,"line":1,"time":8,"distance":3632,"i_lat":-6.185545,"station_name":"Tanah Abang","is_transit":false},{"station_name":"Karet","is_transit":false,"transit":false,"time":5,"i_long":106.816351,"station_id":"KAT","distance":2029,"i_lat":-6.20132,"line":1},{"line":1,"distance":471,"station_name":"Sudirman Baru","transit":false,"time":1,"station_id":"SUDB","i_lat":-6.201433,"i_long":106.819881,"is_transit":false},{"i_lat":-6.202263,"is_transit":false,"time":1,"transit":false,"i_long":106.822649,"line":1,"station_id":"SUD","distance":280,"station_name":"Sudirman"},{"station_id":"MRI","station_name":"Manggarai","transit":false,"distance":3186,"time":4,"i_long":106.84912,"line":2,"i_lat":-6.209883,"is_transit":false},{"line":1,"station_name":"Matraman","is_transit":false,"station_id":"MTR","distance":1275,"transit":false,"i_lat":-6.212485,"i_long":106.858896,"time":2},{"is_transit":false,"transit":false,"distance":1377,"i_lat":-6.215091,"station_id":"JNG","station_name":"Jatinegara","i_long":106.86807400000001,"time":8,"line":1},{"distance":3395,"i_long":106.899548,"transit":false,"is_transit":false,"station_name":"Klender","station_id":"KLD","i_lat":-6.2135,"time":3,"line":1},{"station_name":"Buaran","station_id":"BUA","distance":3100,"time":2,"i_lat":-6.215568,"i_long":106.922662,"transit":false,"line":1,"is_transit":false},{"line":1,"i_long":106.939679,"transit":false,"station_name":"Klenderbaru","station_id":"KLDB","is_transit":false,"time":1,"distance":1305,"i_lat":-6.217455},{"transit":false,"station_id":"CUK","time":8,"i_long":106.951283,"station_name":"Cakung","distance":1385,"i_lat":-6.219053,"line":1,"is_transit":false},{"transit":false,"station_name":"Kranji","station_id":"KRI","time":3,"i_long":106.977657,"is_transit":false,"line":1,"i_lat":-6.224515,"distance":3097},{"line":1,"i_lat":-6.236616,"time":4,"station_id":"BKS","station_name":"Bekasi","i_long":106.997013,"distance":2520,"transit":false,"is_transit":false},{"distance":2368,"time":2,"line":1,"i_long":107.016735,"station_name":"Bekasi Timur","is_transit":false,"transit":false,"station_id":"BKST","i_lat":-6.248029},{"line":1,"i_lat":-6.258864,"transit":false,"is_transit":false,"station_id":"TB","station_name":"Tambun","time":7,"distance":4460,"i_long":107.055722},{"station_id":"CIT","line":1,"transit":false,"is_transit":false,"time":3,"distance":3420,"i_lat":-6.261877,"i_long":107.083084,"station_name":"Cibitung"},{"line":1,"i_long":107.093313,"distance":2800,"time":2,"transit":false,"station_id":"TLM","i_lat":-6.262938,"is_transit":false,"station_name":"Metland Telaga Murni"},{"distance":3689,"i_lat":-6.2553149999999995,"line":1,"station_name":"Cikarang","i_long":107.144613,"time":4,"transit":false,"is_transit":false,"station_id":"CKR"}],[{"line":2,"is_transit":false,"i_lat":-6.149769,"station_name":"Manggabesar","time":0,"transit":false,"i_long":106.82482,"distance":0,"station_id":"MGB"},{"transit":false,"station_name":"Sawah Besar","i_long":106.827103,"is_transit":false,"time":2,"station_id":"SW","distance":906,"line":2,"i_lat":-6.160725},{"distance":1149,"station_id":"JUA","station_name":"Juanda","transit":false,"line":2,"i_lat":-6.166716,"i_long":106.828284,"is_transit":false,"time":2},{"is_transit":false,"station_name":"Gondangdia","station_id":"GDD","time":4,"i_lat":-6.186295,"i_long":106.832183,"line":2,"distance":2015,"transit":false},{"is_transit":false,"station_id":"CKI","time":3,"distance":1750,"station_name":"Cikini","i_lat":-6.198556,"transit":false,"i_long":106.840169,"line":2},{"i_lat":-6.209883,"is_transit":true,"distance":1590,"line":2,"transit":true,"station_name":"Manggarai","time":4,"i_long":106.84912,"station_id":"MRI"},{"i_lat":-6.202263,"i_long":106.822649,"line":1,"station_id":"SUD","is_transit":false,"time":4,"distance":3186,"transit":false,"station_name":"Sudirman"},{"i_lat":-6.201433,"transit":false,"is_transit":false,"time":1,"line":1,"distance":280,"station_name":"Sudirman Baru","i_long":106.819881,"station_id":"SUDB"},{"station_name":"Karet","i_lat":-6.20132,"i_long":106.816351,"time":1,"distance":471,"transit":false,"is_transit":false,"station_id":"KAT","line":1},{"i_lat":-6.185545,"station_name":"Tanah Abang","is_transit":false,"i_long":106.811091,"station_id":"THB","time":5,"distance":2029,"line":1,"transit":false},{"i_long":106.800832,"transit":false,"distance":3632,"line":1,"i_lat":-6.155215,"station_id":"DU","is_transit":false,"time":8,"station_name":"Duri"},{"station_id":"AK","i_lat":-6.144674,"time":4,"distance":1230,"i_long":106.79867,"is_transit":false,"transit":false,"line":1,"station_name":"Angke"},{"transit":true,"is_transit":true,"distance":4102,"i_long":106.826365,"station_id":"KPB","station_name":"Kampung Bandan","i_lat":-6.132549,"line":4,"time":9},{"transit":false,"station_name":"Rajawali","i_lat":-6.14505,"station_id":"RJW","line":11,"is_transit":false,"time":3,"distance":1444,"i_long":106.836569},{"is_transit":false,"i_long":106.839204,"station_id":"KMO","distance":1901,"time":5,"i_lat":-6.161728,"line":11,"transit":false,"station_name":"Kemayoran"},{"transit":false,"i_long":106.84368,"distance":1436,"station_name":"Pasar Senen","i_lat":-6.174784,"is_transit":false,"line":11,"station_id":"PSE","time":4},{"station_id":"GST","is_transit":false,"i_lat":-6.185975,"line":11,"i_long":106.850107,"time":8,"transit":false,"station_name":"Gang Sentiong","distance":1567},{"transit":false,"distance":973,"i_long":106.855437,"station_name":"Kramat","line":11,"station_id":"KMT","i_lat":-6.193792,"is_transit":false,"time":1},{"i_long":106.861737,"transit":false,"station_name":"Pondok Jati","station_id":"POK","i_lat":-6.209188,"is_transit":false,"line":11,"time":2,"distance":1829},{"station_name":"Jatinegara","line":1,"is_transit":true,"i_lat":-6.215091,"time":9,"i_long":106.86807400000001,"transit":true,"station_id":"JNG","distance":1236},{"line":1,"time":3,"is_transit":false,"transit":false,"station_name":"Klender","station_id":"KLD","distance":3395,"i_long":106.899548,"i_lat":-6.2135},{"line":1,"station_name":"Buaran","transit":false,"i_lat":-6.215568,"is_transit":false,"station_id":"BUA","distance":3100,"time":2,"i_long":106.922662},{"distance":1305,"i_lat":-6.217455,"i_long":106.939679,"line":1,"is_transit":false,"station_name":"Klenderbaru","time":1,"station_id":"KLDB","transit":false},{"time":8,"i_lat":-6.219053,"station_name":"Cakung","distance":1385,"station_id":"CUK","transit":false,"i_long":106.951283,"line":1,"is_transit":false},{"transit":false,"station_name":"Kranji","time":3,"is_transit":false,"i_long":106.977657,"distance":3097,"line":1,"station_id":"KRI","i_lat":-6.224515},{"station_id":"BKS","transit":false,"time":4,"i_lat":-6.236616,"i_long":106.997013,"station_name":"Bekasi","is_transit":false,"distance":2520,"line":1},{"transit":false,"is_transit":false,"i_long":107.016735,"i_lat":-6.248029,"station_id":"BKST","station_name":"Bekasi Timur","line":1,"time":2,"distance":2368},{"i_long":107.055722,"is_transit":false,"i_lat":-6.258864,"line":1,"distance":4460,"station_name":"Tambun","transit":false,"time":7,"station_id":"TB"},{"transit":false,"is_transit":false,"line":1,"station_id":"CIT","distance":3420,"station_name":"Cibitung","i_lat":-6.261877,"i_long":107.083084,"time":3},{"is_transit":false,"station_id":"TLM","line":1,"i_long":107.093313,"transit":false,"i_lat":-6.262938,"distance":2800,"time":2,"station_name":"Metland Telaga Murni"},{"transit":false,"time":4,"i_lat":-6.2553149999999995,"station_name":"Cikarang","station_id":"CKR","is_transit":false,"i_long":107.144613,"line":1,"distance":3689}]]}