{"data":[[{"distance":0,"is_transit":false,"station_name":"Manggabesar","transit":false,"i_lat":-6.149769,"line":2,"i_long":106.82482,"station_id":"MGB","time":0},{"transit":false,"i_lat":-6.160725,"distance":906,"station_name":"Sawah Besar","i_long":106.827103,"station_id":"SW","is_transit":false,"time":2,"line":2},{"distance":1149,"is_transit":false,"line":2,"transit":false,"station_id":"JUA","station_name":"Juanda","i_lat":-6.166716,"i_long":106.828284,"time":2},{"station_id":"GDD","transit":false,"i_lat":-6.186295,"distance":2015,"is_transit":false,"station_name":"Gondangdia","line":2,"time":4,"i_long":106.832183},{"is_transit":false,"station_name":"Cikini","i_lat":-6.198556,"line":0,"transit":false,"i_long":106.840169,"station_id":"CKI","time":3,"distance":1750},{"line":0,"time":4,"distance":1590,"i_lat":-6.209883,"station_id":"MRI","station_name":"Manggarai","is_transit":true,"transit":true,"i_long":106.84912},{"station_id":"TEB","line":2,"distance":2610,"i_lat":-6.226659,"is_transit":false,"i_long":106.857948,"time":4,"station_name":"Tebet","transit":false},{"station_name":"Cawang","transit":false,"station_id":"CW","distance":1230,"is_transit":false,"time":2,"i_long":106.856607,"i_lat":-6.242512,"line":0},{"station_name":"Duren Kalibata","transit":false,"is_transit":false,"i_long":106.85449,"time":3,"line":0,"i_lat":-6.255332,"station_id":"DRN","distance":1546},{"station_name":"Pasar Minggu Baru","station_id":"PSMB","distance":824,"time":2,"transit":false,"i_long":106.851577,"line":2,"is_transit":false,"i_lat":-6.263214},{"station_name":"Pasar Minggu","distance":2380,"line":2,"time":2,"is_transit":false,"i_lat":-6.2842400000000005,"station_id":"PSM","transit":false,"i_long":106.843999}],[{"distance":0,"station_name":"Manggabesar","time":0,"i_lat":-6.149769,"transit":false,"is_transit":false,"station_id":"MGB","line":2,"i_long":106.82482},{"transit":false,"station_id":"JAY","time":2,"line":7,"distance":1080,"station_name":"Jayakarta","i_lat":-6.141205,"i_long":106.820901,"is_transit":false},{"is_transit":true,"distance":1264,"station_id":"JAKK","station_name":"Jakarta Kota","time":4,"line":0,"i_lat":-6.137569,"transit":true,"i_long":106.812439},{"is_transit":true,"station_id":"KPB","i_lat":-6.132549,"i_long":106.826365,"time":3,"station_name":"Kampung Bandan","transit":false,"line":0,"distance":1364},{"i_long":106.79867,"time":9,"line":0,"transit":false,"distance":4102,"is_transit":false,"i_lat":-6.144674,"station_id":"AK","station_name":"Angke"},{"is_transit":true,"line":1,"time":4,"station_name":"Duri","i_lat":-6.155215,"station_id":"DU","transit":true,"distance":1230,"i_long":106.800832},{"transit":false,"i_lat":-6.185545,"line":1,"station_id":"THB","distance":3632,"is_transit":true,"station_name":"Tanah Abang","i_long":106.811091,"time":8},{"transit":false,"station_name":"Karet","station_id":"KAT","is_transit":false,"time":5,"i_lat":-6.20132,"line":1,"i_long":106.816351,"distance":2029},{"line":1,"distance":471,"i_long":106.819881,"transit":false,"time":1,"is_transit":false,"station_id":"SUDB","i_lat":-6.201433,"station_name":"Sudirman Baru"},{"time":1,"line":1,"is_transit":false,"transit":false,"i_lat":-6.202263,"station_name":"Sudirman","distance":280,"station_id":"SUD","i_long":106.822649},{"i_long":106.84912,"is_transit":true,"station_id":"MRI","station_name":"Manggarai","transit":true,"line":0,"i_lat":-6.209883,"distance":3186,"time":4},{"i_lat":-6.226659,"transit":false,"station_name":"Tebet","is_transit":false,"time":4,"distance":2610,"i_long":106.857948,"line":2,"station_id":"TEB"},{"station_id":"CW","is_transit":false,"i_long":106.856607,"transit":false,"line":0,"time":2,"station_name":"Cawang","i_lat":-6.242512,"distance":1230},{"station_id":"DRN","transit":false,"i_long":106.85449,"distance":1546,"station_name":"Duren Kalibata","time":3,"is_transit":false,"i_lat":-6.255332,"line":0},{"i_long":106.851577,"transit":false,"time":2,"is_transit":false,"station_id":"PSMB","line":2,"distance":824,"station_name":"Pasar Minggu Baru","i_lat":-6.263214},{"transit":false,"time":2,"i_lat":-6.2842400000000005,"station_id":"PSM","station_name":"Pasar Minggu","line":2,"distance":2380,"is_transit":false,"i_long":106.843999}],[{"time":0,"station_name":"Manggabesar","i_long":106.82482,"line":2,"transit":false,"i_lat":-6.149769,"is_transit":false,"distance":0,"station_id":"MGB"},{"time":2,"distance":1080,"station_name":"Jayakarta","i_long":106.820901,"station_id":"JAY","is_transit":false,"i_lat":-6.141205,"transit":false,"line":7},{"station_id":"JAKK","time":4,"i_long":106.812439,"line":0,"station_name":"Jakarta Kota","i_lat":-6.137569,"is_transit":true,"transit":true,"distance":1264},{"i_long":106.826365,"transit":true,"station_id":"KPB","distance":1364,"time":3,"is_transit":true,"line":0,"station_name":"Kampung Bandan","i_lat":-6.132549},{"distance":1444,"station_id":"RJW","i_lat":-6.14505,"station_name":"Rajawali","time":3,"line":11,"is_transit":false,"transit":false,"i_long":106.836569},{"station_name":"Kemayoran","is_transit":false,"time":5,"station_id":"KMO","i_long":106.839204,"i_lat":-6.161728,"transit":false,"line":11,"distance":1901},{"station_id":"PSE","is_transit":false,"transit":false,"station_name":"Pasar Senen","i_long":106.84368,"time":4,"distance":1436,"line":11,"i_lat":-6.174784},{"line":11,"time":8,"is_transit":false,"distance":1567,"transit":false,"station_name":"Gang Sentiong","i_long":106.850107,"station_id":"GST","i_lat":-6.185975},{"i_lat":-6.193792,"time":1,"i_long":106.855437,"is_transit":false,"line":11,"station_name":"Kramat","distance":973,"station_id":"KMT","transit":false},{"station_name":"Pondok Jati","is_transit":false,"station_id":"POK","time":2,"i_long":106.861737,"distance":1829,"line":11,"i_lat":-6.209188,"transit":false},{"station_id":"JNG","transit":true,"time":9,"station_name":"Jatinegara","is_transit":true,"i_long":106.86807400000001,"line":0,"distance":1236,"i_lat":-6.215091},{"i_long":106.858896,"transit":false,"distance":1377,"station_id":"MTR","time":2,"station_name":"Matraman","i_lat":-6.212485,"line":1,"is_transit":false},{"is_transit":true,"line":0,"station_id":"MRI","distance":1275,"time":2,"station_name":"Manggarai","i_lat":-6.209883,"i_long":106.84912,"transit":true},{"is_transit":false,"line":2,"i_long":106.857948,"i_lat":-6.226659,"distance":2610,"station_name":"Tebet","transit":false,"time":4,"station_id":"TEB"},{"i_long":106.856607,"line":0,"station_name":"Cawang","time":2,"i_lat":-6.242512,"transit":false,"distance":1230,"station_id":"CW","is_transit":false},{"station_id":"DRN","line":0,"i_lat":-6.255332,"is_transit":false,"distance":1546,"transit":false,"station_name":"Duren Kalibata","i_long":106.85449,"time":3},{"is_transit":false,"station_name":"Pasar Minggu Baru","station_id":"PSMB","i_lat":-6.263214,"time":2,"i_long":106.851577,"line":2,"distance":824,"transit":false},{"i_lat":-6.2842400000000005,"transit":false,"distance":2380,"is_transit":false,"station_name":"Pasar Minggu","time":2,"line":2,"station_id":"PSM","i_long":106.843999}]]}