{"data":[[{"is_transit":false,"i_long":106.82482,"distance":0,"time":0,"station_id":"MGB","station_name":"Manggabesar","line":2,"transit":false,"i_lat":-6.149769},{"station_name":"Jayakarta","transit":false,"distance":1080,"station_id":"JAY","is_transit":false,"time":2,"i_lat":-6.141205,"line":7,"i_long":106.820901},{"i_long":106.812439,"station_id":"JAKK","is_transit":true,"distance":1264,"time":4,"transit":true,"line":0,"station_name":"Jakarta Kota","i_lat":-6.137569},{"i_lat":-6.132549,"is_transit":true,"i_long":106.826365,"distance":1364,"station_name":"Kampung Bandan","time":3,"transit":false,"line":0,"station_id":"KPB"},{"distance":4102,"i_long":106.79867,"station_id":"AK","i_lat":-6.144674,"station_name":"Angke","line":0,"time":9,"transit":false,"is_transit":false},{"distance":1230,"transit":true,"i_long":106.800832,"time":4,"i_lat":-6.155215,"station_name":"Duri","line":1,"station_id":"DU","is_transit":true},{"transit":false,"is_transit":false,"time":3,"distance":1700,"station_name":"Grogol","i_lat":-6.162021,"station_id":"GGL","i_long":106.788277,"line":5},{"distance":2036,"i_lat":-6.161433,"station_name":"Pesing","station_id":"PSG","time":2,"i_long":106.771379,"line":5,"is_transit":false,"transit":false},{"transit":false,"station_id":"TKO","station_name":"Taman Kota","distance":1614,"i_lat":-6.1587309999999995,"line":5,"is_transit":false,"i_long":106.756522,"time":2},{"line":0,"distance":2334,"time":2,"is_transit":false,"station_id":"BOI","i_lat":-6.159876,"transit":false,"station_name":"Bojongindah","i_long":106.737035},{"station_id":"RW","transit":false,"i_lat":-6.162758,"station_name":"Rawa Buaya","time":4,"line":5,"i_long":106.723064,"is_transit":false,"distance":1152},{"transit":false,"station_id":"KDS","station_name":"Kalideres","i_lat":-6.166068,"i_long":106.701612,"time":3,"distance":2504,"is_transit":false,"line":5},{"station_id":"PI","i_lat":-6.169933,"line":5,"transit":false,"i_long":106.679458,"is_transit":false,"distance":2548,"station_name":"Poris","time":3},{"transit":false,"time":3,"i_long":106.665036,"station_id":"BPR","is_transit":false,"i_lat":-6.171811,"line":0,"station_name":"Batuceper","distance":1834}],[{"is_transit":false,"i_long":106.82482,"i_lat":-6.149769,"station_id":"MGB","transit":false,"time":0,"distance":0,"station_name":"Manggabesar","line":2},{"station_id":"SW","line":2,"station_name":"Sawah Besar","is_transit":false,"time":2,"transit":false,"i_long":106.827103,"distance":906,"i_lat":-6.160725},{"station_id":"JUA","i_long":106.828284,"time":2,"station_name":"Juanda","line":2,"distance":1149,"i_lat":-6.166716,"transit":false,"is_transit":false},{"station_name":"Gondangdia","time":4,"i_lat":-6.186295,"station_id":"GDD","i_long":106.832183,"line":2,"is_transit":false,"transit":false,"distance":2015},{"i_long":106.840169,"line":0,"transit":false,"i_lat":-6.198556,"distance":1750,"station_id":"CKI","is_transit":false,"station_name":"Cikini","time":3},{"line":0,"i_long":106.84912,"transit":true,"i_lat":-6.209883,"station_id":"MRI","station_name":"Manggarai","is_transit":true,"time":4,"distance":1590},{"station_name":"Sudirman","transit":false,"station_id":"SUD","i_long":106.822649,"time":4,"i_lat":-6.202263,"line":1,"distance":3186,"is_transit":false},{"station_id":"SUDB","is_transit":false,"station_name":"Sudirman Baru","transit":false,"line":1,"distance":280,"time":1,"i_long":106.819881,"i_lat":-6.201433},{"i_long":106.816351,"line":1,"station_name":"Karet","station_id":"KAT","is_transit":false,"i_lat":-6.20132,"transit":false,"distance":471,"time":1},{"is_transit":true,"i_long":106.811091,"line":1,"station_name":"Tanah Abang","station_id":"THB","time":5,"transit":false,"distance":2029,"i_lat":-6.185545},{"station_id":"DU","is_transit":true,"i_long":106.800832,"line":1,"i_lat":-6.155215,"distance":3632,"time":8,"transit":true,"station_name":"Duri"},{"distance":1700,"i_lat":-6.162021,"station_name":"Grogol","time":3,"i_long":106.788277,"station_id":"GGL","transit":false,"is_transit":false,"line":5},{"i_long":106.771379,"transit":false,"station_id":"PSG","distance":2036,"time":2,"line":5,"station_name":"Pesing","is_transit":false,"i_lat":-6.161433},{"station_name":"Taman Kota","distance":1614,"time":2,"i_lat":-6.1587309999999995,"transit":false,"is_transit":false,"station_id":"TKO","i_long":106.756522,"line":5},{"is_transit":false,"station_id":"BOI","station_name":"Bojongindah","time":2,"distance":2334,"transit":false,"i_long":106.737035,"i_lat":-6.159876,"line":0},{"station_name":"Rawa Buaya","is_transit":false,"i_long":106.723064,"station_id":"RW","transit":false,"distance":1152,"i_lat":-6.162758,"time":4,"line":5},{"time":3,"station_id":"KDS","is_transit":false,"distance":2504,"i_lat":-6.166068,"station_name":"Kalideres","line":5,"transit":false,"i_long":106.701612},{"station_id":"PI","time":3,"i_lat":-6.169933,"is_transit":false,"transit":false,"i_long":106.679458,"distance":2548,"line":5,"station_name":"Poris"},{"line":0,"is_transit":false,"station_name":"Batuceper","distance":1834,"time":3,"i_lat":-6.171811,"station_id":"BPR","transit":false,"i_long":106.665036}],[{"is_transit":false,"distance":0,"transit":false,"station_name":"Manggabesar","time":0,"i_lat":-6.149769,"i_long":106.82482,"line":2,"station_id":"MGB"},{"distance":906,"i_long":106.827103,"i_lat":-6.160725,"transit":false,"line":2,"station_name":"Sawah Besar","time":2,"station_id":"SW","is_transit":false},{"line":2,"i_long":106.828284,"is_transit":false,"transit":false,"distance":1149,"i_lat":-6.166716,"station_id":"JUA","station_name":"Juanda","time":2},{"i_lat":-6.186295,"station_name":"Gondangdia","station_id":"GDD","transit":false,"is_transit":false,"distance":2015,"i_long":106.832183,"line":2,"time":4},{"station_id":"CKI","i_long":106.840169,"station_name":"Cikini","transit":false,"distance":1750,"time":3,"i_lat":-6.198556,"is_transit":false,"line":0},{"i_lat":-6.209883,"is_transit":true,"time":4,"line":0,"transit":true,"distance":1590,"station_id":"MRI","station_name":"Manggarai","i_long":106.84912},{"transit":false,"line":1,"distance":1275,"time":2,"station_name":"Matraman","i_long":106.858896,"station_id":"MTR","is_transit":false,"i_lat":-6.212485},{"distance":1377,"i_lat":-6.215091,"is_transit":true,"station_name":"Jatinegara","station_id":"JNG","i_long":106.86807400000001,"line":0,"transit":true,"time":8},{"transit":false,"is_transit":false,"station_name":"Pondok Jati","i_long":106.861737,"line":11,"station_id":"POK","distance":1236,"i_lat":-6.209188,"time":2},{"time":2,"i_lat":-6.193792,"transit":false,"station_id":"KMT","line":11,"distance":1829,"is_transit":false,"station_name":"Kramat","i_long":106.855437},{"i_long":106.850107,"is_transit":false,"transit":false,"station_id":"GST","time":1,"i_lat":-6.185975,"line":11,"station_name":"Gang Sentiong","distance":973},{"is_transit":false,"i_lat":-6.174784,"station_name":"Pasar Senen","line":11,"distance":1567,"i_long":106.84368,"time":8,"transit":false,"station_id":"PSE"},{"is_transit":false,"distance":1436,"i_lat":-6.161728,"i_long":106.839204,"station_id":"KMO","time":4,"line":11,"transit":false,"station_name":"Kemayoran"},{"is_transit":false,"time":5,"station_name":"Rajawali","line":11,"distance":1901,"transit":false,"station_id":"RJW","i_lat":-6.14505,"i_long":106.836569},{"transit":true,"i_lat":-6.132549,"station_name":"Kampung Bandan","time":3,"line":0,"station_id":"KPB","distance":1444,"i_long":106.826365,"is_transit":true},{"station_id":"AK","line":0,"station_name":"Angke","transit":false,"i_lat":-6.144674,"i_long":106.79867,"time":9,"is_transit":false,"distance":4102},{"station_id":"DU","station_name":"Duri","time":4,"line":1,"transit":true,"distance":1230,"i_lat":-6.155215,"is_transit":true,"i_long":106.800832},{"i_lat":-6.162021,"transit":false,"i_long":106.788277,"is_transit":false,"distance":1700,"station_name":"Grogol","time":3,"station_id":"GGL","line":5},{"station_id":"PSG","station_name":"Pesing","is_transit":false,"time":2,"i_lat":-6.161433,"line":5,"i_long":106.771379,"transit":false,"distance":2036},{"line":5,"distance":1614,"time":2,"transit":false,"is_transit":false,"i_long":106.756522,"station_name":"Taman Kota","i_lat":-6.1587309999999995,"station_id":"TKO"},{"i_lat":-6.159876,"is_transit":false,"station_id":"BOI","time":2,"transit":false,"i_long":106.737035,"line":0,"station_name":"Bojongindah","distance":2334},{"i_long":106.723064,"station_name":"Rawa Buaya","distance":1152,"time":4,"i_lat":-6.162758,"station_id":"RW","is_transit":false,"transit":false,"line":5},{"time":3,"i_long":106.701612,"station_name":"Kalideres","transit":false,"line":5,"station_id":"KDS","is_transit":false,"i_lat":-6.166068,"distance":2504},{"i_lat":-6.169933,"transit":false,"is_transit":false,"i_long":106.679458,"station_name":"Poris","station_id":"PI","line":5,"distance":2548,"time":3},{"transit":false,"i_long":106.665036,"i_lat":-6.171811,"distance":1834,"line":0,"station_id":"BPR","is_transit":false,"station_name":"Batuceper","time":3}],[{"station_name":"Manggabesar","distance":0,"station_id":"MGB","is_transit":false,"transit":false,"i_long":106.82482,"line":2,"i_lat":-6.149769,"time":0},{"time":2,"i_long":106.820901,"station_name":"Jayakarta","is_transit":false,"transit":false,"station_id":"JAY","distance":1080,"i_lat":-6.141205,"line":7},{"is_transit":true,"station_name":"Jakarta Kota","time":4,"line":0,"i_lat":-6.137569,"distance":1264,"transit":true,"station_id":"JAKK","i_long":106.812439},{"line":0,"transit":true,"station_id":"KPB","time":3,"i_long":106.826365,"is_transit":true,"distance":1364,"i_lat":-6.132549,"station_name":"Kampung Bandan"},{"is_transit":false,"line":11,"transit":false,"station_id":"RJW","distance":1444,"station_name":"Rajawali","time":3,"i_lat":-6.14505,"i_long":106.836569},{"transit":false,"station_name":"Kemayoran","i_lat":-6.161728,"station_id":"KMO","i_long":106.839204,"is_transit":false,"distance":1901,"time":5,"line":11},{"line":11,"station_name":"Pasar Senen","time":4,"distance":1436,"station_id":"PSE","is_transit":false,"i_lat":-6.174784,"transit":false,"i_long":106.84368},{"time":8,"station_id":"GST","transit":false,"is_transit":false,"distance":1567,"i_long":106.850107,"line":11,"station_name":"Gang Sentiong","i_lat":-6.185975},{"station_name":"Kramat","time":1,"i_long":106.855437,"is_transit":false,"distance":973,"line":11,"transit":false,"station_id":"KMT","i_lat":-6.193792},{"station_name":"Pondok Jati","distance":1829,"i_long":106.861737,"line":11,"i_lat":-6.209188,"transit":false,"is_transit":false,"station_id":"POK","time":2},{"station_id":"JNG","i_lat":-6.215091,"station_name":"Jatinegara","is_transit":true,"time":9,"distance":1236,"transit":true,"i_long":106.86807400000001,"line":0},{"station_name":"Matraman","line":1,"is_transit":false,"distance":1377,"i_long":106.858896,"time":2,"station_id":"MTR","i_lat":-6.212485,"transit":false},{"time":2,"i_long":106.84912,"distance":1275,"transit":false,"is_transit":true,"station_id":"MRI","station_name":"Manggarai","line":0,"i_lat":-6.209883},{"line":1,"is_transit":false,"transit":false,"station_id":"SUD","station_name":"Sudirman","distance":3186,"i_lat":-6.202263,"i_long":106.822649,"time":4},{"i_lat":-6.201433,"station_id":"SUDB","time":1,"transit":false,"is_transit":false,"distance":280,"i_long":106.819881,"line":1,"station_name":"Sudirman Baru"},{"line":1,"station_name":"Karet","i_lat":-6.20132,"time":1,"is_transit":false,"station_id":"KAT","i_long":106.816351,"transit":false,"distance":471},{"is_transit":true,"station_name":"Tanah Abang","station_id":"THB","distance":2029,"time":5,"i_lat":-6.185545,"i_long":106.811091,"line":1,"transit":false},{"transit":true,"is_transit":true,"station_id":"DU","station_name":"Duri","time":8,"i_long":106.800832,"line":1,"distance":3632,"i_lat":-6.155215},{"is_transit":false,"time":3,"line":5,"i_lat":-6.162021,"transit":false,"station_id":"GGL","distance":1700,"i_long":106.788277,"station_name":"Grogol"},{"station_id":"PSG","transit":false,"i_lat":-6.161433,"station_name":"Pesing","distance":2036,"i_long":106.771379,"line":5,"is_transit":false,"time":2},{"transit":false,"line":5,"time":2,"is_transit":false,"distance":1614,"i_lat":-6.1587309999999995,"station_name":"Taman Kota","station_id":"TKO","i_long":106.756522},{"time":2,"line":0,"transit":false,"station_id":"BOI","distance":2334,"i_lat":-6.159876,"station_name":"Bojongindah","i_long":106.737035,"is_transit":false},{"i_long":106.723064,"distance":1152,"time":4,"line":5,"transit":false,"is_transit":false,"i_lat":-6.162758,"station_name":"Rawa Buaya","station_id":"RW"},{"station_name":"Kalideres","distance":2504,"is_transit":false,"station_id":"KDS","time":3,"i_lat":-6.166068,"i_long":106.701612,"line":5,"transit":false},{"i_lat":-6.169933,"is_transit":false,"distance":2548,"line":5,"station_id":"PI","station_name":"Poris","transit":false,"time":3,"i_long":106.679458},{"station_name":"Batuceper","i_lat":-6.171811,"station_id":"BPR","time":3,"distance":1834,"i_long":106.665036,"transit":false,"line":0,"is_transit":false}]]}