{"data":[[{"time":0,"is_transit":false,"station_name":"Manggabesar","i_lat":-6.149769,"distance":0,"i_long":106.82482,"line":2,"transit":false,"station_id":"MGB"},{"i_lat":-6.160725,"i_long":106.827103,"line":2,"transit":false,"station_name":"Sawah Besar","time":2,"is_transit":false,"station_id":"SW","distance":906},{"time":2,"line":2,"station_name":"Juanda","distance":1149,"transit":false,"is_transit":false,"i_lat":-6.166716,"i_long":106.828284,"station_id":"JUA"},{"time":4,"line":2,"station_id":"GDD","transit":false,"is_transit":false,"distance":2015,"station_name":"Gondangdia","i_lat":-6.186295,"i_long":106.832183},{"i_long":106.840169,"transit":false,"station_name":"Cikini","station_id":"CKI","time":3,"is_transit":false,"i_lat":-6.198556,"distance":1750,"line":2},{"time":4,"station_id":"MRI","distance":1590,"transit":false,"station_name":"Manggarai","i_long":106.84912,"i_lat":-6.209883,"line":2,"is_transit":false},{"distance":2610,"station_name":"Tebet","is_transit":false,"station_id":"TEB","i_lat":-6.226659,"line":2,"time":4,"transit":false,"i_long":106.857948},{"time":2,"station_id":"CW","distance":1230,"is_transit":false,"i_long":106.856607,"line":2,"i_lat":-6.242512,"station_name":"Cawang","transit":false},{"time":3,"station_name":"Duren Kalibata","i_long":106.85449,"is_transit":false,"line":2,"transit":false,"distance":1546,"station_id":"DRN","i_lat":-6.255332},{"i_long":106.851577,"time":2,"line":2,"is_transit":false,"distance":824,"transit":false,"station_name":"Pasar Minggu Baru","i_lat":-6.263214,"station_id":"PSMB"},{"time":2,"is_transit":false,"line":2,"station_id":"PSM","station_name":"Pasar Minggu","transit":false,"i_lat":-6.2842400000000005,"distance":2380,"i_long":106.843999}],[{"i_lat":-6.149769,"station_id":"MGB","distance":0,"line":2,"station_name":"Manggabesar","transit":false,"i_long":106.82482,"time":0,"is_transit":false},{"transit":false,"distance":1080,"time":2,"station_id":"JAY","i_long":106.820901,"is_transit":false,"station_name":"Jayakarta","i_lat":-6.141205,"line":2},{"station_name":"Jakarta Kota","is_transit":true,"transit":true,"i_lat":-6.137569,"distance":1264,"line":2,"station_id":"JAKK","time":4,"i_long":106.812439},{"line":4,"is_transit":true,"station_name":"Kampung Bandan","transit":true,"i_lat":-6.132549,"time":3,"station_id":"KPB","i_long":106.826365,"distance":1364},{"is_transit":false,"station_id":"AK","i_lat":-6.144674,"line":1,"transit":false,"station_name":"Angke","time":9,"i_long":106.79867,"distance":4102},{"is_transit":false,"distance":1230,"station_id":"DU","i_long":106.800832,"time":4,"station_name":"Duri","i_lat":-6.155215,"line":1,"transit":false},{"station_id":"THB","is_transit":false,"i_long":106.811091,"time":8,"distance":3632,"transit":false,"i_lat":-6.185545,"line":1,"station_name":"Tanah Abang"},{"i_long":106.816351,"station_id":"KAT","distance":2029,"station_name":"Karet","time":5,"i_lat":-6.20132,"transit":false,"line":1,"is_transit":false},{"time":1,"i_lat":-6.201433,"distance":471,"station_name":"Sudirman Baru","transit":false,"i_long":106.819881,"line":1,"is_transit":false,"station_id":"SUDB"},{"station_name":"Sudirman","i_long":106.822649,"i_lat":-6.202263,"distance":280,"line":1,"transit":false,"time":1,"station_id":"SUD","is_transit":false},{"transit":true,"line":2,"is_transit":true,"station_id":"MRI","distance":3186,"time":4,"station_name":"Manggarai","i_lat":-6.209883,"i_long":106.84912},{"i_long":106.857948,"line":2,"distance":2610,"station_id":"TEB","station_name":"Tebet","is_transit":false,"time":4,"transit":false,"i_lat":-6.226659},{"transit":false,"is_transit":false,"i_lat":-6.242512,"line":2,"time":2,"distance":1230,"station_name":"Cawang","station_id":"CW","i_long":106.856607},{"station_id":"DRN","distance":1546,"i_lat":-6.255332,"i_long":106.85449,"time":3,"station_name":"Duren Kalibata","transit":false,"is_transit":false,"line":2},{"i_lat":-6.263214,"line":2,"station_id":"PSMB","time":2,"transit":false,"distance":824,"station_name":"Pasar Minggu Baru","is_transit":false,"i_long":106.851577},{"line":2,"i_lat":-6.2842400000000005,"is_transit":false,"station_id":"PSM","i_long":106.843999,"time":2,"transit":false,"station_name":"Pasar Minggu","distance":2380}],[{"transit":false,"line":2,"time":0,"distance":0,"is_transit":false,"station_name":"Manggabesar","i_lat":-6.149769,"i_long":106.82482,"station_id":"MGB"},{"i_long":106.820901,"station_id":"JAY","time":2,"is_transit":false,"i_lat":-6.141205,"station_name":"Jayakarta","transit":false,"line":2,"distance":1080},{"time":4,"i_lat":-6.137569,"line":2,"station_name":"Jakarta Kota","i_long":106.812439,"transit":true,"distance":1264,"is_transit":true,"station_id":"JAKK"},{"station_name":"Kampung Bandan","is_transit":true,"i_lat":-6.132549,"i_long":106.826365,"time":3,"station_id":"KPB","distance":1364,"line":4,"transit":true},{"line":11,"transit":false,"station_id":"RJW","is_transit":false,"i_lat":-6.14505,"i_long":106.836569,"time":3,"distance":1444,"station_name":"Rajawali"},{"station_name":"Kemayoran","is_transit":false,"line":11,"station_id":"KMO","time":5,"distance":1901,"transit":false,"i_lat":-6.161728,"i_long":106.839204},{"i_lat":-6.174784,"transit":false,"is_transit":false,"i_long":106.84368,"distance":1436,"line":11,"station_id":"PSE","station_name":"Pasar Senen","time":4},{"line":11,"is_transit":false,"i_lat":-6.185975,"distance":1567,"i_long":106.850107,"station_name":"Gang Sentiong","transit":false,"station_id":"GST","time":8},{"station_name":"Kramat","i_lat":-6.193792,"distance":973,"i_long":106.855437,"station_id":"KMT","time":1,"transit":false,"line":11,"is_transit":false},{"transit":false,"distance":1829,"line":11,"time":2,"station_id":"POK","is_transit":false,"i_lat":-6.209188,"i_long":106.861737,"station_name":"Pondok Jati"},{"i_long":106.86807400000001,"distance":1236,"is_transit":true,"time":9,"station_name":"Jatinegara","station_id":"JNG","transit":true,"i_lat":-6.215091,"line":1},{"station_name":"Matraman","time":2,"distance":1377,"station_id":"MTR","transit":false,"is_transit":false,"i_long":106.858896,"i_lat":-6.212485,"line":1},{"is_transit":true,"distance":1275,"i_lat":-6.209883,"station_name":"Manggarai","i_long":106.84912,"line":2,"transit":true,"station_id":"MRI","time":2},{"i_long":106.857948,"transit":false,"station_name":"Tebet","i_lat":-6.226659,"time":4,"station_id":"TEB","is_transit":false,"line":2,"distance":2610},{"i_long":106.856607,"transit":false,"time":2,"is_transit":false,"line":2,"station_name":"Cawang","i_lat":-6.242512,"station_id":"CW","distance":1230},{"is_transit":false,"i_long":106.85449,"station_id":"DRN","time":3,"station_name":"Duren Kalibata","i_lat":-6.255332,"transit":false,"line":2,"distance":1546},{"line":2,"transit":false,"is_transit":false,"station_name":"Pasar Minggu Baru","time":2,"station_id":"PSMB","distance":824,"i_lat":-6.263214,"i_long":106.851577},{"i_lat":-6.2842400000000005,"i_long":106.843999,"line":2,"station_name":"Pasar Minggu","transit":false,"is_transit":false,"station_id":"PSM","distance":2380,"time":2}]]}