{"data":[[{"station_id":"MGB","station_name":"Manggabesar","i_lat":-6.149769,"distance":0,"transit":false,"i_long":106.82482,"line":2,"is_transit":false,"time":0},{"station_id":"JAY","distance":1080,"is_transit":false,"i_lat":-6.141205,"transit":false,"time":2,"i_long":106.820901,"line":7,"station_name":"Jayakarta"},{"i_lat":-6.137569,"station_id":"JAKK","distance":1264,"transit":true,"time":4,"station_name":"Jakarta Kota","i_long":106.812439,"is_transit":true,"line":0},{"time":3,"i_lat":-6.132549,"distance":1364,"transit":false,"line":0,"is_transit":true,"i_long":106.826365,"station_id":"KPB","station_name":"Kampung Bandan"},{"is_transit":false,"station_name":"Angke","distance":4102,"station_id":"AK","transit":false,"time":9,"i_lat":-6.144674,"i_long":106.79867,"line":0},{"line":1,"station_name":"Duri","distance":1230,"i_lat":-6.155215,"station_id":"DU","transit":true,"is_transit":true,"time":4,"i_long":106.800832},{"i_lat":-6.185545,"distance":3632,"transit":true,"station_name":"Tanah Abang","i_long":106.811091,"time":8,"station_id":"THB","is_transit":true,"line":1},{"i_long":106.79689,"is_transit":false,"line":6,"station_name":"Palmerah","distance":3191,"transit":false,"station_id":"PLM","time":6,"i_lat":-6.207404},{"is_transit":false,"station_name":"Kebayoran","i_lat":-6.237242,"i_long":106.780334,"distance":3737,"time":7,"line":6,"transit":false,"station_id":"KBY"},{"distance":6218,"station_id":"PDJ","time":8,"i_lat":-6.276362,"line":6,"is_transit":false,"station_name":"Pondokranji","transit":false,"i_long":106.74273},{"is_transit":false,"i_lat":-6.288927,"station_name":"Jurangmangu","transit":false,"i_long":106.728916,"time":3,"line":6,"distance":2179,"station_id":"JMU"},{"transit":false,"i_lat":-6.296963,"time":4,"i_long":106.712277,"line":6,"station_id":"SDM","station_name":"Sudimara","distance":1994,"is_transit":false},{"station_id":"RU","transit":false,"is_transit":false,"i_lat":-6.314823,"time":6,"line":6,"distance":4566,"station_name":"Rawa Buntu","i_long":106.675475},{"time":4,"distance":2413,"is_transit":false,"station_id":"SRP","station_name":"Serpong","i_lat":-6.319871,"transit":false,"line":6,"i_long":106.66566}],[{"station_name":"Manggabesar","distance":0,"i_lat":-6.149769,"station_id":"MGB","is_transit":false,"line":2,"time":0,"i_long":106.82482,"transit":false},{"is_transit":false,"station_id":"SW","i_lat":-6.160725,"line":2,"time":2,"transit":false,"station_name":"Sawah Besar","i_long":106.827103,"distance":906},{"transit":false,"station_name":"Juanda","is_transit":false,"i_lat":-6.166716,"i_long":106.828284,"distance":1149,"station_id":"JUA","time":2,"line":2},{"station_name":"Gondangdia","station_id":"GDD","transit":false,"i_long":106.832183,"line":2,"distance":2015,"is_transit":false,"i_lat":-6.186295,"time":4},{"transit":false,"station_name":"Cikini","distance":1750,"i_lat":-6.198556,"line":0,"station_id":"CKI","is_transit":false,"i_long":106.840169,"time":3},{"i_lat":-6.209883,"line":0,"i_long":106.84912,"station_id":"MRI","transit":true,"is_transit":true,"distance":1590,"station_name":"Manggarai","time":4},{"time":4,"i_lat":-6.202263,"line":1,"station_id":"SUD","i_long":106.822649,"distance":3186,"station_name":"Sudirman","is_transit":false,"transit":false},{"time":1,"i_long":106.819881,"distance":280,"station_id":"SUDB","line":1,"transit":false,"station_name":"Sudirman Baru","is_transit":false,"i_lat":-6.201433},{"transit":false,"i_long":106.816351,"distance":471,"line":1,"station_name":"Karet","time":1,"station_id":"KAT","is_transit":false,"i_lat":-6.20132},{"line":1,"transit":true,"i_lat":-6.185545,"i_long":106.811091,"is_transit":true,"station_id":"THB","station_name":"Tanah Abang","time":5,"distance":2029},{"i_lat":-6.207404,"distance":3191,"station_id":"PLM","i_long":106.79689,"station_name":"Palmerah","line":6,"is_transit":false,"time":6,"transit":false},{"i_lat":-6.237242,"line":6,"i_long":106.780334,"distance":3737,"station_name":"Kebayoran","transit":false,"is_transit":false,"station_id":"KBY","time":7},{"station_id":"PDJ","i_lat":-6.276362,"line":6,"distance":6218,"transit":false,"is_transit":false,"time":8,"i_long":106.74273,"station_name":"Pondokranji"},{"line":6,"station_id":"JMU","distance":2179,"station_name":"Jurangmangu","time":3,"i_lat":-6.288927,"transit":false,"is_transit":false,"i_long":106.728916},{"station_id":"SDM","transit":false,"time":4,"station_name":"Sudimara","i_long":106.712277,"line":6,"is_transit":false,"i_lat":-6.296963,"distance":1994},{"transit":false,"line":6,"station_id":"RU","distance":4566,"is_transit":false,"i_lat":-6.314823,"i_long":106.675475,"station_name":"Rawa Buntu","time":6},{"is_transit":false,"station_name":"Serpong","i_lat":-6.319871,"i_long":106.66566,"distance":2413,"transit":false,"station_id":"SRP","line":6,"time":4}],[{"station_name":"Manggabesar","distance":0,"is_transit":false,"transit":false,"station_id":"MGB","i_lat":-6.149769,"line":2,"time":0,"i_long":106.82482},{"is_transit":false,"transit":false,"i_lat":-6.141205,"station_id":"JAY","i_long":106.820901,"line":7,"station_name":"Jayakarta","time":2,"distance":1080},{"is_transit":true,"time":4,"station_name":"Jakarta Kota","line":0,"station_id":"JAKK","transit":true,"i_lat":-6.137569,"distance":1264,"i_long":106.812439},{"is_transit":true,"time":3,"i_lat":-6.132549,"transit":true,"i_long":106.826365,"station_id":"KPB","station_name":"Kampung Bandan","line":0,"distance":1364},{"i_lat":-6.14505,"is_transit":false,"time":3,"transit":false,"line":11,"distance":1444,"station_id":"RJW","i_long":106.836569,"station_name":"Rajawali"},{"transit":false,"time":5,"i_lat":-6.161728,"i_long":106.839204,"station_id":"KMO","line":11,"is_transit":false,"distance":1901,"station_name":"Kemayoran"},{"station_id":"PSE","transit":false,"station_name":"Pasar Senen","i_lat":-6.174784,"i_long":106.84368,"time":4,"is_transit":false,"distance":1436,"line":11},{"line":11,"i_lat":-6.185975,"distance":1567,"station_name":"Gang Sentiong","is_transit":false,"station_id":"GST","transit":false,"time":8,"i_long":106.850107},{"distance":973,"station_id":"KMT","transit":false,"station_name":"Kramat","i_lat":-6.193792,"line":11,"is_transit":false,"time":1,"i_long":106.855437},{"time":2,"line":11,"station_id":"POK","distance":1829,"transit":false,"is_transit":false,"station_name":"Pondok Jati","i_lat":-6.209188,"i_long":106.861737},{"station_name":"Jatinegara","station_id":"JNG","distance":1236,"time":9,"line":0,"transit":true,"i_lat":-6.215091,"i_long":106.86807400000001,"is_transit":true},{"line":1,"station_id":"MTR","is_transit":false,"transit":false,"i_long":106.858896,"station_name":"Matraman","time":2,"distance":1377,"i_lat":-6.212485},{"is_transit":true,"time":2,"i_long":106.84912,"i_lat":-6.209883,"station_name":"Manggarai","distance":1275,"line":0,"transit":false,"station_id":"MRI"},{"station_id":"SUD","i_long":106.822649,"transit":false,"distance":3186,"line":1,"station_name":"Sudirman","time":4,"is_transit":false,"i_lat":-6.202263},{"is_transit":false,"distance":280,"transit":false,"time":1,"i_lat":-6.201433,"i_long":106.819881,"station_name":"Sudirman Baru","station_id":"SUDB","line":1},{"i_lat":-6.20132,"station_name":"Karet","time":1,"i_long":106.816351,"station_id":"KAT","distance":471,"transit":false,"line":1,"is_transit":false},{"station_name":"Tanah Abang","is_transit":true,"time":5,"distance":2029,"i_long":106.811091,"line":1,"station_id":"THB","i_lat":-6.185545,"transit":true},{"transit":false,"is_transit":false,"i_long":106.79689,"station_id":"PLM","time":6,"i_lat":-6.207404,"line":6,"station_name":"Palmerah","distance":3191},{"time":7,"station_id":"KBY","i_long":106.780334,"is_transit":false,"station_name":"Kebayoran","transit":false,"distance":3737,"i_lat":-6.237242,"line":6},{"time":8,"station_id":"PDJ","station_name":"Pondokranji","is_transit":false,"i_lat":-6.276362,"line":6,"i_long":106.74273,"distance":6218,"transit":false},{"line":6,"transit":false,"station_id":"JMU","is_transit":false,"i_lat":-6.288927,"time":3,"i_long":106.728916,"distance":2179,"station_name":"Jurangmangu"},{"line":6,"is_transit":false,"station_name":"Sudimara","transit":false,"station_id":"SDM","distance":1994,"time":4,"i_lat":-6.296963,"i_long":106.712277},{"station_id":"RU","transit":false,"i_lat":-6.314823,"distance":4566,"line":6,"is_transit":false,"station_name":"Rawa Buntu","i_long":106.675475,"time":6},{"is_transit":false,"i_lat":-6.319871,"distance":2413,"transit":false,"i_long":106.66566,"station_id":"SRP","station_name":"Serpong","time":4,"line":6}],[{"i_long":106.82482,"station_name":"Manggabesar","is_transit":false,"station_id":"MGB","transit":false,"time":0,"i_lat":-6.149769,"distance":0,"line":2},{"is_transit":false,"i_long":106.827103,"line":2,"distance":906,"i_lat":-6.160725,"station_name":"Sawah Besar","time":2,"station_id":"SW","transit":false},{"i_lat":-6.166716,"distance":1149,"time":2,"line":2,"transit":false,"station_id":"JUA","is_transit":false,"i_long":106.828284,"station_name":"Juanda"},{"distance":2015,"station_id":"GDD","transit":false,"is_transit":false,"i_lat":-6.186295,"line":2,"station_name":"Gondangdia","i_long":106.832183,"time":4},{"is_transit":false,"i_long":106.840169,"station_id":"CKI","transit":false,"distance":1750,"i_lat":-6.198556,"line":0,"station_name":"Cikini","time":3},{"transit":true,"line":0,"distance":1590,"station_name":"Manggarai","station_id":"MRI","time":4,"i_lat":-6.209883,"is_transit":true,"i_long":106.84912},{"i_long":106.858896,"station_name":"Matraman","station_id":"MTR","is_transit":false,"distance":1275,"time":2,"line":1,"transit":false,"i_lat":-6.212485},{"i_long":106.86807400000001,"line":0,"station_id":"JNG","i_lat":-6.215091,"station_name":"Jatinegara","transit":true,"distance":1377,"is_transit":true,"time":8},{"i_long":106.861737,"station_name":"Pondok Jati","transit":false,"is_transit":false,"time":2,"distance":1236,"station_id":"POK","i_lat":-6.209188,"line":11},{"station_name":"Kramat","station_id":"KMT","is_transit":false,"time":2,"transit":false,"distance":1829,"i_lat":-6.193792,"line":11,"i_long":106.855437},{"station_id":"GST","time":1,"is_transit":false,"i_lat":-6.185975,"transit":false,"distance":973,"i_long":106.850107,"station_name":"Gang Sentiong","line":11},{"station_id":"PSE","transit":false,"distance":1567,"station_name":"Pasar Senen","is_transit":false,"time":8,"i_lat":-6.174784,"i_long":106.84368,"line":11},{"distance":1436,"line":11,"transit":false,"station_id":"KMO","time":4,"i_lat":-6.161728,"is_transit":false,"station_name":"Kemayoran","i_long":106.839204},{"i_long":106.836569,"line":11,"is_transit":false,"station_name":"Rajawali","transit":false,"time":5,"distance":1901,"station_id":"RJW","i_lat":-6.14505},{"distance":1444,"i_lat":-6.132549,"station_id":"KPB","station_name":"Kampung Bandan","transit":true,"line":0,"is_transit":true,"time":3,"i_long":106.826365},{"i_lat":-6.144674,"distance":4102,"station_id":"AK","is_transit":false,"time":9,"i_long":106.79867,"line":0,"station_name":"Angke","transit":false},{"i_lat":-6.155215,"line":1,"is_transit":true,"distance":1230,"transit":true,"i_long":106.800832,"station_id":"DU","station_name":"Duri","time":4},{"is_transit":true,"i_long":106.811091,"station_id":"THB","distance":3632,"transit":true,"time":8,"i_lat":-6.185545,"station_name":"Tanah Abang","line":1},{"line":6,"is_transit":false,"station_id":"PLM","time":6,"i_long":106.79689,"station_name":"Palmerah","i_lat":-6.207404,"distance":3191,"transit":false},{"is_transit":false,"transit":false,"i_lat":-6.237242,"i_long":106.780334,"line":6,"station_name":"Kebayoran","station_id":"KBY","distance":3737,"time":7},{"i_long":106.74273,"time":8,"transit":false,"is_transit":false,"i_lat":-6.276362,"station_name":"Pondokranji","line":6,"distance":6218,"station_id":"PDJ"},{"is_transit":false,"time":3,"transit":false,"line":6,"distance":2179,"station_name":"Jurangmangu","i_lat":-6.288927,"i_long":106.728916,"station_id":"JMU"},{"is_transit":false,"time":4,"i_lat":-6.296963,"distance":1994,"i_long":106.712277,"station_id":"SDM","line":6,"station_name":"Sudimara","transit":false},{"time":6,"line":6,"distance":4566,"station_id":"RU","station_name":"Rawa Buntu","i_long":106.675475,"transit":false,"i_lat":-6.314823,"is_transit":false},{"distance":2413,"i_long":106.66566,"station_name":"Serpong","transit":false,"time":4,"is_transit":false,"i_lat":-6.319871,"line":6,"station_id":"SRP"}]]}