{"data":[[{"station_name":"Manggabesar","station_id":"MGB","line":2,"is_transit":false,"transit":false,"i_long":106.82482,"time":0,"i_lat":-6.149769,"distance":0},{"distance":906,"station_name":"Sawah Besar","i_lat":-6.160725,"is_transit":false,"line":2,"time":2,"station_id":"SW","transit":false,"i_long":106.827103},{"station_id":"JUA","transit":false,"is_transit":false,"time":2,"line":2,"i_lat":-6.166716,"distance":1149,"station_name":"Juanda","i_long":106.828284},{"is_transit":false,"transit":false,"distance":2015,"station_name":"Gondangdia","i_long":106.832183,"station_id":"GDD","time":4,"i_lat":-6.186295,"line":2},{"i_long":106.840169,"transit":false,"station_name":"Cikini","line":2,"distance":1750,"station_id":"CKI","is_transit":false,"time":3,"i_lat":-6.198556},{"i_long":106.84912,"station_id":"MRI","line":2,"is_transit":true,"station_name":"Manggarai","i_lat":-6.209883,"distance":1590,"transit":true,"time":4},{"station_name":"Matraman","transit":false,"line":1,"i_long":106.858896,"station_id":"MTR","time":2,"distance":1275,"is_transit":false,"i_lat":-6.212485},{"i_long":106.86807400000001,"station_name":"Jatinegara","is_transit":false,"transit":false,"line":1,"distance":1377,"time":8,"i_lat":-6.215091,"station_id":"JNG"}],[{"time":0,"transit":false,"i_long":106.82482,"distance":0,"station_id":"MGB","is_transit":false,"i_lat":-6.149769,"station_name":"Manggabesar","line":2},{"station_name":"Jayakarta","is_transit":false,"distance":1080,"station_id":"JAY","transit":false,"time":2,"i_lat":-6.141205,"line":2,"i_long":106.820901},{"time":4,"i_lat":-6.137569,"station_id":"JAKK","line":2,"i_long":106.812439,"is_transit":true,"distance":1264,"transit":true,"station_name":"Jakarta Kota"},{"is_transit":true,"i_lat":-6.132549,"station_name":"Kampung Bandan","line":4,"distance":1364,"time":3,"i_long":106.826365,"station_id":"KPB","transit":true},{"time":3,"line":11,"is_transit":false,"station_name":"Rajawali","i_lat":-6.14505,"i_long":106.836569,"station_id":"RJW","distance":1444,"transit":false},{"i_long":106.839204,"is_transit":false,"time":5,"line":11,"station_name":"Kemayoran","station_id":"KMO","distance":1901,"i_lat":-6.161728,"transit":false},{"time":4,"line":11,"distance":1436,"station_name":"Pasar Senen","is_transit":false,"i_lat":-6.174784,"i_long":106.84368,"transit":false,"station_id":"PSE"},{"is_transit":false,"line":11,"i_lat":-6.185975,"distance":1567,"station_name":"Gang Sentiong","transit":false,"time":8,"station_id":"GST","i_long":106.850107},{"is_transit":false,"station_name":"Kramat","distance":973,"i_lat":-6.193792,"time":1,"transit":false,"i_long":106.855437,"line":11,"station_id":"KMT"},{"line":11,"station_name":"Pondok Jati","i_long":106.861737,"distance":1829,"time":2,"is_transit":false,"station_id":"POK","transit":false,"i_lat":-6.209188},{"line":1,"i_lat":-6.215091,"station_name":"Jatinegara","station_id":"JNG","is_transit":false,"transit":false,"i_long":106.86807400000001,"distance":1236,"time":9}],[{"i_long":106.82482,"line":2,"station_name":"Manggabesar","station_id":"MGB","transit":false,"i_lat":-6.149769,"distance":0,"is_transit":false,"time":0},{"i_long":106.820901,"line":2,"station_id":"JAY","is_transit":false,"distance":1080,"transit":false,"station_name":"Jayakarta","time":2,"i_lat":-6.141205},{"line":2,"i_lat":-6.137569,"distance":1264,"is_transit":true,"time":4,"i_long":106.812439,"station_id":"JAKK","transit":true,"station_name":"Jakarta Kota"},{"distance":1364,"i_long":106.826365,"station_name":"Kampung Bandan","line":4,"is_transit":true,"station_id":"KPB","i_lat":-6.132549,"transit":true,"time":3},{"line":1,"is_transit":false,"distance":4102,"i_lat":-6.144674,"station_id":"AK","time":9,"station_name":"Angke","transit":false,"i_long":106.79867},{"distance":1230,"station_id":"DU","time":4,"i_lat":-6.155215,"is_transit":false,"transit":false,"line":1,"station_name":"Duri","i_long":106.800832},{"transit":false,"i_lat":-6.185545,"line":1,"station_id":"THB","time":8,"is_transit":false,"i_long":106.811091,"distance":3632,"station_name":"Tanah Abang"},{"i_lat":-6.20132,"i_long":106.816351,"line":1,"station_id":"KAT","is_transit":false,"transit":false,"distance":2029,"time":5,"station_name":"Karet"},{"line":1,"station_name":"Sudirman Baru","i_lat":-6.201433,"time":1,"is_transit":false,"distance":471,"station_id":"SUDB","transit":false,"i_long":106.819881},{"station_name":"Sudirman","transit":false,"time":1,"distance":280,"station_id":"SUD","is_transit":false,"i_lat":-6.202263,"i_long":106.822649,"line":1},{"line":2,"distance":3186,"transit":false,"is_transit":false,"station_name":"Manggarai","time":4,"i_lat":-6.209883,"station_id":"MRI","i_long":106.84912},{"i_long":106.858896,"line":1,"distance":1275,"station_id":"MTR","transit":false,"i_lat":-6.212485,"station_name":"Matraman","time":2,"is_transit":false},{"distance":1377,"time":8,"is_transit":false,"station_name":"Jatinegara","station_id":"JNG","transit":false,"i_lat":-6.215091,"i_long":106.86807400000001,"line":1}],[{"i_lat":-6.149769,"time":0,"is_transit":false,"line":2,"i_long":106.82482,"distance":0,"transit":false,"station_name":"Manggabesar","station_id":"MGB"},{"line":2,"i_long":106.827103,"is_transit":false,"station_name":"Sawah Besar","transit":false,"time":2,"distance":906,"i_lat":-6.160725,"station_id":"SW"},{"station_id":"JUA","is_transit":false,"time":2,"i_lat":-6.166716,"transit":false,"i_long":106.828284,"line":2,"distance":1149,"station_name":"Juanda"},{"transit":false,"station_name":"Gondangdia","i_lat":-6.186295,"i_long":106.832183,"line":2,"is_transit":false,"distance":2015,"time":4,"station_id":"GDD"},{"station_name":"Cikini","station_id":"CKI","distance":1750,"transit":false,"is_transit":false,"line":2,"i_long":106.840169,"time":3,"i_lat":-6.198556},{"i_lat":-6.209883,"station_name":"Manggarai","transit":true,"is_transit":true,"station_id":"MRI","distance":1590,"time":4,"i_long":106.84912,"line":2},{"time":4,"distance":3186,"i_lat":-6.202263,"station_id":"SUD","i_long":106.822649,"station_name":"Sudirman","is_transit":false,"transit":false,"line":1},{"i_long":106.819881,"distance":280,"time":1,"station_name":"Sudirman Baru","transit":false,"line":1,"is_transit":false,"station_id":"SUDB","i_lat":-6.201433},{"i_lat":-6.20132,"line":1,"distance":471,"i_long":106.816351,"transit":false,"station_name":"Karet","station_id":"KAT","is_transit":false,"time":1},{"transit":false,"station_id":"THB","i_lat":-6.185545,"time":5,"distance":2029,"is_transit":false,"i_long":106.811091,"line":1,"station_name":"Tanah Abang"},{"is_transit":false,"time":8,"i_long":106.800832,"distance":3632,"line":1,"station_name":"Duri","station_id":"DU","transit":false,"i_lat":-6.155215},{"i_lat":-6.144674,"time":4,"i_long":106.79867,"station_id":"AK","transit":false,"station_name":"Angke","line":1,"distance":1230,"is_transit":false},{"line":4,"distance":4102,"station_name":"Kampung Bandan","transit":true,"time":9,"i_lat":-6.132549,"i_long":106.826365,"is_transit":true,"station_id":"KPB"},{"is_transit":false,"transit":false,"distance":1444,"i_lat":-6.14505,"i_long":106.836569,"line":11,"time":3,"station_name":"Rajawali","station_id":"RJW"},{"i_lat":-6.161728,"line":11,"i_long":106.839204,"transit":false,"time":5,"is_transit":false,"station_name":"Kemayoran","distance":1901,"station_id":"KMO"},{"distance":1436,"transit":false,"i_lat":-6.174784,"station_id":"PSE","station_name":"Pasar Senen","i_long":106.84368,"is_transit":false,"time":4,"line":11},{"i_lat":-6.185975,"distance":1567,"is_transit":false,"station_id":"GST","transit":false,"station_name":"Gang Sentiong","i_long":106.850107,"time":8,"line":11},{"station_id":"KMT","is_transit":false,"transit":false,"time":1,"distance":973,"station_name":"Kramat","i_long":106.855437,"line":11,"i_lat":-6.193792},{"i_lat":-6.209188,"transit":false,"distance":1829,"line":11,"time":2,"station_name":"Pondok Jati","is_transit":false,"i_long":106.861737,"station_id":"POK"},{"i_lat":-6.215091,"transit":false,"line":1,"time":9,"station_name":"Jatinegara","station_id":"JNG","distance":1236,"is_transit":false,"i_long":106.86807400000001}]]}