{"data":[[{"i_lat":-6.149769,"line":2,"distance":0,"station_id":"MGB","is_transit":false,"station_name":"Manggabesar","transit":false,"time":0,"i_long":106.82482},{"i_long":106.820901,"station_name":"Jayakarta","transit":false,"i_lat":-6.141205,"line":2,"distance":1080,"time":2,"is_transit":false,"station_id":"JAY"},{"station_name":"Jakarta Kota","is_transit":true,"transit":true,"i_long":106.812439,"distance":1264,"station_id":"JAKK","i_lat":-6.137569,"time":4,"line":2},{"station_name":"Kampung Bandan","time":3,"is_transit":true,"transit":true,"station_id":"KPB","distance":1364,"i_lat":-6.132549,"i_long":106.826365,"line":4},{"line":1,"time":9,"distance":4102,"station_name":"Angke","is_transit":false,"i_lat":-6.144674,"i_long":106.79867,"transit":false,"station_id":"AK"},{"station_name":"Duri","is_transit":false,"transit":false,"time":4,"station_id":"DU","distance":1230,"i_long":106.800832,"line":1,"i_lat":-6.155215},{"station_id":"THB","i_long":106.811091,"distance":3632,"time":8,"transit":true,"station_name":"Tanah Abang","is_transit":true,"i_lat":-6.185545,"line":1},{"transit":false,"i_lat":-6.207404,"i_long":106.79689,"time":6,"station_name":"Palmerah","is_transit":false,"distance":3191,"line":6,"station_id":"PLM"},{"station_name":"Kebayoran","line":6,"station_id":"KBY","transit":false,"distance":3737,"i_lat":-6.237242,"time":7,"i_long":106.780334,"is_transit":false},{"i_long":106.74273,"distance":6218,"i_lat":-6.276362,"line":6,"transit":false,"time":8,"station_name":"Pondokranji","is_transit":false,"station_id":"PDJ"},{"i_long":106.728916,"transit":false,"line":6,"is_transit":false,"time":3,"i_lat":-6.288927,"distance":2179,"station_id":"JMU","station_name":"Jurangmangu"},{"i_long":106.712277,"time":4,"station_id":"SDM","transit":false,"is_transit":false,"distance":1994,"i_lat":-6.296963,"line":6,"station_name":"Sudimara"},{"distance":4566,"line":6,"time":6,"is_transit":false,"i_lat":-6.314823,"station_name":"Rawa Buntu","station_id":"RU","i_long":106.675475,"transit":false},{"transit":false,"station_id":"SRP","i_long":106.66566,"station_name":"Serpong","time":4,"is_transit":false,"distance":2413,"i_lat":-6.319871,"line":6},{"line":3,"distance":1784,"is_transit":false,"i_long":106.640411,"station_id":"CSK","time":4,"transit":false,"i_lat":-6.32484,"station_name":"Cisauk"},{"time":4,"transit":false,"station_name":"Cicayur","station_id":"CC","i_lat":-6.329547,"distance":2519,"is_transit":false,"i_long":106.617853,"line":3},{"time":8,"distance":5968,"i_lat":-6.3441410000000005,"transit":false,"station_id":"PRP","line":6,"station_name":"Parung Panjang","is_transit":false,"i_long":106.568863},{"is_transit":false,"station_id":"CJT","i_lat":-6.354349,"distance":7025,"transit":false,"station_name":"Cilejit","time":9,"i_long":106.508482,"line":3}],[{"transit":false,"line":2,"is_transit":false,"distance":0,"station_id":"MGB","i_lat":-6.149769,"i_long":106.82482,"station_name":"Manggabesar","time":0},{"is_transit":false,"transit":false,"i_long":106.827103,"station_id":"SW","distance":906,"time":2,"station_name":"Sawah Besar","i_lat":-6.160725,"line":2},{"station_name":"Juanda","station_id":"JUA","i_long":106.828284,"distance":1149,"i_lat":-6.166716,"line":2,"transit":false,"time":2,"is_transit":false},{"station_id":"GDD","is_transit":false,"i_lat":-6.186295,"time":4,"transit":false,"i_long":106.832183,"distance":2015,"station_name":"Gondangdia","line":2},{"station_id":"CKI","line":2,"distance":1750,"station_name":"Cikini","i_long":106.840169,"time":3,"i_lat":-6.198556,"transit":false,"is_transit":false},{"station_id":"MRI","station_name":"Manggarai","time":4,"transit":true,"line":2,"is_transit":true,"distance":1590,"i_lat":-6.209883,"i_long":106.84912},{"line":1,"i_long":106.822649,"i_lat":-6.202263,"time":4,"station_id":"SUD","is_transit":false,"transit":false,"station_name":"Sudirman","distance":3186},{"transit":false,"line":1,"i_long":106.819881,"time":1,"station_id":"SUDB","is_transit":false,"i_lat":-6.201433,"station_name":"Sudirman Baru","distance":280},{"station_name":"Karet","transit":false,"distance":471,"time":1,"station_id":"KAT","line":1,"i_lat":-6.20132,"is_transit":false,"i_long":106.816351},{"station_id":"THB","is_transit":true,"station_name":"Tanah Abang","distance":2029,"i_lat":-6.185545,"transit":true,"line":1,"i_long":106.811091,"time":5},{"i_lat":-6.207404,"station_name":"Palmerah","is_transit":false,"line":6,"i_long":106.79689,"transit":false,"time":6,"distance":3191,"station_id":"PLM"},{"station_name":"Kebayoran","i_long":106.780334,"time":7,"station_id":"KBY","is_transit":false,"distance":3737,"i_lat":-6.237242,"line":6,"transit":false},{"i_long":106.74273,"station_name":"Pondokranji","i_lat":-6.276362,"distance":6218,"station_id":"PDJ","line":6,"time":8,"is_transit":false,"transit":false},{"transit":false,"distance":2179,"station_name":"Jurangmangu","time":3,"is_transit":false,"station_id":"JMU","i_lat":-6.288927,"i_long":106.728916,"line":6},{"is_transit":false,"station_id":"SDM","distance":1994,"time":4,"i_lat":-6.296963,"line":6,"transit":false,"station_name":"Sudimara","i_long":106.712277},{"line":6,"is_transit":false,"i_lat":-6.314823,"distance":4566,"station_name":"Rawa Buntu","time":6,"transit":false,"station_id":"RU","i_long":106.675475},{"station_name":"Serpong","time":4,"distance":2413,"is_transit":false,"transit":false,"i_lat":-6.319871,"station_id":"SRP","i_long":106.66566,"line":6},{"i_long":106.640411,"time":4,"station_name":"Cisauk","transit":false,"distance":1784,"line":3,"station_id":"CSK","is_transit":false,"i_lat":-6.32484},{"time":4,"transit":false,"station_name":"Cicayur","i_long":106.617853,"station_id":"CC","distance":2519,"line":3,"is_transit":false,"i_lat":-6.329547},{"i_long":106.568863,"station_name":"Parung Panjang","is_transit":false,"station_id":"PRP","i_lat":-6.3441410000000005,"line":6,"transit":false,"distance":5968,"time":8},{"distance":7025,"time":9,"is_transit":false,"station_name":"Cilejit","i_long":106.508482,"i_lat":-6.354349,"line":3,"transit":false,"station_id":"CJT"}],[{"is_transit":false,"line":2,"time":0,"distance":0,"i_long":106.82482,"station_id":"MGB","transit":false,"i_lat":-6.149769,"station_name":"Manggabesar"},{"line":2,"distance":1080,"is_transit":false,"transit":false,"time":2,"station_name":"Jayakarta","i_long":106.820901,"station_id":"JAY","i_lat":-6.141205},{"time":4,"i_long":106.812439,"transit":true,"distance":1264,"station_name":"Jakarta Kota","station_id":"JAKK","i_lat":-6.137569,"is_transit":true,"line":2},{"is_transit":true,"distance":1364,"transit":true,"station_name":"Kampung Bandan","i_lat":-6.132549,"i_long":106.826365,"time":3,"line":4,"station_id":"KPB"},{"time":3,"station_name":"Rajawali","distance":1444,"line":11,"i_lat":-6.14505,"i_long":106.836569,"transit":false,"is_transit":false,"station_id":"RJW"},{"time":5,"station_name":"Kemayoran","is_transit":false,"distance":1901,"i_lat":-6.161728,"line":11,"station_id":"KMO","i_long":106.839204,"transit":false},{"is_transit":false,"station_id":"PSE","i_lat":-6.174784,"transit":false,"station_name":"Pasar Senen","line":11,"time":4,"i_long":106.84368,"distance":1436},{"station_id":"GST","station_name":"Gang Sentiong","distance":1567,"i_lat":-6.185975,"line":11,"i_long":106.850107,"is_transit":false,"time":8,"transit":false},{"transit":false,"station_name":"Kramat","is_transit":false,"distance":973,"i_long":106.855437,"i_lat":-6.193792,"station_id":"KMT","time":1,"line":11},{"i_lat":-6.209188,"i_long":106.861737,"line":11,"transit":false,"distance":1829,"station_id":"POK","is_transit":false,"time":2,"station_name":"Pondok Jati"},{"i_lat":-6.215091,"station_id":"JNG","transit":true,"distance":1236,"station_name":"Jatinegara","line":1,"time":9,"is_transit":true,"i_long":106.86807400000001},{"i_long":106.858896,"i_lat":-6.212485,"line":1,"time":2,"station_id":"MTR","is_transit":false,"transit":false,"station_name":"Matraman","distance":1377},{"time":2,"station_name":"Manggarai","i_lat":-6.209883,"line":2,"is_transit":false,"i_long":106.84912,"station_id":"MRI","transit":false,"distance":1275},{"station_id":"SUD","transit":false,"i_lat":-6.202263,"station_name":"Sudirman","time":4,"is_transit":false,"i_long":106.822649,"distance":3186,"line":1},{"i_lat":-6.201433,"station_name":"Sudirman Baru","distance":280,"station_id":"SUDB","transit":false,"line":1,"i_long":106.819881,"time":1,"is_transit":false},{"station_id":"KAT","line":1,"station_name":"Karet","i_lat":-6.20132,"is_transit":false,"time":1,"i_long":106.816351,"distance":471,"transit":false},{"distance":2029,"line":1,"time":5,"station_name":"Tanah Abang","is_transit":true,"transit":true,"station_id":"THB","i_lat":-6.185545,"i_long":106.811091},{"station_id":"PLM","transit":false,"time":6,"station_name":"Palmerah","i_lat":-6.207404,"i_long":106.79689,"distance":3191,"line":6,"is_transit":false},{"station_name":"Kebayoran","transit":false,"time":7,"is_transit":false,"distance":3737,"station_id":"KBY","line":6,"i_long":106.780334,"i_lat":-6.237242},{"station_id":"PDJ","station_name":"Pondokranji","is_transit":false,"i_long":106.74273,"time":8,"distance":6218,"transit":false,"i_lat":-6.276362,"line":6},{"is_transit":false,"transit":false,"i_long":106.728916,"time":3,"distance":2179,"i_lat":-6.288927,"line":6,"station_id":"JMU","station_name":"Jurangmangu"},{"station_name":"Sudimara","is_transit":false,"i_lat":-6.296963,"line":6,"time":4,"transit":false,"station_id":"SDM","distance":1994,"i_long":106.712277},{"transit":false,"i_long":106.675475,"is_transit":false,"line":6,"station_id":"RU","i_lat":-6.314823,"station_name":"Rawa Buntu","distance":4566,"time":6},{"transit":false,"station_id":"SRP","time":4,"line":6,"i_lat":-6.319871,"distance":2413,"station_name":"Serpong","i_long":106.66566,"is_transit":false},{"transit":false,"distance":1784,"i_lat":-6.32484,"station_id":"CSK","i_long":106.640411,"line":3,"time":4,"station_name":"Cisauk","is_transit":false},{"station_id":"CC","distance":2519,"station_name":"Cicayur","i_lat":-6.329547,"line":3,"is_transit":false,"transit":false,"time":4,"i_long":106.617853},{"transit":false,"time":8,"station_name":"Parung Panjang","station_id":"PRP","is_transit":false,"distance":5968,"line":6,"i_lat":-6.3441410000000005,"i_long":106.568863},{"station_id":"CJT","time":9,"i_long":106.508482,"i_lat":-6.354349,"line":3,"station_name":"Cilejit","distance":7025,"is_transit":false,"transit":false}],[{"station_id":"MGB","i_lat":-6.149769,"i_long":106.82482,"line":2,"station_name":"Manggabesar","transit":false,"time":0,"is_transit":false,"distance":0},{"station_name":"Sawah Besar","time":2,"distance":906,"transit":false,"station_id":"SW","line":2,"is_transit":false,"i_long":106.827103,"i_lat":-6.160725},{"time":2,"station_name":"Juanda","station_id":"JUA","distance":1149,"i_lat":-6.166716,"i_long":106.828284,"line":2,"transit":false,"is_transit":false},{"i_lat":-6.186295,"i_long":106.832183,"distance":2015,"station_id":"GDD","line":2,"time":4,"is_transit":false,"transit":false,"station_name":"Gondangdia"},{"station_name":"Cikini","i_lat":-6.198556,"line":2,"transit":false,"is_transit":false,"distance":1750,"time":3,"i_long":106.840169,"station_id":"CKI"},{"station_name":"Manggarai","time":4,"distance":1590,"station_id":"MRI","i_long":106.84912,"i_lat":-6.209883,"transit":true,"line":2,"is_transit":true},{"station_id":"MTR","i_long":106.858896,"time":2,"line":1,"transit":false,"distance":1275,"i_lat":-6.212485,"station_name":"Matraman","is_transit":false},{"distance":1377,"line":1,"i_long":106.86807400000001,"i_lat":-6.215091,"time":8,"is_transit":true,"transit":true,"station_id":"JNG","station_name":"Jatinegara"},{"time":2,"i_lat":-6.209188,"is_transit":false,"distance":1236,"i_long":106.861737,"transit":false,"station_name":"Pondok Jati","station_id":"POK","line":11},{"distance":1829,"station_name":"Kramat","station_id":"KMT","i_lat":-6.193792,"i_long":106.855437,"time":2,"line":11,"transit":false,"is_transit":false},{"i_lat":-6.185975,"transit":false,"time":1,"station_name":"Gang Sentiong","i_long":106.850107,"line":11,"distance":973,"is_transit":false,"station_id":"GST"},{"is_transit":false,"i_lat":-6.174784,"time":8,"station_name":"Pasar Senen","i_long":106.84368,"station_id":"PSE","transit":false,"line":11,"distance":1567},{"distance":1436,"i_lat":-6.161728,"transit":false,"i_long":106.839204,"station_id":"KMO","line":11,"is_transit":false,"station_name":"Kemayoran","time":4},{"line":11,"i_lat":-6.14505,"i_long":106.836569,"station_name":"Rajawali","distance":1901,"transit":false,"station_id":"RJW","time":5,"is_transit":false},{"is_transit":true,"time":3,"station_id":"KPB","station_name":"Kampung Bandan","line":4,"i_lat":-6.132549,"distance":1444,"i_long":106.826365,"transit":true},{"i_lat":-6.144674,"i_long":106.79867,"station_name":"Angke","time":9,"is_transit":false,"station_id":"AK","line":1,"transit":false,"distance":4102},{"time":4,"is_transit":false,"i_lat":-6.155215,"station_id":"DU","line":1,"distance":1230,"station_name":"Duri","i_long":106.800832,"transit":false},{"i_lat":-6.185545,"transit":true,"distance":3632,"i_long":106.811091,"time":8,"station_id":"THB","is_transit":true,"line":1,"station_name":"Tanah Abang"},{"station_id":"PLM","time":6,"transit":false,"station_name":"Palmerah","is_transit":false,"i_lat":-6.207404,"i_long":106.79689,"line":6,"distance":3191},{"time":7,"is_transit":false,"station_name":"Kebayoran","distance":3737,"station_id":"KBY","i_lat":-6.237242,"line":6,"i_long":106.780334,"transit":false},{"time":8,"is_transit":false,"transit":false,"i_long":106.74273,"distance":6218,"station_id":"PDJ","i_lat":-6.276362,"station_name":"Pondokranji","line":6},{"time":3,"is_transit":false,"station_id":"JMU","transit":false,"line":6,"distance":2179,"station_name":"Jurangmangu","i_long":106.728916,"i_lat":-6.288927},{"station_id":"SDM","is_transit":false,"i_long":106.712277,"time":4,"transit":false,"i_lat":-6.296963,"distance":1994,"line":6,"station_name":"Sudimara"},{"is_transit":false,"station_id":"RU","station_name":"Rawa Buntu","line":6,"time":6,"transit":false,"i_long":106.675475,"distance":4566,"i_lat":-6.314823},{"transit":false,"distance":2413,"i_lat":-6.319871,"line":6,"time":4,"is_transit":false,"station_id":"SRP","i_long":106.66566,"station_name":"Serpong"},{"i_lat":-6.32484,"transit":false,"station_name":"Cisauk","time":4,"line":3,"is_transit":false,"distance":1784,"station_id":"CSK","i_long":106.640411},{"i_long":106.617853,"line":3,"station_name":"Cicayur","is_transit":false,"time":4,"station_id":"CC","i_lat":-6.329547,"transit":false,"distance":2519},{"is_transit":false,"transit":false,"distance":5968,"time":8,"line":6,"station_id":"PRP","i_long":106.568863,"station_name":"Parung Panjang","i_lat":-6.3441410000000005},{"transit":false,"distance":7025,"is_transit":false,"station_id":"CJT","time":9,"station_name":"Cilejit","i_lat":-6.354349,"line":3,"i_long":106.508482}]]}