{"data":[[{"i_long":106.82482,"is_transit":false,"i_lat":-6.149769,"transit":false,"station_name":"Manggabesar","station_id":"MGB","time":0,"distance":0,"line":2},{"station_name":"Jayakarta","i_long":106.820901,"station_id":"JAY","is_transit":false,"line":2,"transit":false,"time":2,"i_lat":-6.141205,"distance":1080},{"line":2,"time":4,"transit":true,"station_id":"JAKK","station_name":"Jakarta Kota","is_transit":true,"distance":1264,"i_lat":-6.137569,"i_long":106.812439},{"is_transit":true,"station_name":"Kampung Bandan","station_id":"KPB","time":3,"transit":true,"distance":1364,"i_long":106.826365,"i_lat":-6.132549,"line":4},{"transit":false,"is_transit":false,"i_long":106.79867,"station_id":"AK","i_lat":-6.144674,"line":1,"station_name":"Angke","distance":4102,"time":9},{"time":4,"transit":false,"station_id":"DU","is_transit":false,"station_name":"Duri","distance":1230,"i_lat":-6.155215,"i_long":106.800832,"line":1},{"time":8,"transit":true,"distance":3632,"i_long":106.811091,"line":1,"is_transit":true,"i_lat":-6.185545,"station_id":"THB","station_name":"Tanah Abang"},{"transit":false,"station_name":"Palmerah","i_lat":-6.207404,"time":6,"station_id":"PLM","is_transit":false,"i_long":106.79689,"distance":3191,"line":6},{"time":7,"i_lat":-6.237242,"transit":false,"is_transit":false,"distance":3737,"station_id":"KBY","station_name":"Kebayoran","i_long":106.780334,"line":6},{"station_id":"PDJ","distance":6218,"line":6,"station_name":"Pondokranji","i_lat":-6.276362,"i_long":106.74273,"transit":false,"time":8,"is_transit":false},{"line":6,"i_lat":-6.288927,"time":3,"i_long":106.728916,"distance":2179,"station_id":"JMU","transit":false,"station_name":"Jurangmangu","is_transit":false},{"is_transit":false,"station_name":"Sudimara","time":4,"transit":false,"i_long":106.712277,"distance":1994,"station_id":"SDM","line":6,"i_lat":-6.296963},{"is_transit":false,"station_name":"Rawa Buntu","distance":4566,"time":6,"transit":false,"i_long":106.675475,"i_lat":-6.314823,"station_id":"RU","line":6},{"distance":2413,"i_long":106.66566,"line":6,"i_lat":-6.319871,"transit":false,"station_id":"SRP","station_name":"Serpong","time":4,"is_transit":false},{"station_id":"CSK","is_transit":false,"time":4,"line":3,"i_lat":-6.32484,"i_long":106.640411,"station_name":"Cisauk","transit":false,"distance":1784},{"time":4,"transit":false,"station_id":"CC","distance":2519,"is_transit":false,"i_lat":-6.329547,"i_long":106.617853,"line":3,"station_name":"Cicayur"},{"distance":5968,"i_lat":-6.3441410000000005,"station_name":"Parung Panjang","is_transit":false,"i_long":106.568863,"time":8,"station_id":"PRP","line":6,"transit":false},{"i_long":106.508482,"distance":7025,"i_lat":-6.354349,"line":3,"transit":false,"is_transit":false,"time":9,"station_name":"Cilejit","station_id":"CJT"}],[{"i_long":106.82482,"line":2,"time":0,"distance":0,"station_id":"MGB","transit":false,"station_name":"Manggabesar","is_transit":false,"i_lat":-6.149769},{"station_name":"Sawah Besar","is_transit":false,"i_long":106.827103,"line":2,"time":2,"station_id":"SW","i_lat":-6.160725,"distance":906,"transit":false},{"i_lat":-6.166716,"transit":false,"station_name":"Juanda","line":2,"i_long":106.828284,"time":2,"station_id":"JUA","distance":1149,"is_transit":false},{"transit":false,"i_long":106.832183,"station_id":"GDD","is_transit":false,"time":4,"station_name":"Gondangdia","distance":2015,"i_lat":-6.186295,"line":2},{"station_name":"Cikini","is_transit":false,"transit":false,"line":2,"time":3,"distance":1750,"i_long":106.840169,"i_lat":-6.198556,"station_id":"CKI"},{"line":2,"is_transit":true,"station_id":"MRI","station_name":"Manggarai","i_long":106.84912,"time":4,"transit":true,"distance":1590,"i_lat":-6.209883},{"i_lat":-6.202263,"time":4,"station_name":"Sudirman","transit":false,"distance":3186,"station_id":"SUD","is_transit":false,"i_long":106.822649,"line":1},{"time":1,"i_long":106.819881,"station_name":"Sudirman Baru","line":1,"is_transit":false,"station_id":"SUDB","transit":false,"distance":280,"i_lat":-6.201433},{"station_name":"Karet","time":1,"transit":false,"station_id":"KAT","is_transit":false,"distance":471,"i_lat":-6.20132,"i_long":106.816351,"line":1},{"i_lat":-6.185545,"station_name":"Tanah Abang","i_long":106.811091,"transit":true,"station_id":"THB","time":5,"line":1,"is_transit":true,"distance":2029},{"line":6,"station_name":"Palmerah","distance":3191,"i_lat":-6.207404,"i_long":106.79689,"station_id":"PLM","is_transit":false,"transit":false,"time":6},{"line":6,"station_id":"KBY","station_name":"Kebayoran","transit":false,"is_transit":false,"i_lat":-6.237242,"i_long":106.780334,"distance":3737,"time":7},{"line":6,"time":8,"station_name":"Pondokranji","is_transit":false,"distance":6218,"i_lat":-6.276362,"station_id":"PDJ","transit":false,"i_long":106.74273},{"station_name":"Jurangmangu","distance":2179,"time":3,"transit":false,"i_lat":-6.288927,"station_id":"JMU","line":6,"is_transit":false,"i_long":106.728916},{"station_id":"SDM","i_long":106.712277,"line":6,"distance":1994,"transit":false,"station_name":"Sudimara","time":4,"i_lat":-6.296963,"is_transit":false},{"i_long":106.675475,"line":6,"i_lat":-6.314823,"distance":4566,"time":6,"station_id":"RU","is_transit":false,"transit":false,"station_name":"Rawa Buntu"},{"i_lat":-6.319871,"station_id":"SRP","is_transit":false,"time":4,"i_long":106.66566,"transit":false,"distance":2413,"line":6,"station_name":"Serpong"},{"i_lat":-6.32484,"is_transit":false,"i_long":106.640411,"transit":false,"station_id":"CSK","station_name":"Cisauk","distance":1784,"line":3,"time":4},{"i_long":106.617853,"line":3,"station_name":"Cicayur","time":4,"distance":2519,"i_lat":-6.329547,"transit":false,"is_transit":false,"station_id":"CC"},{"time":8,"station_name":"Parung Panjang","is_transit":false,"transit":false,"station_id":"PRP","line":6,"distance":5968,"i_lat":-6.3441410000000005,"i_long":106.568863},{"i_lat":-6.354349,"line":3,"distance":7025,"i_long":106.508482,"transit":false,"station_name":"Cilejit","is_transit":false,"time":9,"station_id":"CJT"}],[{"transit":false,"i_lat":-6.149769,"time":0,"i_long":106.82482,"is_transit":false,"line":2,"station_id":"MGB","distance":0,"station_name":"Manggabesar"},{"i_lat":-6.141205,"is_transit":false,"distance":1080,"i_long":106.820901,"line":2,"time":2,"station_name":"Jayakarta","transit":false,"station_id":"JAY"},{"i_lat":-6.137569,"station_name":"Jakarta Kota","i_long":106.812439,"station_id":"JAKK","time":4,"transit":true,"is_transit":true,"distance":1264,"line":2},{"i_long":106.826365,"distance":1364,"time":3,"station_id":"KPB","is_transit":true,"i_lat":-6.132549,"line":4,"station_name":"Kampung Bandan","transit":true},{"station_name":"Rajawali","transit":false,"i_lat":-6.14505,"i_long":106.836569,"line":11,"time":3,"station_id":"RJW","is_transit":false,"distance":1444},{"transit":false,"time":5,"station_name":"Kemayoran","distance":1901,"i_lat":-6.161728,"line":11,"station_id":"KMO","i_long":106.839204,"is_transit":false},{"distance":1436,"i_long":106.84368,"station_id":"PSE","transit":false,"time":4,"line":11,"is_transit":false,"station_name":"Pasar Senen","i_lat":-6.174784},{"time":8,"distance":1567,"station_id":"GST","line":11,"transit":false,"i_lat":-6.185975,"is_transit":false,"station_name":"Gang Sentiong","i_long":106.850107},{"i_lat":-6.193792,"i_long":106.855437,"is_transit":false,"distance":973,"transit":false,"station_name":"Kramat","time":1,"station_id":"KMT","line":11},{"i_long":106.861737,"line":11,"is_transit":false,"station_id":"POK","i_lat":-6.209188,"transit":false,"time":2,"station_name":"Pondok Jati","distance":1829},{"line":1,"i_long":106.86807400000001,"station_name":"Jatinegara","is_transit":true,"station_id":"JNG","transit":true,"distance":1236,"time":9,"i_lat":-6.215091},{"i_lat":-6.212485,"time":2,"station_id":"MTR","transit":false,"station_name":"Matraman","i_long":106.858896,"is_transit":false,"distance":1377,"line":1},{"i_lat":-6.209883,"is_transit":false,"time":2,"transit":false,"line":2,"station_name":"Manggarai","distance":1275,"station_id":"MRI","i_long":106.84912},{"station_name":"Sudirman","is_transit":false,"i_long":106.822649,"transit":false,"station_id":"SUD","line":1,"i_lat":-6.202263,"time":4,"distance":3186},{"i_long":106.819881,"distance":280,"station_name":"Sudirman Baru","time":1,"i_lat":-6.201433,"line":1,"is_transit":false,"transit":false,"station_id":"SUDB"},{"station_id":"KAT","station_name":"Karet","is_transit":false,"distance":471,"i_lat":-6.20132,"time":1,"line":1,"i_long":106.816351,"transit":false},{"is_transit":true,"time":5,"i_lat":-6.185545,"distance":2029,"transit":true,"station_id":"THB","station_name":"Tanah Abang","i_long":106.811091,"line":1},{"is_transit":false,"i_lat":-6.207404,"i_long":106.79689,"station_id":"PLM","distance":3191,"line":6,"station_name":"Palmerah","transit":false,"time":6},{"transit":false,"i_long":106.780334,"distance":3737,"time":7,"i_lat":-6.237242,"station_name":"Kebayoran","line":6,"station_id":"KBY","is_transit":false},{"line":6,"time":8,"station_name":"Pondokranji","distance":6218,"i_lat":-6.276362,"transit":false,"i_long":106.74273,"station_id":"PDJ","is_transit":false},{"line":6,"i_lat":-6.288927,"distance":2179,"transit":false,"i_long":106.728916,"time":3,"station_id":"JMU","station_name":"Jurangmangu","is_transit":false},{"station_name":"Sudimara","is_transit":false,"line":6,"distance":1994,"i_long":106.712277,"station_id":"SDM","i_lat":-6.296963,"time":4,"transit":false},{"time":6,"is_transit":false,"i_long":106.675475,"line":6,"distance":4566,"transit":false,"i_lat":-6.314823,"station_id":"RU","station_name":"Rawa Buntu"},{"transit":false,"time":4,"i_lat":-6.319871,"is_transit":false,"distance":2413,"i_long":106.66566,"station_name":"Serpong","line":6,"station_id":"SRP"},{"station_id":"CSK","i_long":106.640411,"is_transit":false,"distance":1784,"time":4,"station_name":"Cisauk","transit":false,"i_lat":-6.32484,"line":3},{"station_name":"Cicayur","time":4,"station_id":"CC","is_transit":false,"distance":2519,"i_lat":-6.329547,"transit":false,"line":3,"i_long":106.617853},{"is_transit":false,"transit":false,"station_id":"PRP","i_lat":-6.3441410000000005,"time":8,"distance":5968,"station_name":"Parung Panjang","i_long":106.568863,"line":6},{"line":3,"i_lat":-6.354349,"is_transit":false,"transit":false,"time":9,"station_id":"CJT","distance":7025,"i_long":106.508482,"station_name":"Cilejit"}],[{"distance":0,"i_lat":-6.149769,"is_transit":false,"time":0,"station_name":"Manggabesar","line":2,"i_long":106.82482,"transit":false,"station_id":"MGB"},{"station_id":"SW","is_transit":false,"distance":906,"i_long":106.827103,"station_name":"Sawah Besar","line":2,"transit":false,"i_lat":-6.160725,"time":2},{"line":2,"i_lat":-6.166716,"station_name":"Juanda","distance":1149,"transit":false,"time":2,"is_transit":false,"station_id":"JUA","i_long":106.828284},{"i_long":106.832183,"i_lat":-6.186295,"transit":false,"station_name":"Gondangdia","distance":2015,"station_id":"GDD","line":2,"is_transit":false,"time":4},{"line":2,"station_id":"CKI","time":3,"is_transit":false,"station_name":"Cikini","distance":1750,"i_lat":-6.198556,"i_long":106.840169,"transit":false},{"i_lat":-6.209883,"time":4,"distance":1590,"station_id":"MRI","i_long":106.84912,"station_name":"Manggarai","transit":true,"is_transit":true,"line":2},{"transit":false,"station_name":"Matraman","distance":1275,"time":2,"station_id":"MTR","i_long":106.858896,"i_lat":-6.212485,"is_transit":false,"line":1},{"transit":true,"i_lat":-6.215091,"is_transit":true,"distance":1377,"i_long":106.86807400000001,"line":1,"time":8,"station_id":"JNG","station_name":"Jatinegara"},{"is_transit":false,"station_id":"POK","i_long":106.861737,"transit":false,"distance":1236,"line":11,"time":2,"station_name":"Pondok Jati","i_lat":-6.209188},{"station_name":"Kramat","i_lat":-6.193792,"is_transit":false,"line":11,"i_long":106.855437,"transit":false,"distance":1829,"time":2,"station_id":"KMT"},{"line":11,"station_name":"Gang Sentiong","is_transit":false,"transit":false,"i_long":106.850107,"distance":973,"i_lat":-6.185975,"time":1,"station_id":"GST"},{"line":11,"transit":false,"station_id":"PSE","i_long":106.84368,"distance":1567,"station_name":"Pasar Senen","is_transit":false,"i_lat":-6.174784,"time":8},{"is_transit":false,"distance":1436,"time":4,"station_name":"Kemayoran","i_lat":-6.161728,"transit":false,"i_long":106.839204,"line":11,"station_id":"KMO"},{"distance":1901,"i_lat":-6.14505,"i_long":106.836569,"time":5,"is_transit":false,"station_name":"Rajawali","line":11,"station_id":"RJW","transit":false},{"station_id":"KPB","i_long":106.826365,"time":3,"transit":true,"is_transit":true,"station_name":"Kampung Bandan","distance":1444,"i_lat":-6.132549,"line":4},{"i_lat":-6.144674,"transit":false,"is_transit":false,"i_long":106.79867,"station_name":"Angke","distance":4102,"line":1,"time":9,"station_id":"AK"},{"time":4,"i_lat":-6.155215,"distance":1230,"i_long":106.800832,"station_id":"DU","station_name":"Duri","line":1,"is_transit":false,"transit":false},{"station_name":"Tanah Abang","i_long":106.811091,"is_transit":true,"station_id":"THB","distance":3632,"line":1,"time":8,"i_lat":-6.185545,"transit":true},{"transit":false,"station_id":"PLM","i_lat":-6.207404,"distance":3191,"i_long":106.79689,"station_name":"Palmerah","is_transit":false,"time":6,"line":6},{"is_transit":false,"station_id":"KBY","time":7,"i_long":106.780334,"line":6,"distance":3737,"station_name":"Kebayoran","transit":false,"i_lat":-6.237242},{"is_transit":false,"transit":false,"time":8,"i_lat":-6.276362,"i_long":106.74273,"distance":6218,"line":6,"station_id":"PDJ","station_name":"Pondokranji"},{"station_id":"JMU","i_lat":-6.288927,"is_transit":false,"station_name":"Jurangmangu","transit":false,"distance":2179,"i_long":106.728916,"line":6,"time":3},{"i_long":106.712277,"line":6,"time":4,"is_transit":false,"transit":false,"distance":1994,"i_lat":-6.296963,"station_name":"Sudimara","station_id":"SDM"},{"i_long":106.675475,"station_id":"RU","is_transit":false,"distance":4566,"transit":false,"i_lat":-6.314823,"station_name":"Rawa Buntu","line":6,"time":6},{"station_id":"SRP","distance":2413,"i_long":106.66566,"transit":false,"time":4,"i_lat":-6.319871,"line":6,"is_transit":false,"station_name":"Serpong"},{"distance":1784,"time":4,"station_id":"CSK","line":3,"station_name":"Cisauk","i_lat":-6.32484,"i_long":106.640411,"transit":false,"is_transit":false},{"distance":2519,"i_lat":-6.329547,"i_long":106.617853,"station_id":"CC","station_name":"Cicayur","transit":false,"line":3,"time":4,"is_transit":false},{"station_name":"Parung Panjang","line":6,"time":8,"distance":5968,"is_transit":false,"station_id":"PRP","transit":false,"i_lat":-6.3441410000000005,"i_long":106.568863},{"station_id":"CJT","is_transit":false,"distance":7025,"i_lat":-6.354349,"i_long":106.508482,"line":3,"time":9,"transit":false,"station_name":"Cilejit"}]]}