{"data":[[{"time":0,"line":2,"distance":0,"station_name":"Manggabesar","station_id":"MGB","transit":false,"i_lat":-6.149769,"i_long":106.82482,"is_transit":false},{"station_id":"SW","i_lat":-6.160725,"station_name":"Sawah Besar","time":2,"i_long":106.827103,"distance":906,"is_transit":false,"transit":false,"line":2},{"distance":1149,"transit":false,"i_long":106.828284,"line":2,"is_transit":false,"station_name":"Juanda","i_lat":-6.166716,"time":2,"station_id":"JUA"},{"distance":2015,"is_transit":false,"i_long":106.832183,"station_name":"Gondangdia","line":2,"i_lat":-6.186295,"transit":false,"time":4,"station_id":"GDD"},{"is_transit":false,"station_id":"CKI","distance":1750,"line":2,"transit":false,"i_long":106.840169,"station_name":"Cikini","time":3,"i_lat":-6.198556},{"transit":true,"i_long":106.84912,"line":2,"station_id":"MRI","i_lat":-6.209883,"distance":1590,"station_name":"Manggarai","is_transit":true,"time":4},{"time":2,"i_lat":-6.212485,"is_transit":false,"i_long":106.858896,"line":1,"distance":1275,"station_id":"MTR","station_name":"Matraman","transit":false},{"station_id":"JNG","i_lat":-6.215091,"is_transit":false,"distance":1377,"transit":false,"line":1,"time":8,"i_long":106.86807400000001,"station_name":"Jatinegara"},{"is_transit":false,"i_long":106.899548,"station_id":"KLD","station_name":"Klender","transit":false,"line":1,"distance":3395,"i_lat":-6.2135,"time":3},{"i_long":106.922662,"station_id":"BUA","transit":false,"line":1,"i_lat":-6.215568,"distance":3100,"time":2,"station_name":"Buaran","is_transit":false},{"transit":false,"station_id":"KLDB","is_transit":false,"i_long":106.939679,"time":1,"station_name":"Klenderbaru","distance":1305,"i_lat":-6.217455,"line":1},{"station_name":"Cakung","transit":false,"i_lat":-6.219053,"station_id":"CUK","time":8,"is_transit":false,"i_long":106.951283,"line":1,"distance":1385},{"distance":3097,"i_lat":-6.224515,"station_id":"KRI","i_long":106.977657,"transit":false,"line":1,"is_transit":false,"time":3,"station_name":"Kranji"},{"line":1,"time":4,"distance":2520,"transit":false,"i_lat":-6.236616,"i_long":106.997013,"station_name":"Bekasi","station_id":"BKS","is_transit":false},{"time":2,"line":1,"station_id":"BKST","transit":false,"is_transit":false,"station_name":"Bekasi Timur","i_lat":-6.248029,"distance":2368,"i_long":107.016735},{"distance":4460,"is_transit":false,"line":1,"time":7,"station_id":"TB","i_long":107.055722,"station_name":"Tambun","transit":false,"i_lat":-6.258864}],[{"is_transit":false,"transit":false,"i_long":106.82482,"i_lat":-6.149769,"station_name":"Manggabesar","station_id":"MGB","line":2,"time":0,"distance":0},{"station_id":"JAY","i_lat":-6.141205,"transit":false,"time":2,"station_name":"Jayakarta","i_long":106.820901,"distance":1080,"line":2,"is_transit":false},{"line":2,"distance":1264,"is_transit":true,"transit":true,"station_name":"Jakarta Kota","i_lat":-6.137569,"time":4,"station_id":"JAKK","i_long":106.812439},{"i_long":106.826365,"i_lat":-6.132549,"time":3,"station_name":"Kampung Bandan","is_transit":true,"station_id":"KPB","transit":true,"distance":1364,"line":4},{"station_name":"Rajawali","i_long":106.836569,"time":3,"is_transit":false,"transit":false,"station_id":"RJW","line":11,"distance":1444,"i_lat":-6.14505},{"is_transit":false,"transit":false,"station_id":"KMO","station_name":"Kemayoran","distance":1901,"i_lat":-6.161728,"line":11,"time":5,"i_long":106.839204},{"distance":1436,"line":11,"i_long":106.84368,"is_transit":false,"station_name":"Pasar Senen","time":4,"station_id":"PSE","i_lat":-6.174784,"transit":false},{"i_long":106.850107,"station_id":"GST","transit":false,"time":8,"distance":1567,"i_lat":-6.185975,"station_name":"Gang Sentiong","is_transit":false,"line":11},{"distance":973,"i_long":106.855437,"station_name":"Kramat","transit":false,"time":1,"station_id":"KMT","i_lat":-6.193792,"line":11,"is_transit":false},{"time":2,"line":11,"distance":1829,"i_long":106.861737,"station_name":"Pondok Jati","is_transit":false,"transit":false,"station_id":"POK","i_lat":-6.209188},{"i_long":106.86807400000001,"i_lat":-6.215091,"is_transit":true,"time":9,"distance":1236,"line":1,"station_id":"JNG","transit":true,"station_name":"Jatinegara"},{"time":3,"i_long":106.899548,"station_name":"Klender","line":1,"distance":3395,"is_transit":false,"transit":false,"i_lat":-6.2135,"station_id":"KLD"},{"i_long":106.922662,"i_lat":-6.215568,"line":1,"time":2,"distance":3100,"station_id":"BUA","station_name":"Buaran","transit":false,"is_transit":false},{"distance":1305,"transit":false,"station_name":"Klenderbaru","line":1,"i_lat":-6.217455,"station_id":"KLDB","is_transit":false,"i_long":106.939679,"time":1},{"time":8,"station_name":"Cakung","station_id":"CUK","is_transit":false,"i_long":106.951283,"line":1,"transit":false,"distance":1385,"i_lat":-6.219053},{"i_lat":-6.224515,"i_long":106.977657,"station_name":"Kranji","distance":3097,"transit":false,"time":3,"is_transit":false,"station_id":"KRI","line":1},{"i_long":106.997013,"station_name":"Bekasi","time":4,"is_transit":false,"i_lat":-6.236616,"transit":false,"line":1,"station_id":"BKS","distance":2520},{"is_transit":false,"station_id":"BKST","time":2,"station_name":"Bekasi Timur","i_long":107.016735,"line":1,"distance":2368,"transit":false,"i_lat":-6.248029},{"i_long":107.055722,"time":7,"station_name":"Tambun","transit":false,"station_id":"TB","distance":4460,"i_lat":-6.258864,"is_transit":false,"line":1}],[{"i_long":106.82482,"line":2,"station_id":"MGB","i_lat":-6.149769,"station_name":"Manggabesar","is_transit":false,"time":0,"transit":false,"distance":0},{"station_id":"JAY","i_lat":-6.141205,"line":2,"time":2,"station_name":"Jayakarta","distance":1080,"is_transit":false,"i_long":106.820901,"transit":false},{"station_id":"JAKK","line":2,"distance":1264,"i_lat":-6.137569,"is_transit":true,"transit":true,"time":4,"i_long":106.812439,"station_name":"Jakarta Kota"},{"is_transit":true,"time":3,"station_name":"Kampung Bandan","i_lat":-6.132549,"line":4,"i_long":106.826365,"distance":1364,"station_id":"KPB","transit":true},{"distance":4102,"is_transit":false,"transit":false,"line":1,"i_long":106.79867,"station_name":"Angke","i_lat":-6.144674,"station_id":"AK","time":9},{"i_lat":-6.155215,"is_transit":false,"i_long":106.800832,"distance":1230,"station_id":"DU","line":1,"time":4,"transit":false,"station_name":"Duri"},{"time":8,"station_id":"THB","i_long":106.811091,"i_lat":-6.185545,"distance":3632,"is_transit":false,"transit":false,"line":1,"station_name":"Tanah Abang"},{"transit":false,"line":1,"is_transit":false,"i_long":106.816351,"station_name":"Karet","station_id":"KAT","distance":2029,"time":5,"i_lat":-6.20132},{"i_long":106.819881,"distance":471,"transit":false,"is_transit":false,"station_id":"SUDB","station_name":"Sudirman Baru","line":1,"time":1,"i_lat":-6.201433},{"time":1,"is_transit":false,"i_lat":-6.202263,"station_name":"Sudirman","transit":false,"station_id":"SUD","i_long":106.822649,"distance":280,"line":1},{"is_transit":false,"station_id":"MRI","time":4,"station_name":"Manggarai","i_long":106.84912,"i_lat":-6.209883,"line":2,"transit":false,"distance":3186},{"is_transit":false,"station_name":"Matraman","station_id":"MTR","i_long":106.858896,"line":1,"i_lat":-6.212485,"transit":false,"distance":1275,"time":2},{"i_long":106.86807400000001,"station_name":"Jatinegara","is_transit":false,"distance":1377,"transit":false,"station_id":"JNG","time":8,"i_lat":-6.215091,"line":1},{"station_name":"Klender","transit":false,"i_long":106.899548,"time":3,"line":1,"station_id":"KLD","distance":3395,"is_transit":false,"i_lat":-6.2135},{"distance":3100,"transit":false,"time":2,"is_transit":false,"i_lat":-6.215568,"i_long":106.922662,"line":1,"station_id":"BUA","station_name":"Buaran"},{"line":1,"transit":false,"station_name":"Klenderbaru","time":1,"i_lat":-6.217455,"distance":1305,"station_id":"KLDB","i_long":106.939679,"is_transit":false},{"station_name":"Cakung","station_id":"CUK","distance":1385,"transit":false,"i_lat":-6.219053,"i_long":106.951283,"line":1,"time":8,"is_transit":false},{"transit":false,"distance":3097,"i_lat":-6.224515,"line":1,"time":3,"station_id":"KRI","is_transit":false,"station_name":"Kranji","i_long":106.977657},{"station_id":"BKS","distance":2520,"is_transit":false,"station_name":"Bekasi","time":4,"transit":false,"i_long":106.997013,"i_lat":-6.236616,"line":1},{"distance":2368,"station_id":"BKST","time":2,"i_long":107.016735,"line":1,"i_lat":-6.248029,"transit":false,"is_transit":false,"station_name":"Bekasi Timur"},{"is_transit":false,"station_name":"Tambun","transit":false,"distance":4460,"time":7,"i_lat":-6.258864,"i_long":107.055722,"line":1,"station_id":"TB"}],[{"station_name":"Manggabesar","line":2,"i_lat":-6.149769,"i_long":106.82482,"is_transit":false,"transit":false,"station_id":"MGB","time":0,"distance":0},{"i_long":106.827103,"distance":906,"is_transit":false,"station_id":"SW","station_name":"Sawah Besar","i_lat":-6.160725,"line":2,"transit":false,"time":2},{"line":2,"is_transit":false,"distance":1149,"time":2,"transit":false,"i_long":106.828284,"station_name":"Juanda","station_id":"JUA","i_lat":-6.166716},{"distance":2015,"is_transit":false,"time":4,"i_long":106.832183,"station_name":"Gondangdia","line":2,"transit":false,"i_lat":-6.186295,"station_id":"GDD"},{"time":3,"station_name":"Cikini","is_transit":false,"line":2,"i_long":106.840169,"i_lat":-6.198556,"distance":1750,"transit":false,"station_id":"CKI"},{"line":2,"distance":1590,"station_id":"MRI","time":4,"i_lat":-6.209883,"is_transit":true,"station_name":"Manggarai","transit":true,"i_long":106.84912},{"time":4,"line":1,"station_id":"SUD","station_name":"Sudirman","i_long":106.822649,"transit":false,"distance":3186,"i_lat":-6.202263,"is_transit":false},{"is_transit":false,"station_name":"Sudirman Baru","distance":280,"station_id":"SUDB","time":1,"line":1,"i_lat":-6.201433,"i_long":106.819881,"transit":false},{"i_long":106.816351,"is_transit":false,"station_name":"Karet","line":1,"time":1,"station_id":"KAT","distance":471,"transit":false,"i_lat":-6.20132},{"transit":false,"station_name":"Tanah Abang","i_lat":-6.185545,"line":1,"time":5,"station_id":"THB","i_long":106.811091,"distance":2029,"is_transit":false},{"distance":3632,"is_transit":false,"transit":false,"i_lat":-6.155215,"station_id":"DU","time":8,"i_long":106.800832,"line":1,"station_name":"Duri"},{"transit":false,"station_id":"AK","distance":1230,"i_long":106.79867,"time":4,"station_name":"Angke","is_transit":false,"i_lat":-6.144674,"line":1},{"line":4,"i_lat":-6.132549,"transit":true,"station_id":"KPB","time":9,"distance":4102,"i_long":106.826365,"is_transit":true,"station_name":"Kampung Bandan"},{"distance":1444,"time":3,"line":11,"i_lat":-6.14505,"is_transit":false,"station_id":"RJW","transit":false,"i_long":106.836569,"station_name":"Rajawali"},{"transit":false,"station_id":"KMO","i_lat":-6.161728,"distance":1901,"i_long":106.839204,"station_name":"Kemayoran","is_transit":false,"time":5,"line":11},{"station_id":"PSE","transit":false,"i_long":106.84368,"time":4,"distance":1436,"i_lat":-6.174784,"line":11,"is_transit":false,"station_name":"Pasar Senen"},{"distance":1567,"transit":false,"station_id":"GST","i_lat":-6.185975,"is_transit":false,"i_long":106.850107,"station_name":"Gang Sentiong","line":11,"time":8},{"station_name":"Kramat","transit":false,"time":1,"station_id":"KMT","line":11,"i_lat":-6.193792,"distance":973,"is_transit":false,"i_long":106.855437},{"time":2,"distance":1829,"line":11,"transit":false,"station_name":"Pondok Jati","i_long":106.861737,"i_lat":-6.209188,"station_id":"POK","is_transit":false},{"time":9,"station_id":"JNG","i_long":106.86807400000001,"line":1,"distance":1236,"transit":true,"is_transit":true,"station_name":"Jatinegara","i_lat":-6.215091},{"i_lat":-6.2135,"line":1,"i_long":106.899548,"distance":3395,"transit":false,"station_name":"Klender","time":3,"station_id":"KLD","is_transit":false},{"station_name":"Buaran","distance":3100,"i_long":106.922662,"time":2,"transit":false,"i_lat":-6.215568,"is_transit":false,"station_id":"BUA","line":1},{"transit":false,"station_name":"Klenderbaru","line":1,"distance":1305,"i_lat":-6.217455,"i_long":106.939679,"is_transit":false,"station_id":"KLDB","time":1},{"station_id":"CUK","time":8,"is_transit":false,"station_name":"Cakung","i_long":106.951283,"distance":1385,"transit":false,"i_lat":-6.219053,"line":1},{"station_id":"KRI","i_lat":-6.224515,"line":1,"station_name":"Kranji","i_long":106.977657,"time":3,"transit":false,"is_transit":false,"distance":3097},{"is_transit":false,"distance":2520,"i_lat":-6.236616,"station_id":"BKS","station_name":"Bekasi","time":4,"transit":false,"i_long":106.997013,"line":1},{"i_lat":-6.248029,"distance":2368,"time":2,"is_transit":false,"transit":false,"station_name":"Bekasi Timur","station_id":"BKST","i_long":107.016735,"line":1},{"time":7,"distance":4460,"transit":false,"station_id":"TB","i_long":107.055722,"line":1,"is_transit":false,"i_lat":-6.258864,"station_name":"Tambun"}]]}