{"data":[[{"i_long":106.82482,"line":2,"station_id":"MGB","i_lat":-6.149769,"station_name":"Manggabesar","distance":0,"is_transit":false,"transit":false,"time":0},{"transit":false,"distance":1080,"station_id":"JAY","is_transit":false,"i_lat":-6.141205,"time":2,"i_long":106.820901,"line":2,"station_name":"Jayakarta"},{"distance":1264,"station_id":"JAKK","station_name":"Jakarta Kota","is_transit":true,"i_lat":-6.137569,"i_long":106.812439,"time":4,"line":2,"transit":true},{"distance":1364,"i_long":106.826365,"is_transit":true,"i_lat":-6.132549,"line":4,"time":3,"station_id":"KPB","transit":true,"station_name":"Kampung Bandan"},{"time":4,"station_id":"AC","station_name":"Ancol","i_lat":-6.128023,"distance":2185,"transit":false,"i_long":106.84464,"is_transit":false,"line":4},{"line":4,"transit":false,"station_id":"TPK","time":9,"i_lat":-6.1109480000000005,"is_transit":false,"station_name":"Tanjung Priuk","distance":4566,"i_long":106.880089}],[{"line":2,"time":0,"is_transit":false,"station_id":"MGB","transit":false,"i_long":106.82482,"distance":0,"station_name":"Manggabesar","i_lat":-6.149769},{"distance":906,"i_lat":-6.160725,"line":2,"station_name":"Sawah Besar","transit":false,"station_id":"SW","is_transit":false,"time":2,"i_long":106.827103},{"station_name":"Juanda","distance":1149,"is_transit":false,"i_long":106.828284,"transit":false,"time":2,"station_id":"JUA","i_lat":-6.166716,"line":2},{"line":2,"transit":false,"station_name":"Gondangdia","station_id":"GDD","time":4,"distance":2015,"i_long":106.832183,"is_transit":false,"i_lat":-6.186295},{"station_id":"CKI","transit":false,"is_transit":false,"distance":1750,"time":3,"i_lat":-6.198556,"line":2,"i_long":106.840169,"station_name":"Cikini"},{"i_lat":-6.209883,"i_long":106.84912,"time":4,"distance":1590,"line":2,"is_transit":true,"station_id":"MRI","transit":true,"station_name":"Manggarai"},{"line":1,"i_lat":-6.202263,"transit":false,"station_id":"SUD","is_transit":false,"station_name":"Sudirman","i_long":106.822649,"time":4,"distance":3186},{"station_id":"SUDB","time":1,"station_name":"Sudirman Baru","is_transit":false,"line":1,"transit":false,"i_lat":-6.201433,"distance":280,"i_long":106.819881},{"station_id":"KAT","line":1,"time":1,"i_long":106.816351,"distance":471,"station_name":"Karet","is_transit":false,"transit":false,"i_lat":-6.20132},{"is_transit":false,"station_name":"Tanah Abang","i_long":106.811091,"distance":2029,"station_id":"THB","transit":false,"line":1,"i_lat":-6.185545,"time":5},{"line":1,"transit":false,"time":8,"is_transit":false,"distance":3632,"station_name":"Duri","i_long":106.800832,"station_id":"DU","i_lat":-6.155215},{"is_transit":false,"distance":1230,"i_lat":-6.144674,"station_name":"Angke","time":4,"line":1,"transit":false,"station_id":"AK","i_long":106.79867},{"i_lat":-6.132549,"is_transit":true,"time":9,"i_long":106.826365,"line":4,"distance":4102,"station_name":"Kampung Bandan","transit":true,"station_id":"KPB"},{"time":4,"distance":2185,"station_name":"Ancol","is_transit":false,"station_id":"AC","transit":false,"i_long":106.84464,"i_lat":-6.128023,"line":4},{"is_transit":false,"transit":false,"distance":4566,"station_name":"Tanjung Priuk","line":4,"i_long":106.880089,"station_id":"TPK","i_lat":-6.1109480000000005,"time":9}],[{"time":0,"station_id":"MGB","i_long":106.82482,"station_name":"Manggabesar","i_lat":-6.149769,"distance":0,"is_transit":false,"line":2,"transit":false},{"transit":false,"is_transit":false,"station_id":"SW","i_lat":-6.160725,"station_name":"Sawah Besar","i_long":106.827103,"distance":906,"time":2,"line":2},{"time":2,"i_long":106.828284,"line":2,"distance":1149,"i_lat":-6.166716,"transit":false,"is_transit":false,"station_id":"JUA","station_name":"Juanda"},{"time":4,"i_lat":-6.186295,"station_id":"GDD","line":2,"station_name":"Gondangdia","transit":false,"distance":2015,"is_transit":false,"i_long":106.832183},{"distance":1750,"station_id":"CKI","time":3,"transit":false,"line":2,"station_name":"Cikini","i_lat":-6.198556,"i_long":106.840169,"is_transit":false},{"line":2,"is_transit":true,"time":4,"transit":true,"station_name":"Manggarai","station_id":"MRI","distance":1590,"i_long":106.84912,"i_lat":-6.209883},{"station_name":"Matraman","station_id":"MTR","distance":1275,"i_lat":-6.212485,"transit":false,"line":1,"is_transit":false,"time":2,"i_long":106.858896},{"transit":true,"distance":1377,"is_transit":true,"line":1,"station_name":"Jatinegara","station_id":"JNG","time":8,"i_lat":-6.215091,"i_long":106.86807400000001},{"line":11,"station_id":"POK","station_name":"Pondok Jati","is_transit":false,"transit":false,"i_long":106.861737,"i_lat":-6.209188,"distance":1236,"time":2},{"station_name":"Kramat","time":2,"i_lat":-6.193792,"i_long":106.855437,"line":11,"distance":1829,"is_transit":false,"transit":false,"station_id":"KMT"},{"transit":false,"station_id":"GST","distance":973,"i_long":106.850107,"line":11,"is_transit":false,"time":1,"i_lat":-6.185975,"station_name":"Gang Sentiong"},{"line":11,"time":8,"station_name":"Pasar Senen","transit":false,"i_long":106.84368,"distance":1567,"i_lat":-6.174784,"station_id":"PSE","is_transit":false},{"distance":1436,"transit":false,"time":4,"i_lat":-6.161728,"station_id":"KMO","station_name":"Kemayoran","is_transit":false,"i_long":106.839204,"line":11},{"transit":false,"i_lat":-6.14505,"line":11,"i_long":106.836569,"station_name":"Rajawali","distance":1901,"is_transit":false,"time":5,"station_id":"RJW"},{"station_name":"Kampung Bandan","time":3,"is_transit":true,"i_lat":-6.132549,"station_id":"KPB","transit":true,"i_long":106.826365,"distance":1444,"line":4},{"station_name":"Ancol","transit":false,"is_transit":false,"line":4,"time":4,"distance":2185,"station_id":"AC","i_long":106.84464,"i_lat":-6.128023},{"time":9,"station_name":"Tanjung Priuk","i_long":106.880089,"distance":4566,"transit":false,"line":4,"i_lat":-6.1109480000000005,"is_transit":false,"station_id":"TPK"}]]}