{"data":[[{"i_lat":-6.149769,"time":0,"is_transit":false,"station_id":"MGB","i_long":106.82482,"transit":false,"distance":0,"line":2,"station_name":"Manggabesar"},{"station_name":"Sawah Besar","transit":false,"distance":906,"station_id":"SW","i_lat":-6.160725,"is_transit":false,"i_long":106.827103,"line":2,"time":2},{"i_long":106.828284,"station_id":"JUA","is_transit":false,"line":2,"distance":1149,"time":2,"station_name":"Juanda","transit":false,"i_lat":-6.166716},{"time":4,"transit":false,"i_lat":-6.186295,"is_transit":false,"line":2,"station_name":"Gondangdia","station_id":"GDD","i_long":106.832183,"distance":2015},{"station_name":"Cikini","i_lat":-6.198556,"transit":false,"line":0,"is_transit":false,"time":3,"station_id":"CKI","distance":1750,"i_long":106.840169},{"line":0,"station_id":"MRI","is_transit":true,"i_lat":-6.209883,"i_long":106.84912,"time":4,"distance":1590,"transit":true,"station_name":"Manggarai"},{"time":2,"is_transit":false,"transit":false,"i_lat":-6.212485,"station_id":"MTR","distance":1275,"i_long":106.858896,"line":1,"station_name":"Matraman"},{"i_long":106.86807400000001,"time":8,"station_id":"JNG","distance":1377,"line":0,"station_name":"Jatinegara","transit":false,"is_transit":true,"i_lat":-6.215091}],[{"line":2,"i_lat":-6.149769,"time":0,"is_transit":false,"station_name":"Manggabesar","transit":false,"i_long":106.82482,"station_id":"MGB","distance":0},{"is_transit":false,"station_id":"JAY","i_long":106.820901,"transit":false,"distance":1080,"line":7,"i_lat":-6.141205,"station_name":"Jayakarta","time":2},{"line":0,"i_lat":-6.137569,"transit":true,"i_long":106.812439,"is_transit":true,"distance":1264,"station_name":"Jakarta Kota","station_id":"JAKK","time":4},{"station_id":"KPB","i_lat":-6.132549,"i_long":106.826365,"time":3,"is_transit":true,"distance":1364,"transit":true,"line":0,"station_name":"Kampung Bandan"},{"is_transit":false,"line":11,"transit":false,"station_name":"Rajawali","time":3,"station_id":"RJW","i_lat":-6.14505,"distance":1444,"i_long":106.836569},{"distance":1901,"station_id":"KMO","station_name":"Kemayoran","i_lat":-6.161728,"line":11,"i_long":106.839204,"time":5,"is_transit":false,"transit":false},{"is_transit":false,"i_long":106.84368,"line":11,"distance":1436,"transit":false,"station_name":"Pasar Senen","station_id":"PSE","i_lat":-6.174784,"time":4},{"is_transit":false,"distance":1567,"i_lat":-6.185975,"station_name":"Gang Sentiong","i_long":106.850107,"station_id":"GST","transit":false,"line":11,"time":8},{"time":1,"i_lat":-6.193792,"transit":false,"station_id":"KMT","i_long":106.855437,"is_transit":false,"line":11,"distance":973,"station_name":"Kramat"},{"transit":false,"time":2,"distance":1829,"i_long":106.861737,"is_transit":false,"line":11,"i_lat":-6.209188,"station_name":"Pondok Jati","station_id":"POK"},{"station_id":"JNG","transit":false,"line":0,"time":9,"i_long":106.86807400000001,"is_transit":true,"i_lat":-6.215091,"distance":1236,"station_name":"Jatinegara"}],[{"transit":false,"i_lat":-6.149769,"line":2,"station_id":"MGB","distance":0,"i_long":106.82482,"station_name":"Manggabesar","is_transit":false,"time":0},{"i_long":106.820901,"time":2,"is_transit":false,"i_lat":-6.141205,"transit":false,"station_name":"Jayakarta","distance":1080,"line":7,"station_id":"JAY"},{"i_lat":-6.137569,"transit":true,"line":0,"time":4,"station_id":"JAKK","distance":1264,"station_name":"Jakarta Kota","i_long":106.812439,"is_transit":true},{"time":3,"distance":1364,"i_lat":-6.132549,"station_name":"Kampung Bandan","station_id":"KPB","i_long":106.826365,"line":0,"is_transit":true,"transit":false},{"distance":4102,"i_long":106.79867,"time":9,"is_transit":false,"station_name":"Angke","transit":false,"i_lat":-6.144674,"line":0,"station_id":"AK"},{"station_name":"Duri","is_transit":true,"line":1,"time":4,"transit":true,"distance":1230,"station_id":"DU","i_lat":-6.155215,"i_long":106.800832},{"i_lat":-6.185545,"station_id":"THB","station_name":"Tanah Abang","is_transit":true,"line":1,"distance":3632,"time":8,"i_long":106.811091,"transit":false},{"is_transit":false,"time":5,"transit":false,"line":1,"station_id":"KAT","station_name":"Karet","i_lat":-6.20132,"distance":2029,"i_long":106.816351},{"i_lat":-6.201433,"distance":471,"time":1,"station_name":"Sudirman Baru","line":1,"is_transit":false,"i_long":106.819881,"station_id":"SUDB","transit":false},{"i_long":106.822649,"time":1,"i_lat":-6.202263,"transit":false,"line":1,"station_id":"SUD","is_transit":false,"distance":280,"station_name":"Sudirman"},{"i_lat":-6.209883,"distance":3186,"station_name":"Manggarai","time":4,"station_id":"MRI","is_transit":true,"transit":false,"i_long":106.84912,"line":0},{"transit":false,"line":1,"is_transit":false,"station_id":"MTR","i_lat":-6.212485,"time":2,"distance":1275,"i_long":106.858896,"station_name":"Matraman"},{"station_id":"JNG","line":0,"i_long":106.86807400000001,"station_name":"Jatinegara","is_transit":true,"i_lat":-6.215091,"distance":1377,"time":8,"transit":false}],[{"station_id":"MGB","i_lat":-6.149769,"station_name":"Manggabesar","time":0,"is_transit":false,"transit":false,"distance":0,"i_long":106.82482,"line":2},{"station_id":"SW","i_long":106.827103,"time":2,"line":2,"transit":false,"station_name":"Sawah Besar","is_transit":false,"distance":906,"i_lat":-6.160725},{"transit":false,"is_transit":false,"i_long":106.828284,"distance":1149,"station_name":"Juanda","station_id":"JUA","i_lat":-6.166716,"line":2,"time":2},{"station_id":"GDD","distance":2015,"line":2,"is_transit":false,"i_lat":-6.186295,"station_name":"Gondangdia","i_long":106.832183,"transit":false,"time":4},{"distance":1750,"i_lat":-6.198556,"station_id":"CKI","station_name":"Cikini","is_transit":false,"i_long":106.840169,"transit":false,"line":0,"time":3},{"station_id":"MRI","i_lat":-6.209883,"i_long":106.84912,"line":0,"is_transit":true,"transit":true,"station_name":"Manggarai","distance":1590,"time":4},{"i_long":106.822649,"station_id":"SUD","time":4,"is_transit":false,"transit":false,"i_lat":-6.202263,"line":1,"distance":3186,"station_name":"Sudirman"},{"time":1,"i_long":106.819881,"station_name":"Sudirman Baru","transit":false,"i_lat":-6.201433,"line":1,"distance":280,"station_id":"SUDB","is_transit":false},{"distance":471,"line":1,"i_long":106.816351,"is_transit":false,"i_lat":-6.20132,"time":1,"station_name":"Karet","station_id":"KAT","transit":false},{"distance":2029,"time":5,"transit":false,"i_long":106.811091,"is_transit":true,"station_name":"Tanah Abang","i_lat":-6.185545,"line":1,"station_id":"THB"},{"line":1,"station_id":"DU","distance":3632,"is_transit":true,"i_lat":-6.155215,"time":8,"station_name":"Duri","transit":true,"i_long":106.800832},{"station_id":"AK","station_name":"Angke","distance":1230,"transit":false,"i_lat":-6.144674,"i_long":106.79867,"is_transit":false,"line":0,"time":4},{"is_transit":true,"transit":true,"i_lat":-6.132549,"line":0,"station_name":"Kampung Bandan","distance":4102,"time":9,"i_long":106.826365,"station_id":"KPB"},{"station_name":"Rajawali","is_transit":false,"distance":1444,"station_id":"RJW","i_lat":-6.14505,"time":3,"transit":false,"i_long":106.836569,"line":11},{"i_long":106.839204,"station_id":"KMO","is_transit":false,"line":11,"i_lat":-6.161728,"station_name":"Kemayoran","time":5,"transit":false,"distance":1901},{"transit":false,"i_long":106.84368,"is_transit":false,"i_lat":-6.174784,"line":11,"station_name":"Pasar Senen","time":4,"station_id":"PSE","distance":1436},{"is_transit":false,"line":11,"time":8,"transit":false,"i_long":106.850107,"station_name":"Gang Sentiong","station_id":"GST","i_lat":-6.185975,"distance":1567},{"time":1,"line":11,"i_lat":-6.193792,"station_id":"KMT","station_name":"Kramat","i_long":106.855437,"is_transit":false,"transit":false,"distance":973},{"line":11,"time":2,"is_transit":false,"distance":1829,"station_name":"Pondok Jati","transit":false,"station_id":"POK","i_lat":-6.209188,"i_long":106.861737},{"i_long":106.86807400000001,"line":0,"time":9,"station_id":"JNG","station_name":"Jatinegara","i_lat":-6.215091,"transit":false,"is_transit":true,"distance":1236}]]}