{"data":[[{"transit":false,"line":2,"distance":0,"i_lat":-6.149769,"station_id":"MGB","station_name":"Manggabesar","is_transit":false,"time":0,"i_long":106.82482},{"station_id":"JAY","i_long":106.820901,"station_name":"Jayakarta","is_transit":false,"time":2,"distance":1080,"i_lat":-6.141205,"transit":false,"line":2},{"station_id":"JAKK","line":2,"distance":1264,"i_long":106.812439,"is_transit":true,"time":4,"i_lat":-6.137569,"transit":true,"station_name":"Jakarta Kota"},{"i_long":106.826365,"i_lat":-6.132549,"distance":1364,"line":4,"station_name":"Kampung Bandan","is_transit":true,"transit":true,"station_id":"KPB","time":3},{"time":9,"station_name":"Angke","transit":false,"is_transit":false,"station_id":"AK","i_long":106.79867,"i_lat":-6.144674,"distance":4102,"line":1},{"transit":true,"station_name":"Duri","time":4,"line":1,"station_id":"DU","i_lat":-6.155215,"i_long":106.800832,"distance":1230,"is_transit":true},{"is_transit":false,"i_long":106.788277,"station_name":"Grogol","transit":false,"i_lat":-6.162021,"line":5,"distance":1700,"station_id":"GRG","time":3},{"station_id":"PSG","transit":false,"is_transit":false,"i_lat":-6.161433,"time":2,"distance":2036,"line":5,"i_long":106.771379,"station_name":"Pesing"},{"line":5,"i_long":106.756522,"time":2,"transit":false,"is_transit":false,"distance":1614,"station_name":"Taman Kota","station_id":"TKO","i_lat":-6.1587309999999995},{"line":5,"time":2,"distance":2334,"transit":false,"is_transit":false,"station_id":"BOI","station_name":"Bojongindah","i_lat":-6.159876,"i_long":106.737035},{"i_lat":-6.162758,"is_transit":false,"transit":false,"station_name":"Rawa Buaya","distance":1152,"line":5,"time":4,"station_id":"RW","i_long":106.723064},{"transit":false,"i_lat":-6.166068,"i_long":106.701612,"station_name":"Kalideres","time":3,"distance":2504,"is_transit":false,"station_id":"KDS","line":5},{"line":5,"i_long":106.679458,"station_id":"PI","time":3,"transit":false,"station_name":"Poris","distance":2548,"i_lat":-6.169933,"is_transit":false},{"is_transit":false,"station_name":"Batuceper","i_lat":-6.171811,"transit":false,"station_id":"BPR","distance":1834,"time":3,"i_long":106.665036,"line":5}],[{"transit":false,"i_long":106.82482,"is_transit":false,"time":0,"i_lat":-6.149769,"station_name":"Manggabesar","line":2,"distance":0,"station_id":"MGB"},{"transit":false,"i_lat":-6.160725,"i_long":106.827103,"station_name":"Sawah Besar","line":2,"time":2,"distance":906,"is_transit":false,"station_id":"SW"},{"is_transit":false,"line":2,"time":2,"station_name":"Juanda","station_id":"JUA","distance":1149,"transit":false,"i_lat":-6.166716,"i_long":106.828284},{"is_transit":false,"station_name":"Gondangdia","transit":false,"i_long":106.832183,"station_id":"GDD","distance":2015,"i_lat":-6.186295,"line":2,"time":4},{"station_name":"Cikini","line":2,"i_long":106.840169,"transit":false,"station_id":"CKI","is_transit":false,"distance":1750,"i_lat":-6.198556,"time":3},{"is_transit":true,"station_name":"Manggarai","transit":true,"station_id":"MRI","time":4,"i_long":106.84912,"i_lat":-6.209883,"line":2,"distance":1590},{"station_name":"Sudirman","transit":false,"station_id":"SUD","is_transit":false,"i_lat":-6.202263,"i_long":106.822649,"line":1,"distance":3186,"time":4},{"transit":false,"is_transit":false,"line":1,"i_lat":-6.201433,"station_name":"Sudirman Baru","i_long":106.819881,"time":1,"distance":280,"station_id":"SUDB"},{"station_name":"Karet","time":1,"i_long":106.816351,"is_transit":false,"line":1,"distance":471,"station_id":"KAT","transit":false,"i_lat":-6.20132},{"distance":2029,"transit":false,"is_transit":false,"time":5,"station_id":"THB","i_long":106.811091,"line":1,"station_name":"Tanah Abang","i_lat":-6.185545},{"is_transit":true,"distance":3632,"line":1,"station_id":"DU","transit":true,"i_long":106.800832,"station_name":"Duri","i_lat":-6.155215,"time":8},{"station_id":"GRG","distance":1700,"is_transit":false,"i_lat":-6.162021,"time":3,"i_long":106.788277,"transit":false,"line":5,"station_name":"Grogol"},{"i_lat":-6.161433,"distance":2036,"station_id":"PSG","time":2,"station_name":"Pesing","is_transit":false,"i_long":106.771379,"transit":false,"line":5},{"distance":1614,"i_long":106.756522,"line":5,"station_name":"Taman Kota","station_id":"TKO","time":2,"i_lat":-6.1587309999999995,"transit":false,"is_transit":false},{"station_id":"BOI","station_name":"Bojongindah","is_transit":false,"time":2,"distance":2334,"i_lat":-6.159876,"transit":false,"i_long":106.737035,"line":5},{"station_name":"Rawa Buaya","distance":1152,"line":5,"i_lat":-6.162758,"i_long":106.723064,"transit":false,"is_transit":false,"time":4,"station_id":"RW"},{"transit":false,"time":3,"line":5,"station_name":"Kalideres","distance":2504,"i_lat":-6.166068,"is_transit":false,"station_id":"KDS","i_long":106.701612},{"station_id":"PI","transit":false,"i_lat":-6.169933,"i_long":106.679458,"line":5,"station_name":"Poris","distance":2548,"time":3,"is_transit":false},{"time":3,"i_lat":-6.171811,"line":5,"is_transit":false,"station_name":"Batuceper","distance":1834,"transit":false,"station_id":"BPR","i_long":106.665036}],[{"transit":false,"distance":0,"station_id":"MGB","time":0,"i_lat":-6.149769,"i_long":106.82482,"station_name":"Manggabesar","line":2,"is_transit":false},{"transit":false,"time":2,"i_lat":-6.160725,"i_long":106.827103,"station_name":"Sawah Besar","is_transit":false,"station_id":"SW","distance":906,"line":2},{"line":2,"station_name":"Juanda","is_transit":false,"station_id":"JUA","i_long":106.828284,"distance":1149,"time":2,"i_lat":-6.166716,"transit":false},{"is_transit":false,"station_name":"Gondangdia","station_id":"GDD","i_long":106.832183,"line":2,"time":4,"distance":2015,"transit":false,"i_lat":-6.186295},{"distance":1750,"transit":false,"station_name":"Cikini","is_transit":false,"line":2,"station_id":"CKI","i_long":106.840169,"i_lat":-6.198556,"time":3},{"station_name":"Manggarai","line":2,"i_long":106.84912,"time":4,"distance":1590,"transit":true,"is_transit":true,"station_id":"MRI","i_lat":-6.209883},{"distance":1275,"time":2,"station_name":"Matraman","is_transit":false,"station_id":"MTR","line":1,"transit":false,"i_lat":-6.212485,"i_long":106.858896},{"line":1,"is_transit":true,"distance":1377,"time":8,"transit":true,"station_name":"Jatinegara","i_lat":-6.215091,"i_long":106.86807400000001,"station_id":"JNG"},{"station_name":"Pondok Jati","time":2,"station_id":"POK","distance":1236,"i_lat":-6.209188,"i_long":106.861737,"line":11,"transit":false,"is_transit":false},{"is_transit":false,"time":2,"distance":1829,"i_long":106.855437,"line":11,"station_id":"KMT","transit":false,"i_lat":-6.193792,"station_name":"Kramat"},{"i_long":106.850107,"line":11,"station_name":"Gang Sentiong","is_transit":false,"station_id":"GST","distance":973,"transit":false,"time":1,"i_lat":-6.185975},{"is_transit":false,"station_name":"Pasar Senen","i_long":106.84368,"station_id":"PSE","transit":false,"line":11,"distance":1567,"time":8,"i_lat":-6.174784},{"distance":1436,"line":11,"time":4,"station_id":"KMO","i_lat":-6.161728,"i_long":106.839204,"station_name":"Kemayoran","is_transit":false,"transit":false},{"i_lat":-6.14505,"station_id":"RJW","transit":false,"station_name":"Rajawali","i_long":106.836569,"distance":1901,"line":11,"is_transit":false,"time":5},{"transit":true,"i_lat":-6.132549,"time":3,"is_transit":true,"i_long":106.826365,"station_id":"KPB","line":4,"station_name":"Kampung Bandan","distance":1444},{"transit":false,"station_name":"Angke","i_lat":-6.144674,"distance":4102,"i_long":106.79867,"time":9,"line":1,"station_id":"AK","is_transit":false},{"i_lat":-6.155215,"is_transit":true,"station_id":"DU","distance":1230,"i_long":106.800832,"station_name":"Duri","time":4,"transit":true,"line":1},{"station_name":"Grogol","is_transit":false,"station_id":"GRG","time":3,"i_long":106.788277,"line":5,"i_lat":-6.162021,"distance":1700,"transit":false},{"i_long":106.771379,"line":5,"is_transit":false,"time":2,"distance":2036,"transit":false,"station_name":"Pesing","station_id":"PSG","i_lat":-6.161433},{"line":5,"is_transit":false,"distance":1614,"transit":false,"station_id":"TKO","i_lat":-6.1587309999999995,"station_name":"Taman Kota","i_long":106.756522,"time":2},{"line":5,"i_long":106.737035,"i_lat":-6.159876,"distance":2334,"station_name":"Bojongindah","transit":false,"station_id":"BOI","time":2,"is_transit":false},{"station_id":"RW","station_name":"Rawa Buaya","distance":1152,"time":4,"i_lat":-6.162758,"transit":false,"line":5,"is_transit":false,"i_long":106.723064},{"station_name":"Kalideres","station_id":"KDS","i_long":106.701612,"line":5,"time":3,"is_transit":false,"transit":false,"i_lat":-6.166068,"distance":2504},{"station_id":"PI","station_name":"Poris","i_lat":-6.169933,"i_long":106.679458,"is_transit":false,"line":5,"transit":false,"time":3,"distance":2548},{"line":5,"time":3,"station_id":"BPR","distance":1834,"transit":false,"i_lat":-6.171811,"i_long":106.665036,"is_transit":false,"station_name":"Batuceper"}],[{"station_name":"Manggabesar","distance":0,"line":2,"is_transit":false,"transit":false,"i_long":106.82482,"i_lat":-6.149769,"station_id":"MGB","time":0},{"line":2,"i_lat":-6.141205,"station_id":"JAY","i_long":106.820901,"transit":false,"distance":1080,"is_transit":false,"station_name":"Jayakarta","time":2},{"time":4,"station_name":"Jakarta Kota","distance":1264,"transit":true,"i_lat":-6.137569,"i_long":106.812439,"station_id":"JAKK","line":2,"is_transit":true},{"i_lat":-6.132549,"line":4,"i_long":106.826365,"transit":true,"station_id":"KPB","distance":1364,"time":3,"station_name":"Kampung Bandan","is_transit":true},{"station_name":"Rajawali","line":11,"i_lat":-6.14505,"time":3,"i_long":106.836569,"is_transit":false,"station_id":"RJW","transit":false,"distance":1444},{"i_lat":-6.161728,"time":5,"line":11,"is_transit":false,"station_id":"KMO","station_name":"Kemayoran","distance":1901,"transit":false,"i_long":106.839204},{"station_name":"Pasar Senen","distance":1436,"i_long":106.84368,"station_id":"PSE","transit":false,"is_transit":false,"line":11,"time":4,"i_lat":-6.174784},{"transit":false,"is_transit":false,"distance":1567,"time":8,"i_long":106.850107,"i_lat":-6.185975,"station_id":"GST","line":11,"station_name":"Gang Sentiong"},{"time":1,"station_id":"KMT","is_transit":false,"i_long":106.855437,"i_lat":-6.193792,"transit":false,"line":11,"station_name":"Kramat","distance":973},{"distance":1829,"line":11,"station_name":"Pondok Jati","time":2,"is_transit":false,"i_lat":-6.209188,"i_long":106.861737,"station_id":"POK","transit":false},{"i_long":106.86807400000001,"is_transit":true,"time":9,"line":1,"distance":1236,"transit":true,"station_id":"JNG","station_name":"Jatinegara","i_lat":-6.215091},{"station_id":"MTR","time":2,"transit":false,"distance":1377,"station_name":"Matraman","i_long":106.858896,"is_transit":false,"line":1,"i_lat":-6.212485},{"distance":1275,"station_id":"MRI","i_lat":-6.209883,"line":2,"time":2,"is_transit":false,"station_name":"Manggarai","transit":false,"i_long":106.84912},{"station_id":"SUD","i_long":106.822649,"distance":3186,"station_name":"Sudirman","is_transit":false,"transit":false,"i_lat":-6.202263,"time":4,"line":1},{"time":1,"transit":false,"distance":280,"i_lat":-6.201433,"station_id":"SUDB","station_name":"Sudirman Baru","is_transit":false,"i_long":106.819881,"line":1},{"station_name":"Karet","i_long":106.816351,"station_id":"KAT","line":1,"time":1,"i_lat":-6.20132,"distance":471,"is_transit":false,"transit":false},{"station_name":"Tanah Abang","transit":false,"i_lat":-6.185545,"line":1,"time":5,"station_id":"THB","distance":2029,"is_transit":false,"i_long":106.811091},{"station_name":"Duri","transit":true,"i_long":106.800832,"line":1,"distance":3632,"i_lat":-6.155215,"is_transit":true,"station_id":"DU","time":8},{"station_name":"Grogol","distance":1700,"time":3,"line":5,"is_transit":false,"transit":false,"i_lat":-6.162021,"station_id":"GRG","i_long":106.788277},{"i_long":106.771379,"time":2,"station_name":"Pesing","is_transit":false,"transit":false,"station_id":"PSG","i_lat":-6.161433,"line":5,"distance":2036},{"i_lat":-6.1587309999999995,"transit":false,"line":5,"station_name":"Taman Kota","is_transit":false,"i_long":106.756522,"distance":1614,"station_id":"TKO","time":2},{"distance":2334,"i_lat":-6.159876,"line":5,"is_transit":false,"i_long":106.737035,"transit":false,"time":2,"station_id":"BOI","station_name":"Bojongindah"},{"line":5,"time":4,"station_id":"RW","is_transit":false,"distance":1152,"station_name":"Rawa Buaya","i_lat":-6.162758,"i_long":106.723064,"transit":false},{"line":5,"transit":false,"station_id":"KDS","time":3,"i_long":106.701612,"i_lat":-6.166068,"distance":2504,"is_transit":false,"station_name":"Kalideres"},{"station_id":"PI","i_lat":-6.169933,"line":5,"time":3,"is_transit":false,"i_long":106.679458,"station_name":"Poris","transit":false,"distance":2548},{"transit":false,"i_long":106.665036,"time":3,"line":5,"is_transit":false,"i_lat":-6.171811,"station_name":"Batuceper","station_id":"BPR","distance":1834}]]}