{"data":[[{"is_transit":false,"i_long":106.82482,"i_lat":-6.149769,"station_name":"Manggabesar","line":2,"station_id":"MGB","transit":false,"time":0,"distance":0},{"i_lat":-6.160725,"station_id":"SW","line":2,"is_transit":false,"distance":906,"station_name":"Sawah Besar","time":2,"i_long":106.827103,"transit":false},{"i_long":106.828284,"is_transit":false,"line":2,"distance":1149,"transit":false,"station_name":"Juanda","i_lat":-6.166716,"station_id":"JUA","time":2},{"station_name":"Gondangdia","distance":2015,"i_long":106.832183,"station_id":"GDD","transit":false,"is_transit":false,"line":2,"i_lat":-6.186295,"time":4},{"station_name":"Cikini","station_id":"CKI","i_lat":-6.198556,"i_long":106.840169,"transit":false,"is_transit":false,"time":3,"line":0,"distance":1750},{"station_name":"Manggarai","i_lat":-6.209883,"line":0,"is_transit":true,"distance":1590,"station_id":"MRI","i_long":106.84912,"transit":true,"time":4},{"station_id":"SUD","transit":false,"station_name":"Sudirman","distance":3186,"i_long":106.822649,"line":1,"is_transit":false,"time":4,"i_lat":-6.202263}],[{"distance":0,"transit":false,"is_transit":false,"time":0,"i_long":106.82482,"i_lat":-6.149769,"line":2,"station_id":"MGB","station_name":"Manggabesar"},{"is_transit":false,"i_lat":-6.141205,"time":2,"i_long":106.820901,"line":7,"station_id":"JAY","distance":1080,"transit":false,"station_name":"Jayakarta"},{"line":0,"transit":true,"distance":1264,"time":4,"station_name":"Jakarta Kota","station_id":"JAKK","i_long":106.812439,"is_transit":true,"i_lat":-6.137569},{"time":3,"i_long":106.826365,"i_lat":-6.132549,"distance":1364,"transit":false,"line":0,"station_id":"KPB","station_name":"Kampung Bandan","is_transit":true},{"is_transit":false,"time":9,"station_id":"AK","transit":false,"i_long":106.79867,"distance":4102,"station_name":"Angke","i_lat":-6.144674,"line":0},{"station_name":"Duri","i_long":106.800832,"station_id":"DU","distance":1230,"transit":true,"i_lat":-6.155215,"line":1,"is_transit":true,"time":4},{"distance":3632,"station_id":"THB","transit":false,"line":1,"is_transit":true,"i_lat":-6.185545,"time":8,"station_name":"Tanah Abang","i_long":106.811091},{"is_transit":false,"line":1,"time":5,"i_lat":-6.20132,"distance":2029,"station_id":"KAT","i_long":106.816351,"transit":false,"station_name":"Karet"},{"i_lat":-6.201433,"i_long":106.819881,"transit":false,"time":1,"line":1,"station_id":"SUDB","is_transit":false,"distance":471,"station_name":"Sudirman Baru"},{"i_long":106.822649,"i_lat":-6.202263,"line":1,"station_id":"SUD","station_name":"Sudirman","distance":280,"transit":false,"is_transit":false,"time":1}],[{"station_id":"MGB","station_name":"Manggabesar","time":0,"i_lat":-6.149769,"i_long":106.82482,"distance":0,"line":2,"transit":false,"is_transit":false},{"i_long":106.820901,"time":2,"distance":1080,"station_id":"JAY","transit":false,"i_lat":-6.141205,"station_name":"Jayakarta","line":7,"is_transit":false},{"is_transit":true,"transit":true,"line":0,"distance":1264,"station_name":"Jakarta Kota","station_id":"JAKK","i_lat":-6.137569,"time":4,"i_long":106.812439},{"i_lat":-6.132549,"transit":true,"distance":1364,"i_long":106.826365,"station_name":"Kampung Bandan","is_transit":true,"station_id":"KPB","line":0,"time":3},{"i_long":106.836569,"line":11,"is_transit":false,"transit":false,"time":3,"i_lat":-6.14505,"distance":1444,"station_id":"RJW","station_name":"Rajawali"},{"i_lat":-6.161728,"i_long":106.839204,"time":5,"transit":false,"station_name":"Kemayoran","distance":1901,"line":11,"is_transit":false,"station_id":"KMO"},{"station_name":"Pasar Senen","line":11,"time":4,"station_id":"PSE","transit":false,"i_lat":-6.174784,"is_transit":false,"i_long":106.84368,"distance":1436},{"distance":1567,"time":8,"is_transit":false,"i_long":106.850107,"line":11,"station_id":"GST","station_name":"Gang Sentiong","transit":false,"i_lat":-6.185975},{"is_transit":false,"distance":973,"time":1,"i_lat":-6.193792,"line":11,"station_name":"Kramat","i_long":106.855437,"station_id":"KMT","transit":false},{"i_long":106.861737,"transit":false,"time":2,"i_lat":-6.209188,"line":11,"station_id":"POK","is_transit":false,"station_name":"Pondok Jati","distance":1829},{"time":9,"i_long":106.86807400000001,"station_name":"Jatinegara","distance":1236,"line":0,"station_id":"JNG","is_transit":true,"i_lat":-6.215091,"transit":true},{"line":1,"time":2,"station_id":"MTR","station_name":"Matraman","distance":1377,"transit":false,"i_long":106.858896,"is_transit":false,"i_lat":-6.212485},{"transit":false,"i_lat":-6.209883,"time":2,"i_long":106.84912,"station_id":"MRI","line":0,"distance":1275,"is_transit":true,"station_name":"Manggarai"},{"station_name":"Sudirman","is_transit":false,"station_id":"SUD","i_long":106.822649,"transit":false,"time":4,"distance":3186,"i_lat":-6.202263,"line":1}],[{"station_id":"MGB","i_long":106.82482,"is_transit":false,"time":0,"distance":0,"transit":false,"line":2,"station_name":"Manggabesar","i_lat":-6.149769},{"station_id":"SW","i_lat":-6.160725,"time":2,"i_long":106.827103,"line":2,"distance":906,"station_name":"Sawah Besar","is_transit":false,"transit":false},{"i_long":106.828284,"time":2,"distance":1149,"transit":false,"station_id":"JUA","station_name":"Juanda","i_lat":-6.166716,"line":2,"is_transit":false},{"transit":false,"station_name":"Gondangdia","line":2,"i_lat":-6.186295,"i_long":106.832183,"station_id":"GDD","distance":2015,"is_transit":false,"time":4},{"transit":false,"time":3,"i_lat":-6.198556,"station_name":"Cikini","distance":1750,"is_transit":false,"i_long":106.840169,"line":0,"station_id":"CKI"},{"i_lat":-6.209883,"i_long":106.84912,"station_name":"Manggarai","time":4,"line":0,"distance":1590,"transit":true,"is_transit":true,"station_id":"MRI"},{"i_lat":-6.212485,"is_transit":false,"distance":1275,"station_name":"Matraman","time":2,"line":1,"station_id":"MTR","transit":false,"i_long":106.858896},{"transit":true,"distance":1377,"station_id":"JNG","station_name":"Jatinegara","time":8,"i_long":106.86807400000001,"i_lat":-6.215091,"line":0,"is_transit":true},{"i_long":106.861737,"station_name":"Pondok Jati","line":11,"station_id":"POK","is_transit":false,"time":2,"distance":1236,"transit":false,"i_lat":-6.209188},{"is_transit":false,"station_name":"Kramat","time":2,"station_id":"KMT","distance":1829,"i_lat":-6.193792,"i_long":106.855437,"line":11,"transit":false},{"i_long":106.850107,"distance":973,"station_id":"GST","transit":false,"is_transit":false,"time":1,"line":11,"i_lat":-6.185975,"station_name":"Gang Sentiong"},{"transit":false,"i_lat":-6.174784,"station_name":"Pasar Senen","i_long":106.84368,"station_id":"PSE","is_transit":false,"line":11,"time":8,"distance":1567},{"transit":false,"station_id":"KMO","time":4,"station_name":"Kemayoran","line":11,"is_transit":false,"distance":1436,"i_lat":-6.161728,"i_long":106.839204},{"is_transit":false,"distance":1901,"time":5,"transit":false,"station_id":"RJW","line":11,"i_long":106.836569,"i_lat":-6.14505,"station_name":"Rajawali"},{"station_id":"KPB","distance":1444,"is_transit":true,"time":3,"i_lat":-6.132549,"line":0,"station_name":"Kampung Bandan","i_long":106.826365,"transit":true},{"i_lat":-6.144674,"transit":false,"line":0,"station_name":"Angke","i_long":106.79867,"station_id":"AK","distance":4102,"time":9,"is_transit":false},{"station_name":"Duri","time":4,"i_lat":-6.155215,"transit":true,"line":1,"station_id":"DU","is_transit":true,"i_long":106.800832,"distance":1230},{"line":1,"is_transit":true,"i_long":106.811091,"station_name":"Tanah Abang","station_id":"THB","transit":false,"distance":3632,"time":8,"i_lat":-6.185545},{"station_id":"KAT","distance":2029,"line":1,"station_name":"Karet","i_lat":-6.20132,"is_transit":false,"i_long":106.816351,"time":5,"transit":false},{"is_transit":false,"time":1,"i_lat":-6.201433,"transit":false,"station_id":"SUDB","i_long":106.819881,"line":1,"station_name":"Sudirman Baru","distance":471},{"i_long":106.822649,"station_name":"Sudirman","station_id":"SUD","i_lat":-6.202263,"distance":280,"is_transit":false,"time":1,"line":1,"transit":false}]]}