{"data":[[{"i_long":106.82482,"station_id":"MGB","time":0,"is_transit":false,"transit":false,"line":2,"station_name":"Manggabesar","distance":0,"i_lat":-6.149769},{"is_transit":false,"i_long":106.827103,"transit":false,"distance":906,"time":2,"line":2,"station_name":"Sawah Besar","i_lat":-6.160725,"station_id":"SW"},{"i_long":106.828284,"i_lat":-6.166716,"is_transit":false,"transit":false,"distance":1149,"time":2,"line":2,"station_id":"JUA","station_name":"Juanda"},{"station_id":"GDD","station_name":"Gondangdia","transit":false,"time":4,"distance":2015,"i_long":106.832183,"i_lat":-6.186295,"line":2,"is_transit":false},{"time":3,"station_name":"Cikini","i_long":106.840169,"distance":1750,"line":2,"i_lat":-6.198556,"transit":false,"is_transit":false,"station_id":"CKI"},{"station_name":"Manggarai","i_lat":-6.209883,"transit":true,"line":2,"station_id":"MRI","i_long":106.84912,"time":4,"is_transit":true,"distance":1590},{"station_id":"MTR","station_name":"Matraman","distance":1275,"time":2,"i_long":106.858896,"transit":false,"i_lat":-6.212485,"is_transit":false,"line":1},{"is_transit":false,"station_name":"Jatinegara","time":8,"transit":false,"distance":1377,"i_lat":-6.215091,"station_id":"JNG","i_long":106.86807400000001,"line":1},{"transit":false,"line":1,"station_id":"KLD","i_long":106.899548,"i_lat":-6.2135,"time":3,"is_transit":false,"station_name":"Klender","distance":3395},{"is_transit":false,"distance":3100,"transit":false,"i_long":106.922662,"station_name":"Buaran","line":1,"time":2,"i_lat":-6.215568,"station_id":"BUA"},{"i_lat":-6.217455,"is_transit":false,"time":1,"i_long":106.939679,"line":1,"station_name":"Klenderbaru","station_id":"KLDB","distance":1305,"transit":false},{"line":1,"station_name":"Cakung","station_id":"CUK","transit":false,"is_transit":false,"time":8,"distance":1385,"i_long":106.951283,"i_lat":-6.219053},{"i_lat":-6.224515,"transit":false,"i_long":106.977657,"station_name":"Kranji","distance":3097,"line":1,"station_id":"KRI","is_transit":false,"time":3},{"i_long":106.997013,"time":4,"is_transit":false,"distance":2520,"station_id":"BKS","station_name":"Bekasi","line":1,"transit":false,"i_lat":-6.236616},{"transit":false,"is_transit":false,"time":2,"line":1,"i_long":107.016735,"station_id":"BKST","i_lat":-6.248029,"station_name":"Bekasi Timur","distance":2368},{"time":7,"distance":4460,"line":1,"i_lat":-6.258864,"i_long":107.055722,"transit":false,"station_name":"Tambun","station_id":"TB","is_transit":false}],[{"station_id":"MGB","distance":0,"is_transit":false,"i_lat":-6.149769,"transit":false,"time":0,"station_name":"Manggabesar","line":2,"i_long":106.82482},{"station_id":"JAY","distance":1080,"is_transit":false,"i_long":106.820901,"transit":false,"station_name":"Jayakarta","i_lat":-6.141205,"line":2,"time":2},{"line":2,"station_name":"Jakarta Kota","transit":true,"time":4,"distance":1264,"i_long":106.812439,"is_transit":true,"station_id":"JAKK","i_lat":-6.137569},{"line":4,"station_name":"Kampung Bandan","i_long":106.826365,"distance":1364,"is_transit":true,"station_id":"KPB","transit":true,"i_lat":-6.132549,"time":3},{"station_id":"RJW","i_long":106.836569,"transit":false,"i_lat":-6.14505,"line":11,"distance":1444,"is_transit":false,"time":3,"station_name":"Rajawali"},{"distance":1901,"station_name":"Kemayoran","i_long":106.839204,"time":5,"i_lat":-6.161728,"is_transit":false,"transit":false,"station_id":"KMO","line":11},{"line":11,"is_transit":false,"station_name":"Pasar Senen","i_lat":-6.174784,"i_long":106.84368,"transit":false,"time":4,"distance":1436,"station_id":"PSE"},{"station_id":"GST","is_transit":false,"distance":1567,"time":8,"line":11,"i_long":106.850107,"transit":false,"station_name":"Gang Sentiong","i_lat":-6.185975},{"station_id":"KMT","distance":973,"is_transit":false,"transit":false,"time":1,"station_name":"Kramat","i_lat":-6.193792,"i_long":106.855437,"line":11},{"transit":false,"station_name":"Pondok Jati","time":2,"i_lat":-6.209188,"distance":1829,"station_id":"POK","is_transit":false,"i_long":106.861737,"line":11},{"transit":true,"line":1,"i_long":106.86807400000001,"station_id":"JNG","distance":1236,"is_transit":true,"station_name":"Jatinegara","i_lat":-6.215091,"time":9},{"station_id":"KLD","i_lat":-6.2135,"is_transit":false,"station_name":"Klender","i_long":106.899548,"line":1,"time":3,"distance":3395,"transit":false},{"transit":false,"station_id":"BUA","distance":3100,"line":1,"station_name":"Buaran","is_transit":false,"time":2,"i_lat":-6.215568,"i_long":106.922662},{"transit":false,"station_id":"KLDB","is_transit":false,"time":1,"i_lat":-6.217455,"distance":1305,"line":1,"station_name":"Klenderbaru","i_long":106.939679},{"station_id":"CUK","distance":1385,"line":1,"station_name":"Cakung","transit":false,"time":8,"i_lat":-6.219053,"i_long":106.951283,"is_transit":false},{"i_lat":-6.224515,"station_id":"KRI","time":3,"station_name":"Kranji","i_long":106.977657,"transit":false,"line":1,"distance":3097,"is_transit":false},{"transit":false,"i_long":106.997013,"station_name":"Bekasi","is_transit":false,"time":4,"station_id":"BKS","i_lat":-6.236616,"distance":2520,"line":1},{"line":1,"station_id":"BKST","i_lat":-6.248029,"distance":2368,"i_long":107.016735,"time":2,"is_transit":false,"transit":false,"station_name":"Bekasi Timur"},{"is_transit":false,"transit":false,"station_id":"TB","time":7,"i_long":107.055722,"distance":4460,"line":1,"station_name":"Tambun","i_lat":-6.258864}],[{"i_lat":-6.149769,"time":0,"distance":0,"i_long":106.82482,"transit":false,"station_id":"MGB","is_transit":false,"station_name":"Manggabesar","line":2},{"i_long":106.820901,"distance":1080,"line":2,"is_transit":false,"time":2,"i_lat":-6.141205,"transit":false,"station_name":"Jayakarta","station_id":"JAY"},{"is_transit":true,"time":4,"line":2,"transit":true,"distance":1264,"station_id":"JAKK","i_long":106.812439,"i_lat":-6.137569,"station_name":"Jakarta Kota"},{"station_name":"Kampung Bandan","line":4,"station_id":"KPB","distance":1364,"i_lat":-6.132549,"transit":true,"is_transit":true,"time":3,"i_long":106.826365},{"is_transit":false,"line":1,"i_long":106.79867,"station_id":"AK","i_lat":-6.144674,"time":9,"transit":false,"station_name":"Angke","distance":4102},{"is_transit":false,"distance":1230,"station_name":"Duri","station_id":"DU","time":4,"transit":false,"line":1,"i_lat":-6.155215,"i_long":106.800832},{"station_id":"THB","time":8,"transit":false,"station_name":"Tanah Abang","i_lat":-6.185545,"is_transit":false,"i_long":106.811091,"line":1,"distance":3632},{"station_id":"KAT","time":5,"line":1,"is_transit":false,"distance":2029,"station_name":"Karet","i_long":106.816351,"transit":false,"i_lat":-6.20132},{"station_id":"SUDB","i_lat":-6.201433,"time":1,"distance":471,"i_long":106.819881,"line":1,"is_transit":false,"transit":false,"station_name":"Sudirman Baru"},{"i_lat":-6.202263,"station_name":"Sudirman","time":1,"distance":280,"i_long":106.822649,"station_id":"SUD","line":1,"transit":false,"is_transit":false},{"transit":false,"i_long":106.84912,"line":2,"station_name":"Manggarai","distance":3186,"station_id":"MRI","i_lat":-6.209883,"time":4,"is_transit":false},{"time":2,"station_id":"MTR","distance":1275,"i_long":106.858896,"transit":false,"station_name":"Matraman","is_transit":false,"i_lat":-6.212485,"line":1},{"i_lat":-6.215091,"is_transit":false,"transit":false,"i_long":106.86807400000001,"time":8,"distance":1377,"station_name":"Jatinegara","station_id":"JNG","line":1},{"distance":3395,"station_name":"Klender","is_transit":false,"time":3,"line":1,"station_id":"KLD","i_lat":-6.2135,"i_long":106.899548,"transit":false},{"station_name":"Buaran","time":2,"station_id":"BUA","distance":3100,"is_transit":false,"i_lat":-6.215568,"i_long":106.922662,"line":1,"transit":false},{"is_transit":false,"line":1,"distance":1305,"time":1,"transit":false,"station_id":"KLDB","station_name":"Klenderbaru","i_lat":-6.217455,"i_long":106.939679},{"is_transit":false,"distance":1385,"station_name":"Cakung","line":1,"i_lat":-6.219053,"transit":false,"i_long":106.951283,"time":8,"station_id":"CUK"},{"line":1,"station_id":"KRI","i_lat":-6.224515,"distance":3097,"i_long":106.977657,"station_name":"Kranji","transit":false,"time":3,"is_transit":false},{"i_lat":-6.236616,"station_id":"BKS","time":4,"distance":2520,"line":1,"station_name":"Bekasi","transit":false,"is_transit":false,"i_long":106.997013},{"time":2,"is_transit":false,"transit":false,"station_name":"Bekasi Timur","distance":2368,"i_lat":-6.248029,"line":1,"i_long":107.016735,"station_id":"BKST"},{"is_transit":false,"transit":false,"time":7,"line":1,"i_long":107.055722,"station_id":"TB","i_lat":-6.258864,"distance":4460,"station_name":"Tambun"}],[{"time":0,"station_name":"Manggabesar","i_lat":-6.149769,"i_long":106.82482,"distance":0,"station_id":"MGB","is_transit":false,"line":2,"transit":false},{"time":2,"transit":false,"station_name":"Sawah Besar","i_long":106.827103,"station_id":"SW","is_transit":false,"i_lat":-6.160725,"line":2,"distance":906},{"i_lat":-6.166716,"line":2,"station_id":"JUA","station_name":"Juanda","time":2,"transit":false,"is_transit":false,"i_long":106.828284,"distance":1149},{"time":4,"i_lat":-6.186295,"distance":2015,"transit":false,"line":2,"station_name":"Gondangdia","is_transit":false,"station_id":"GDD","i_long":106.832183},{"line":2,"station_id":"CKI","is_transit":false,"i_long":106.840169,"distance":1750,"i_lat":-6.198556,"station_name":"Cikini","time":3,"transit":false},{"time":4,"distance":1590,"station_name":"Manggarai","i_long":106.84912,"transit":true,"station_id":"MRI","i_lat":-6.209883,"is_transit":true,"line":2},{"line":1,"station_name":"Sudirman","station_id":"SUD","time":4,"distance":3186,"is_transit":false,"i_long":106.822649,"transit":false,"i_lat":-6.202263},{"i_lat":-6.201433,"distance":280,"time":1,"transit":false,"i_long":106.819881,"station_id":"SUDB","station_name":"Sudirman Baru","line":1,"is_transit":false},{"time":1,"is_transit":false,"station_name":"Karet","i_long":106.816351,"distance":471,"station_id":"KAT","i_lat":-6.20132,"transit":false,"line":1},{"is_transit":false,"time":5,"i_lat":-6.185545,"i_long":106.811091,"transit":false,"station_name":"Tanah Abang","station_id":"THB","distance":2029,"line":1},{"distance":3632,"station_name":"Duri","is_transit":false,"transit":false,"time":8,"i_long":106.800832,"station_id":"DU","i_lat":-6.155215,"line":1},{"distance":1230,"station_name":"Angke","transit":false,"time":4,"i_lat":-6.144674,"i_long":106.79867,"line":1,"station_id":"AK","is_transit":false},{"line":4,"transit":true,"station_name":"Kampung Bandan","is_transit":true,"i_lat":-6.132549,"i_long":106.826365,"station_id":"KPB","distance":4102,"time":9},{"line":11,"transit":false,"i_lat":-6.14505,"time":3,"distance":1444,"station_id":"RJW","station_name":"Rajawali","i_long":106.836569,"is_transit":false},{"station_name":"Kemayoran","station_id":"KMO","distance":1901,"i_lat":-6.161728,"is_transit":false,"i_long":106.839204,"time":5,"transit":false,"line":11},{"is_transit":false,"line":11,"i_lat":-6.174784,"station_name":"Pasar Senen","time":4,"distance":1436,"i_long":106.84368,"station_id":"PSE","transit":false},{"i_long":106.850107,"time":8,"line":11,"i_lat":-6.185975,"distance":1567,"station_name":"Gang Sentiong","transit":false,"is_transit":false,"station_id":"GST"},{"station_id":"KMT","is_transit":false,"time":1,"transit":false,"distance":973,"i_lat":-6.193792,"i_long":106.855437,"line":11,"station_name":"Kramat"},{"line":11,"distance":1829,"transit":false,"i_lat":-6.209188,"is_transit":false,"station_id":"POK","i_long":106.861737,"station_name":"Pondok Jati","time":2},{"distance":1236,"station_name":"Jatinegara","station_id":"JNG","line":1,"is_transit":true,"i_long":106.86807400000001,"time":9,"i_lat":-6.215091,"transit":true},{"i_long":106.899548,"is_transit":false,"line":1,"time":3,"station_id":"KLD","distance":3395,"station_name":"Klender","transit":false,"i_lat":-6.2135},{"line":1,"station_id":"BUA","i_long":106.922662,"station_name":"Buaran","transit":false,"is_transit":false,"i_lat":-6.215568,"time":2,"distance":3100},{"is_transit":false,"station_id":"KLDB","time":1,"i_lat":-6.217455,"transit":false,"distance":1305,"i_long":106.939679,"line":1,"station_name":"Klenderbaru"},{"is_transit":false,"station_id":"CUK","line":1,"distance":1385,"i_long":106.951283,"transit":false,"i_lat":-6.219053,"station_name":"Cakung","time":8},{"is_transit":false,"i_long":106.977657,"station_id":"KRI","time":3,"i_lat":-6.224515,"line":1,"station_name":"Kranji","transit":false,"distance":3097},{"distance":2520,"transit":false,"station_id":"BKS","i_lat":-6.236616,"is_transit":false,"line":1,"time":4,"station_name":"Bekasi","i_long":106.997013},{"station_name":"Bekasi Timur","station_id":"BKST","i_lat":-6.248029,"distance":2368,"time":2,"i_long":107.016735,"is_transit":false,"line":1,"transit":false},{"is_transit":false,"transit":false,"i_long":107.055722,"line":1,"distance":4460,"time":7,"station_name":"Tambun","station_id":"TB","i_lat":-6.258864}]]}