{"data":[[{"is_transit":false,"time":0,"distance":0,"line":2,"i_long":106.82482,"i_lat":-6.149769,"transit":false,"station_name":"Manggabesar","station_id":"MGB"},{"time":2,"distance":906,"station_id":"SW","station_name":"Sawah Besar","i_lat":-6.160725,"i_long":106.827103,"line":2,"is_transit":false,"transit":false},{"time":2,"is_transit":false,"transit":false,"station_name":"Juanda","i_lat":-6.166716,"distance":1149,"station_id":"JUA","line":2,"i_long":106.828284},{"distance":2015,"i_long":106.832183,"station_name":"Gondangdia","station_id":"GDD","time":4,"i_lat":-6.186295,"line":2,"transit":false,"is_transit":false},{"distance":1750,"station_name":"Cikini","is_transit":false,"i_long":106.840169,"line":2,"time":3,"transit":false,"station_id":"CKI","i_lat":-6.198556},{"transit":true,"station_id":"MRI","line":2,"station_name":"Manggarai","is_transit":true,"time":4,"i_long":106.84912,"i_lat":-6.209883,"distance":1590},{"i_long":106.858896,"distance":1275,"station_name":"Matraman","station_id":"MTR","time":2,"i_lat":-6.212485,"transit":false,"is_transit":false,"line":1}],[{"transit":false,"station_id":"MGB","is_transit":false,"distance":0,"i_long":106.82482,"time":0,"i_lat":-6.149769,"station_name":"Manggabesar","line":2},{"time":2,"i_lat":-6.141205,"station_id":"JAY","distance":1080,"is_transit":false,"line":2,"station_name":"Jayakarta","i_long":106.820901,"transit":false},{"distance":1264,"time":4,"line":2,"transit":true,"is_transit":true,"station_name":"Jakarta Kota","i_lat":-6.137569,"i_long":106.812439,"station_id":"JAKK"},{"is_transit":true,"time":3,"i_long":106.826365,"transit":true,"line":4,"i_lat":-6.132549,"station_name":"Kampung Bandan","distance":1364,"station_id":"KPB"},{"line":1,"station_id":"AK","transit":false,"is_transit":false,"distance":4102,"i_long":106.79867,"station_name":"Angke","time":9,"i_lat":-6.144674},{"is_transit":false,"i_lat":-6.155215,"i_long":106.800832,"transit":false,"time":4,"distance":1230,"line":1,"station_id":"DU","station_name":"Duri"},{"is_transit":false,"distance":3632,"station_name":"Tanah Abang","i_lat":-6.185545,"station_id":"THB","transit":false,"line":1,"i_long":106.811091,"time":8},{"i_lat":-6.20132,"i_long":106.816351,"is_transit":false,"transit":false,"station_name":"Karet","time":5,"distance":2029,"line":1,"station_id":"KAT"},{"transit":false,"distance":471,"i_long":106.819881,"station_name":"Sudirman Baru","i_lat":-6.201433,"time":1,"station_id":"SUDB","is_transit":false,"line":1},{"line":1,"time":1,"transit":false,"i_long":106.822649,"distance":280,"station_id":"SUD","station_name":"Sudirman","is_transit":false,"i_lat":-6.202263},{"time":4,"line":2,"is_transit":false,"distance":3186,"i_long":106.84912,"station_id":"MRI","station_name":"Manggarai","i_lat":-6.209883,"transit":false},{"station_id":"MTR","time":2,"transit":false,"is_transit":false,"i_lat":-6.212485,"line":1,"i_long":106.858896,"station_name":"Matraman","distance":1275}],[{"distance":0,"time":0,"i_lat":-6.149769,"is_transit":false,"i_long":106.82482,"station_id":"MGB","transit":false,"line":2,"station_name":"Manggabesar"},{"i_long":106.820901,"i_lat":-6.141205,"station_id":"JAY","station_name":"Jayakarta","distance":1080,"transit":false,"time":2,"line":2,"is_transit":false},{"transit":true,"station_id":"JAKK","time":4,"is_transit":true,"station_name":"Jakarta Kota","distance":1264,"i_lat":-6.137569,"i_long":106.812439,"line":2},{"station_name":"Kampung Bandan","i_long":106.826365,"line":4,"is_transit":true,"time":3,"distance":1364,"i_lat":-6.132549,"transit":true,"station_id":"KPB"},{"transit":false,"time":3,"station_id":"RJW","line":11,"distance":1444,"is_transit":false,"i_lat":-6.14505,"i_long":106.836569,"station_name":"Rajawali"},{"station_name":"Kemayoran","time":5,"i_lat":-6.161728,"is_transit":false,"station_id":"KMO","transit":false,"distance":1901,"line":11,"i_long":106.839204},{"station_id":"PSE","station_name":"Pasar Senen","transit":false,"distance":1436,"i_lat":-6.174784,"line":11,"is_transit":false,"i_long":106.84368,"time":4},{"station_name":"Gang Sentiong","transit":false,"i_long":106.850107,"is_transit":false,"i_lat":-6.185975,"line":11,"time":8,"station_id":"GST","distance":1567},{"i_lat":-6.193792,"i_long":106.855437,"station_id":"KMT","line":11,"is_transit":false,"station_name":"Kramat","distance":973,"transit":false,"time":1},{"station_id":"POK","station_name":"Pondok Jati","i_lat":-6.209188,"transit":false,"is_transit":false,"time":2,"i_long":106.861737,"distance":1829,"line":11},{"station_name":"Jatinegara","distance":1236,"station_id":"JNG","is_transit":true,"transit":true,"time":9,"i_lat":-6.215091,"i_long":106.86807400000001,"line":1},{"station_id":"MTR","i_long":106.858896,"transit":false,"time":2,"distance":1377,"is_transit":false,"i_lat":-6.212485,"line":1,"station_name":"Matraman"}],[{"transit":false,"i_lat":-6.149769,"station_id":"MGB","is_transit":false,"line":2,"station_name":"Manggabesar","i_long":106.82482,"time":0,"distance":0},{"time":2,"station_name":"Sawah Besar","is_transit":false,"transit":false,"i_lat":-6.160725,"i_long":106.827103,"distance":906,"line":2,"station_id":"SW"},{"distance":1149,"station_id":"JUA","time":2,"line":2,"i_long":106.828284,"transit":false,"i_lat":-6.166716,"is_transit":false,"station_name":"Juanda"},{"transit":false,"time":4,"station_id":"GDD","i_long":106.832183,"distance":2015,"is_transit":false,"line":2,"station_name":"Gondangdia","i_lat":-6.186295},{"distance":1750,"line":2,"station_id":"CKI","station_name":"Cikini","i_long":106.840169,"is_transit":false,"i_lat":-6.198556,"transit":false,"time":3},{"station_id":"MRI","is_transit":true,"transit":true,"station_name":"Manggarai","time":4,"distance":1590,"line":2,"i_long":106.84912,"i_lat":-6.209883},{"time":4,"transit":false,"i_lat":-6.202263,"is_transit":false,"line":1,"station_id":"SUD","distance":3186,"i_long":106.822649,"station_name":"Sudirman"},{"distance":280,"transit":false,"station_id":"SUDB","line":1,"i_lat":-6.201433,"station_name":"Sudirman Baru","time":1,"is_transit":false,"i_long":106.819881},{"is_transit":false,"station_id":"KAT","distance":471,"line":1,"time":1,"transit":false,"i_lat":-6.20132,"i_long":106.816351,"station_name":"Karet"},{"i_lat":-6.185545,"station_id":"THB","is_transit":false,"transit":false,"time":5,"line":1,"station_name":"Tanah Abang","distance":2029,"i_long":106.811091},{"time":8,"station_id":"DU","i_long":106.800832,"i_lat":-6.155215,"station_name":"Duri","distance":3632,"line":1,"transit":false,"is_transit":false},{"station_id":"AK","time":4,"distance":1230,"line":1,"station_name":"Angke","is_transit":false,"i_long":106.79867,"transit":false,"i_lat":-6.144674},{"station_id":"KPB","transit":true,"distance":4102,"line":4,"station_name":"Kampung Bandan","i_lat":-6.132549,"i_long":106.826365,"is_transit":true,"time":9},{"transit":false,"station_id":"RJW","time":3,"distance":1444,"i_lat":-6.14505,"station_name":"Rajawali","is_transit":false,"line":11,"i_long":106.836569},{"i_long":106.839204,"time":5,"station_id":"KMO","line":11,"station_name":"Kemayoran","is_transit":false,"distance":1901,"i_lat":-6.161728,"transit":false},{"station_id":"PSE","i_lat":-6.174784,"time":4,"i_long":106.84368,"station_name":"Pasar Senen","line":11,"distance":1436,"transit":false,"is_transit":false},{"line":11,"transit":false,"station_id":"GST","is_transit":false,"time":8,"i_long":106.850107,"station_name":"Gang Sentiong","distance":1567,"i_lat":-6.185975},{"distance":973,"time":1,"i_lat":-6.193792,"station_id":"KMT","is_transit":false,"transit":false,"line":11,"station_name":"Kramat","i_long":106.855437},{"i_long":106.861737,"time":2,"transit":false,"line":11,"distance":1829,"i_lat":-6.209188,"station_id":"POK","station_name":"Pondok Jati","is_transit":false},{"transit":true,"i_long":106.86807400000001,"i_lat":-6.215091,"station_id":"JNG","line":1,"distance":1236,"time":9,"station_name":"Jatinegara","is_transit":true},{"station_id":"MTR","station_name":"Matraman","i_long":106.858896,"time":2,"line":1,"is_transit":false,"distance":1377,"transit":false,"i_lat":-6.212485}]]}