{"data":[[{"transit":false,"station_id":"MGB","time":0,"distance":0,"line":2,"station_name":"Manggabesar","i_lat":-6.149769,"i_long":106.82482,"is_transit":false},{"i_lat":-6.141205,"station_id":"JAY","distance":1080,"time":2,"line":2,"transit":false,"station_name":"Jayakarta","is_transit":false,"i_long":106.820901},{"i_lat":-6.137569,"time":4,"line":2,"station_name":"Jakarta Kota","i_long":106.812439,"distance":1264,"is_transit":true,"station_id":"JAKK","transit":true},{"station_name":"Kampung Bandan","transit":true,"i_lat":-6.132549,"time":3,"i_long":106.826365,"station_id":"KPB","line":4,"distance":1364,"is_transit":true},{"station_name":"Ancol","is_transit":false,"station_id":"AC","i_lat":-6.128023,"time":4,"line":4,"transit":false,"i_long":106.84464,"distance":2185},{"time":9,"distance":4566,"i_long":106.880089,"station_id":"TPK","i_lat":-6.1109480000000005,"line":4,"transit":false,"station_name":"Tanjung Priuk","is_transit":false}],[{"distance":0,"station_id":"MGB","station_name":"Manggabesar","i_lat":-6.149769,"i_long":106.82482,"transit":false,"is_transit":false,"line":2,"time":0},{"line":2,"station_id":"SW","i_long":106.827103,"distance":906,"i_lat":-6.160725,"station_name":"Sawah Besar","is_transit":false,"time":2,"transit":false},{"i_long":106.828284,"station_id":"JUA","time":2,"distance":1149,"station_name":"Juanda","line":2,"is_transit":false,"transit":false,"i_lat":-6.166716},{"station_id":"GDD","station_name":"Gondangdia","is_transit":false,"distance":2015,"line":2,"i_lat":-6.186295,"i_long":106.832183,"transit":false,"time":4},{"line":2,"distance":1750,"time":3,"station_name":"Cikini","i_lat":-6.198556,"station_id":"CKI","i_long":106.840169,"is_transit":false,"transit":false},{"line":2,"distance":1590,"station_id":"MRI","i_lat":-6.209883,"transit":true,"i_long":106.84912,"time":4,"is_transit":true,"station_name":"Manggarai"},{"time":4,"station_id":"SUD","i_long":106.822649,"distance":3186,"station_name":"Sudirman","line":1,"transit":false,"is_transit":false,"i_lat":-6.202263},{"distance":280,"i_lat":-6.201433,"i_long":106.819881,"station_name":"Sudirman Baru","line":1,"transit":false,"station_id":"SUDB","is_transit":false,"time":1},{"i_lat":-6.20132,"line":1,"station_id":"KAT","time":1,"i_long":106.816351,"station_name":"Karet","distance":471,"is_transit":false,"transit":false},{"transit":false,"station_id":"THB","distance":2029,"i_long":106.811091,"time":5,"station_name":"Tanah Abang","is_transit":false,"i_lat":-6.185545,"line":1},{"station_name":"Duri","i_long":106.800832,"is_transit":false,"time":8,"line":1,"transit":false,"distance":3632,"i_lat":-6.155215,"station_id":"DU"},{"transit":false,"i_long":106.79867,"time":4,"station_id":"AK","line":1,"distance":1230,"station_name":"Angke","is_transit":false,"i_lat":-6.144674},{"i_long":106.826365,"station_id":"KPB","transit":true,"is_transit":true,"line":4,"distance":4102,"i_lat":-6.132549,"time":9,"station_name":"Kampung Bandan"},{"transit":false,"station_id":"AC","station_name":"Ancol","line":4,"is_transit":false,"i_lat":-6.128023,"i_long":106.84464,"distance":2185,"time":4},{"time":9,"is_transit":false,"station_id":"TPK","i_long":106.880089,"transit":false,"line":4,"distance":4566,"station_name":"Tanjung Priuk","i_lat":-6.1109480000000005}],[{"station_id":"MGB","is_transit":false,"i_long":106.82482,"distance":0,"transit":false,"station_name":"Manggabesar","time":0,"i_lat":-6.149769,"line":2},{"distance":906,"i_long":106.827103,"station_id":"SW","is_transit":false,"time":2,"i_lat":-6.160725,"transit":false,"station_name":"Sawah Besar","line":2},{"station_name":"Juanda","i_lat":-6.166716,"distance":1149,"is_transit":false,"station_id":"JUA","i_long":106.828284,"time":2,"line":2,"transit":false},{"distance":2015,"transit":false,"time":4,"line":2,"station_id":"GDD","station_name":"Gondangdia","i_lat":-6.186295,"is_transit":false,"i_long":106.832183},{"is_transit":false,"i_long":106.840169,"station_name":"Cikini","i_lat":-6.198556,"time":3,"line":2,"distance":1750,"transit":false,"station_id":"CKI"},{"time":4,"i_lat":-6.209883,"is_transit":true,"i_long":106.84912,"line":2,"station_name":"Manggarai","station_id":"MRI","transit":true,"distance":1590},{"i_lat":-6.212485,"distance":1275,"i_long":106.858896,"line":1,"station_id":"MTR","is_transit":false,"time":2,"transit":false,"station_name":"Matraman"},{"is_transit":true,"station_id":"JNG","distance":1377,"i_long":106.86807400000001,"station_name":"Jatinegara","time":8,"transit":true,"i_lat":-6.215091,"line":1},{"station_name":"Pondok Jati","line":11,"station_id":"POK","is_transit":false,"time":2,"distance":1236,"transit":false,"i_lat":-6.209188,"i_long":106.861737},{"station_name":"Kramat","i_lat":-6.193792,"is_transit":false,"i_long":106.855437,"station_id":"KMT","line":11,"transit":false,"time":2,"distance":1829},{"distance":973,"station_id":"GST","station_name":"Gang Sentiong","i_long":106.850107,"line":11,"transit":false,"time":1,"i_lat":-6.185975,"is_transit":false},{"station_name":"Pasar Senen","line":11,"transit":false,"is_transit":false,"time":8,"i_lat":-6.174784,"i_long":106.84368,"distance":1567,"station_id":"PSE"},{"station_id":"KMO","station_name":"Kemayoran","distance":1436,"line":11,"i_long":106.839204,"is_transit":false,"i_lat":-6.161728,"time":4,"transit":false},{"i_lat":-6.14505,"is_transit":false,"transit":false,"time":5,"line":11,"i_long":106.836569,"station_id":"RJW","distance":1901,"station_name":"Rajawali"},{"station_id":"KPB","time":3,"distance":1444,"i_long":106.826365,"station_name":"Kampung Bandan","i_lat":-6.132549,"line":4,"is_transit":true,"transit":true},{"line":4,"i_long":106.84464,"station_id":"AC","transit":false,"is_transit":false,"station_name":"Ancol","time":4,"distance":2185,"i_lat":-6.128023},{"is_transit":false,"i_long":106.880089,"station_id":"TPK","line":4,"distance":4566,"station_name":"Tanjung Priuk","transit":false,"i_lat":-6.1109480000000005,"time":9}]]}