{"data":[[{"transit":false,"station_id":"MGB","i_long":106.82482,"line":2,"is_transit":false,"i_lat":-6.149769,"distance":0,"time":0,"station_name":"Manggabesar"},{"line":2,"station_id":"JAY","is_transit":false,"distance":1080,"time":2,"station_name":"Jayakarta","i_lat":-6.141205,"i_long":106.820901,"transit":false},{"i_lat":-6.137569,"line":2,"time":4,"station_id":"JAKK","i_long":106.812439,"transit":true,"is_transit":true,"distance":1264,"station_name":"Jakarta Kota"},{"station_id":"KPB","distance":1364,"transit":true,"i_lat":-6.132549,"line":4,"time":3,"station_name":"Kampung Bandan","is_transit":true,"i_long":106.826365},{"time":9,"is_transit":false,"line":1,"station_id":"AK","station_name":"Angke","transit":false,"i_lat":-6.144674,"distance":4102,"i_long":106.79867},{"transit":false,"station_id":"DU","distance":1230,"station_name":"Duri","is_transit":false,"i_long":106.800832,"time":4,"line":1,"i_lat":-6.155215},{"distance":3632,"time":8,"is_transit":true,"station_name":"Tanah Abang","i_long":106.811091,"station_id":"THB","i_lat":-6.185545,"line":1,"transit":true},{"station_id":"PLM","distance":3191,"is_transit":false,"i_long":106.79689,"station_name":"Palmerah","transit":false,"time":6,"i_lat":-6.207404,"line":6},{"station_id":"KBY","line":6,"station_name":"Kebayoran","transit":false,"time":7,"is_transit":false,"i_lat":-6.237242,"i_long":106.780334,"distance":3737}],[{"i_long":106.82482,"line":2,"is_transit":false,"station_id":"MGB","station_name":"Manggabesar","distance":0,"transit":false,"i_lat":-6.149769,"time":0},{"station_id":"SW","i_long":106.827103,"i_lat":-6.160725,"transit":false,"is_transit":false,"time":2,"line":2,"distance":906,"station_name":"Sawah Besar"},{"i_long":106.828284,"transit":false,"is_transit":false,"station_name":"Juanda","i_lat":-6.166716,"line":2,"distance":1149,"time":2,"station_id":"JUA"},{"station_id":"GDD","time":4,"i_lat":-6.186295,"station_name":"Gondangdia","i_long":106.832183,"distance":2015,"line":2,"transit":false,"is_transit":false},{"station_name":"Cikini","transit":false,"time":3,"i_lat":-6.198556,"i_long":106.840169,"is_transit":false,"station_id":"CKI","line":2,"distance":1750},{"is_transit":true,"i_lat":-6.209883,"i_long":106.84912,"transit":true,"time":4,"station_id":"MRI","distance":1590,"station_name":"Manggarai","line":2},{"distance":3186,"station_name":"Sudirman","transit":false,"line":1,"time":4,"i_lat":-6.202263,"i_long":106.822649,"station_id":"SUD","is_transit":false},{"station_name":"Sudirman Baru","time":1,"distance":280,"line":1,"i_lat":-6.201433,"station_id":"SUDB","transit":false,"i_long":106.819881,"is_transit":false},{"i_long":106.816351,"station_id":"KAT","is_transit":false,"i_lat":-6.20132,"transit":false,"station_name":"Karet","line":1,"time":1,"distance":471},{"transit":true,"i_lat":-6.185545,"is_transit":true,"distance":2029,"station_name":"Tanah Abang","i_long":106.811091,"line":1,"station_id":"THB","time":5},{"is_transit":false,"transit":false,"i_lat":-6.207404,"i_long":106.79689,"station_name":"Palmerah","time":6,"line":6,"station_id":"PLM","distance":3191},{"time":7,"station_id":"KBY","is_transit":false,"distance":3737,"i_lat":-6.237242,"station_name":"Kebayoran","i_long":106.780334,"transit":false,"line":6}],[{"i_long":106.82482,"transit":false,"line":2,"i_lat":-6.149769,"time":0,"station_name":"Manggabesar","distance":0,"station_id":"MGB","is_transit":false},{"i_lat":-6.141205,"i_long":106.820901,"is_transit":false,"station_id":"JAY","time":2,"station_name":"Jayakarta","transit":false,"line":2,"distance":1080},{"is_transit":true,"i_lat":-6.137569,"station_id":"JAKK","transit":true,"station_name":"Jakarta Kota","time":4,"line":2,"distance":1264,"i_long":106.812439},{"i_long":106.826365,"time":3,"distance":1364,"station_id":"KPB","station_name":"Kampung Bandan","line":4,"transit":true,"is_transit":true,"i_lat":-6.132549},{"distance":1444,"line":11,"i_long":106.836569,"station_id":"RJW","i_lat":-6.14505,"transit":false,"station_name":"Rajawali","time":3,"is_transit":false},{"station_id":"KMO","i_lat":-6.161728,"line":11,"i_long":106.839204,"station_name":"Kemayoran","time":5,"distance":1901,"is_transit":false,"transit":false},{"distance":1436,"time":4,"station_id":"PSE","transit":false,"i_lat":-6.174784,"is_transit":false,"line":11,"station_name":"Pasar Senen","i_long":106.84368},{"station_id":"GST","line":11,"time":8,"distance":1567,"station_name":"Gang Sentiong","i_lat":-6.185975,"is_transit":false,"i_long":106.850107,"transit":false},{"i_lat":-6.193792,"line":11,"station_id":"KMT","distance":973,"time":1,"is_transit":false,"i_long":106.855437,"transit":false,"station_name":"Kramat"},{"i_long":106.861737,"time":2,"line":11,"station_name":"Pondok Jati","i_lat":-6.209188,"station_id":"POK","distance":1829,"is_transit":false,"transit":false},{"i_long":106.86807400000001,"line":1,"i_lat":-6.215091,"station_id":"JNG","station_name":"Jatinegara","time":9,"is_transit":true,"distance":1236,"transit":true},{"station_id":"MTR","is_transit":false,"time":2,"i_lat":-6.212485,"transit":false,"distance":1377,"station_name":"Matraman","line":1,"i_long":106.858896},{"is_transit":false,"distance":1275,"station_name":"Manggarai","transit":false,"station_id":"MRI","i_long":106.84912,"line":2,"time":2,"i_lat":-6.209883},{"i_long":106.822649,"i_lat":-6.202263,"transit":false,"line":1,"time":4,"distance":3186,"station_name":"Sudirman","station_id":"SUD","is_transit":false},{"line":1,"is_transit":false,"station_id":"SUDB","i_lat":-6.201433,"distance":280,"station_name":"Sudirman Baru","time":1,"transit":false,"i_long":106.819881},{"station_id":"KAT","i_long":106.816351,"i_lat":-6.20132,"is_transit":false,"line":1,"station_name":"Karet","distance":471,"transit":false,"time":1},{"i_lat":-6.185545,"line":1,"station_name":"Tanah Abang","transit":true,"time":5,"is_transit":true,"i_long":106.811091,"station_id":"THB","distance":2029},{"transit":false,"station_id":"PLM","is_transit":false,"distance":3191,"i_lat":-6.207404,"time":6,"station_name":"Palmerah","line":6,"i_long":106.79689},{"i_lat":-6.237242,"i_long":106.780334,"station_id":"KBY","is_transit":false,"line":6,"time":7,"distance":3737,"station_name":"Kebayoran","transit":false}],[{"line":2,"i_long":106.82482,"distance":0,"station_id":"MGB","station_name":"Manggabesar","is_transit":false,"transit":false,"time":0,"i_lat":-6.149769},{"i_long":106.827103,"i_lat":-6.160725,"station_id":"SW","transit":false,"distance":906,"is_transit":false,"line":2,"station_name":"Sawah Besar","time":2},{"i_long":106.828284,"time":2,"line":2,"station_name":"Juanda","transit":false,"station_id":"JUA","distance":1149,"is_transit":false,"i_lat":-6.166716},{"time":4,"i_long":106.832183,"line":2,"is_transit":false,"station_name":"Gondangdia","transit":false,"station_id":"GDD","i_lat":-6.186295,"distance":2015},{"line":2,"i_lat":-6.198556,"i_long":106.840169,"distance":1750,"time":3,"station_name":"Cikini","station_id":"CKI","transit":false,"is_transit":false},{"line":2,"time":4,"i_lat":-6.209883,"distance":1590,"station_name":"Manggarai","i_long":106.84912,"is_transit":true,"station_id":"MRI","transit":true},{"i_long":106.858896,"transit":false,"is_transit":false,"time":2,"line":1,"station_name":"Matraman","station_id":"MTR","distance":1275,"i_lat":-6.212485},{"distance":1377,"transit":true,"is_transit":true,"line":1,"station_id":"JNG","time":8,"i_long":106.86807400000001,"station_name":"Jatinegara","i_lat":-6.215091},{"distance":1236,"line":11,"station_id":"POK","time":2,"station_name":"Pondok Jati","i_lat":-6.209188,"transit":false,"i_long":106.861737,"is_transit":false},{"is_transit":false,"station_name":"Kramat","i_lat":-6.193792,"distance":1829,"transit":false,"i_long":106.855437,"line":11,"time":2,"station_id":"KMT"},{"time":1,"distance":973,"station_name":"Gang Sentiong","is_transit":false,"transit":false,"line":11,"station_id":"GST","i_long":106.850107,"i_lat":-6.185975},{"time":8,"is_transit":false,"i_long":106.84368,"distance":1567,"station_id":"PSE","station_name":"Pasar Senen","line":11,"i_lat":-6.174784,"transit":false},{"is_transit":false,"time":4,"i_lat":-6.161728,"line":11,"transit":false,"station_id":"KMO","distance":1436,"station_name":"Kemayoran","i_long":106.839204},{"station_id":"RJW","i_long":106.836569,"line":11,"distance":1901,"time":5,"station_name":"Rajawali","i_lat":-6.14505,"is_transit":false,"transit":false},{"station_id":"KPB","distance":1444,"is_transit":true,"i_long":106.826365,"i_lat":-6.132549,"transit":true,"line":4,"time":3,"station_name":"Kampung Bandan"},{"transit":false,"distance":4102,"i_long":106.79867,"station_id":"AK","line":1,"i_lat":-6.144674,"is_transit":false,"station_name":"Angke","time":9},{"transit":false,"station_name":"Duri","i_long":106.800832,"is_transit":false,"distance":1230,"station_id":"DU","time":4,"i_lat":-6.155215,"line":1},{"is_transit":true,"distance":3632,"station_name":"Tanah Abang","i_long":106.811091,"time":8,"line":1,"transit":true,"station_id":"THB","i_lat":-6.185545},{"station_id":"PLM","station_name":"Palmerah","is_transit":false,"i_long":106.79689,"time":6,"distance":3191,"transit":false,"i_lat":-6.207404,"line":6},{"i_lat":-6.237242,"station_id":"KBY","time":7,"station_name":"Kebayoran","distance":3737,"i_long":106.780334,"line":6,"is_transit":false,"transit":false}]]}