{"data":[[{"station_name":"Manggabesar","distance":0,"transit":false,"line":2,"i_lat":-6.149769,"time":0,"is_transit":false,"station_id":"MGB","i_long":106.82482},{"i_lat":-6.160725,"transit":false,"time":2,"is_transit":false,"i_long":106.827103,"station_id":"SW","distance":906,"station_name":"Sawah Besar","line":2},{"station_id":"JUA","station_name":"Juanda","transit":false,"time":2,"distance":1149,"i_lat":-6.166716,"is_transit":false,"line":2,"i_long":106.828284},{"transit":false,"station_id":"GDD","time":4,"line":2,"is_transit":false,"i_lat":-6.186295,"i_long":106.832183,"station_name":"Gondangdia","distance":2015},{"time":3,"distance":1750,"i_lat":-6.198556,"i_long":106.840169,"transit":false,"station_id":"CKI","line":2,"station_name":"Cikini","is_transit":false},{"station_id":"MRI","i_long":106.84912,"transit":true,"distance":1590,"is_transit":true,"i_lat":-6.209883,"line":2,"time":4,"station_name":"Manggarai"},{"is_transit":false,"i_long":106.858896,"transit":false,"distance":1275,"line":1,"i_lat":-6.212485,"station_name":"Matraman","station_id":"MTR","time":2},{"station_id":"JNG","i_long":106.86807400000001,"time":8,"station_name":"Jatinegara","distance":1377,"line":1,"i_lat":-6.215091,"is_transit":false,"transit":false},{"station_name":"Klender","time":3,"station_id":"KLD","distance":3395,"is_transit":false,"transit":false,"i_long":106.899548,"i_lat":-6.2135,"line":1},{"transit":false,"is_transit":false,"time":2,"i_lat":-6.215568,"station_id":"BUA","line":1,"distance":3100,"i_long":106.922662,"station_name":"Buaran"},{"station_name":"Klenderbaru","is_transit":false,"distance":1305,"line":1,"i_lat":-6.217455,"transit":false,"time":1,"i_long":106.939679,"station_id":"KLDB"},{"time":8,"transit":false,"line":1,"i_long":106.951283,"i_lat":-6.219053,"is_transit":false,"station_id":"CUK","station_name":"Cakung","distance":1385}],[{"station_name":"Manggabesar","is_transit":false,"i_lat":-6.149769,"line":2,"time":0,"transit":false,"i_long":106.82482,"distance":0,"station_id":"MGB"},{"i_long":106.820901,"distance":1080,"station_id":"JAY","station_name":"Jayakarta","transit":false,"is_transit":false,"i_lat":-6.141205,"time":2,"line":2},{"transit":true,"station_id":"JAKK","is_transit":true,"i_long":106.812439,"distance":1264,"station_name":"Jakarta Kota","time":4,"i_lat":-6.137569,"line":2},{"i_long":106.826365,"station_id":"KPB","time":3,"transit":true,"distance":1364,"i_lat":-6.132549,"station_name":"Kampung Bandan","is_transit":true,"line":4},{"i_long":106.836569,"distance":1444,"is_transit":false,"transit":false,"time":3,"i_lat":-6.14505,"station_name":"Rajawali","line":11,"station_id":"RJW"},{"is_transit":false,"time":5,"line":11,"i_lat":-6.161728,"distance":1901,"station_id":"KMO","transit":false,"station_name":"Kemayoran","i_long":106.839204},{"i_lat":-6.174784,"transit":false,"station_name":"Pasar Senen","is_transit":false,"line":11,"station_id":"PSE","i_long":106.84368,"time":4,"distance":1436},{"transit":false,"station_id":"GST","distance":1567,"line":11,"i_lat":-6.185975,"is_transit":false,"station_name":"Gang Sentiong","time":8,"i_long":106.850107},{"station_id":"KMT","is_transit":false,"i_long":106.855437,"transit":false,"line":11,"station_name":"Kramat","time":1,"i_lat":-6.193792,"distance":973},{"station_id":"POK","is_transit":false,"time":2,"transit":false,"station_name":"Pondok Jati","distance":1829,"line":11,"i_lat":-6.209188,"i_long":106.861737},{"station_name":"Jatinegara","is_transit":true,"i_long":106.86807400000001,"line":1,"time":9,"distance":1236,"i_lat":-6.215091,"station_id":"JNG","transit":true},{"distance":3395,"i_long":106.899548,"transit":false,"i_lat":-6.2135,"line":1,"station_name":"Klender","is_transit":false,"station_id":"KLD","time":3},{"i_lat":-6.215568,"station_id":"BUA","line":1,"i_long":106.922662,"transit":false,"is_transit":false,"time":2,"station_name":"Buaran","distance":3100},{"i_lat":-6.217455,"is_transit":false,"distance":1305,"station_name":"Klenderbaru","transit":false,"station_id":"KLDB","line":1,"i_long":106.939679,"time":1},{"station_id":"CUK","i_lat":-6.219053,"is_transit":false,"time":8,"line":1,"i_long":106.951283,"station_name":"Cakung","transit":false,"distance":1385}],[{"station_id":"MGB","time":0,"transit":false,"i_long":106.82482,"distance":0,"line":2,"station_name":"Manggabesar","i_lat":-6.149769,"is_transit":false},{"transit":false,"station_name":"Jayakarta","i_long":106.820901,"distance":1080,"station_id":"JAY","is_transit":false,"time":2,"i_lat":-6.141205,"line":2},{"is_transit":true,"distance":1264,"station_name":"Jakarta Kota","i_lat":-6.137569,"line":2,"station_id":"JAKK","i_long":106.812439,"transit":true,"time":4},{"i_long":106.826365,"transit":true,"station_id":"KPB","station_name":"Kampung Bandan","i_lat":-6.132549,"line":4,"time":3,"distance":1364,"is_transit":true},{"i_long":106.79867,"station_name":"Angke","is_transit":false,"transit":false,"i_lat":-6.144674,"line":1,"time":9,"distance":4102,"station_id":"AK"},{"time":4,"transit":false,"i_long":106.800832,"station_id":"DU","station_name":"Duri","distance":1230,"line":1,"i_lat":-6.155215,"is_transit":false},{"station_id":"THB","time":8,"distance":3632,"transit":false,"is_transit":false,"i_lat":-6.185545,"station_name":"Tanah Abang","i_long":106.811091,"line":1},{"station_id":"KAT","transit":false,"station_name":"Karet","is_transit":false,"time":5,"distance":2029,"i_lat":-6.20132,"i_long":106.816351,"line":1},{"transit":false,"time":1,"station_id":"SUDB","i_long":106.819881,"station_name":"Sudirman Baru","is_transit":false,"line":1,"i_lat":-6.201433,"distance":471},{"is_transit":false,"station_id":"SUD","i_lat":-6.202263,"station_name":"Sudirman","time":1,"transit":false,"distance":280,"i_long":106.822649,"line":1},{"station_name":"Manggarai","distance":3186,"time":4,"transit":false,"line":2,"is_transit":false,"station_id":"MRI","i_lat":-6.209883,"i_long":106.84912},{"station_name":"Matraman","is_transit":false,"time":2,"distance":1275,"i_lat":-6.212485,"station_id":"MTR","transit":false,"i_long":106.858896,"line":1},{"station_id":"JNG","time":8,"i_long":106.86807400000001,"line":1,"transit":false,"is_transit":false,"station_name":"Jatinegara","i_lat":-6.215091,"distance":1377},{"time":3,"is_transit":false,"i_lat":-6.2135,"station_id":"KLD","distance":3395,"transit":false,"station_name":"Klender","i_long":106.899548,"line":1},{"time":2,"i_long":106.922662,"distance":3100,"i_lat":-6.215568,"is_transit":false,"line":1,"station_id":"BUA","station_name":"Buaran","transit":false},{"i_long":106.939679,"transit":false,"i_lat":-6.217455,"is_transit":false,"station_id":"KLDB","station_name":"Klenderbaru","time":1,"distance":1305,"line":1},{"station_id":"CUK","station_name":"Cakung","time":8,"i_lat":-6.219053,"is_transit":false,"distance":1385,"i_long":106.951283,"transit":false,"line":1}],[{"station_name":"Manggabesar","station_id":"MGB","distance":0,"line":2,"is_transit":false,"i_long":106.82482,"i_lat":-6.149769,"transit":false,"time":0},{"station_name":"Sawah Besar","line":2,"time":2,"i_lat":-6.160725,"i_long":106.827103,"is_transit":false,"distance":906,"station_id":"SW","transit":false},{"station_id":"JUA","line":2,"distance":1149,"transit":false,"time":2,"i_long":106.828284,"station_name":"Juanda","i_lat":-6.166716,"is_transit":false},{"station_id":"GDD","line":2,"i_lat":-6.186295,"i_long":106.832183,"transit":false,"station_name":"Gondangdia","distance":2015,"is_transit":false,"time":4},{"time":3,"station_id":"CKI","line":2,"i_lat":-6.198556,"is_transit":false,"i_long":106.840169,"transit":false,"station_name":"Cikini","distance":1750},{"i_long":106.84912,"i_lat":-6.209883,"line":2,"time":4,"distance":1590,"station_id":"MRI","transit":true,"is_transit":true,"station_name":"Manggarai"},{"time":4,"is_transit":false,"distance":3186,"transit":false,"i_long":106.822649,"station_name":"Sudirman","station_id":"SUD","i_lat":-6.202263,"line":1},{"distance":280,"station_id":"SUDB","line":1,"transit":false,"time":1,"i_lat":-6.201433,"is_transit":false,"station_name":"Sudirman Baru","i_long":106.819881},{"i_lat":-6.20132,"time":1,"is_transit":false,"distance":471,"transit":false,"station_name":"Karet","station_id":"KAT","i_long":106.816351,"line":1},{"time":5,"station_id":"THB","i_lat":-6.185545,"line":1,"i_long":106.811091,"distance":2029,"is_transit":false,"transit":false,"station_name":"Tanah Abang"},{"transit":false,"station_name":"Duri","station_id":"DU","i_lat":-6.155215,"distance":3632,"line":1,"is_transit":false,"i_long":106.800832,"time":8},{"time":4,"distance":1230,"station_name":"Angke","i_long":106.79867,"is_transit":false,"station_id":"AK","transit":false,"i_lat":-6.144674,"line":1},{"i_lat":-6.132549,"distance":4102,"line":4,"is_transit":true,"station_name":"Kampung Bandan","time":9,"transit":true,"station_id":"KPB","i_long":106.826365},{"time":3,"station_id":"RJW","i_long":106.836569,"line":11,"station_name":"Rajawali","is_transit":false,"distance":1444,"transit":false,"i_lat":-6.14505},{"transit":false,"time":5,"i_lat":-6.161728,"station_id":"KMO","is_transit":false,"line":11,"station_name":"Kemayoran","distance":1901,"i_long":106.839204},{"line":11,"is_transit":false,"i_long":106.84368,"station_id":"PSE","distance":1436,"station_name":"Pasar Senen","time":4,"transit":false,"i_lat":-6.174784},{"station_id":"GST","transit":false,"line":11,"i_long":106.850107,"is_transit":false,"distance":1567,"station_name":"Gang Sentiong","time":8,"i_lat":-6.185975},{"distance":973,"station_name":"Kramat","station_id":"KMT","i_lat":-6.193792,"is_transit":false,"transit":false,"time":1,"i_long":106.855437,"line":11},{"station_id":"POK","line":11,"transit":false,"i_lat":-6.209188,"station_name":"Pondok Jati","i_long":106.861737,"time":2,"is_transit":false,"distance":1829},{"is_transit":true,"transit":true,"time":9,"distance":1236,"line":1,"station_name":"Jatinegara","i_long":106.86807400000001,"station_id":"JNG","i_lat":-6.215091},{"time":3,"distance":3395,"station_name":"Klender","is_transit":false,"station_id":"KLD","i_lat":-6.2135,"transit":false,"line":1,"i_long":106.899548},{"time":2,"transit":false,"distance":3100,"line":1,"is_transit":false,"station_name":"Buaran","station_id":"BUA","i_long":106.922662,"i_lat":-6.215568},{"station_name":"Klenderbaru","i_lat":-6.217455,"is_transit":false,"i_long":106.939679,"distance":1305,"transit":false,"time":1,"station_id":"KLDB","line":1},{"line":1,"station_name":"Cakung","i_lat":-6.219053,"is_transit":false,"distance":1385,"transit":false,"time":8,"station_id":"CUK","i_long":106.951283}]]}