{"data":[[{"transit":false,"station_id":"MGB","i_long":106.82482,"distance":0,"station_name":"Manggabesar","i_lat":-6.149769,"line":2,"is_transit":false,"time":0},{"station_id":"SW","transit":false,"is_transit":false,"time":2,"station_name":"Sawah Besar","line":2,"distance":906,"i_lat":-6.160725,"i_long":106.827103},{"time":2,"transit":false,"i_lat":-6.166716,"is_transit":false,"distance":1149,"line":2,"station_name":"Juanda","station_id":"JUA","i_long":106.828284},{"station_name":"Gondangdia","transit":false,"station_id":"GDD","is_transit":false,"time":4,"i_long":106.832183,"i_lat":-6.186295,"line":2,"distance":2015},{"distance":1750,"i_lat":-6.198556,"line":2,"i_long":106.840169,"station_id":"CKI","is_transit":false,"transit":false,"time":3,"station_name":"Cikini"},{"time":4,"transit":false,"i_long":106.84912,"line":2,"is_transit":false,"station_name":"Manggarai","i_lat":-6.209883,"station_id":"MRI","distance":1590},{"is_transit":false,"station_id":"TEB","i_long":106.857948,"time":4,"i_lat":-6.226659,"transit":false,"distance":2610,"station_name":"Tebet","line":2}],[{"i_long":106.82482,"i_lat":-6.149769,"station_name":"Manggabesar","station_id":"MGB","line":2,"is_transit":false,"transit":false,"time":0,"distance":0},{"distance":1080,"transit":false,"time":2,"i_long":106.820901,"is_transit":false,"line":2,"i_lat":-6.141205,"station_id":"JAY","station_name":"Jayakarta"},{"transit":true,"i_long":106.812439,"time":4,"distance":1264,"station_id":"JAKK","station_name":"Jakarta Kota","is_transit":true,"i_lat":-6.137569,"line":2},{"time":3,"station_id":"KPB","i_long":106.826365,"i_lat":-6.132549,"distance":1364,"line":4,"transit":true,"is_transit":true,"station_name":"Kampung Bandan"},{"i_long":106.79867,"line":1,"is_transit":false,"station_name":"Angke","time":9,"transit":false,"distance":4102,"i_lat":-6.144674,"station_id":"AK"},{"station_id":"DU","time":4,"transit":false,"station_name":"Duri","distance":1230,"i_lat":-6.155215,"line":1,"i_long":106.800832,"is_transit":false},{"distance":3632,"i_long":106.811091,"is_transit":false,"i_lat":-6.185545,"station_name":"Tanah Abang","line":1,"station_id":"THB","transit":false,"time":8},{"time":5,"station_name":"Karet","distance":2029,"i_long":106.816351,"station_id":"KAT","transit":false,"line":1,"is_transit":false,"i_lat":-6.20132},{"line":1,"is_transit":false,"transit":false,"time":1,"distance":471,"station_name":"Sudirman Baru","station_id":"SUDB","i_lat":-6.201433,"i_long":106.819881},{"is_transit":false,"station_name":"Sudirman","transit":false,"time":1,"distance":280,"line":1,"i_lat":-6.202263,"i_long":106.822649,"station_id":"SUD"},{"distance":3186,"is_transit":true,"transit":true,"line":2,"station_id":"MRI","time":4,"station_name":"Manggarai","i_lat":-6.209883,"i_long":106.84912},{"station_name":"Tebet","is_transit":false,"line":2,"i_lat":-6.226659,"transit":false,"i_long":106.857948,"distance":2610,"station_id":"TEB","time":4}],[{"station_id":"MGB","transit":false,"time":0,"is_transit":false,"i_long":106.82482,"line":2,"station_name":"Manggabesar","distance":0,"i_lat":-6.149769},{"transit":false,"time":2,"is_transit":false,"i_long":106.820901,"distance":1080,"station_id":"JAY","i_lat":-6.141205,"line":2,"station_name":"Jayakarta"},{"transit":true,"station_name":"Jakarta Kota","time":4,"distance":1264,"line":2,"station_id":"JAKK","is_transit":true,"i_lat":-6.137569,"i_long":106.812439},{"transit":true,"is_transit":true,"time":3,"distance":1364,"station_name":"Kampung Bandan","i_long":106.826365,"line":4,"i_lat":-6.132549,"station_id":"KPB"},{"i_lat":-6.14505,"is_transit":false,"transit":false,"i_long":106.836569,"station_id":"RJW","station_name":"Rajawali","line":11,"distance":1444,"time":3},{"i_long":106.839204,"station_name":"Kemayoran","is_transit":false,"time":5,"distance":1901,"i_lat":-6.161728,"line":11,"transit":false,"station_id":"KMO"},{"i_lat":-6.174784,"station_name":"Pasar Senen","line":11,"station_id":"PSE","is_transit":false,"i_long":106.84368,"distance":1436,"time":4,"transit":false},{"station_name":"Gang Sentiong","i_lat":-6.185975,"line":11,"i_long":106.850107,"station_id":"GST","transit":false,"time":8,"distance":1567,"is_transit":false},{"i_lat":-6.193792,"distance":973,"station_id":"KMT","i_long":106.855437,"is_transit":false,"station_name":"Kramat","time":1,"line":11,"transit":false},{"transit":false,"time":2,"line":11,"station_id":"POK","is_transit":false,"i_lat":-6.209188,"i_long":106.861737,"distance":1829,"station_name":"Pondok Jati"},{"i_lat":-6.215091,"distance":1236,"is_transit":true,"line":1,"station_id":"JNG","station_name":"Jatinegara","i_long":106.86807400000001,"transit":true,"time":9},{"line":1,"station_id":"MTR","is_transit":false,"time":2,"station_name":"Matraman","i_lat":-6.212485,"i_long":106.858896,"distance":1377,"transit":false},{"distance":1275,"i_long":106.84912,"is_transit":true,"i_lat":-6.209883,"station_name":"Manggarai","line":2,"time":2,"transit":true,"station_id":"MRI"},{"i_long":106.857948,"time":4,"distance":2610,"transit":false,"is_transit":false,"station_id":"TEB","station_name":"Tebet","i_lat":-6.226659,"line":2}]]}