{"data":[[{"is_transit":false,"station_id":"MGB","distance":0,"time":0,"i_lat":-6.149769,"station_name":"Manggabesar","transit":false,"i_long":106.82482,"line":2},{"i_long":106.820901,"station_name":"Jayakarta","distance":1080,"is_transit":false,"time":2,"station_id":"JAY","transit":false,"line":2,"i_lat":-6.141205},{"distance":1264,"i_lat":-6.137569,"station_name":"Jakarta Kota","i_long":106.812439,"line":2,"is_transit":true,"time":4,"transit":true,"station_id":"JAKK"},{"station_name":"Kampung Bandan","i_lat":-6.132549,"is_transit":true,"transit":true,"i_long":106.826365,"line":4,"distance":1364,"time":3,"station_id":"KPB"},{"station_id":"AK","i_lat":-6.144674,"line":1,"transit":false,"station_name":"Angke","is_transit":false,"time":9,"distance":4102,"i_long":106.79867},{"is_transit":true,"station_name":"Duri","distance":1230,"transit":true,"time":4,"i_lat":-6.155215,"line":1,"i_long":106.800832,"station_id":"DU"},{"station_name":"Grogol","line":5,"distance":1700,"transit":false,"i_lat":-6.162021,"station_id":"GGL","is_transit":false,"time":3,"i_long":106.788277},{"station_id":"PSG","transit":false,"line":5,"distance":2036,"i_lat":-6.161433,"station_name":"Pesing","i_long":106.771379,"is_transit":false,"time":2},{"distance":1614,"station_id":"TKO","is_transit":false,"transit":false,"line":5,"station_name":"Taman Kota","i_long":106.756522,"time":2,"i_lat":-6.1587309999999995},{"transit":false,"is_transit":false,"station_id":"BOI","line":5,"i_lat":-6.159876,"station_name":"Bojongindah","distance":2334,"time":2,"i_long":106.737035},{"time":4,"station_id":"RW","i_lat":-6.162758,"distance":1152,"is_transit":false,"transit":false,"i_long":106.723064,"station_name":"Rawa Buaya","line":5},{"is_transit":false,"transit":false,"i_lat":-6.166068,"station_name":"Kalideres","line":5,"station_id":"KDS","time":3,"i_long":106.701612,"distance":2504},{"distance":2548,"line":5,"transit":false,"time":3,"i_lat":-6.169933,"i_long":106.679458,"station_name":"Poris","is_transit":false,"station_id":"PI"},{"station_name":"Batuceper","transit":false,"is_transit":false,"time":3,"i_long":106.665036,"station_id":"BPR","line":5,"distance":1834,"i_lat":-6.171811}],[{"distance":0,"line":2,"is_transit":false,"station_name":"Manggabesar","transit":false,"i_lat":-6.149769,"time":0,"station_id":"MGB","i_long":106.82482},{"i_lat":-6.160725,"time":2,"line":2,"station_name":"Sawah Besar","is_transit":false,"i_long":106.827103,"transit":false,"distance":906,"station_id":"SW"},{"station_name":"Juanda","time":2,"i_long":106.828284,"line":2,"transit":false,"is_transit":false,"distance":1149,"i_lat":-6.166716,"station_id":"JUA"},{"distance":2015,"is_transit":false,"i_lat":-6.186295,"transit":false,"i_long":106.832183,"station_name":"Gondangdia","time":4,"station_id":"GDD","line":2},{"time":3,"distance":1750,"i_lat":-6.198556,"is_transit":false,"station_id":"CKI","station_name":"Cikini","transit":false,"i_long":106.840169,"line":2},{"distance":1590,"is_transit":true,"time":4,"i_long":106.84912,"station_name":"Manggarai","line":2,"transit":true,"i_lat":-6.209883,"station_id":"MRI"},{"i_lat":-6.202263,"station_id":"SUD","time":4,"station_name":"Sudirman","transit":false,"distance":3186,"is_transit":false,"i_long":106.822649,"line":1},{"i_long":106.819881,"station_name":"Sudirman Baru","is_transit":false,"line":1,"distance":280,"transit":false,"time":1,"station_id":"SUDB","i_lat":-6.201433},{"i_lat":-6.20132,"transit":false,"time":1,"distance":471,"line":1,"station_name":"Karet","is_transit":false,"i_long":106.816351,"station_id":"KAT"},{"is_transit":false,"station_id":"THB","i_long":106.811091,"time":5,"line":1,"station_name":"Tanah Abang","distance":2029,"transit":false,"i_lat":-6.185545},{"time":8,"station_id":"DU","is_transit":true,"i_long":106.800832,"i_lat":-6.155215,"transit":true,"line":1,"distance":3632,"station_name":"Duri"},{"i_lat":-6.162021,"time":3,"is_transit":false,"station_id":"GGL","station_name":"Grogol","transit":false,"line":5,"distance":1700,"i_long":106.788277},{"i_long":106.771379,"transit":false,"is_transit":false,"line":5,"time":2,"station_name":"Pesing","distance":2036,"station_id":"PSG","i_lat":-6.161433},{"i_lat":-6.1587309999999995,"time":2,"station_name":"Taman Kota","i_long":106.756522,"transit":false,"line":5,"is_transit":false,"station_id":"TKO","distance":1614},{"i_long":106.737035,"time":2,"distance":2334,"station_id":"BOI","line":5,"is_transit":false,"i_lat":-6.159876,"station_name":"Bojongindah","transit":false},{"is_transit":false,"i_lat":-6.162758,"i_long":106.723064,"station_id":"RW","distance":1152,"time":4,"transit":false,"line":5,"station_name":"Rawa Buaya"},{"i_long":106.701612,"time":3,"is_transit":false,"station_name":"Kalideres","station_id":"KDS","distance":2504,"line":5,"transit":false,"i_lat":-6.166068},{"time":3,"distance":2548,"station_name":"Poris","transit":false,"i_lat":-6.169933,"i_long":106.679458,"station_id":"PI","is_transit":false,"line":5},{"i_long":106.665036,"line":5,"time":3,"i_lat":-6.171811,"transit":false,"station_name":"Batuceper","station_id":"BPR","is_transit":false,"distance":1834}],[{"i_long":106.82482,"line":2,"distance":0,"time":0,"transit":false,"is_transit":false,"station_name":"Manggabesar","station_id":"MGB","i_lat":-6.149769},{"station_name":"Sawah Besar","transit":false,"is_transit":false,"i_lat":-6.160725,"i_long":106.827103,"station_id":"SW","line":2,"time":2,"distance":906},{"distance":1149,"station_name":"Juanda","is_transit":false,"i_lat":-6.166716,"i_long":106.828284,"time":2,"station_id":"JUA","line":2,"transit":false},{"transit":false,"i_long":106.832183,"station_id":"GDD","distance":2015,"time":4,"line":2,"station_name":"Gondangdia","is_transit":false,"i_lat":-6.186295},{"is_transit":false,"line":2,"station_id":"CKI","i_long":106.840169,"distance":1750,"transit":false,"time":3,"i_lat":-6.198556,"station_name":"Cikini"},{"distance":1590,"transit":true,"is_transit":true,"line":2,"station_name":"Manggarai","time":4,"i_lat":-6.209883,"i_long":106.84912,"station_id":"MRI"},{"time":2,"distance":1275,"i_long":106.858896,"station_name":"Matraman","line":1,"station_id":"MTR","transit":false,"is_transit":false,"i_lat":-6.212485},{"line":1,"i_lat":-6.215091,"i_long":106.86807400000001,"distance":1377,"station_name":"Jatinegara","is_transit":true,"transit":true,"station_id":"JNG","time":8},{"i_lat":-6.209188,"is_transit":false,"i_long":106.861737,"line":11,"station_name":"Pondok Jati","station_id":"POK","distance":1236,"transit":false,"time":2},{"time":2,"station_name":"Kramat","is_transit":false,"i_long":106.855437,"transit":false,"line":11,"i_lat":-6.193792,"distance":1829,"station_id":"KMT"},{"distance":973,"time":1,"transit":false,"station_id":"GST","i_lat":-6.185975,"station_name":"Gang Sentiong","is_transit":false,"i_long":106.850107,"line":11},{"transit":false,"distance":1567,"line":11,"i_lat":-6.174784,"station_name":"Pasar Senen","time":8,"station_id":"PSE","i_long":106.84368,"is_transit":false},{"time":4,"line":11,"station_name":"Kemayoran","station_id":"KMO","transit":false,"distance":1436,"i_lat":-6.161728,"i_long":106.839204,"is_transit":false},{"station_id":"RJW","station_name":"Rajawali","line":11,"i_long":106.836569,"time":5,"transit":false,"distance":1901,"i_lat":-6.14505,"is_transit":false},{"i_long":106.826365,"distance":1444,"station_id":"KPB","station_name":"Kampung Bandan","i_lat":-6.132549,"line":4,"is_transit":true,"time":3,"transit":true},{"i_long":106.79867,"transit":false,"distance":4102,"i_lat":-6.144674,"line":1,"station_name":"Angke","time":9,"station_id":"AK","is_transit":false},{"station_name":"Duri","line":1,"time":4,"i_lat":-6.155215,"distance":1230,"is_transit":true,"station_id":"DU","i_long":106.800832,"transit":true},{"i_lat":-6.162021,"distance":1700,"transit":false,"line":5,"time":3,"is_transit":false,"station_name":"Grogol","i_long":106.788277,"station_id":"GGL"},{"time":2,"distance":2036,"transit":false,"station_id":"PSG","i_lat":-6.161433,"line":5,"station_name":"Pesing","is_transit":false,"i_long":106.771379},{"distance":1614,"station_name":"Taman Kota","is_transit":false,"transit":false,"time":2,"i_lat":-6.1587309999999995,"station_id":"TKO","i_long":106.756522,"line":5},{"distance":2334,"i_long":106.737035,"time":2,"station_id":"BOI","line":5,"i_lat":-6.159876,"is_transit":false,"transit":false,"station_name":"Bojongindah"},{"station_name":"Rawa Buaya","i_lat":-6.162758,"station_id":"RW","distance":1152,"transit":false,"is_transit":false,"time":4,"line":5,"i_long":106.723064},{"is_transit":false,"distance":2504,"line":5,"station_id":"KDS","time":3,"transit":false,"station_name":"Kalideres","i_lat":-6.166068,"i_long":106.701612},{"i_long":106.679458,"station_name":"Poris","is_transit":false,"station_id":"PI","time":3,"distance":2548,"i_lat":-6.169933,"transit":false,"line":5},{"station_id":"BPR","is_transit":false,"transit":false,"station_name":"Batuceper","i_lat":-6.171811,"i_long":106.665036,"time":3,"line":5,"distance":1834}],[{"is_transit":false,"i_lat":-6.149769,"transit":false,"line":2,"station_id":"MGB","distance":0,"i_long":106.82482,"time":0,"station_name":"Manggabesar"},{"station_id":"JAY","transit":false,"time":2,"is_transit":false,"distance":1080,"station_name":"Jayakarta","line":2,"i_lat":-6.141205,"i_long":106.820901},{"line":2,"distance":1264,"time":4,"transit":true,"station_id":"JAKK","station_name":"Jakarta Kota","i_long":106.812439,"i_lat":-6.137569,"is_transit":true},{"distance":1364,"i_lat":-6.132549,"station_id":"KPB","is_transit":true,"line":4,"time":3,"transit":true,"i_long":106.826365,"station_name":"Kampung Bandan"},{"station_name":"Rajawali","is_transit":false,"station_id":"RJW","time":3,"line":11,"distance":1444,"transit":false,"i_lat":-6.14505,"i_long":106.836569},{"is_transit":false,"time":5,"transit":false,"i_long":106.839204,"station_id":"KMO","i_lat":-6.161728,"line":11,"distance":1901,"station_name":"Kemayoran"},{"time":4,"is_transit":false,"station_name":"Pasar Senen","station_id":"PSE","i_long":106.84368,"transit":false,"line":11,"distance":1436,"i_lat":-6.174784},{"time":8,"station_id":"GST","transit":false,"distance":1567,"station_name":"Gang Sentiong","i_long":106.850107,"is_transit":false,"line":11,"i_lat":-6.185975},{"time":1,"station_name":"Kramat","is_transit":false,"distance":973,"line":11,"station_id":"KMT","transit":false,"i_long":106.855437,"i_lat":-6.193792},{"distance":1829,"is_transit":false,"transit":false,"i_lat":-6.209188,"station_id":"POK","i_long":106.861737,"station_name":"Pondok Jati","line":11,"time":2},{"station_id":"JNG","distance":1236,"is_transit":true,"i_lat":-6.215091,"transit":true,"station_name":"Jatinegara","line":1,"time":9,"i_long":106.86807400000001},{"line":1,"station_id":"MTR","i_lat":-6.212485,"i_long":106.858896,"station_name":"Matraman","transit":false,"time":2,"distance":1377,"is_transit":false},{"station_id":"MRI","distance":1275,"station_name":"Manggarai","i_long":106.84912,"line":2,"i_lat":-6.209883,"transit":false,"time":2,"is_transit":false},{"i_long":106.822649,"line":1,"station_name":"Sudirman","is_transit":false,"station_id":"SUD","distance":3186,"time":4,"transit":false,"i_lat":-6.202263},{"line":1,"distance":280,"time":1,"station_name":"Sudirman Baru","i_lat":-6.201433,"i_long":106.819881,"station_id":"SUDB","is_transit":false,"transit":false},{"transit":false,"station_name":"Karet","line":1,"time":1,"i_lat":-6.20132,"station_id":"KAT","i_long":106.816351,"distance":471,"is_transit":false},{"time":5,"distance":2029,"transit":false,"station_name":"Tanah Abang","is_transit":false,"i_lat":-6.185545,"line":1,"station_id":"THB","i_long":106.811091},{"time":8,"transit":true,"distance":3632,"station_name":"Duri","is_transit":true,"i_long":106.800832,"line":1,"station_id":"DU","i_lat":-6.155215},{"line":5,"is_transit":false,"i_long":106.788277,"distance":1700,"transit":false,"station_id":"GGL","time":3,"station_name":"Grogol","i_lat":-6.162021},{"station_id":"PSG","is_transit":false,"i_lat":-6.161433,"time":2,"i_long":106.771379,"line":5,"distance":2036,"station_name":"Pesing","transit":false},{"is_transit":false,"transit":false,"distance":1614,"station_name":"Taman Kota","i_lat":-6.1587309999999995,"i_long":106.756522,"line":5,"time":2,"station_id":"TKO"},{"station_name":"Bojongindah","transit":false,"station_id":"BOI","distance":2334,"i_lat":-6.159876,"time":2,"line":5,"is_transit":false,"i_long":106.737035},{"station_id":"RW","is_transit":false,"time":4,"transit":false,"distance":1152,"station_name":"Rawa Buaya","i_lat":-6.162758,"i_long":106.723064,"line":5},{"is_transit":false,"time":3,"line":5,"station_id":"KDS","transit":false,"i_long":106.701612,"station_name":"Kalideres","i_lat":-6.166068,"distance":2504},{"line":5,"time":3,"is_transit":false,"station_name":"Poris","station_id":"PI","i_long":106.679458,"distance":2548,"transit":false,"i_lat":-6.169933},{"time":3,"line":5,"station_id":"BPR","station_name":"Batuceper","transit":false,"i_lat":-6.171811,"distance":1834,"is_transit":false,"i_long":106.665036}]]}