{"data":[[{"i_long":106.82482,"is_transit":false,"line":2,"i_lat":-6.149769,"station_name":"Manggabesar","time":0,"station_id":"MGB","transit":false,"distance":0},{"time":2,"station_name":"Jayakarta","i_long":106.820901,"line":7,"distance":1080,"transit":false,"i_lat":-6.141205,"is_transit":false,"station_id":"JAY"},{"is_transit":true,"station_id":"JAKK","transit":true,"distance":1264,"station_name":"Jakarta Kota","time":4,"line":0,"i_lat":-6.137569,"i_long":106.812439},{"transit":false,"i_lat":-6.132549,"line":0,"time":3,"station_id":"KPB","distance":1364,"i_long":106.826365,"station_name":"Kampung Bandan","is_transit":true},{"i_lat":-6.128023,"i_long":106.84464,"line":0,"station_id":"AC","transit":false,"station_name":"Ancol","time":4,"is_transit":false,"distance":2185},{"transit":false,"station_id":"TPK","line":4,"distance":4566,"i_long":106.880089,"i_lat":-6.1109480000000005,"time":9,"station_name":"Tanjung Priuk","is_transit":false}],[{"station_name":"Manggabesar","i_long":106.82482,"distance":0,"i_lat":-6.149769,"time":0,"line":2,"is_transit":false,"station_id":"MGB","transit":false},{"distance":906,"i_lat":-6.160725,"line":2,"i_long":106.827103,"transit":false,"is_transit":false,"station_id":"SW","time":2,"station_name":"Sawah Besar"},{"time":2,"i_long":106.828284,"is_transit":false,"distance":1149,"i_lat":-6.166716,"line":2,"transit":false,"station_id":"JUA","station_name":"Juanda"},{"time":4,"distance":2015,"i_lat":-6.186295,"station_name":"Gondangdia","line":2,"i_long":106.832183,"is_transit":false,"transit":false,"station_id":"GDD"},{"time":3,"i_long":106.840169,"distance":1750,"is_transit":false,"station_id":"CKI","line":0,"station_name":"Cikini","transit":false,"i_lat":-6.198556},{"line":0,"i_long":106.84912,"i_lat":-6.209883,"distance":1590,"is_transit":true,"time":4,"station_name":"Manggarai","transit":true,"station_id":"MRI"},{"time":4,"station_name":"Sudirman","line":1,"i_long":106.822649,"station_id":"SUD","is_transit":false,"transit":false,"distance":3186,"i_lat":-6.202263},{"i_lat":-6.201433,"i_long":106.819881,"transit":false,"station_id":"SUDB","time":1,"line":1,"station_name":"Sudirman Baru","is_transit":false,"distance":280},{"i_long":106.816351,"is_transit":false,"i_lat":-6.20132,"station_name":"Karet","time":1,"transit":false,"line":1,"station_id":"KAT","distance":471},{"i_lat":-6.185545,"is_transit":true,"station_name":"Tanah Abang","distance":2029,"transit":false,"time":5,"i_long":106.811091,"line":1,"station_id":"THB"},{"distance":3632,"i_long":106.800832,"line":1,"station_name":"Duri","station_id":"DU","time":8,"is_transit":true,"transit":true,"i_lat":-6.155215},{"distance":1230,"i_lat":-6.144674,"transit":false,"i_long":106.79867,"station_id":"AK","time":4,"is_transit":false,"line":0,"station_name":"Angke"},{"station_name":"Kampung Bandan","transit":false,"line":0,"time":9,"is_transit":true,"station_id":"KPB","i_lat":-6.132549,"i_long":106.826365,"distance":4102},{"i_long":106.84464,"station_name":"Ancol","distance":2185,"transit":false,"station_id":"AC","i_lat":-6.128023,"line":0,"is_transit":false,"time":4},{"line":4,"distance":4566,"is_transit":false,"time":9,"station_id":"TPK","station_name":"Tanjung Priuk","i_lat":-6.1109480000000005,"i_long":106.880089,"transit":false}],[{"i_lat":-6.149769,"is_transit":false,"i_long":106.82482,"station_id":"MGB","distance":0,"time":0,"station_name":"Manggabesar","transit":false,"line":2},{"i_lat":-6.160725,"time":2,"distance":906,"is_transit":false,"station_id":"SW","station_name":"Sawah Besar","transit":false,"i_long":106.827103,"line":2},{"station_name":"Juanda","is_transit":false,"transit":false,"station_id":"JUA","time":2,"i_lat":-6.166716,"distance":1149,"i_long":106.828284,"line":2},{"time":4,"line":2,"distance":2015,"transit":false,"station_id":"GDD","i_lat":-6.186295,"i_long":106.832183,"is_transit":false,"station_name":"Gondangdia"},{"station_id":"CKI","i_long":106.840169,"time":3,"station_name":"Cikini","distance":1750,"is_transit":false,"transit":false,"i_lat":-6.198556,"line":0},{"is_transit":true,"i_long":106.84912,"station_name":"Manggarai","time":4,"transit":true,"station_id":"MRI","distance":1590,"line":0,"i_lat":-6.209883},{"line":1,"time":2,"distance":1275,"i_lat":-6.212485,"transit":false,"is_transit":false,"station_name":"Matraman","station_id":"MTR","i_long":106.858896},{"i_long":106.86807400000001,"i_lat":-6.215091,"transit":true,"station_name":"Jatinegara","distance":1377,"line":0,"time":8,"is_transit":true,"station_id":"JNG"},{"time":2,"transit":false,"is_transit":false,"station_name":"Pondok Jati","distance":1236,"i_lat":-6.209188,"i_long":106.861737,"station_id":"POK","line":11},{"station_id":"KMT","line":11,"i_lat":-6.193792,"time":2,"i_long":106.855437,"is_transit":false,"station_name":"Kramat","distance":1829,"transit":false},{"transit":false,"time":1,"station_name":"Gang Sentiong","station_id":"GST","distance":973,"is_transit":false,"i_lat":-6.185975,"i_long":106.850107,"line":11},{"line":11,"transit":false,"is_transit":false,"i_lat":-6.174784,"station_name":"Pasar Senen","station_id":"PSE","distance":1567,"i_long":106.84368,"time":8},{"line":11,"distance":1436,"i_lat":-6.161728,"time":4,"is_transit":false,"station_id":"KMO","station_name":"Kemayoran","i_long":106.839204,"transit":false},{"is_transit":false,"distance":1901,"i_lat":-6.14505,"line":11,"transit":false,"station_id":"RJW","station_name":"Rajawali","time":5,"i_long":106.836569},{"line":0,"station_name":"Kampung Bandan","is_transit":true,"distance":1444,"transit":true,"time":3,"i_lat":-6.132549,"station_id":"KPB","i_long":106.826365},{"line":0,"station_id":"AC","distance":2185,"i_long":106.84464,"transit":false,"i_lat":-6.128023,"station_name":"Ancol","is_transit":false,"time":4},{"is_transit":false,"transit":false,"distance":4566,"i_lat":-6.1109480000000005,"line":4,"i_long":106.880089,"station_name":"Tanjung Priuk","station_id":"TPK","time":9}]]}