{"data":[[{"transit":false,"line":2,"time":0,"distance":0,"station_id":"MGB","is_transit":false,"station_name":"Manggabesar","i_lat":-6.149769,"i_long":106.82482},{"distance":906,"i_lat":-6.160725,"line":2,"i_long":106.827103,"station_name":"Sawah Besar","station_id":"SW","transit":false,"is_transit":false,"time":2},{"is_transit":false,"time":2,"transit":false,"i_long":106.828284,"line":2,"station_id":"JUA","i_lat":-6.166716,"station_name":"Juanda","distance":1149},{"station_id":"GDD","is_transit":false,"time":4,"i_lat":-6.186295,"station_name":"Gondangdia","i_long":106.832183,"distance":2015,"line":2,"transit":false},{"transit":false,"station_id":"CKI","i_long":106.840169,"time":3,"distance":1750,"i_lat":-6.198556,"is_transit":false,"station_name":"Cikini","line":2},{"i_long":106.84912,"station_name":"Manggarai","is_transit":true,"line":2,"distance":1590,"time":4,"i_lat":-6.209883,"station_id":"MRI","transit":true},{"station_id":"MTR","time":2,"i_long":106.858896,"transit":false,"distance":1275,"is_transit":false,"station_name":"Matraman","i_lat":-6.212485,"line":1}],[{"i_lat":-6.149769,"station_id":"MGB","distance":0,"transit":false,"time":0,"line":2,"station_name":"Manggabesar","i_long":106.82482,"is_transit":false},{"time":2,"is_transit":false,"line":2,"i_long":106.820901,"distance":1080,"transit":false,"i_lat":-6.141205,"station_id":"JAY","station_name":"Jayakarta"},{"distance":1264,"station_id":"JAKK","transit":true,"is_transit":true,"line":2,"i_lat":-6.137569,"station_name":"Jakarta Kota","i_long":106.812439,"time":4},{"station_name":"Kampung Bandan","time":3,"i_long":106.826365,"transit":true,"is_transit":true,"line":4,"station_id":"KPB","i_lat":-6.132549,"distance":1364},{"time":9,"station_name":"Angke","i_lat":-6.144674,"transit":false,"i_long":106.79867,"is_transit":false,"distance":4102,"line":1,"station_id":"AK"},{"distance":1230,"i_long":106.800832,"is_transit":false,"station_name":"Duri","station_id":"DU","line":1,"i_lat":-6.155215,"time":4,"transit":false},{"distance":3632,"line":1,"is_transit":false,"time":8,"i_long":106.811091,"i_lat":-6.185545,"station_name":"Tanah Abang","transit":false,"station_id":"THB"},{"is_transit":false,"i_lat":-6.20132,"time":5,"transit":false,"station_id":"KAT","i_long":106.816351,"line":1,"station_name":"Karet","distance":2029},{"is_transit":false,"time":1,"i_long":106.819881,"station_id":"SUDB","station_name":"Sudirman Baru","distance":471,"line":1,"i_lat":-6.201433,"transit":false},{"line":1,"is_transit":false,"distance":280,"i_long":106.822649,"station_id":"SUD","transit":false,"station_name":"Sudirman","time":1,"i_lat":-6.202263},{"distance":3186,"transit":false,"station_id":"MRI","i_lat":-6.209883,"line":2,"station_name":"Manggarai","time":4,"is_transit":false,"i_long":106.84912},{"is_transit":false,"station_id":"MTR","line":1,"transit":false,"station_name":"Matraman","time":2,"i_lat":-6.212485,"i_long":106.858896,"distance":1275}],[{"station_id":"MGB","transit":false,"i_lat":-6.149769,"time":0,"line":2,"distance":0,"is_transit":false,"station_name":"Manggabesar","i_long":106.82482},{"line":2,"distance":1080,"i_long":106.820901,"station_name":"Jayakarta","station_id":"JAY","i_lat":-6.141205,"transit":false,"is_transit":false,"time":2},{"line":2,"is_transit":true,"i_long":106.812439,"i_lat":-6.137569,"station_name":"Jakarta Kota","transit":true,"distance":1264,"time":4,"station_id":"JAKK"},{"distance":1364,"time":3,"transit":true,"station_name":"Kampung Bandan","i_long":106.826365,"station_id":"KPB","is_transit":true,"i_lat":-6.132549,"line":4},{"time":3,"station_id":"RJW","transit":false,"distance":1444,"line":11,"station_name":"Rajawali","i_long":106.836569,"i_lat":-6.14505,"is_transit":false},{"transit":false,"i_long":106.839204,"is_transit":false,"time":5,"station_name":"Kemayoran","station_id":"KMO","distance":1901,"i_lat":-6.161728,"line":11},{"station_id":"PSE","i_lat":-6.174784,"i_long":106.84368,"line":11,"time":4,"station_name":"Pasar Senen","is_transit":false,"transit":false,"distance":1436},{"transit":false,"i_long":106.850107,"station_name":"Gang Sentiong","i_lat":-6.185975,"time":8,"distance":1567,"station_id":"GST","line":11,"is_transit":false},{"is_transit":false,"time":1,"station_name":"Kramat","station_id":"KMT","i_long":106.855437,"line":11,"transit":false,"distance":973,"i_lat":-6.193792},{"station_name":"Pondok Jati","line":11,"time":2,"station_id":"POK","transit":false,"distance":1829,"i_lat":-6.209188,"i_long":106.861737,"is_transit":false},{"time":9,"distance":1236,"i_long":106.86807400000001,"line":1,"is_transit":true,"i_lat":-6.215091,"station_id":"JNG","transit":true,"station_name":"Jatinegara"},{"is_transit":false,"i_lat":-6.212485,"i_long":106.858896,"time":2,"line":1,"transit":false,"distance":1377,"station_id":"MTR","station_name":"Matraman"}],[{"transit":false,"station_name":"Manggabesar","station_id":"MGB","distance":0,"i_long":106.82482,"is_transit":false,"line":2,"time":0,"i_lat":-6.149769},{"transit":false,"i_lat":-6.160725,"station_name":"Sawah Besar","time":2,"station_id":"SW","i_long":106.827103,"line":2,"distance":906,"is_transit":false},{"station_id":"JUA","i_lat":-6.166716,"time":2,"station_name":"Juanda","distance":1149,"line":2,"i_long":106.828284,"is_transit":false,"transit":false},{"station_id":"GDD","i_long":106.832183,"distance":2015,"station_name":"Gondangdia","is_transit":false,"line":2,"time":4,"i_lat":-6.186295,"transit":false},{"transit":false,"i_long":106.840169,"is_transit":false,"distance":1750,"i_lat":-6.198556,"line":2,"time":3,"station_name":"Cikini","station_id":"CKI"},{"station_id":"MRI","is_transit":true,"i_long":106.84912,"i_lat":-6.209883,"station_name":"Manggarai","time":4,"distance":1590,"transit":true,"line":2},{"transit":false,"station_id":"SUD","station_name":"Sudirman","time":4,"i_lat":-6.202263,"is_transit":false,"line":1,"distance":3186,"i_long":106.822649},{"station_name":"Sudirman Baru","line":1,"distance":280,"transit":false,"is_transit":false,"i_lat":-6.201433,"time":1,"station_id":"SUDB","i_long":106.819881},{"line":1,"station_name":"Karet","time":1,"i_long":106.816351,"transit":false,"station_id":"KAT","distance":471,"i_lat":-6.20132,"is_transit":false},{"is_transit":false,"transit":false,"station_id":"THB","time":5,"line":1,"i_lat":-6.185545,"distance":2029,"i_long":106.811091,"station_name":"Tanah Abang"},{"line":1,"distance":3632,"station_name":"Duri","i_lat":-6.155215,"i_long":106.800832,"station_id":"DU","time":8,"transit":false,"is_transit":false},{"is_transit":false,"i_lat":-6.144674,"i_long":106.79867,"time":4,"transit":false,"distance":1230,"line":1,"station_id":"AK","station_name":"Angke"},{"time":9,"i_lat":-6.132549,"station_id":"KPB","transit":true,"station_name":"Kampung Bandan","i_long":106.826365,"line":4,"distance":4102,"is_transit":true},{"station_id":"RJW","station_name":"Rajawali","time":3,"i_lat":-6.14505,"line":11,"distance":1444,"is_transit":false,"i_long":106.836569,"transit":false},{"is_transit":false,"distance":1901,"station_name":"Kemayoran","line":11,"time":5,"i_long":106.839204,"transit":false,"i_lat":-6.161728,"station_id":"KMO"},{"i_long":106.84368,"line":11,"transit":false,"station_name":"Pasar Senen","distance":1436,"time":4,"station_id":"PSE","is_transit":false,"i_lat":-6.174784},{"time":8,"transit":false,"i_lat":-6.185975,"station_id":"GST","station_name":"Gang Sentiong","is_transit":false,"i_long":106.850107,"line":11,"distance":1567},{"i_lat":-6.193792,"time":1,"is_transit":false,"station_name":"Kramat","station_id":"KMT","distance":973,"i_long":106.855437,"transit":false,"line":11},{"i_lat":-6.209188,"i_long":106.861737,"time":2,"transit":false,"station_name":"Pondok Jati","is_transit":false,"line":11,"distance":1829,"station_id":"POK"},{"i_long":106.86807400000001,"line":1,"time":9,"station_name":"Jatinegara","transit":true,"distance":1236,"station_id":"JNG","is_transit":true,"i_lat":-6.215091},{"transit":false,"i_long":106.858896,"line":1,"time":2,"i_lat":-6.212485,"is_transit":false,"distance":1377,"station_id":"MTR","station_name":"Matraman"}]]}