{"data":[[{"station_name":"Manggabesar","line":2,"i_long":106.82482,"is_transit":false,"i_lat":-6.149769,"transit":false,"station_id":"MGB","time":0,"distance":0},{"i_long":106.820901,"station_name":"Jayakarta","time":2,"station_id":"JAY","transit":false,"line":2,"is_transit":false,"distance":1080,"i_lat":-6.141205},{"time":4,"transit":true,"line":2,"station_id":"JAKK","i_lat":-6.137569,"station_name":"Jakarta Kota","distance":1264,"is_transit":true,"i_long":106.812439},{"line":4,"transit":true,"station_name":"Kampung Bandan","i_lat":-6.132549,"i_long":106.826365,"station_id":"KPB","time":3,"distance":1364,"is_transit":true},{"transit":false,"line":1,"is_transit":false,"i_lat":-6.144674,"station_id":"AK","station_name":"Angke","time":9,"i_long":106.79867,"distance":4102},{"time":4,"distance":1230,"i_lat":-6.155215,"i_long":106.800832,"line":1,"transit":false,"station_id":"DU","is_transit":false,"station_name":"Duri"},{"is_transit":true,"station_id":"THB","i_lat":-6.185545,"time":8,"i_long":106.811091,"line":1,"distance":3632,"transit":true,"station_name":"Tanah Abang"},{"station_id":"PLM","time":6,"transit":false,"is_transit":false,"i_lat":-6.207404,"line":6,"station_name":"Palmerah","distance":3191,"i_long":106.79689},{"station_id":"KBY","time":7,"i_lat":-6.237242,"station_name":"Kebayoran","line":6,"distance":3737,"transit":false,"is_transit":false,"i_long":106.780334},{"line":6,"distance":6218,"is_transit":false,"i_long":106.74273,"station_id":"PDJ","transit":false,"station_name":"Pondokranji","i_lat":-6.276362,"time":8},{"line":6,"distance":2179,"i_lat":-6.288927,"station_id":"JMU","is_transit":false,"transit":false,"station_name":"Jurangmangu","time":3,"i_long":106.728916},{"i_lat":-6.296963,"station_name":"Sudimara","time":4,"is_transit":false,"distance":1994,"station_id":"SDM","i_long":106.712277,"line":6,"transit":false},{"i_lat":-6.314823,"line":6,"station_name":"Rawa Buntu","is_transit":false,"time":6,"transit":false,"station_id":"RU","distance":4566,"i_long":106.675475},{"time":4,"i_long":106.66566,"line":6,"station_id":"SRP","is_transit":false,"i_lat":-6.319871,"transit":false,"station_name":"Serpong","distance":2413}],[{"i_long":106.82482,"time":0,"line":2,"station_name":"Manggabesar","transit":false,"station_id":"MGB","is_transit":false,"distance":0,"i_lat":-6.149769},{"station_name":"Sawah Besar","transit":false,"distance":906,"i_lat":-6.160725,"is_transit":false,"time":2,"i_long":106.827103,"line":2,"station_id":"SW"},{"i_lat":-6.166716,"line":2,"distance":1149,"station_id":"JUA","station_name":"Juanda","transit":false,"i_long":106.828284,"time":2,"is_transit":false},{"is_transit":false,"time":4,"transit":false,"i_long":106.832183,"station_name":"Gondangdia","distance":2015,"station_id":"GDD","i_lat":-6.186295,"line":2},{"station_id":"CKI","distance":1750,"i_long":106.840169,"is_transit":false,"station_name":"Cikini","line":2,"transit":false,"time":3,"i_lat":-6.198556},{"time":4,"station_id":"MRI","distance":1590,"i_lat":-6.209883,"station_name":"Manggarai","is_transit":true,"transit":true,"line":2,"i_long":106.84912},{"transit":false,"time":4,"station_name":"Sudirman","i_lat":-6.202263,"is_transit":false,"distance":3186,"i_long":106.822649,"station_id":"SUD","line":1},{"is_transit":false,"line":1,"time":1,"station_name":"Sudirman Baru","transit":false,"station_id":"SUDB","distance":280,"i_long":106.819881,"i_lat":-6.201433},{"station_id":"KAT","distance":471,"is_transit":false,"transit":false,"time":1,"i_lat":-6.20132,"i_long":106.816351,"station_name":"Karet","line":1},{"station_id":"THB","time":5,"station_name":"Tanah Abang","is_transit":true,"distance":2029,"i_lat":-6.185545,"i_long":106.811091,"line":1,"transit":true},{"is_transit":false,"distance":3191,"time":6,"i_long":106.79689,"i_lat":-6.207404,"station_id":"PLM","station_name":"Palmerah","line":6,"transit":false},{"i_long":106.780334,"line":6,"time":7,"is_transit":false,"station_name":"Kebayoran","i_lat":-6.237242,"transit":false,"station_id":"KBY","distance":3737},{"transit":false,"line":6,"is_transit":false,"time":8,"i_lat":-6.276362,"station_name":"Pondokranji","distance":6218,"station_id":"PDJ","i_long":106.74273},{"transit":false,"line":6,"i_long":106.728916,"station_name":"Jurangmangu","is_transit":false,"distance":2179,"i_lat":-6.288927,"station_id":"JMU","time":3},{"i_lat":-6.296963,"i_long":106.712277,"transit":false,"station_id":"SDM","line":6,"distance":1994,"is_transit":false,"time":4,"station_name":"Sudimara"},{"i_long":106.675475,"i_lat":-6.314823,"transit":false,"time":6,"distance":4566,"station_id":"RU","line":6,"station_name":"Rawa Buntu","is_transit":false},{"line":6,"station_name":"Serpong","station_id":"SRP","i_lat":-6.319871,"transit":false,"i_long":106.66566,"time":4,"is_transit":false,"distance":2413}],[{"i_lat":-6.149769,"station_name":"Manggabesar","i_long":106.82482,"is_transit":false,"transit":false,"distance":0,"line":2,"station_id":"MGB","time":0},{"time":2,"i_long":106.820901,"line":2,"i_lat":-6.141205,"station_name":"Jayakarta","distance":1080,"station_id":"JAY","transit":false,"is_transit":false},{"transit":true,"distance":1264,"line":2,"i_lat":-6.137569,"is_transit":true,"station_name":"Jakarta Kota","station_id":"JAKK","i_long":106.812439,"time":4},{"i_lat":-6.132549,"station_name":"Kampung Bandan","time":3,"is_transit":true,"i_long":106.826365,"line":4,"distance":1364,"station_id":"KPB","transit":true},{"station_name":"Rajawali","i_lat":-6.14505,"transit":false,"i_long":106.836569,"station_id":"RJW","is_transit":false,"time":3,"distance":1444,"line":11},{"station_id":"KMO","station_name":"Kemayoran","is_transit":false,"time":5,"distance":1901,"line":11,"i_long":106.839204,"transit":false,"i_lat":-6.161728},{"is_transit":false,"transit":false,"distance":1436,"i_lat":-6.174784,"station_name":"Pasar Senen","line":11,"i_long":106.84368,"station_id":"PSE","time":4},{"transit":false,"time":8,"distance":1567,"i_long":106.850107,"is_transit":false,"station_name":"Gang Sentiong","i_lat":-6.185975,"line":11,"station_id":"GST"},{"station_name":"Kramat","station_id":"KMT","time":1,"line":11,"distance":973,"i_lat":-6.193792,"transit":false,"i_long":106.855437,"is_transit":false},{"station_id":"POK","line":11,"transit":false,"i_long":106.861737,"i_lat":-6.209188,"distance":1829,"is_transit":false,"time":2,"station_name":"Pondok Jati"},{"station_name":"Jatinegara","time":9,"i_long":106.86807400000001,"transit":true,"i_lat":-6.215091,"line":1,"station_id":"JNG","is_transit":true,"distance":1236},{"line":1,"transit":false,"i_long":106.858896,"station_id":"MTR","station_name":"Matraman","time":2,"distance":1377,"i_lat":-6.212485,"is_transit":false},{"i_long":106.84912,"distance":1275,"is_transit":false,"line":2,"station_name":"Manggarai","i_lat":-6.209883,"time":2,"transit":false,"station_id":"MRI"},{"station_id":"SUD","transit":false,"is_transit":false,"i_long":106.822649,"i_lat":-6.202263,"distance":3186,"station_name":"Sudirman","time":4,"line":1},{"i_lat":-6.201433,"line":1,"i_long":106.819881,"station_id":"SUDB","distance":280,"time":1,"transit":false,"station_name":"Sudirman Baru","is_transit":false},{"is_transit":false,"i_long":106.816351,"transit":false,"station_name":"Karet","station_id":"KAT","line":1,"time":1,"distance":471,"i_lat":-6.20132},{"i_long":106.811091,"station_id":"THB","time":5,"transit":true,"distance":2029,"line":1,"i_lat":-6.185545,"is_transit":true,"station_name":"Tanah Abang"},{"station_id":"PLM","time":6,"distance":3191,"i_lat":-6.207404,"i_long":106.79689,"line":6,"station_name":"Palmerah","is_transit":false,"transit":false},{"is_transit":false,"i_lat":-6.237242,"station_id":"KBY","line":6,"distance":3737,"time":7,"station_name":"Kebayoran","i_long":106.780334,"transit":false},{"i_long":106.74273,"station_id":"PDJ","transit":false,"station_name":"Pondokranji","is_transit":false,"time":8,"i_lat":-6.276362,"distance":6218,"line":6},{"is_transit":false,"i_lat":-6.288927,"time":3,"distance":2179,"i_long":106.728916,"transit":false,"station_name":"Jurangmangu","line":6,"station_id":"JMU"},{"line":6,"is_transit":false,"i_lat":-6.296963,"distance":1994,"i_long":106.712277,"station_name":"Sudimara","transit":false,"time":4,"station_id":"SDM"},{"time":6,"line":6,"distance":4566,"is_transit":false,"station_id":"RU","i_lat":-6.314823,"i_long":106.675475,"station_name":"Rawa Buntu","transit":false},{"station_name":"Serpong","i_lat":-6.319871,"distance":2413,"transit":false,"line":6,"time":4,"is_transit":false,"station_id":"SRP","i_long":106.66566}],[{"transit":false,"station_name":"Manggabesar","i_lat":-6.149769,"station_id":"MGB","i_long":106.82482,"line":2,"is_transit":false,"time":0,"distance":0},{"i_lat":-6.160725,"station_name":"Sawah Besar","station_id":"SW","time":2,"distance":906,"transit":false,"is_transit":false,"i_long":106.827103,"line":2},{"line":2,"transit":false,"is_transit":false,"time":2,"i_long":106.828284,"distance":1149,"station_id":"JUA","i_lat":-6.166716,"station_name":"Juanda"},{"is_transit":false,"i_long":106.832183,"distance":2015,"i_lat":-6.186295,"transit":false,"station_name":"Gondangdia","line":2,"station_id":"GDD","time":4},{"i_lat":-6.198556,"time":3,"station_id":"CKI","station_name":"Cikini","distance":1750,"is_transit":false,"line":2,"transit":false,"i_long":106.840169},{"i_long":106.84912,"line":2,"time":4,"station_name":"Manggarai","station_id":"MRI","distance":1590,"i_lat":-6.209883,"transit":true,"is_transit":true},{"time":2,"station_name":"Matraman","transit":false,"station_id":"MTR","distance":1275,"i_long":106.858896,"i_lat":-6.212485,"line":1,"is_transit":false},{"i_lat":-6.215091,"distance":1377,"line":1,"transit":true,"station_name":"Jatinegara","time":8,"is_transit":true,"station_id":"JNG","i_long":106.86807400000001},{"station_name":"Pondok Jati","time":2,"line":11,"is_transit":false,"i_long":106.861737,"distance":1236,"transit":false,"i_lat":-6.209188,"station_id":"POK"},{"station_name":"Kramat","is_transit":false,"station_id":"KMT","time":2,"transit":false,"distance":1829,"i_lat":-6.193792,"i_long":106.855437,"line":11},{"is_transit":false,"station_id":"GST","line":11,"time":1,"distance":973,"i_lat":-6.185975,"i_long":106.850107,"station_name":"Gang Sentiong","transit":false},{"i_long":106.84368,"station_name":"Pasar Senen","distance":1567,"transit":false,"station_id":"PSE","i_lat":-6.174784,"time":8,"is_transit":false,"line":11},{"station_id":"KMO","is_transit":false,"transit":false,"line":11,"station_name":"Kemayoran","distance":1436,"i_lat":-6.161728,"time":4,"i_long":106.839204},{"transit":false,"distance":1901,"i_lat":-6.14505,"i_long":106.836569,"time":5,"is_transit":false,"station_name":"Rajawali","station_id":"RJW","line":11},{"i_lat":-6.132549,"station_id":"KPB","is_transit":true,"station_name":"Kampung Bandan","i_long":106.826365,"time":3,"distance":1444,"transit":true,"line":4},{"line":1,"time":9,"is_transit":false,"i_long":106.79867,"distance":4102,"station_id":"AK","transit":false,"i_lat":-6.144674,"station_name":"Angke"},{"i_lat":-6.155215,"station_name":"Duri","station_id":"DU","i_long":106.800832,"time":4,"distance":1230,"line":1,"transit":false,"is_transit":false},{"station_id":"THB","line":1,"is_transit":true,"transit":true,"time":8,"station_name":"Tanah Abang","distance":3632,"i_lat":-6.185545,"i_long":106.811091},{"i_lat":-6.207404,"line":6,"is_transit":false,"transit":false,"i_long":106.79689,"station_name":"Palmerah","time":6,"distance":3191,"station_id":"PLM"},{"line":6,"station_name":"Kebayoran","i_lat":-6.237242,"station_id":"KBY","is_transit":false,"transit":false,"time":7,"distance":3737,"i_long":106.780334},{"i_long":106.74273,"line":6,"station_id":"PDJ","i_lat":-6.276362,"distance":6218,"station_name":"Pondokranji","is_transit":false,"transit":false,"time":8},{"station_id":"JMU","transit":false,"is_transit":false,"i_lat":-6.288927,"station_name":"Jurangmangu","time":3,"distance":2179,"i_long":106.728916,"line":6},{"i_long":106.712277,"station_id":"SDM","is_transit":false,"time":4,"line":6,"transit":false,"i_lat":-6.296963,"distance":1994,"station_name":"Sudimara"},{"line":6,"transit":false,"time":6,"station_name":"Rawa Buntu","is_transit":false,"i_long":106.675475,"station_id":"RU","i_lat":-6.314823,"distance":4566},{"i_long":106.66566,"transit":false,"station_name":"Serpong","is_transit":false,"line":6,"time":4,"distance":2413,"i_lat":-6.319871,"station_id":"SRP"}]]}