{"data":[[{"time":0,"distance":0,"station_name":"Manggabesar","line":2,"i_long":106.82482,"station_id":"MGB","is_transit":false,"transit":false,"i_lat":-6.149769},{"station_name":"Sawah Besar","transit":false,"distance":906,"station_id":"SW","line":2,"time":2,"i_lat":-6.160725,"is_transit":false,"i_long":106.827103},{"transit":false,"i_lat":-6.166716,"station_id":"JUA","station_name":"Juanda","i_long":106.828284,"line":2,"time":2,"distance":1149,"is_transit":false},{"station_name":"Gondangdia","distance":2015,"station_id":"GDD","transit":false,"i_long":106.832183,"time":4,"is_transit":false,"i_lat":-6.186295,"line":2},{"time":3,"is_transit":false,"i_lat":-6.198556,"station_id":"CKI","station_name":"Cikini","i_long":106.840169,"transit":false,"distance":1750,"line":2},{"transit":true,"station_name":"Manggarai","time":4,"line":2,"i_long":106.84912,"distance":1590,"station_id":"MRI","i_lat":-6.209883,"is_transit":true},{"transit":false,"time":2,"station_name":"Matraman","is_transit":false,"i_lat":-6.212485,"i_long":106.858896,"line":1,"distance":1275,"station_id":"MTR"},{"distance":1377,"transit":false,"i_long":106.86807400000001,"time":8,"station_id":"JNG","is_transit":false,"i_lat":-6.215091,"station_name":"Jatinegara","line":1}],[{"time":0,"transit":false,"line":2,"station_id":"MGB","i_long":106.82482,"is_transit":false,"station_name":"Manggabesar","i_lat":-6.149769,"distance":0},{"distance":1080,"time":2,"station_id":"JAY","i_long":106.820901,"station_name":"Jayakarta","is_transit":false,"transit":false,"line":2,"i_lat":-6.141205},{"i_long":106.812439,"line":2,"transit":true,"station_id":"JAKK","i_lat":-6.137569,"is_transit":true,"station_name":"Jakarta Kota","distance":1264,"time":4},{"i_long":106.826365,"time":3,"line":4,"transit":true,"is_transit":true,"station_id":"KPB","distance":1364,"i_lat":-6.132549,"station_name":"Kampung Bandan"},{"station_id":"RJW","station_name":"Rajawali","transit":false,"i_lat":-6.14505,"line":11,"is_transit":false,"distance":1444,"time":3,"i_long":106.836569},{"transit":false,"distance":1901,"station_name":"Kemayoran","is_transit":false,"i_lat":-6.161728,"line":11,"station_id":"KMO","time":5,"i_long":106.839204},{"station_id":"PSE","station_name":"Pasar Senen","i_long":106.84368,"i_lat":-6.174784,"line":11,"time":4,"is_transit":false,"transit":false,"distance":1436},{"time":8,"i_lat":-6.185975,"distance":1567,"station_id":"GST","is_transit":false,"station_name":"Gang Sentiong","line":11,"transit":false,"i_long":106.850107},{"i_lat":-6.193792,"transit":false,"is_transit":false,"line":11,"station_id":"KMT","station_name":"Kramat","distance":973,"time":1,"i_long":106.855437},{"i_long":106.861737,"is_transit":false,"line":11,"transit":false,"station_id":"POK","distance":1829,"station_name":"Pondok Jati","time":2,"i_lat":-6.209188},{"is_transit":false,"time":9,"line":1,"distance":1236,"i_lat":-6.215091,"station_name":"Jatinegara","i_long":106.86807400000001,"station_id":"JNG","transit":false}],[{"is_transit":false,"station_id":"MGB","i_long":106.82482,"line":2,"time":0,"distance":0,"transit":false,"station_name":"Manggabesar","i_lat":-6.149769},{"time":2,"distance":1080,"station_name":"Jayakarta","is_transit":false,"transit":false,"i_lat":-6.141205,"line":2,"i_long":106.820901,"station_id":"JAY"},{"time":4,"i_long":106.812439,"distance":1264,"transit":true,"station_id":"JAKK","line":2,"station_name":"Jakarta Kota","is_transit":true,"i_lat":-6.137569},{"line":4,"distance":1364,"is_transit":true,"i_lat":-6.132549,"station_name":"Kampung Bandan","transit":true,"i_long":106.826365,"station_id":"KPB","time":3},{"transit":false,"time":9,"i_lat":-6.144674,"i_long":106.79867,"station_name":"Angke","line":1,"is_transit":false,"distance":4102,"station_id":"AK"},{"distance":1230,"time":4,"transit":false,"station_id":"DU","station_name":"Duri","is_transit":false,"i_lat":-6.155215,"i_long":106.800832,"line":1},{"time":8,"i_long":106.811091,"line":1,"i_lat":-6.185545,"transit":false,"station_name":"Tanah Abang","distance":3632,"station_id":"THB","is_transit":false},{"line":1,"i_long":106.816351,"station_id":"KAT","is_transit":false,"station_name":"Karet","transit":false,"time":5,"i_lat":-6.20132,"distance":2029},{"i_long":106.819881,"distance":471,"is_transit":false,"station_name":"Sudirman Baru","line":1,"transit":false,"time":1,"station_id":"SUDB","i_lat":-6.201433},{"line":1,"station_name":"Sudirman","distance":280,"station_id":"SUD","is_transit":false,"transit":false,"i_lat":-6.202263,"i_long":106.822649,"time":1},{"time":4,"distance":3186,"i_long":106.84912,"station_id":"MRI","is_transit":false,"i_lat":-6.209883,"station_name":"Manggarai","transit":false,"line":2},{"distance":1275,"station_id":"MTR","is_transit":false,"i_lat":-6.212485,"i_long":106.858896,"time":2,"station_name":"Matraman","transit":false,"line":1},{"line":1,"station_id":"JNG","is_transit":false,"transit":false,"i_long":106.86807400000001,"i_lat":-6.215091,"distance":1377,"station_name":"Jatinegara","time":8}],[{"distance":0,"transit":false,"station_id":"MGB","time":0,"line":2,"i_lat":-6.149769,"station_name":"Manggabesar","i_long":106.82482,"is_transit":false},{"i_lat":-6.160725,"station_name":"Sawah Besar","i_long":106.827103,"time":2,"transit":false,"distance":906,"is_transit":false,"line":2,"station_id":"SW"},{"time":2,"distance":1149,"station_name":"Juanda","transit":false,"i_long":106.828284,"station_id":"JUA","line":2,"is_transit":false,"i_lat":-6.166716},{"station_name":"Gondangdia","time":4,"distance":2015,"i_lat":-6.186295,"is_transit":false,"i_long":106.832183,"line":2,"transit":false,"station_id":"GDD"},{"station_id":"CKI","distance":1750,"time":3,"i_long":106.840169,"transit":false,"station_name":"Cikini","is_transit":false,"i_lat":-6.198556,"line":2},{"station_name":"Manggarai","time":4,"station_id":"MRI","transit":true,"line":2,"is_transit":true,"i_long":106.84912,"distance":1590,"i_lat":-6.209883},{"transit":false,"station_name":"Sudirman","is_transit":false,"i_long":106.822649,"time":4,"line":1,"station_id":"SUD","distance":3186,"i_lat":-6.202263},{"i_long":106.819881,"line":1,"is_transit":false,"i_lat":-6.201433,"distance":280,"transit":false,"station_id":"SUDB","station_name":"Sudirman Baru","time":1},{"time":1,"distance":471,"station_id":"KAT","line":1,"station_name":"Karet","i_lat":-6.20132,"i_long":106.816351,"is_transit":false,"transit":false},{"distance":2029,"i_lat":-6.185545,"time":5,"i_long":106.811091,"transit":false,"station_id":"THB","line":1,"is_transit":false,"station_name":"Tanah Abang"},{"station_id":"DU","time":8,"transit":false,"distance":3632,"i_long":106.800832,"i_lat":-6.155215,"line":1,"is_transit":false,"station_name":"Duri"},{"station_name":"Angke","line":1,"station_id":"AK","transit":false,"time":4,"distance":1230,"is_transit":false,"i_long":106.79867,"i_lat":-6.144674},{"time":9,"is_transit":true,"station_id":"KPB","station_name":"Kampung Bandan","transit":true,"i_long":106.826365,"distance":4102,"i_lat":-6.132549,"line":4},{"station_id":"RJW","transit":false,"i_lat":-6.14505,"distance":1444,"is_transit":false,"station_name":"Rajawali","time":3,"line":11,"i_long":106.836569},{"i_lat":-6.161728,"line":11,"distance":1901,"station_id":"KMO","i_long":106.839204,"time":5,"is_transit":false,"station_name":"Kemayoran","transit":false},{"station_id":"PSE","line":11,"transit":false,"is_transit":false,"i_long":106.84368,"time":4,"station_name":"Pasar Senen","distance":1436,"i_lat":-6.174784},{"line":11,"station_id":"GST","transit":false,"time":8,"station_name":"Gang Sentiong","is_transit":false,"distance":1567,"i_lat":-6.185975,"i_long":106.850107},{"distance":973,"i_long":106.855437,"station_name":"Kramat","transit":false,"station_id":"KMT","i_lat":-6.193792,"is_transit":false,"time":1,"line":11},{"is_transit":false,"distance":1829,"station_name":"Pondok Jati","i_lat":-6.209188,"transit":false,"station_id":"POK","line":11,"i_long":106.861737,"time":2},{"is_transit":false,"i_long":106.86807400000001,"time":9,"distance":1236,"station_name":"Jatinegara","transit":false,"line":1,"station_id":"JNG","i_lat":-6.215091}]]}