{"data":[[{"transit":false,"line":2,"is_transit":false,"i_lat":-6.149769,"i_long":106.82482,"station_name":"Manggabesar","station_id":"MGB","time":0,"distance":0},{"station_id":"SW","is_transit":false,"distance":906,"i_long":106.827103,"i_lat":-6.160725,"line":2,"station_name":"Sawah Besar","time":2,"transit":false},{"transit":false,"distance":1149,"i_lat":-6.166716,"is_transit":false,"time":2,"station_name":"Juanda","station_id":"JUA","i_long":106.828284,"line":2},{"transit":false,"station_id":"GDD","i_lat":-6.186295,"i_long":106.832183,"line":2,"station_name":"Gondangdia","is_transit":false,"distance":2015,"time":4},{"time":3,"station_name":"Cikini","i_long":106.840169,"line":2,"transit":false,"is_transit":false,"distance":1750,"station_id":"CKI","i_lat":-6.198556},{"station_name":"Manggarai","is_transit":true,"station_id":"MRI","i_lat":-6.209883,"line":2,"distance":1590,"time":4,"i_long":106.84912,"transit":true},{"distance":1275,"time":2,"line":1,"transit":false,"station_name":"Matraman","i_lat":-6.212485,"station_id":"MTR","is_transit":false,"i_long":106.858896},{"is_transit":false,"distance":1377,"i_long":106.86807400000001,"transit":false,"station_name":"Jatinegara","station_id":"JNG","i_lat":-6.215091,"line":1,"time":8},{"line":1,"is_transit":false,"transit":false,"distance":3395,"station_name":"Klender","station_id":"KLD","time":3,"i_lat":-6.2135,"i_long":106.899548},{"transit":false,"station_name":"Buaran","distance":3100,"i_lat":-6.215568,"time":2,"line":1,"i_long":106.922662,"is_transit":false,"station_id":"BUA"},{"line":1,"i_long":106.939679,"transit":false,"distance":1305,"i_lat":-6.217455,"station_name":"Klenderbaru","is_transit":false,"station_id":"KLDB","time":1},{"transit":false,"station_name":"Cakung","distance":1385,"i_long":106.951283,"station_id":"CUK","time":8,"i_lat":-6.219053,"is_transit":false,"line":1},{"is_transit":false,"time":3,"i_lat":-6.224515,"station_name":"Kranji","station_id":"KRI","distance":3097,"i_long":106.977657,"line":1,"transit":false},{"station_id":"BKS","i_lat":-6.236616,"i_long":106.997013,"station_name":"Bekasi","distance":2520,"transit":false,"is_transit":false,"line":1,"time":4},{"distance":2368,"time":2,"transit":false,"station_name":"Bekasi Timur","station_id":"BKST","i_lat":-6.248029,"i_long":107.016735,"is_transit":false,"line":1},{"is_transit":false,"i_lat":-6.258864,"station_name":"Tambun","station_id":"TB","time":7,"i_long":107.055722,"line":1,"transit":false,"distance":4460}],[{"line":2,"time":0,"station_id":"MGB","station_name":"Manggabesar","distance":0,"transit":false,"is_transit":false,"i_lat":-6.149769,"i_long":106.82482},{"station_id":"JAY","station_name":"Jayakarta","time":2,"distance":1080,"i_long":106.820901,"is_transit":false,"i_lat":-6.141205,"transit":false,"line":2},{"time":4,"is_transit":true,"station_id":"JAKK","i_long":106.812439,"transit":true,"distance":1264,"i_lat":-6.137569,"station_name":"Jakarta Kota","line":2},{"station_id":"KPB","is_transit":true,"distance":1364,"i_long":106.826365,"line":4,"station_name":"Kampung Bandan","i_lat":-6.132549,"transit":true,"time":3},{"is_transit":false,"line":11,"station_id":"RJW","time":3,"station_name":"Rajawali","i_lat":-6.14505,"i_long":106.836569,"transit":false,"distance":1444},{"station_id":"KMO","time":5,"i_long":106.839204,"line":11,"i_lat":-6.161728,"station_name":"Kemayoran","transit":false,"is_transit":false,"distance":1901},{"station_name":"Pasar Senen","station_id":"PSE","transit":false,"line":11,"i_long":106.84368,"i_lat":-6.174784,"is_transit":false,"distance":1436,"time":4},{"i_long":106.850107,"station_name":"Gang Sentiong","transit":false,"distance":1567,"time":8,"station_id":"GST","line":11,"i_lat":-6.185975,"is_transit":false},{"station_id":"KMT","station_name":"Kramat","distance":973,"time":1,"i_long":106.855437,"i_lat":-6.193792,"is_transit":false,"line":11,"transit":false},{"line":11,"time":2,"station_name":"Pondok Jati","is_transit":false,"station_id":"POK","i_lat":-6.209188,"i_long":106.861737,"transit":false,"distance":1829},{"station_id":"JNG","i_lat":-6.215091,"line":1,"station_name":"Jatinegara","transit":true,"is_transit":true,"distance":1236,"time":9,"i_long":106.86807400000001},{"station_id":"KLD","i_lat":-6.2135,"line":1,"station_name":"Klender","i_long":106.899548,"transit":false,"is_transit":false,"distance":3395,"time":3},{"transit":false,"line":1,"distance":3100,"station_name":"Buaran","is_transit":false,"time":2,"i_long":106.922662,"i_lat":-6.215568,"station_id":"BUA"},{"time":1,"i_lat":-6.217455,"station_id":"KLDB","line":1,"is_transit":false,"transit":false,"distance":1305,"i_long":106.939679,"station_name":"Klenderbaru"},{"i_long":106.951283,"time":8,"line":1,"transit":false,"station_name":"Cakung","distance":1385,"station_id":"CUK","i_lat":-6.219053,"is_transit":false},{"is_transit":false,"station_name":"Kranji","time":3,"distance":3097,"station_id":"KRI","i_long":106.977657,"line":1,"i_lat":-6.224515,"transit":false},{"is_transit":false,"transit":false,"station_name":"Bekasi","time":4,"i_long":106.997013,"station_id":"BKS","line":1,"i_lat":-6.236616,"distance":2520},{"station_name":"Bekasi Timur","station_id":"BKST","i_lat":-6.248029,"distance":2368,"is_transit":false,"transit":false,"time":2,"i_long":107.016735,"line":1},{"station_name":"Tambun","time":7,"station_id":"TB","distance":4460,"transit":false,"is_transit":false,"line":1,"i_lat":-6.258864,"i_long":107.055722}],[{"i_lat":-6.149769,"transit":false,"station_name":"Manggabesar","i_long":106.82482,"line":2,"distance":0,"is_transit":false,"time":0,"station_id":"MGB"},{"i_long":106.820901,"i_lat":-6.141205,"line":2,"is_transit":false,"distance":1080,"transit":false,"station_name":"Jayakarta","station_id":"JAY","time":2},{"time":4,"line":2,"transit":true,"station_name":"Jakarta Kota","is_transit":true,"i_lat":-6.137569,"distance":1264,"i_long":106.812439,"station_id":"JAKK"},{"station_name":"Kampung Bandan","station_id":"KPB","time":3,"line":4,"i_long":106.826365,"distance":1364,"is_transit":true,"i_lat":-6.132549,"transit":true},{"station_id":"AK","is_transit":false,"transit":false,"i_lat":-6.144674,"distance":4102,"time":9,"station_name":"Angke","i_long":106.79867,"line":1},{"i_lat":-6.155215,"station_name":"Duri","station_id":"DU","time":4,"i_long":106.800832,"line":1,"is_transit":false,"transit":false,"distance":1230},{"distance":3632,"station_name":"Tanah Abang","i_long":106.811091,"line":1,"i_lat":-6.185545,"is_transit":false,"time":8,"station_id":"THB","transit":false},{"distance":2029,"station_id":"KAT","line":1,"is_transit":false,"transit":false,"station_name":"Karet","time":5,"i_lat":-6.20132,"i_long":106.816351},{"time":1,"transit":false,"is_transit":false,"i_lat":-6.201433,"distance":471,"station_name":"Sudirman Baru","line":1,"station_id":"SUDB","i_long":106.819881},{"station_name":"Sudirman","i_lat":-6.202263,"distance":280,"station_id":"SUD","is_transit":false,"line":1,"transit":false,"i_long":106.822649,"time":1},{"line":2,"is_transit":false,"distance":3186,"station_name":"Manggarai","time":4,"i_long":106.84912,"station_id":"MRI","transit":false,"i_lat":-6.209883},{"station_id":"MTR","line":1,"i_long":106.858896,"i_lat":-6.212485,"transit":false,"station_name":"Matraman","is_transit":false,"time":2,"distance":1275},{"i_long":106.86807400000001,"line":1,"i_lat":-6.215091,"time":8,"is_transit":false,"station_id":"JNG","distance":1377,"transit":false,"station_name":"Jatinegara"},{"time":3,"is_transit":false,"station_id":"KLD","i_lat":-6.2135,"line":1,"distance":3395,"station_name":"Klender","i_long":106.899548,"transit":false},{"is_transit":false,"i_lat":-6.215568,"line":1,"station_id":"BUA","i_long":106.922662,"transit":false,"station_name":"Buaran","time":2,"distance":3100},{"is_transit":false,"transit":false,"distance":1305,"station_id":"KLDB","time":1,"i_lat":-6.217455,"line":1,"i_long":106.939679,"station_name":"Klenderbaru"},{"station_id":"CUK","line":1,"i_lat":-6.219053,"is_transit":false,"station_name":"Cakung","time":8,"transit":false,"distance":1385,"i_long":106.951283},{"station_name":"Kranji","distance":3097,"transit":false,"is_transit":false,"i_long":106.977657,"line":1,"station_id":"KRI","i_lat":-6.224515,"time":3},{"transit":false,"i_long":106.997013,"line":1,"station_name":"Bekasi","distance":2520,"time":4,"is_transit":false,"station_id":"BKS","i_lat":-6.236616},{"distance":2368,"station_name":"Bekasi Timur","is_transit":false,"i_lat":-6.248029,"line":1,"i_long":107.016735,"transit":false,"station_id":"BKST","time":2},{"i_long":107.055722,"line":1,"transit":false,"i_lat":-6.258864,"station_name":"Tambun","station_id":"TB","time":7,"is_transit":false,"distance":4460}],[{"station_name":"Manggabesar","time":0,"station_id":"MGB","is_transit":false,"i_long":106.82482,"distance":0,"transit":false,"i_lat":-6.149769,"line":2},{"transit":false,"distance":906,"is_transit":false,"station_name":"Sawah Besar","i_lat":-6.160725,"line":2,"station_id":"SW","time":2,"i_long":106.827103},{"distance":1149,"i_lat":-6.166716,"i_long":106.828284,"station_name":"Juanda","station_id":"JUA","transit":false,"is_transit":false,"time":2,"line":2},{"i_long":106.832183,"distance":2015,"station_name":"Gondangdia","transit":false,"is_transit":false,"line":2,"station_id":"GDD","time":4,"i_lat":-6.186295},{"distance":1750,"station_name":"Cikini","station_id":"CKI","transit":false,"line":2,"i_lat":-6.198556,"time":3,"i_long":106.840169,"is_transit":false},{"station_name":"Manggarai","is_transit":true,"line":2,"i_lat":-6.209883,"distance":1590,"station_id":"MRI","time":4,"i_long":106.84912,"transit":true},{"transit":false,"station_name":"Sudirman","i_lat":-6.202263,"i_long":106.822649,"distance":3186,"station_id":"SUD","is_transit":false,"time":4,"line":1},{"station_name":"Sudirman Baru","time":1,"transit":false,"i_lat":-6.201433,"line":1,"station_id":"SUDB","i_long":106.819881,"distance":280,"is_transit":false},{"station_name":"Karet","line":1,"distance":471,"is_transit":false,"i_lat":-6.20132,"transit":false,"station_id":"KAT","time":1,"i_long":106.816351},{"time":5,"i_lat":-6.185545,"is_transit":false,"line":1,"station_name":"Tanah Abang","distance":2029,"transit":false,"i_long":106.811091,"station_id":"THB"},{"time":8,"i_lat":-6.155215,"station_id":"DU","line":1,"is_transit":false,"distance":3632,"station_name":"Duri","i_long":106.800832,"transit":false},{"i_lat":-6.144674,"time":4,"line":1,"transit":false,"station_name":"Angke","station_id":"AK","i_long":106.79867,"is_transit":false,"distance":1230},{"line":4,"distance":4102,"station_id":"KPB","time":9,"i_lat":-6.132549,"transit":true,"i_long":106.826365,"is_transit":true,"station_name":"Kampung Bandan"},{"distance":1444,"line":11,"transit":false,"station_name":"Rajawali","i_lat":-6.14505,"is_transit":false,"time":3,"station_id":"RJW","i_long":106.836569},{"i_lat":-6.161728,"transit":false,"is_transit":false,"distance":1901,"station_id":"KMO","line":11,"time":5,"station_name":"Kemayoran","i_long":106.839204},{"line":11,"i_long":106.84368,"is_transit":false,"transit":false,"station_id":"PSE","distance":1436,"time":4,"station_name":"Pasar Senen","i_lat":-6.174784},{"station_name":"Gang Sentiong","station_id":"GST","transit":false,"distance":1567,"i_long":106.850107,"line":11,"time":8,"is_transit":false,"i_lat":-6.185975},{"distance":973,"time":1,"i_lat":-6.193792,"station_id":"KMT","line":11,"i_long":106.855437,"station_name":"Kramat","is_transit":false,"transit":false},{"station_id":"POK","distance":1829,"transit":false,"i_lat":-6.209188,"i_long":106.861737,"line":11,"is_transit":false,"time":2,"station_name":"Pondok Jati"},{"i_long":106.86807400000001,"station_name":"Jatinegara","distance":1236,"is_transit":true,"transit":true,"station_id":"JNG","time":9,"i_lat":-6.215091,"line":1},{"i_long":106.899548,"station_id":"KLD","transit":false,"distance":3395,"i_lat":-6.2135,"line":1,"is_transit":false,"time":3,"station_name":"Klender"},{"station_name":"Buaran","distance":3100,"i_lat":-6.215568,"time":2,"transit":false,"station_id":"BUA","line":1,"is_transit":false,"i_long":106.922662},{"is_transit":false,"i_lat":-6.217455,"station_name":"Klenderbaru","station_id":"KLDB","distance":1305,"transit":false,"i_long":106.939679,"line":1,"time":1},{"line":1,"time":8,"i_long":106.951283,"is_transit":false,"station_name":"Cakung","transit":false,"station_id":"CUK","distance":1385,"i_lat":-6.219053},{"station_name":"Kranji","i_lat":-6.224515,"is_transit":false,"i_long":106.977657,"distance":3097,"station_id":"KRI","time":3,"transit":false,"line":1},{"i_long":106.997013,"time":4,"transit":false,"station_name":"Bekasi","is_transit":false,"distance":2520,"station_id":"BKS","i_lat":-6.236616,"line":1},{"distance":2368,"time":2,"station_id":"BKST","transit":false,"line":1,"is_transit":false,"i_long":107.016735,"i_lat":-6.248029,"station_name":"Bekasi Timur"},{"distance":4460,"i_long":107.055722,"station_name":"Tambun","i_lat":-6.258864,"time":7,"is_transit":false,"transit":false,"station_id":"TB","line":1}]]}