{"data":[[{"station_name":"Manggabesar","time":0,"i_long":106.82482,"is_transit":false,"distance":0,"line":2,"transit":false,"station_id":"MGB","i_lat":-6.149769},{"station_name":"Sawah Besar","distance":906,"i_long":106.827103,"line":2,"i_lat":-6.160725,"time":2,"transit":false,"station_id":"SW","is_transit":false},{"station_id":"JUA","i_lat":-6.166716,"station_name":"Juanda","is_transit":false,"time":2,"distance":1149,"transit":false,"i_long":106.828284,"line":2},{"station_name":"Gondangdia","line":2,"is_transit":false,"distance":2015,"i_long":106.832183,"time":4,"station_id":"GDD","i_lat":-6.186295,"transit":false},{"time":3,"i_long":106.840169,"distance":1750,"station_name":"Cikini","transit":false,"station_id":"CKI","is_transit":false,"line":0,"i_lat":-6.198556},{"line":0,"is_transit":true,"station_name":"Manggarai","station_id":"MRI","transit":true,"distance":1590,"i_lat":-6.209883,"i_long":106.84912,"time":4},{"i_lat":-6.226659,"station_id":"TEB","time":4,"transit":false,"is_transit":false,"distance":2610,"i_long":106.857948,"line":2,"station_name":"Tebet"},{"line":0,"station_name":"Cawang","i_lat":-6.242512,"time":2,"is_transit":false,"station_id":"CW","i_long":106.856607,"transit":false,"distance":1230},{"station_name":"Duren Kalibata","is_transit":false,"station_id":"DRN","distance":1546,"time":3,"i_lat":-6.255332,"i_long":106.85449,"line":0,"transit":false},{"station_name":"Pasar Minggu Baru","distance":824,"time":2,"station_id":"PSMB","is_transit":false,"i_lat":-6.263214,"i_long":106.851577,"transit":false,"line":2}],[{"distance":0,"station_name":"Manggabesar","i_lat":-6.149769,"transit":false,"line":2,"time":0,"station_id":"MGB","is_transit":false,"i_long":106.82482},{"station_name":"Jayakarta","transit":false,"distance":1080,"is_transit":false,"i_long":106.820901,"time":2,"station_id":"JAY","line":7,"i_lat":-6.141205},{"station_id":"JAKK","distance":1264,"is_transit":true,"i_lat":-6.137569,"transit":true,"line":0,"time":4,"station_name":"Jakarta Kota","i_long":106.812439},{"time":3,"station_id":"KPB","i_lat":-6.132549,"i_long":106.826365,"transit":false,"line":0,"is_transit":true,"distance":1364,"station_name":"Kampung Bandan"},{"time":9,"line":0,"station_name":"Angke","station_id":"AK","distance":4102,"is_transit":false,"i_lat":-6.144674,"i_long":106.79867,"transit":false},{"station_id":"DU","time":4,"station_name":"Duri","i_long":106.800832,"line":1,"transit":true,"i_lat":-6.155215,"is_transit":true,"distance":1230},{"station_name":"Tanah Abang","time":8,"station_id":"THB","i_long":106.811091,"line":1,"is_transit":true,"i_lat":-6.185545,"transit":false,"distance":3632},{"transit":false,"is_transit":false,"distance":2029,"station_name":"Karet","time":5,"i_lat":-6.20132,"i_long":106.816351,"station_id":"KAT","line":1},{"i_lat":-6.201433,"i_long":106.819881,"time":1,"distance":471,"transit":false,"is_transit":false,"line":1,"station_name":"Sudirman Baru","station_id":"SUDB"},{"i_lat":-6.202263,"i_long":106.822649,"transit":false,"line":1,"distance":280,"time":1,"station_name":"Sudirman","station_id":"SUD","is_transit":false},{"station_id":"MRI","i_long":106.84912,"is_transit":true,"line":0,"time":4,"transit":true,"station_name":"Manggarai","i_lat":-6.209883,"distance":3186},{"is_transit":false,"time":4,"i_lat":-6.226659,"i_long":106.857948,"station_id":"TEB","line":2,"station_name":"Tebet","distance":2610,"transit":false},{"transit":false,"station_id":"CW","distance":1230,"station_name":"Cawang","i_lat":-6.242512,"time":2,"line":0,"is_transit":false,"i_long":106.856607},{"transit":false,"i_lat":-6.255332,"station_name":"Duren Kalibata","station_id":"DRN","distance":1546,"line":0,"time":3,"is_transit":false,"i_long":106.85449},{"line":2,"station_id":"PSMB","i_long":106.851577,"transit":false,"station_name":"Pasar Minggu Baru","distance":824,"time":2,"i_lat":-6.263214,"is_transit":false}],[{"i_long":106.82482,"station_name":"Manggabesar","i_lat":-6.149769,"time":0,"line":2,"transit":false,"station_id":"MGB","is_transit":false,"distance":0},{"i_lat":-6.141205,"station_name":"Jayakarta","line":7,"station_id":"JAY","distance":1080,"i_long":106.820901,"time":2,"transit":false,"is_transit":false},{"distance":1264,"is_transit":true,"transit":true,"time":4,"i_long":106.812439,"line":0,"i_lat":-6.137569,"station_name":"Jakarta Kota","station_id":"JAKK"},{"i_long":106.826365,"time":3,"distance":1364,"station_id":"KPB","i_lat":-6.132549,"station_name":"Kampung Bandan","is_transit":true,"transit":true,"line":0},{"time":3,"i_long":106.836569,"line":11,"station_name":"Rajawali","station_id":"RJW","distance":1444,"transit":false,"i_lat":-6.14505,"is_transit":false},{"distance":1901,"station_id":"KMO","station_name":"Kemayoran","is_transit":false,"transit":false,"time":5,"i_long":106.839204,"i_lat":-6.161728,"line":11},{"station_name":"Pasar Senen","is_transit":false,"transit":false,"station_id":"PSE","i_long":106.84368,"distance":1436,"time":4,"line":11,"i_lat":-6.174784},{"line":11,"i_lat":-6.185975,"is_transit":false,"station_id":"GST","station_name":"Gang Sentiong","time":8,"distance":1567,"i_long":106.850107,"transit":false},{"is_transit":false,"transit":false,"i_long":106.855437,"distance":973,"station_id":"KMT","station_name":"Kramat","time":1,"line":11,"i_lat":-6.193792},{"line":11,"distance":1829,"transit":false,"time":2,"is_transit":false,"station_name":"Pondok Jati","station_id":"POK","i_lat":-6.209188,"i_long":106.861737},{"distance":1236,"station_name":"Jatinegara","i_lat":-6.215091,"i_long":106.86807400000001,"time":9,"station_id":"JNG","is_transit":true,"transit":true,"line":0},{"i_long":106.858896,"station_id":"MTR","transit":false,"distance":1377,"i_lat":-6.212485,"station_name":"Matraman","is_transit":false,"line":1,"time":2},{"i_lat":-6.209883,"time":2,"distance":1275,"transit":true,"station_id":"MRI","is_transit":true,"line":0,"station_name":"Manggarai","i_long":106.84912},{"transit":false,"time":4,"is_transit":false,"station_id":"TEB","i_long":106.857948,"distance":2610,"station_name":"Tebet","line":2,"i_lat":-6.226659},{"line":0,"i_long":106.856607,"station_id":"CW","is_transit":false,"time":2,"transit":false,"distance":1230,"station_name":"Cawang","i_lat":-6.242512},{"station_name":"Duren Kalibata","time":3,"is_transit":false,"i_long":106.85449,"line":0,"station_id":"DRN","transit":false,"i_lat":-6.255332,"distance":1546},{"line":2,"station_name":"Pasar Minggu Baru","i_lat":-6.263214,"station_id":"PSMB","distance":824,"is_transit":false,"transit":false,"time":2,"i_long":106.851577}]]}