{"data":[[{"station_name":"Manggabesar","station_id":"MGB","time":0,"distance":0,"transit":false,"is_transit":false,"line":2,"i_lat":-6.149769,"i_long":106.82482},{"time":2,"transit":false,"is_transit":false,"distance":906,"i_long":106.827103,"line":2,"station_name":"Sawah Besar","station_id":"SW","i_lat":-6.160725},{"station_name":"Juanda","distance":1149,"transit":false,"station_id":"JUA","is_transit":false,"i_long":106.828284,"line":2,"i_lat":-6.166716,"time":2},{"transit":false,"line":2,"is_transit":false,"distance":2015,"station_name":"Gondangdia","i_lat":-6.186295,"time":4,"i_long":106.832183,"station_id":"GDD"},{"station_id":"CKI","i_lat":-6.198556,"distance":1750,"time":3,"transit":false,"i_long":106.840169,"line":2,"station_name":"Cikini","is_transit":false},{"time":4,"i_lat":-6.209883,"line":2,"is_transit":false,"station_id":"MRI","station_name":"Manggarai","transit":false,"i_long":106.84912,"distance":1590},{"distance":2610,"time":4,"transit":false,"is_transit":false,"station_id":"TEB","i_lat":-6.226659,"i_long":106.857948,"line":2,"station_name":"Tebet"},{"line":2,"station_id":"CW","station_name":"Cawang","transit":false,"i_lat":-6.242512,"distance":1230,"time":2,"i_long":106.856607,"is_transit":false},{"station_name":"Duren Kalibata","line":2,"time":3,"station_id":"DRN","distance":1546,"i_lat":-6.255332,"is_transit":false,"i_long":106.85449,"transit":false},{"i_long":106.851577,"time":2,"line":2,"transit":false,"i_lat":-6.263214,"distance":824,"is_transit":false,"station_name":"Pasar Minggu Baru","station_id":"PSMB"},{"distance":2380,"time":2,"is_transit":false,"transit":false,"i_long":106.843999,"line":2,"station_name":"Pasar Minggu","i_lat":-6.2842400000000005,"station_id":"PSM"},{"station_name":"Tanjung Barat","transit":false,"i_lat":-6.3080680000000005,"line":2,"i_long":106.838896,"time":4,"station_id":"TNT","is_transit":false,"distance":2820},{"station_name":"Lenteng Agung","time":3,"i_lat":-6.330363,"transit":false,"station_id":"LNA","i_long":106.832616,"distance":2671,"line":2,"is_transit":false},{"station_id":"UP","transit":false,"is_transit":false,"station_name":"Univ. Pancasila","i_lat":-6.339291,"i_long":106.834175,"distance":1029,"line":2,"time":2},{"time":3,"station_name":"Univ. Indonesia","is_transit":false,"i_long":106.831474,"station_id":"UI","line":2,"distance":2264,"transit":false,"i_lat":-6.360749},{"station_id":"POC","is_transit":false,"line":2,"distance":1109,"transit":false,"i_lat":-6.369073,"time":2,"station_name":"Pondok Cina","i_long":106.831114},{"time":4,"station_name":"Depokbaru","i_lat":-6.391065,"distance":2727,"line":2,"station_id":"DPB","is_transit":false,"i_long":106.819451,"transit":false},{"is_transit":false,"distance":1584,"station_name":"Depok","station_id":"DP","time":3,"i_long":106.816926,"line":2,"transit":false,"i_lat":-6.405256},{"transit":false,"station_name":"Citayam","time":6,"is_transit":false,"distance":5084,"i_lat":-6.448811,"i_long":106.800298,"line":2,"station_id":"CTA"},{"station_name":"Bojonggede","station_id":"BJD","i_lat":-6.493243,"transit":false,"time":5,"i_long":106.792719,"distance":5197,"is_transit":false,"line":2}],[{"distance":0,"transit":false,"station_id":"MGB","i_lat":-6.149769,"line":2,"is_transit":false,"station_name":"Manggabesar","i_long":106.82482,"time":0},{"station_id":"JAY","i_long":106.820901,"time":2,"transit":false,"is_transit":false,"i_lat":-6.141205,"station_name":"Jayakarta","distance":1080,"line":2},{"line":2,"station_name":"Jakarta Kota","time":4,"station_id":"JAKK","is_transit":true,"i_lat":-6.137569,"distance":1264,"transit":true,"i_long":106.812439},{"transit":true,"station_name":"Kampung Bandan","i_lat":-6.132549,"is_transit":true,"distance":1364,"time":3,"i_long":106.826365,"line":4,"station_id":"KPB"},{"distance":4102,"station_id":"AK","station_name":"Angke","i_long":106.79867,"is_transit":false,"time":9,"i_lat":-6.144674,"line":1,"transit":false},{"time":4,"station_name":"Duri","transit":false,"i_lat":-6.155215,"line":1,"distance":1230,"is_transit":false,"station_id":"DU","i_long":106.800832},{"i_long":106.811091,"station_id":"THB","station_name":"Tanah Abang","is_transit":false,"distance":3632,"line":1,"i_lat":-6.185545,"transit":false,"time":8},{"i_lat":-6.20132,"station_name":"Karet","station_id":"KAT","is_transit":false,"i_long":106.816351,"transit":false,"distance":2029,"line":1,"time":5},{"distance":471,"time":1,"i_long":106.819881,"station_id":"SUDB","line":1,"is_transit":false,"i_lat":-6.201433,"station_name":"Sudirman Baru","transit":false},{"transit":false,"station_id":"SUD","is_transit":false,"station_name":"Sudirman","i_lat":-6.202263,"i_long":106.822649,"distance":280,"line":1,"time":1},{"i_long":106.84912,"station_id":"MRI","station_name":"Manggarai","is_transit":true,"time":4,"distance":3186,"line":2,"transit":true,"i_lat":-6.209883},{"time":4,"station_name":"Tebet","i_lat":-6.226659,"is_transit":false,"station_id":"TEB","distance":2610,"i_long":106.857948,"line":2,"transit":false},{"transit":false,"line":2,"time":2,"distance":1230,"station_name":"Cawang","station_id":"CW","is_transit":false,"i_lat":-6.242512,"i_long":106.856607},{"is_transit":false,"time":3,"station_name":"Duren Kalibata","distance":1546,"transit":false,"station_id":"DRN","i_long":106.85449,"line":2,"i_lat":-6.255332},{"i_lat":-6.263214,"is_transit":false,"distance":824,"station_id":"PSMB","time":2,"station_name":"Pasar Minggu Baru","transit":false,"i_long":106.851577,"line":2},{"is_transit":false,"i_long":106.843999,"transit":false,"station_name":"Pasar Minggu","i_lat":-6.2842400000000005,"line":2,"time":2,"station_id":"PSM","distance":2380},{"is_transit":false,"station_name":"Tanjung Barat","i_long":106.838896,"i_lat":-6.3080680000000005,"line":2,"distance":2820,"transit":false,"station_id":"TNT","time":4},{"transit":false,"time":3,"distance":2671,"i_lat":-6.330363,"station_id":"LNA","is_transit":false,"station_name":"Lenteng Agung","line":2,"i_long":106.832616},{"is_transit":false,"transit":false,"time":2,"i_long":106.834175,"distance":1029,"line":2,"station_name":"Univ. Pancasila","i_lat":-6.339291,"station_id":"UP"},{"transit":false,"station_id":"UI","line":2,"time":3,"is_transit":false,"i_lat":-6.360749,"distance":2264,"i_long":106.831474,"station_name":"Univ. Indonesia"},{"station_id":"POC","station_name":"Pondok Cina","distance":1109,"is_transit":false,"time":2,"transit":false,"i_long":106.831114,"line":2,"i_lat":-6.369073},{"time":4,"is_transit":false,"i_long":106.819451,"station_name":"Depokbaru","line":2,"station_id":"DPB","distance":2727,"transit":false,"i_lat":-6.391065},{"i_lat":-6.405256,"station_name":"Depok","station_id":"DP","line":2,"i_long":106.816926,"distance":1584,"transit":false,"time":3,"is_transit":false},{"line":2,"transit":false,"i_long":106.800298,"station_id":"CTA","i_lat":-6.448811,"time":6,"station_name":"Citayam","distance":5084,"is_transit":false},{"distance":5197,"time":5,"station_id":"BJD","is_transit":false,"line":2,"i_long":106.792719,"transit":false,"i_lat":-6.493243,"station_name":"Bojonggede"}],[{"line":2,"i_lat":-6.149769,"is_transit":false,"distance":0,"transit":false,"station_id":"MGB","time":0,"station_name":"Manggabesar","i_long":106.82482},{"station_name":"Jayakarta","i_long":106.820901,"distance":1080,"station_id":"JAY","i_lat":-6.141205,"is_transit":false,"time":2,"transit":false,"line":2},{"time":4,"is_transit":true,"distance":1264,"station_id":"JAKK","i_lat":-6.137569,"station_name":"Jakarta Kota","line":2,"i_long":106.812439,"transit":true},{"distance":1364,"station_name":"Kampung Bandan","station_id":"KPB","i_long":106.826365,"line":4,"i_lat":-6.132549,"time":3,"transit":true,"is_transit":true},{"i_lat":-6.14505,"i_long":106.836569,"distance":1444,"line":11,"station_id":"RJW","time":3,"station_name":"Rajawali","transit":false,"is_transit":false},{"i_lat":-6.161728,"distance":1901,"i_long":106.839204,"time":5,"line":11,"transit":false,"station_id":"KMO","station_name":"Kemayoran","is_transit":false},{"time":4,"station_name":"Pasar Senen","transit":false,"station_id":"PSE","distance":1436,"line":11,"is_transit":false,"i_lat":-6.174784,"i_long":106.84368},{"line":11,"distance":1567,"station_name":"Gang Sentiong","time":8,"is_transit":false,"station_id":"GST","i_lat":-6.185975,"i_long":106.850107,"transit":false},{"is_transit":false,"station_name":"Kramat","i_lat":-6.193792,"i_long":106.855437,"distance":973,"time":1,"transit":false,"line":11,"station_id":"KMT"},{"is_transit":false,"distance":1829,"time":2,"transit":false,"i_lat":-6.209188,"i_long":106.861737,"line":11,"station_id":"POK","station_name":"Pondok Jati"},{"distance":1236,"station_name":"Jatinegara","is_transit":true,"time":9,"transit":true,"station_id":"JNG","i_long":106.86807400000001,"i_lat":-6.215091,"line":1},{"station_name":"Matraman","transit":false,"distance":1377,"line":1,"station_id":"MTR","time":2,"is_transit":false,"i_long":106.858896,"i_lat":-6.212485},{"station_name":"Manggarai","i_lat":-6.209883,"is_transit":true,"i_long":106.84912,"distance":1275,"transit":true,"line":2,"time":2,"station_id":"MRI"},{"station_id":"TEB","i_lat":-6.226659,"station_name":"Tebet","line":2,"distance":2610,"i_long":106.857948,"time":4,"is_transit":false,"transit":false},{"i_lat":-6.242512,"station_name":"Cawang","station_id":"CW","time":2,"is_transit":false,"distance":1230,"line":2,"i_long":106.856607,"transit":false},{"is_transit":false,"i_long":106.85449,"distance":1546,"transit":false,"i_lat":-6.255332,"station_id":"DRN","station_name":"Duren Kalibata","time":3,"line":2},{"i_lat":-6.263214,"line":2,"distance":824,"i_long":106.851577,"is_transit":false,"station_name":"Pasar Minggu Baru","time":2,"station_id":"PSMB","transit":false},{"i_lat":-6.2842400000000005,"distance":2380,"is_transit":false,"time":2,"transit":false,"station_id":"PSM","i_long":106.843999,"line":2,"station_name":"Pasar Minggu"},{"i_lat":-6.3080680000000005,"station_id":"TNT","line":2,"i_long":106.838896,"distance":2820,"transit":false,"station_name":"Tanjung Barat","time":4,"is_transit":false},{"i_lat":-6.330363,"station_id":"LNA","i_long":106.832616,"transit":false,"station_name":"Lenteng Agung","time":3,"line":2,"is_transit":false,"distance":2671},{"is_transit":false,"i_long":106.834175,"station_name":"Univ. Pancasila","i_lat":-6.339291,"time":2,"distance":1029,"transit":false,"line":2,"station_id":"UP"},{"distance":2264,"line":2,"transit":false,"i_lat":-6.360749,"station_name":"Univ. Indonesia","time":3,"station_id":"UI","is_transit":false,"i_long":106.831474},{"distance":1109,"station_name":"Pondok Cina","time":2,"i_lat":-6.369073,"transit":false,"is_transit":false,"line":2,"i_long":106.831114,"station_id":"POC"},{"station_name":"Depokbaru","station_id":"DPB","i_lat":-6.391065,"i_long":106.819451,"line":2,"transit":false,"is_transit":false,"distance":2727,"time":4},{"distance":1584,"station_id":"DP","i_long":106.816926,"transit":false,"line":2,"is_transit":false,"station_name":"Depok","i_lat":-6.405256,"time":3},{"is_transit":false,"station_id":"CTA","transit":false,"i_long":106.800298,"line":2,"i_lat":-6.448811,"station_name":"Citayam","time":6,"distance":5084},{"station_name":"Bojonggede","transit":false,"i_lat":-6.493243,"line":2,"time":5,"station_id":"BJD","is_transit":false,"distance":5197,"i_long":106.792719}]]}