{"data":[[{"i_lat":-6.149769,"distance":0,"is_transit":false,"i_long":106.82482,"station_id":"MGB","line":2,"transit":false,"time":0,"station_name":"Manggabesar"},{"i_long":106.827103,"distance":906,"transit":false,"i_lat":-6.160725,"is_transit":false,"time":2,"station_id":"SW","line":2,"station_name":"Sawah Besar"},{"station_id":"JUA","transit":false,"is_transit":false,"time":2,"distance":1149,"station_name":"Juanda","i_lat":-6.166716,"i_long":106.828284,"line":2},{"station_name":"Gondangdia","station_id":"GDD","transit":false,"time":4,"i_long":106.832183,"i_lat":-6.186295,"line":2,"distance":2015,"is_transit":false},{"station_name":"Cikini","line":2,"is_transit":false,"i_long":106.840169,"transit":false,"time":3,"distance":1750,"i_lat":-6.198556,"station_id":"CKI"},{"line":2,"time":4,"distance":1590,"station_name":"Manggarai","station_id":"MRI","i_lat":-6.209883,"is_transit":true,"transit":true,"i_long":106.84912},{"line":1,"time":4,"station_name":"Sudirman","distance":3186,"i_lat":-6.202263,"transit":false,"is_transit":false,"i_long":106.822649,"station_id":"SUD"},{"time":1,"station_id":"SUDB","distance":280,"i_long":106.819881,"station_name":"Sudirman Baru","transit":false,"i_lat":-6.201433,"line":1,"is_transit":false}],[{"station_id":"MGB","distance":0,"line":2,"station_name":"Manggabesar","transit":false,"i_lat":-6.149769,"i_long":106.82482,"time":0,"is_transit":false},{"transit":false,"station_id":"JAY","i_long":106.820901,"station_name":"Jayakarta","time":2,"distance":1080,"is_transit":false,"line":2,"i_lat":-6.141205},{"time":4,"transit":true,"station_name":"Jakarta Kota","is_transit":true,"distance":1264,"i_lat":-6.137569,"i_long":106.812439,"station_id":"JAKK","line":2},{"time":3,"is_transit":true,"transit":true,"i_lat":-6.132549,"i_long":106.826365,"station_id":"KPB","line":4,"station_name":"Kampung Bandan","distance":1364},{"i_long":106.79867,"distance":4102,"i_lat":-6.144674,"transit":false,"time":9,"line":1,"station_id":"AK","station_name":"Angke","is_transit":false},{"station_name":"Duri","time":4,"distance":1230,"transit":false,"station_id":"DU","i_long":106.800832,"is_transit":false,"line":1,"i_lat":-6.155215},{"is_transit":false,"station_id":"THB","station_name":"Tanah Abang","distance":3632,"i_long":106.811091,"time":8,"transit":false,"i_lat":-6.185545,"line":1},{"station_name":"Karet","time":5,"i_long":106.816351,"is_transit":false,"i_lat":-6.20132,"distance":2029,"line":1,"transit":false,"station_id":"KAT"},{"is_transit":false,"distance":471,"station_id":"SUDB","i_lat":-6.201433,"line":1,"station_name":"Sudirman Baru","time":1,"transit":false,"i_long":106.819881}],[{"i_long":106.82482,"transit":false,"station_id":"MGB","station_name":"Manggabesar","time":0,"distance":0,"line":2,"is_transit":false,"i_lat":-6.149769},{"transit":false,"station_id":"JAY","station_name":"Jayakarta","is_transit":false,"distance":1080,"i_lat":-6.141205,"time":2,"i_long":106.820901,"line":2},{"time":4,"is_transit":true,"distance":1264,"i_long":106.812439,"line":2,"transit":true,"station_name":"Jakarta Kota","station_id":"JAKK","i_lat":-6.137569},{"station_id":"KPB","time":3,"i_long":106.826365,"transit":true,"distance":1364,"i_lat":-6.132549,"line":4,"is_transit":true,"station_name":"Kampung Bandan"},{"station_name":"Rajawali","i_lat":-6.14505,"is_transit":false,"station_id":"RJW","time":3,"distance":1444,"line":11,"transit":false,"i_long":106.836569},{"transit":false,"distance":1901,"line":11,"station_id":"KMO","station_name":"Kemayoran","is_transit":false,"i_lat":-6.161728,"i_long":106.839204,"time":5},{"transit":false,"station_id":"PSE","line":11,"i_long":106.84368,"is_transit":false,"time":4,"distance":1436,"i_lat":-6.174784,"station_name":"Pasar Senen"},{"station_id":"GST","time":8,"transit":false,"i_lat":-6.185975,"station_name":"Gang Sentiong","line":11,"is_transit":false,"distance":1567,"i_long":106.850107},{"is_transit":false,"time":1,"distance":973,"i_lat":-6.193792,"line":11,"station_id":"KMT","i_long":106.855437,"transit":false,"station_name":"Kramat"},{"transit":false,"time":2,"station_name":"Pondok Jati","station_id":"POK","is_transit":false,"line":11,"distance":1829,"i_lat":-6.209188,"i_long":106.861737},{"transit":true,"i_lat":-6.215091,"station_id":"JNG","time":9,"is_transit":true,"station_name":"Jatinegara","distance":1236,"i_long":106.86807400000001,"line":1},{"i_long":106.858896,"transit":false,"time":2,"line":1,"distance":1377,"station_id":"MTR","is_transit":false,"station_name":"Matraman","i_lat":-6.212485},{"i_lat":-6.209883,"distance":1275,"transit":false,"is_transit":false,"time":2,"line":2,"station_id":"MRI","station_name":"Manggarai","i_long":106.84912},{"i_long":106.822649,"station_id":"SUD","time":4,"distance":3186,"transit":false,"is_transit":false,"station_name":"Sudirman","i_lat":-6.202263,"line":1},{"line":1,"is_transit":false,"distance":280,"transit":false,"station_name":"Sudirman Baru","time":1,"i_lat":-6.201433,"i_long":106.819881,"station_id":"SUDB"}],[{"station_name":"Manggabesar","is_transit":false,"line":2,"distance":0,"time":0,"i_long":106.82482,"transit":false,"i_lat":-6.149769,"station_id":"MGB"},{"line":2,"distance":906,"station_name":"Sawah Besar","i_lat":-6.160725,"i_long":106.827103,"transit":false,"time":2,"station_id":"SW","is_transit":false},{"line":2,"station_id":"JUA","is_transit":false,"transit":false,"time":2,"distance":1149,"i_lat":-6.166716,"i_long":106.828284,"station_name":"Juanda"},{"station_id":"GDD","distance":2015,"i_long":106.832183,"transit":false,"station_name":"Gondangdia","is_transit":false,"time":4,"i_lat":-6.186295,"line":2},{"transit":false,"time":3,"station_id":"CKI","distance":1750,"i_lat":-6.198556,"line":2,"station_name":"Cikini","i_long":106.840169,"is_transit":false},{"transit":true,"is_transit":true,"station_name":"Manggarai","distance":1590,"i_long":106.84912,"station_id":"MRI","i_lat":-6.209883,"time":4,"line":2},{"is_transit":false,"transit":false,"time":2,"station_name":"Matraman","distance":1275,"i_long":106.858896,"line":1,"i_lat":-6.212485,"station_id":"MTR"},{"time":8,"station_id":"JNG","transit":true,"station_name":"Jatinegara","is_transit":true,"distance":1377,"i_lat":-6.215091,"line":1,"i_long":106.86807400000001},{"distance":1236,"line":11,"time":2,"station_id":"POK","station_name":"Pondok Jati","i_long":106.861737,"is_transit":false,"i_lat":-6.209188,"transit":false},{"station_id":"KMT","transit":false,"time":2,"station_name":"Kramat","is_transit":false,"i_long":106.855437,"distance":1829,"i_lat":-6.193792,"line":11},{"station_id":"GST","line":11,"station_name":"Gang Sentiong","is_transit":false,"transit":false,"time":1,"i_long":106.850107,"distance":973,"i_lat":-6.185975},{"distance":1567,"station_id":"PSE","i_long":106.84368,"line":11,"is_transit":false,"time":8,"i_lat":-6.174784,"transit":false,"station_name":"Pasar Senen"},{"station_id":"KMO","station_name":"Kemayoran","time":4,"i_lat":-6.161728,"is_transit":false,"line":11,"distance":1436,"i_long":106.839204,"transit":false},{"time":5,"distance":1901,"station_name":"Rajawali","station_id":"RJW","i_lat":-6.14505,"i_long":106.836569,"transit":false,"line":11,"is_transit":false},{"transit":true,"station_name":"Kampung Bandan","i_long":106.826365,"line":4,"distance":1444,"time":3,"is_transit":true,"station_id":"KPB","i_lat":-6.132549},{"is_transit":false,"time":9,"line":1,"station_id":"AK","distance":4102,"i_long":106.79867,"i_lat":-6.144674,"transit":false,"station_name":"Angke"},{"line":1,"transit":false,"time":4,"i_long":106.800832,"station_id":"DU","distance":1230,"station_name":"Duri","i_lat":-6.155215,"is_transit":false},{"line":1,"station_id":"THB","transit":false,"station_name":"Tanah Abang","i_lat":-6.185545,"distance":3632,"time":8,"is_transit":false,"i_long":106.811091},{"transit":false,"station_name":"Karet","i_lat":-6.20132,"station_id":"KAT","distance":2029,"i_long":106.816351,"is_transit":false,"time":5,"line":1},{"line":1,"i_long":106.819881,"station_name":"Sudirman Baru","station_id":"SUDB","i_lat":-6.201433,"transit":false,"is_transit":false,"time":1,"distance":471}]]}