{"data":[[{"i_long":110.436791,"time":0,"i_lat":-7.784476,"station_id":"MGW","station_name":"Maguwo","line":7,"is_transit":false,"transit":false,"distance":0},{"station_name":"Brambanan","i_lat":-7.756284,"is_transit":false,"distance":7905,"station_id":"BBN","i_long":110.500451,"time":8,"transit":false,"line":0},{"time":7,"transit":false,"i_lat":-7.74111,"line":7,"i_long":110.548972,"distance":5850,"is_transit":false,"station_id":"SWT","station_name":"Srowot"},{"station_id":"KT","i_long":110.602981,"line":7,"is_transit":false,"transit":false,"distance":6738,"station_name":"Klaten","time":8,"i_lat":-7.712087},{"station_name":"Ceper","time":9,"i_long":110.674861,"transit":false,"distance":9279,"station_id":"CE","is_transit":false,"i_lat":-7.668597,"line":7},{"is_transit":false,"distance":6271,"time":7,"i_long":110.706679,"station_id":"DL","station_name":"Delanggu","transit":false,"i_lat":-7.62181,"line":7},{"distance":5543,"i_lat":-7.589036,"station_name":"Gawok","is_transit":false,"transit":false,"time":6,"i_long":110.744432,"line":7,"station_id":"GW"}]]}