{"data":[[{"transit":false,"distance":0,"station_id":"MGW","station_name":"Maguwo","i_lat":-7.784476,"time":0,"line":7,"is_transit":false,"i_long":110.436791},{"station_id":"BBN","is_transit":false,"time":8,"i_long":110.500451,"line":0,"distance":7905,"i_lat":-7.756284,"transit":false,"station_name":"Brambanan"},{"i_long":110.548972,"time":7,"transit":false,"station_id":"SWT","station_name":"Srowot","i_lat":-7.74111,"line":7,"is_transit":false,"distance":5850},{"i_long":110.602981,"station_id":"KT","i_lat":-7.712087,"is_transit":false,"station_name":"Klaten","time":8,"line":7,"transit":false,"distance":6738},{"transit":false,"i_long":110.674861,"line":7,"is_transit":false,"i_lat":-7.668597,"time":9,"distance":9279,"station_name":"Ceper","station_id":"CE"},{"line":7,"time":7,"station_id":"DL","station_name":"Delanggu","i_long":110.706679,"is_transit":false,"i_lat":-7.62181,"distance":6271,"transit":false},{"time":6,"transit":false,"i_lat":-7.589036,"i_long":110.744432,"station_id":"GW","is_transit":false,"distance":5543,"station_name":"Gawok","line":7}]]}