{"data":[[{"i_long":110.436791,"distance":0,"transit":false,"time":0,"line":7,"station_id":"MGW","i_lat":-7.784476,"station_name":"Maguwo"},{"i_long":110.500451,"distance":7905,"transit":false,"time":8,"line":0,"station_id":"BBN","i_lat":-7.756284,"station_name":"Brambanan"},{"i_long":110.548972,"distance":5850,"transit":false,"time":7,"line":7,"station_id":"SWT","i_lat":-7.74111,"station_name":"Srowot"},{"i_long":110.602981,"distance":6738,"transit":false,"time":8,"line":7,"station_id":"KT","i_lat":-7.712087,"station_name":"Klaten"},{"i_long":110.674861,"distance":9279,"transit":false,"time":9,"line":7,"station_id":"CE","i_lat":-7.668597,"station_name":"Ceper"},{"i_long":110.706679,"distance":6271,"transit":false,"time":7,"line":7,"station_id":"DL","i_lat":-7.62181,"station_name":"Delanggu"},{"i_long":110.744432,"distance":5543,"transit":false,"time":6,"line":7,"station_id":"GW","i_lat":-7.589036,"station_name":"Gawok"}]]}