{"data":[[{"distance":0,"station_id":"MGW","station_name":"Maguwo","i_lat":-7.784476,"is_transit":false,"line":7,"time":0,"transit":false,"i_long":110.436791},{"line":7,"station_name":"Lempuyangan","transit":false,"distance":6799,"time":7,"station_id":"LPN","i_long":110.375434,"i_lat":-7.790018,"is_transit":false},{"line":7,"station_name":"Yogyakarta","time":6,"is_transit":false,"transit":false,"i_lat":-7.788961,"distance":1307,"station_id":"YK","i_long":110.36345},{"i_long":110.32542,"i_lat":-7.790605,"time":5,"station_id":"PTN","is_transit":false,"distance":4241,"station_name":"Patukan","transit":false,"line":7},{"line":7,"transit":false,"time":4,"distance":4579,"station_id":"RWL","i_lat":-7.797702,"station_name":"Rewulu","is_transit":false,"i_long":110.279205},{"i_long":110.220122,"line":0,"i_lat":-7.832939,"is_transit":false,"station_id":"STL","distance":9041,"station_name":"Sentolo","transit":false,"time":8},{"time":25,"i_lat":-7.859237,"distance":10145,"i_long":110.158003,"transit":false,"line":7,"is_transit":false,"station_id":"WT","station_name":"Wates"},{"time":15,"is_transit":false,"station_id":"WJ","line":7,"transit":false,"i_lat":-7.861626,"distance":13652,"i_long":110.040449,"station_name":"Wojo"},{"distance":8393,"station_id":"JN","time":10,"transit":false,"i_long":110.000548,"is_transit":false,"station_name":"Jenar","line":0,"i_lat":-7.801845},{"transit":false,"i_lat":-7.725824,"i_long":109.90723,"station_id":"KTA","line":0,"time":16,"is_transit":false,"station_name":"Kutoarjo","distance":10145}]]}