{"data":[[{"i_lat":-7.784476,"is_transit":false,"time":0,"distance":0,"station_name":"Maguwo","line":7,"station_id":"MGW","i_long":110.436791,"transit":false},{"time":8,"distance":7905,"i_long":110.500451,"i_lat":-7.756284,"line":0,"station_name":"Brambanan","transit":false,"station_id":"BBN","is_transit":false},{"i_long":110.548972,"transit":false,"line":7,"station_id":"SWT","time":7,"distance":5850,"i_lat":-7.74111,"station_name":"Srowot","is_transit":false},{"i_lat":-7.712087,"station_name":"Klaten","distance":6738,"line":7,"station_id":"KT","time":8,"i_long":110.602981,"is_transit":false,"transit":false},{"time":9,"i_lat":-7.668597,"i_long":110.674861,"line":7,"station_id":"CE","transit":false,"station_name":"Ceper","distance":9279,"is_transit":false},{"time":7,"station_id":"DL","station_name":"Delanggu","line":7,"i_long":110.706679,"transit":false,"i_lat":-7.62181,"is_transit":false,"distance":6271}]]}