{"data":[[{"is_transit":false,"station_name":"Maguwo","station_id":"MGW","distance":0,"i_lat":-7.784476,"i_long":110.436791,"line":7,"transit":false,"time":0},{"station_name":"Lempuyangan","distance":6799,"line":7,"transit":false,"is_transit":false,"station_id":"LPN","i_long":110.375434,"time":7,"i_lat":-7.790018},{"distance":1307,"is_transit":false,"station_id":"YK","time":6,"transit":false,"i_lat":-7.788961,"station_name":"Yogyakarta","i_long":110.36345,"line":7},{"station_id":"PTN","line":7,"is_transit":false,"transit":false,"station_name":"Patukan","time":5,"i_lat":-7.790605,"distance":4241,"i_long":110.32542},{"distance":4579,"transit":false,"time":4,"i_lat":-7.797702,"i_long":110.279205,"line":7,"station_id":"RWL","is_transit":false,"station_name":"Rewulu"},{"station_id":"STL","station_name":"Sentolo","i_lat":-7.832939,"transit":false,"i_long":110.220122,"is_transit":false,"time":8,"line":0,"distance":9041},{"is_transit":false,"line":7,"i_long":110.158003,"transit":false,"i_lat":-7.859237,"distance":10145,"time":25,"station_id":"WT","station_name":"Wates"}]]}