{"data":[[{"is_transit":false,"i_long":110.436791,"time":0,"transit":false,"station_name":"Maguwo","distance":0,"i_lat":-7.784476,"line":7,"station_id":"MGW"},{"i_lat":-7.790018,"time":7,"station_name":"Lempuyangan","transit":false,"i_long":110.375434,"is_transit":false,"line":7,"station_id":"LPN","distance":6799},{"transit":false,"i_lat":-7.788961,"i_long":110.36345,"distance":1307,"station_id":"YK","time":6,"line":7,"station_name":"Yogyakarta","is_transit":false},{"distance":4241,"transit":false,"line":7,"station_name":"Patukan","i_lat":-7.790605,"i_long":110.32542,"station_id":"PTN","is_transit":false,"time":5},{"time":4,"station_id":"RWL","i_long":110.279205,"transit":false,"station_name":"Rewulu","line":7,"distance":4579,"i_lat":-7.797702,"is_transit":false},{"distance":9041,"is_transit":false,"time":8,"station_name":"Sentolo","transit":false,"line":0,"i_long":110.220122,"i_lat":-7.832939,"station_id":"STL"},{"time":25,"distance":10145,"line":7,"i_long":110.158003,"station_name":"Wates","transit":false,"station_id":"WT","is_transit":false,"i_lat":-7.859237}]]}