{"data":[[{"transit":false,"i_lat":-7.784476,"line":7,"station_name":"Maguwo","is_transit":false,"time":0,"i_long":110.436791,"distance":0,"station_id":"MGW"},{"i_lat":-7.756284,"is_transit":false,"transit":false,"station_id":"BBN","distance":7905,"station_name":"Brambanan","i_long":110.500451,"time":8,"line":0},{"i_long":110.548972,"distance":5850,"is_transit":false,"i_lat":-7.74111,"transit":false,"station_name":"Srowot","station_id":"SWT","line":7,"time":7},{"distance":6738,"i_long":110.602981,"station_name":"Klaten","time":8,"is_transit":false,"line":7,"station_id":"KT","i_lat":-7.712087,"transit":false},{"time":9,"i_long":110.674861,"is_transit":false,"station_name":"Ceper","station_id":"CE","i_lat":-7.668597,"transit":false,"distance":9279,"line":7},{"distance":6271,"time":7,"transit":false,"station_name":"Delanggu","is_transit":false,"i_long":110.706679,"i_lat":-7.62181,"station_id":"DL","line":7}]]}