{"data":[[{"station_id":"MGW","time":0,"distance":0,"i_long":110.436791,"line":7,"i_lat":-7.784476,"transit":false,"is_transit":false,"station_name":"Maguwo"},{"time":7,"line":7,"distance":6799,"i_long":110.375434,"station_id":"LPN","i_lat":-7.790018,"station_name":"Lempuyangan","is_transit":false,"transit":false},{"station_id":"YK","line":7,"station_name":"Yogyakarta","transit":false,"i_long":110.36345,"is_transit":false,"time":6,"i_lat":-7.788961,"distance":1307},{"time":5,"station_id":"PTN","i_lat":-7.790605,"station_name":"Patukan","transit":false,"distance":4241,"i_long":110.32542,"line":7,"is_transit":false},{"is_transit":false,"transit":false,"line":7,"i_lat":-7.797702,"time":4,"i_long":110.279205,"station_id":"RWL","distance":4579,"station_name":"Rewulu"},{"line":7,"station_id":"STL","transit":false,"is_transit":false,"distance":9041,"station_name":"Sentolo","i_lat":-7.832939,"i_long":110.220122,"time":8},{"is_transit":false,"transit":false,"line":7,"station_name":"Wates","time":25,"i_lat":-7.859237,"station_id":"WT","i_long":110.158003,"distance":10145},{"station_name":"Wojo","transit":false,"time":15,"i_long":110.040449,"is_transit":false,"station_id":"WJ","i_lat":-7.861626,"distance":13652,"line":7},{"i_lat":-7.801845,"line":7,"i_long":110.000548,"is_transit":false,"time":10,"station_id":"JN","station_name":"Jenar","transit":false,"distance":8393},{"distance":10145,"time":16,"i_long":109.90723,"transit":false,"i_lat":-7.725824,"station_id":"KTA","station_name":"Kutoarjo","is_transit":false,"line":7}]]}