{"data":[[{"time":0,"distance":0,"station_name":"Maguwo","station_id":"MGW","transit":false,"is_transit":false,"line":7,"i_long":110.436791,"i_lat":-7.784476},{"line":0,"distance":7905,"station_name":"Brambanan","transit":false,"time":8,"i_lat":-7.756284,"i_long":110.500451,"is_transit":false,"station_id":"BBN"},{"station_id":"SWT","transit":false,"time":7,"is_transit":false,"distance":5850,"i_long":110.548972,"station_name":"Srowot","i_lat":-7.74111,"line":7},{"line":7,"i_lat":-7.712087,"i_long":110.602981,"transit":false,"is_transit":false,"distance":6738,"time":8,"station_name":"Klaten","station_id":"KT"},{"i_lat":-7.668597,"line":7,"is_transit":false,"i_long":110.674861,"distance":9279,"station_name":"Ceper","time":9,"station_id":"CE","transit":false},{"transit":false,"line":7,"i_lat":-7.62181,"station_id":"DL","distance":6271,"is_transit":false,"time":7,"station_name":"Delanggu","i_long":110.706679}]]}