{"data":[[{"i_long":110.436791,"distance":0,"transit":false,"station_name":"Maguwo","is_transit":false,"time":0,"i_lat":-7.784476,"station_id":"MGW","line":7},{"transit":false,"is_transit":false,"i_long":110.500451,"distance":7905,"station_id":"BBN","line":0,"station_name":"Brambanan","time":8,"i_lat":-7.756284},{"i_long":110.548972,"time":7,"station_name":"Srowot","distance":5850,"line":7,"i_lat":-7.74111,"transit":false,"station_id":"SWT","is_transit":false},{"i_long":110.602981,"station_name":"Klaten","distance":6738,"line":7,"station_id":"KT","time":8,"is_transit":false,"i_lat":-7.712087,"transit":false},{"i_lat":-7.668597,"line":7,"station_name":"Ceper","distance":9279,"i_long":110.674861,"transit":false,"time":9,"is_transit":false,"station_id":"CE"},{"station_id":"DL","is_transit":false,"time":7,"line":7,"transit":false,"station_name":"Delanggu","i_long":110.706679,"i_lat":-7.62181,"distance":6271},{"station_name":"Gawok","station_id":"GW","is_transit":false,"distance":5543,"time":6,"i_lat":-7.589036,"i_long":110.744432,"line":7,"transit":false}]]}