{"data":[[{"is_transit":false,"station_name":"Maguwo","transit":false,"line":7,"i_lat":-7.784476,"station_id":"MGW","time":0,"i_long":110.436791,"distance":0},{"station_name":"Lempuyangan","i_lat":-7.790018,"i_long":110.375434,"line":7,"time":7,"transit":false,"distance":6799,"is_transit":false,"station_id":"LPN"},{"transit":false,"station_id":"YK","i_long":110.36345,"distance":1307,"station_name":"Yogyakarta","i_lat":-7.788961,"time":6,"is_transit":false,"line":7},{"station_name":"Patukan","i_long":110.32542,"distance":4241,"is_transit":false,"transit":false,"i_lat":-7.790605,"line":7,"station_id":"PTN","time":5},{"time":4,"station_name":"Rewulu","line":7,"is_transit":false,"station_id":"RWL","distance":4579,"i_lat":-7.797702,"i_long":110.279205,"transit":false},{"time":8,"station_id":"STL","station_name":"Sentolo","transit":false,"i_lat":-7.832939,"line":0,"is_transit":false,"i_long":110.220122,"distance":9041},{"line":7,"i_long":110.158003,"station_id":"WT","station_name":"Wates","time":25,"transit":false,"i_lat":-7.859237,"distance":10145,"is_transit":false}]]}