{"data":[[{"station_id":"MGW","i_long":110.436791,"distance":0,"i_lat":-7.784476,"station_name":"Maguwo","line":7,"is_transit":false,"time":0,"transit":false},{"station_id":"LPN","time":7,"i_long":110.375434,"station_name":"Lempuyangan","distance":6799,"i_lat":-7.790018,"line":7,"is_transit":false,"transit":false},{"station_id":"YK","transit":false,"i_long":110.36345,"time":6,"line":7,"distance":1307,"is_transit":false,"i_lat":-7.788961,"station_name":"Yogyakarta"},{"transit":false,"i_long":110.32542,"distance":4241,"is_transit":false,"i_lat":-7.790605,"station_name":"Patukan","station_id":"PTN","line":7,"time":5},{"i_lat":-7.797702,"i_long":110.279205,"line":7,"station_name":"Rewulu","distance":4579,"is_transit":false,"transit":false,"station_id":"RWL","time":4},{"distance":9041,"is_transit":false,"station_name":"Sentolo","i_lat":-7.832939,"transit":false,"line":0,"time":8,"i_long":110.220122,"station_id":"STL"},{"time":25,"station_id":"WT","is_transit":false,"transit":false,"distance":10145,"line":7,"i_long":110.158003,"i_lat":-7.859237,"station_name":"Wates"},{"station_name":"Wojo","line":7,"transit":false,"time":15,"i_lat":-7.861626,"is_transit":false,"station_id":"WJ","i_long":110.040449,"distance":13652},{"is_transit":false,"i_long":110.000548,"station_name":"Jenar","transit":false,"time":10,"i_lat":-7.801845,"distance":8393,"station_id":"JN","line":0},{"transit":false,"station_name":"Kutoarjo","is_transit":false,"station_id":"KTA","i_long":109.90723,"time":16,"distance":10145,"i_lat":-7.725824,"line":0}]]}