{"data":[[{"transit":false,"is_transit":false,"i_lat":-7.784476,"distance":0,"station_id":"MGW","station_name":"Maguwo","line":7,"time":0,"i_long":110.436791},{"transit":false,"is_transit":false,"time":8,"distance":7905,"i_long":110.500451,"line":0,"station_id":"BBN","station_name":"Brambanan","i_lat":-7.756284},{"transit":false,"line":7,"distance":5850,"i_long":110.548972,"station_id":"SWT","station_name":"Srowot","time":7,"is_transit":false,"i_lat":-7.74111},{"station_name":"Klaten","i_long":110.602981,"distance":6738,"is_transit":false,"transit":false,"time":8,"station_id":"KT","i_lat":-7.712087,"line":7},{"station_id":"CE","distance":9279,"is_transit":false,"time":9,"station_name":"Ceper","transit":false,"i_lat":-7.668597,"i_long":110.674861,"line":0},{"transit":false,"station_name":"Delanggu","time":7,"i_long":110.706679,"i_lat":-7.62181,"line":0,"is_transit":false,"distance":6271,"station_id":"DL"}]]}