{"data":[[{"line":7,"station_id":"MGW","station_name":"Maguwo","distance":0,"time":0,"i_long":110.436791,"i_lat":-7.784476,"transit":false,"is_transit":false},{"i_long":110.375434,"i_lat":-7.790018,"distance":6799,"transit":false,"time":7,"station_id":"LPN","line":7,"is_transit":false,"station_name":"Lempuyangan"},{"transit":false,"i_long":110.36345,"station_id":"YK","is_transit":false,"i_lat":-7.788961,"distance":1307,"station_name":"Yogyakarta","time":6,"line":7},{"is_transit":false,"distance":4241,"i_lat":-7.790605,"transit":false,"station_name":"Patukan","station_id":"PTN","i_long":110.32542,"line":7,"time":5},{"is_transit":false,"transit":false,"time":4,"i_lat":-7.797702,"line":7,"distance":4579,"station_id":"RWL","station_name":"Rewulu","i_long":110.279205},{"is_transit":false,"i_long":110.220122,"time":8,"distance":9041,"station_name":"Sentolo","station_id":"STL","line":7,"i_lat":-7.832939,"transit":false},{"station_id":"WT","transit":false,"line":7,"is_transit":false,"station_name":"Wates","distance":10145,"i_long":110.158003,"time":25,"i_lat":-7.859237}]]}