{"data":[[{"transit":false,"is_transit":false,"station_id":"MGW","line":7,"time":0,"i_long":110.436791,"station_name":"Maguwo","i_lat":-7.784476,"distance":0},{"time":8,"line":0,"station_name":"Brambanan","distance":7905,"i_lat":-7.756284,"i_long":110.500451,"transit":false,"is_transit":false,"station_id":"BBN"},{"line":7,"distance":5850,"i_lat":-7.74111,"transit":false,"station_id":"SWT","station_name":"Srowot","time":7,"i_long":110.548972,"is_transit":false},{"transit":false,"line":7,"station_name":"Klaten","time":8,"is_transit":false,"i_long":110.602981,"distance":6738,"station_id":"KT","i_lat":-7.712087},{"i_lat":-7.668597,"station_id":"CE","i_long":110.674861,"is_transit":false,"distance":9279,"transit":false,"line":0,"station_name":"Ceper","time":9},{"time":7,"is_transit":false,"station_name":"Delanggu","i_lat":-7.62181,"line":0,"station_id":"DL","distance":6271,"i_long":110.706679,"transit":false},{"distance":5543,"time":6,"is_transit":false,"station_id":"GW","station_name":"Gawok","i_long":110.744432,"i_lat":-7.589036,"line":7,"transit":false}]]}