{"data":[[{"i_long":110.436791,"transit":false,"station_name":"Maguwo","time":0,"line":7,"is_transit":false,"i_lat":-7.784476,"distance":0,"station_id":"MGW"},{"is_transit":false,"line":7,"station_name":"Lempuyangan","transit":false,"i_lat":-7.790018,"time":7,"i_long":110.375434,"distance":6799,"station_id":"LPN"},{"station_name":"Yogyakarta","i_long":110.36345,"i_lat":-7.788961,"is_transit":false,"distance":1307,"station_id":"YK","time":6,"transit":false,"line":7},{"is_transit":false,"distance":4241,"station_name":"Patukan","line":7,"transit":false,"station_id":"PTN","time":5,"i_lat":-7.790605,"i_long":110.32542},{"transit":false,"distance":4579,"is_transit":false,"time":4,"station_id":"RWL","i_lat":-7.797702,"i_long":110.279205,"line":7,"station_name":"Rewulu"},{"time":8,"station_id":"STL","line":0,"station_name":"Sentolo","i_long":110.220122,"distance":9041,"i_lat":-7.832939,"is_transit":false,"transit":false},{"is_transit":false,"i_lat":-7.859237,"station_id":"WT","line":7,"transit":false,"station_name":"Wates","time":25,"i_long":110.158003,"distance":10145},{"distance":13652,"i_long":110.040449,"line":7,"station_name":"Wojo","time":15,"is_transit":false,"station_id":"WJ","transit":false,"i_lat":-7.861626},{"transit":false,"line":0,"distance":8393,"station_name":"Jenar","i_lat":-7.801845,"i_long":110.000548,"time":10,"is_transit":false,"station_id":"JN"},{"time":16,"i_long":109.90723,"transit":false,"station_id":"KTA","station_name":"Kutoarjo","is_transit":false,"i_lat":-7.725824,"distance":10145,"line":0}]]}