{"data":[[{"line":6,"is_transit":false,"time":0,"transit":false,"station_name":"Maja","distance":0,"station_id":"MJ","i_lat":-6.332307,"i_long":106.394373},{"line":3,"i_lat":-6.33561,"i_long":106.411216,"transit":false,"time":4,"distance":1853,"station_id":"CKY","station_name":"Cikoya","is_transit":false},{"i_long":106.425991,"distance":2651,"station_id":"TGS","time":3,"transit":false,"i_lat":-6.328533,"line":6,"station_name":"Tigaraksa","is_transit":false},{"station_id":"TEJ","i_long":106.460812,"station_name":"Tenjo","is_transit":false,"time":5,"i_lat":-6.327251,"line":6,"transit":false,"distance":2974},{"time":5,"line":0,"i_lat":-6.338021,"distance":3902,"station_name":"Daru","station_id":"DAR","is_transit":false,"i_long":106.491338,"transit":false},{"time":6,"i_lat":-6.354349,"i_long":106.508482,"station_name":"Cilejit","distance":2675,"line":3,"station_id":"CJT","is_transit":false,"transit":false},{"station_id":"PRP","distance":7025,"line":6,"i_long":106.568863,"time":9,"station_name":"Parung Panjang","transit":false,"is_transit":false,"i_lat":-6.3441410000000005},{"station_id":"CC","i_long":106.617853,"line":3,"station_name":"Cicayur","is_transit":false,"time":8,"i_lat":-6.329547,"transit":false,"distance":5968},{"i_lat":-6.32484,"line":3,"time":4,"station_name":"Cisauk","distance":2519,"station_id":"CSK","transit":false,"is_transit":false,"i_long":106.640411},{"time":4,"station_id":"SRP","distance":1784,"i_long":106.66566,"station_name":"Serpong","line":6,"transit":false,"i_lat":-6.319871,"is_transit":false},{"station_name":"Rawa Buntu","time":4,"transit":false,"distance":2413,"is_transit":false,"i_lat":-6.314823,"station_id":"RU","i_long":106.675475,"line":6},{"station_name":"Sudimara","i_lat":-6.296963,"transit":false,"is_transit":false,"distance":4566,"time":6,"i_long":106.712277,"station_id":"SDM","line":6},{"station_name":"Jurangmangu","is_transit":false,"transit":false,"distance":1994,"i_long":106.728916,"station_id":"JMU","time":4,"i_lat":-6.288927,"line":6},{"distance":2179,"station_name":"Pondokranji","time":3,"line":6,"is_transit":false,"transit":false,"i_long":106.74273,"i_lat":-6.276362,"station_id":"PDJ"},{"line":6,"i_lat":-6.237242,"distance":6218,"transit":false,"station_id":"KBY","time":8,"is_transit":false,"station_name":"Kebayoran","i_long":106.780334},{"transit":false,"distance":3737,"i_long":106.79689,"station_name":"Palmerah","station_id":"PLM","is_transit":false,"time":7,"i_lat":-6.207404,"line":6},{"time":6,"line":1,"is_transit":true,"station_name":"Tanah Abang","station_id":"THB","distance":3191,"i_lat":-6.185545,"transit":true,"i_long":106.811091},{"i_long":106.800832,"station_id":"DU","transit":false,"distance":3632,"time":8,"station_name":"Duri","is_transit":false,"i_lat":-6.155215,"line":1},{"station_name":"Angke","i_lat":-6.144674,"station_id":"AK","is_transit":false,"time":4,"line":1,"distance":1230,"i_long":106.79867,"transit":false},{"distance":4102,"station_name":"Kampung Bandan","line":4,"is_transit":true,"transit":true,"time":9,"station_id":"KPB","i_long":106.826365,"i_lat":-6.132549},{"time":4,"i_long":106.84464,"is_transit":false,"transit":false,"i_lat":-6.128023,"station_id":"AC","station_name":"Ancol","distance":2185,"line":4}],[{"station_id":"MJ","distance":0,"transit":false,"station_name":"Maja","i_lat":-6.332307,"line":6,"time":0,"is_transit":false,"i_long":106.394373},{"station_id":"CKY","i_long":106.411216,"is_transit":false,"station_name":"Cikoya","time":4,"transit":false,"distance":1853,"line":3,"i_lat":-6.33561},{"station_id":"TGS","transit":false,"time":3,"distance":2651,"station_name":"Tigaraksa","i_long":106.425991,"i_lat":-6.328533,"is_transit":false,"line":6},{"line":6,"distance":2974,"time":5,"station_id":"TEJ","station_name":"Tenjo","transit":false,"is_transit":false,"i_lat":-6.327251,"i_long":106.460812},{"is_transit":false,"time":5,"i_long":106.491338,"station_name":"Daru","i_lat":-6.338021,"line":0,"station_id":"DAR","distance":3902,"transit":false},{"i_long":106.508482,"line":3,"time":6,"is_transit":false,"i_lat":-6.354349,"station_name":"Cilejit","distance":2675,"station_id":"CJT","transit":false},{"line":6,"time":9,"station_id":"PRP","distance":7025,"transit":false,"station_name":"Parung Panjang","is_transit":false,"i_long":106.568863,"i_lat":-6.3441410000000005},{"transit":false,"distance":5968,"station_id":"CC","line":3,"i_lat":-6.329547,"station_name":"Cicayur","is_transit":false,"time":8,"i_long":106.617853},{"is_transit":false,"transit":false,"i_lat":-6.32484,"station_id":"CSK","distance":2519,"time":4,"station_name":"Cisauk","i_long":106.640411,"line":3},{"i_long":106.66566,"time":4,"station_id":"SRP","station_name":"Serpong","transit":false,"is_transit":false,"i_lat":-6.319871,"line":6,"distance":1784},{"i_lat":-6.314823,"i_long":106.675475,"line":6,"is_transit":false,"distance":2413,"station_name":"Rawa Buntu","station_id":"RU","time":4,"transit":false},{"i_lat":-6.296963,"is_transit":false,"station_name":"Sudimara","transit":false,"i_long":106.712277,"line":6,"station_id":"SDM","time":6,"distance":4566},{"station_id":"JMU","line":6,"i_long":106.728916,"transit":false,"is_transit":false,"i_lat":-6.288927,"distance":1994,"time":4,"station_name":"Jurangmangu"},{"transit":false,"station_id":"PDJ","line":6,"station_name":"Pondokranji","i_lat":-6.276362,"i_long":106.74273,"distance":2179,"is_transit":false,"time":3},{"is_transit":false,"distance":6218,"line":6,"station_name":"Kebayoran","i_lat":-6.237242,"time":8,"station_id":"KBY","transit":false,"i_long":106.780334},{"station_id":"PLM","station_name":"Palmerah","transit":false,"i_lat":-6.207404,"distance":3737,"time":7,"is_transit":false,"i_long":106.79689,"line":6},{"station_id":"THB","transit":true,"time":6,"line":1,"i_lat":-6.185545,"i_long":106.811091,"is_transit":true,"distance":3191,"station_name":"Tanah Abang"},{"i_long":106.816351,"line":1,"transit":false,"station_name":"Karet","distance":2029,"time":5,"is_transit":false,"station_id":"KAT","i_lat":-6.20132},{"line":1,"distance":471,"transit":false,"i_long":106.819881,"station_name":"Sudirman Baru","i_lat":-6.201433,"time":1,"station_id":"SUDB","is_transit":false},{"transit":false,"time":1,"distance":280,"line":1,"is_transit":false,"i_long":106.822649,"i_lat":-6.202263,"station_name":"Sudirman","station_id":"SUD"},{"distance":3186,"transit":true,"time":4,"is_transit":true,"station_id":"MRI","station_name":"Manggarai","i_lat":-6.209883,"i_long":106.84912,"line":2},{"distance":1590,"is_transit":false,"time":4,"station_name":"Cikini","station_id":"CKI","transit":false,"i_lat":-6.198556,"line":2,"i_long":106.840169},{"is_transit":false,"line":2,"station_name":"Gondangdia","i_long":106.832183,"transit":false,"station_id":"GDD","i_lat":-6.186295,"time":3,"distance":1750},{"transit":false,"station_id":"JUA","distance":2015,"station_name":"Juanda","i_long":106.828284,"line":2,"time":4,"is_transit":false,"i_lat":-6.166716},{"is_transit":false,"line":2,"distance":1149,"transit":false,"time":2,"station_name":"Sawah Besar","i_lat":-6.160725,"i_long":106.827103,"station_id":"SW"},{"i_long":106.82482,"station_id":"MGB","station_name":"Manggabesar","transit":false,"is_transit":false,"time":2,"distance":906,"line":2,"i_lat":-6.149769},{"line":2,"distance":1080,"station_name":"Jayakarta","is_transit":false,"i_long":106.820901,"time":2,"i_lat":-6.141205,"transit":false,"station_id":"JAY"},{"station_name":"Jakarta Kota","i_lat":-6.137569,"transit":true,"distance":1264,"i_long":106.812439,"is_transit":true,"line":2,"station_id":"JAKK","time":4},{"time":3,"transit":true,"station_name":"Kampung Bandan","line":4,"is_transit":true,"station_id":"KPB","distance":1364,"i_long":106.826365,"i_lat":-6.132549},{"station_id":"AC","i_lat":-6.128023,"i_long":106.84464,"transit":false,"is_transit":false,"time":4,"distance":2185,"line":4,"station_name":"Ancol"}],[{"time":0,"station_name":"Maja","i_long":106.394373,"line":6,"station_id":"MJ","is_transit":false,"i_lat":-6.332307,"distance":0,"transit":false},{"time":4,"i_long":106.411216,"transit":false,"station_id":"CKY","station_name":"Cikoya","is_transit":false,"line":3,"distance":1853,"i_lat":-6.33561},{"i_lat":-6.328533,"station_name":"Tigaraksa","station_id":"TGS","transit":false,"i_long":106.425991,"distance":2651,"time":3,"is_transit":false,"line":6},{"i_lat":-6.327251,"time":5,"line":6,"distance":2974,"station_name":"Tenjo","transit":false,"i_long":106.460812,"is_transit":false,"station_id":"TEJ"},{"i_long":106.491338,"transit":false,"station_id":"DAR","i_lat":-6.338021,"station_name":"Daru","line":0,"distance":3902,"is_transit":false,"time":5},{"station_id":"CJT","transit":false,"station_name":"Cilejit","is_transit":false,"time":6,"i_lat":-6.354349,"distance":2675,"line":3,"i_long":106.508482},{"station_name":"Parung Panjang","i_long":106.568863,"station_id":"PRP","time":9,"is_transit":false,"line":6,"i_lat":-6.3441410000000005,"distance":7025,"transit":false},{"i_long":106.617853,"time":8,"distance":5968,"i_lat":-6.329547,"is_transit":false,"station_id":"CC","transit":false,"station_name":"Cicayur","line":3},{"i_lat":-6.32484,"distance":2519,"station_name":"Cisauk","is_transit":false,"transit":false,"time":4,"i_long":106.640411,"station_id":"CSK","line":3},{"transit":false,"station_name":"Serpong","distance":1784,"time":4,"is_transit":false,"i_lat":-6.319871,"line":6,"station_id":"SRP","i_long":106.66566},{"station_id":"RU","station_name":"Rawa Buntu","is_transit":false,"transit":false,"distance":2413,"i_long":106.675475,"time":4,"i_lat":-6.314823,"line":6},{"i_long":106.712277,"station_id":"SDM","line":6,"time":6,"distance":4566,"i_lat":-6.296963,"transit":false,"is_transit":false,"station_name":"Sudimara"},{"i_lat":-6.288927,"line":6,"time":4,"station_id":"JMU","transit":false,"is_transit":false,"station_name":"Jurangmangu","distance":1994,"i_long":106.728916},{"transit":false,"distance":2179,"station_name":"Pondokranji","is_transit":false,"time":3,"i_lat":-6.276362,"i_long":106.74273,"line":6,"station_id":"PDJ"},{"line":6,"i_long":106.780334,"station_id":"KBY","station_name":"Kebayoran","distance":6218,"transit":false,"is_transit":false,"time":8,"i_lat":-6.237242},{"station_name":"Palmerah","distance":3737,"time":7,"transit":false,"station_id":"PLM","is_transit":false,"line":6,"i_lat":-6.207404,"i_long":106.79689},{"time":6,"distance":3191,"line":1,"is_transit":true,"i_long":106.811091,"i_lat":-6.185545,"station_id":"THB","transit":true,"station_name":"Tanah Abang"},{"station_id":"KAT","i_lat":-6.20132,"time":5,"transit":false,"is_transit":false,"i_long":106.816351,"station_name":"Karet","line":1,"distance":2029},{"line":1,"is_transit":false,"station_id":"SUDB","transit":false,"i_lat":-6.201433,"time":1,"distance":471,"i_long":106.819881,"station_name":"Sudirman Baru"},{"station_name":"Sudirman","time":1,"i_lat":-6.202263,"line":1,"is_transit":false,"i_long":106.822649,"station_id":"SUD","distance":280,"transit":false},{"i_lat":-6.209883,"distance":3186,"station_id":"MRI","station_name":"Manggarai","i_long":106.84912,"is_transit":false,"time":4,"transit":false,"line":2},{"i_long":106.858896,"i_lat":-6.212485,"line":1,"station_id":"MTR","is_transit":false,"distance":1275,"time":2,"station_name":"Matraman","transit":false},{"line":1,"distance":1377,"i_lat":-6.215091,"transit":true,"time":8,"i_long":106.86807400000001,"station_name":"Jatinegara","is_transit":true,"station_id":"JNG"},{"distance":1236,"is_transit":false,"line":11,"station_name":"Pondok Jati","station_id":"POK","transit":false,"i_long":106.861737,"time":2,"i_lat":-6.209188},{"i_lat":-6.193792,"time":2,"is_transit":false,"line":11,"station_id":"KMT","station_name":"Kramat","i_long":106.855437,"transit":false,"distance":1829},{"transit":false,"station_name":"Gang Sentiong","i_lat":-6.185975,"station_id":"GST","is_transit":false,"line":11,"time":1,"i_long":106.850107,"distance":973},{"station_id":"PSE","is_transit":false,"i_lat":-6.174784,"distance":1567,"i_long":106.84368,"line":11,"station_name":"Pasar Senen","time":8,"transit":false},{"i_long":106.839204,"distance":1436,"transit":false,"line":11,"station_id":"KMO","station_name":"Kemayoran","time":4,"is_transit":false,"i_lat":-6.161728},{"distance":1901,"i_lat":-6.14505,"i_long":106.836569,"line":11,"station_name":"Rajawali","is_transit":false,"station_id":"RJW","transit":false,"time":5},{"distance":1444,"is_transit":true,"i_long":106.826365,"line":4,"station_name":"Kampung Bandan","transit":true,"time":3,"station_id":"KPB","i_lat":-6.132549},{"is_transit":false,"i_long":106.84464,"station_id":"AC","time":4,"station_name":"Ancol","line":4,"distance":2185,"i_lat":-6.128023,"transit":false}]]}