{"data":[[{"station_name":"Maja","distance":0,"i_long":106.394373,"time":0,"line":6,"station_id":"MJ","is_transit":false,"transit":false,"i_lat":-6.332307},{"is_transit":false,"i_lat":-6.33561,"line":0,"station_id":"CKY","transit":false,"time":4,"distance":1853,"station_name":"Cikoya","i_long":106.411216},{"i_lat":-6.328533,"transit":false,"time":3,"station_name":"Tigaraksa","station_id":"TGS","i_long":106.425991,"line":6,"distance":2651,"is_transit":false},{"transit":false,"distance":2974,"line":6,"station_name":"Tenjo","station_id":"TEJ","is_transit":false,"time":5,"i_lat":-6.327251,"i_long":106.460812},{"time":5,"line":0,"station_id":"DAR","transit":false,"i_long":106.491338,"i_lat":-6.338021,"is_transit":false,"distance":3902,"station_name":"Daru"},{"distance":2675,"station_name":"Cilejit","transit":false,"i_long":106.508482,"station_id":"CJT","line":0,"is_transit":false,"i_lat":-6.354349,"time":6},{"line":6,"time":9,"station_id":"PRP","is_transit":false,"i_long":106.568863,"distance":7025,"transit":false,"station_name":"Parung Panjang","i_lat":-6.3441410000000005},{"transit":false,"distance":5968,"station_name":"Cicayur","station_id":"CC","time":8,"line":0,"i_long":106.617853,"is_transit":false,"i_lat":-6.329547},{"is_transit":false,"i_long":106.640411,"station_name":"Cisauk","station_id":"CSK","transit":false,"distance":2519,"i_lat":-6.32484,"time":4,"line":0},{"time":4,"i_long":106.66566,"distance":1784,"transit":false,"station_id":"SRP","line":6,"is_transit":false,"i_lat":-6.319871,"station_name":"Serpong"},{"transit":false,"line":6,"time":4,"i_long":106.675475,"i_lat":-6.314823,"station_name":"Rawa Buntu","is_transit":false,"station_id":"RU","distance":2413},{"i_lat":-6.296963,"time":6,"transit":false,"station_id":"SDM","i_long":106.712277,"station_name":"Sudimara","is_transit":false,"distance":4566,"line":6},{"i_lat":-6.288927,"distance":1994,"line":6,"i_long":106.728916,"station_id":"JMU","transit":false,"time":4,"is_transit":false,"station_name":"Jurangmangu"},{"is_transit":false,"i_lat":-6.276362,"distance":2179,"station_name":"Pondokranji","station_id":"PDJ","i_long":106.74273,"line":6,"time":3,"transit":false},{"time":8,"i_lat":-6.237242,"transit":false,"line":6,"station_name":"Kebayoran","is_transit":false,"distance":6218,"station_id":"KBY","i_long":106.780334},{"i_lat":-6.207404,"transit":false,"station_name":"Palmerah","i_long":106.79689,"station_id":"PLM","time":7,"is_transit":false,"line":6,"distance":3737},{"time":6,"distance":3191,"i_long":106.811091,"is_transit":true,"transit":true,"i_lat":-6.185545,"line":1,"station_id":"THB","station_name":"Tanah Abang"},{"station_name":"Duri","i_lat":-6.155215,"time":8,"distance":3632,"is_transit":true,"i_long":106.800832,"station_id":"DU","line":1,"transit":true},{"i_lat":-6.144674,"is_transit":false,"station_id":"AK","transit":false,"line":0,"distance":1230,"time":4,"station_name":"Angke","i_long":106.79867}],[{"is_transit":false,"transit":false,"station_id":"MJ","station_name":"Maja","i_lat":-6.332307,"i_long":106.394373,"time":0,"distance":0,"line":6},{"i_long":106.411216,"line":0,"station_id":"CKY","station_name":"Cikoya","i_lat":-6.33561,"is_transit":false,"time":4,"transit":false,"distance":1853},{"i_long":106.425991,"station_name":"Tigaraksa","distance":2651,"line":6,"time":3,"transit":false,"station_id":"TGS","is_transit":false,"i_lat":-6.328533},{"station_id":"TEJ","i_long":106.460812,"is_transit":false,"transit":false,"time":5,"station_name":"Tenjo","line":6,"i_lat":-6.327251,"distance":2974},{"time":5,"distance":3902,"station_id":"DAR","i_lat":-6.338021,"is_transit":false,"transit":false,"station_name":"Daru","i_long":106.491338,"line":0},{"i_lat":-6.354349,"is_transit":false,"distance":2675,"station_id":"CJT","i_long":106.508482,"time":6,"station_name":"Cilejit","line":0,"transit":false},{"line":6,"is_transit":false,"transit":false,"i_lat":-6.3441410000000005,"station_id":"PRP","i_long":106.568863,"time":9,"distance":7025,"station_name":"Parung Panjang"},{"i_lat":-6.329547,"station_id":"CC","distance":5968,"is_transit":false,"time":8,"i_long":106.617853,"line":0,"station_name":"Cicayur","transit":false},{"is_transit":false,"distance":2519,"i_lat":-6.32484,"transit":false,"station_id":"CSK","station_name":"Cisauk","i_long":106.640411,"time":4,"line":0},{"distance":1784,"is_transit":false,"transit":false,"station_name":"Serpong","i_lat":-6.319871,"i_long":106.66566,"station_id":"SRP","line":6,"time":4},{"station_name":"Rawa Buntu","i_long":106.675475,"distance":2413,"is_transit":false,"transit":false,"line":6,"station_id":"RU","i_lat":-6.314823,"time":4},{"i_lat":-6.296963,"line":6,"station_id":"SDM","transit":false,"time":6,"is_transit":false,"distance":4566,"station_name":"Sudimara","i_long":106.712277},{"transit":false,"i_lat":-6.288927,"line":6,"station_id":"JMU","station_name":"Jurangmangu","i_long":106.728916,"distance":1994,"is_transit":false,"time":4},{"line":6,"is_transit":false,"i_lat":-6.276362,"station_name":"Pondokranji","i_long":106.74273,"time":3,"transit":false,"station_id":"PDJ","distance":2179},{"time":8,"station_name":"Kebayoran","transit":false,"is_transit":false,"station_id":"KBY","distance":6218,"i_long":106.780334,"line":6,"i_lat":-6.237242},{"i_long":106.79689,"line":6,"station_id":"PLM","station_name":"Palmerah","time":7,"transit":false,"i_lat":-6.207404,"is_transit":false,"distance":3737},{"i_lat":-6.185545,"time":6,"station_id":"THB","line":1,"is_transit":true,"distance":3191,"transit":true,"station_name":"Tanah Abang","i_long":106.811091},{"transit":false,"station_id":"KAT","i_lat":-6.20132,"time":5,"is_transit":false,"i_long":106.816351,"line":1,"distance":2029,"station_name":"Karet"},{"line":1,"i_lat":-6.201433,"is_transit":false,"distance":471,"i_long":106.819881,"station_name":"Sudirman Baru","transit":false,"time":1,"station_id":"SUDB"},{"i_long":106.822649,"station_id":"SUD","time":1,"transit":false,"distance":280,"is_transit":false,"line":1,"station_name":"Sudirman","i_lat":-6.202263},{"transit":true,"station_id":"MRI","is_transit":true,"time":4,"station_name":"Manggarai","i_long":106.84912,"line":0,"i_lat":-6.209883,"distance":3186},{"distance":1590,"station_id":"CKI","i_long":106.840169,"station_name":"Cikini","is_transit":false,"transit":false,"i_lat":-6.198556,"line":0,"time":4},{"transit":false,"station_name":"Gondangdia","i_lat":-6.186295,"station_id":"GDD","time":3,"i_long":106.832183,"is_transit":false,"line":2,"distance":1750},{"station_id":"JUA","line":2,"time":4,"is_transit":false,"distance":2015,"i_lat":-6.166716,"transit":false,"station_name":"Juanda","i_long":106.828284},{"station_id":"SW","i_long":106.827103,"i_lat":-6.160725,"station_name":"Sawah Besar","is_transit":false,"transit":false,"line":2,"time":2,"distance":1149},{"transit":false,"station_name":"Manggabesar","i_long":106.82482,"time":2,"is_transit":false,"distance":906,"line":2,"station_id":"MGB","i_lat":-6.149769},{"line":7,"station_name":"Jayakarta","is_transit":false,"transit":false,"station_id":"JAY","time":2,"distance":1080,"i_lat":-6.141205,"i_long":106.820901},{"is_transit":true,"station_id":"JAKK","transit":true,"time":4,"station_name":"Jakarta Kota","line":0,"i_lat":-6.137569,"i_long":106.812439,"distance":1264},{"station_id":"KPB","time":3,"distance":1364,"line":0,"station_name":"Kampung Bandan","transit":false,"i_lat":-6.132549,"i_long":106.826365,"is_transit":true},{"station_id":"AK","i_long":106.79867,"is_transit":false,"line":0,"time":9,"i_lat":-6.144674,"station_name":"Angke","distance":4102,"transit":false}],[{"time":0,"station_id":"MJ","transit":false,"distance":0,"i_lat":-6.332307,"line":6,"i_long":106.394373,"station_name":"Maja","is_transit":false},{"time":4,"line":0,"station_id":"CKY","distance":1853,"transit":false,"station_name":"Cikoya","i_long":106.411216,"is_transit":false,"i_lat":-6.33561},{"i_long":106.425991,"station_id":"TGS","distance":2651,"transit":false,"station_name":"Tigaraksa","is_transit":false,"time":3,"line":6,"i_lat":-6.328533},{"transit":false,"i_long":106.460812,"line":6,"station_id":"TEJ","station_name":"Tenjo","time":5,"distance":2974,"is_transit":false,"i_lat":-6.327251},{"distance":3902,"is_transit":false,"station_id":"DAR","transit":false,"i_long":106.491338,"line":0,"time":5,"station_name":"Daru","i_lat":-6.338021},{"time":6,"i_lat":-6.354349,"station_name":"Cilejit","i_long":106.508482,"station_id":"CJT","is_transit":false,"distance":2675,"line":0,"transit":false},{"station_name":"Parung Panjang","time":9,"line":6,"is_transit":false,"transit":false,"i_lat":-6.3441410000000005,"station_id":"PRP","distance":7025,"i_long":106.568863},{"i_lat":-6.329547,"is_transit":false,"line":0,"distance":5968,"time":8,"station_name":"Cicayur","i_long":106.617853,"station_id":"CC","transit":false},{"is_transit":false,"station_id":"CSK","distance":2519,"transit":false,"time":4,"line":0,"i_lat":-6.32484,"station_name":"Cisauk","i_long":106.640411},{"station_name":"Serpong","time":4,"i_lat":-6.319871,"transit":false,"is_transit":false,"station_id":"SRP","distance":1784,"i_long":106.66566,"line":6},{"station_id":"RU","time":4,"is_transit":false,"distance":2413,"transit":false,"i_lat":-6.314823,"i_long":106.675475,"station_name":"Rawa Buntu","line":6},{"line":6,"i_lat":-6.296963,"distance":4566,"transit":false,"time":6,"station_name":"Sudimara","i_long":106.712277,"station_id":"SDM","is_transit":false},{"transit":false,"is_transit":false,"distance":1994,"station_id":"JMU","station_name":"Jurangmangu","time":4,"i_long":106.728916,"line":6,"i_lat":-6.288927},{"station_id":"PDJ","station_name":"Pondokranji","is_transit":false,"transit":false,"i_long":106.74273,"time":3,"i_lat":-6.276362,"line":6,"distance":2179},{"station_id":"KBY","distance":6218,"station_name":"Kebayoran","line":6,"i_long":106.780334,"transit":false,"i_lat":-6.237242,"is_transit":false,"time":8},{"station_name":"Palmerah","line":6,"transit":false,"i_long":106.79689,"i_lat":-6.207404,"station_id":"PLM","distance":3737,"is_transit":false,"time":7},{"is_transit":true,"distance":3191,"transit":true,"station_name":"Tanah Abang","i_long":106.811091,"station_id":"THB","line":1,"i_lat":-6.185545,"time":6},{"line":1,"i_lat":-6.20132,"distance":2029,"transit":false,"is_transit":false,"time":5,"station_name":"Karet","i_long":106.816351,"station_id":"KAT"},{"i_lat":-6.201433,"time":1,"i_long":106.819881,"distance":471,"is_transit":false,"transit":false,"station_id":"SUDB","station_name":"Sudirman Baru","line":1},{"i_lat":-6.202263,"station_id":"SUD","is_transit":false,"distance":280,"station_name":"Sudirman","transit":false,"i_long":106.822649,"time":1,"line":1},{"transit":false,"distance":3186,"is_transit":true,"time":4,"line":0,"station_name":"Manggarai","i_lat":-6.209883,"i_long":106.84912,"station_id":"MRI"},{"transit":false,"distance":1275,"line":1,"station_id":"MTR","i_lat":-6.212485,"is_transit":false,"time":2,"i_long":106.858896,"station_name":"Matraman"},{"station_name":"Jatinegara","line":0,"i_lat":-6.215091,"is_transit":true,"station_id":"JNG","distance":1377,"transit":true,"i_long":106.86807400000001,"time":8},{"i_lat":-6.209188,"station_id":"POK","i_long":106.861737,"distance":1236,"is_transit":false,"time":2,"transit":false,"station_name":"Pondok Jati","line":11},{"i_lat":-6.193792,"line":11,"transit":false,"time":2,"distance":1829,"i_long":106.855437,"is_transit":false,"station_id":"KMT","station_name":"Kramat"},{"i_lat":-6.185975,"station_name":"Gang Sentiong","i_long":106.850107,"time":1,"line":11,"is_transit":false,"transit":false,"station_id":"GST","distance":973},{"i_long":106.84368,"transit":false,"station_id":"PSE","is_transit":false,"i_lat":-6.174784,"distance":1567,"station_name":"Pasar Senen","line":11,"time":8},{"transit":false,"distance":1436,"i_lat":-6.161728,"i_long":106.839204,"is_transit":false,"station_id":"KMO","line":11,"station_name":"Kemayoran","time":4},{"station_name":"Rajawali","time":5,"line":11,"distance":1901,"i_lat":-6.14505,"i_long":106.836569,"transit":false,"is_transit":false,"station_id":"RJW"},{"is_transit":true,"i_lat":-6.132549,"station_id":"KPB","distance":1444,"station_name":"Kampung Bandan","line":0,"time":3,"transit":true,"i_long":106.826365},{"is_transit":false,"distance":4102,"station_name":"Angke","i_lat":-6.144674,"transit":false,"station_id":"AK","time":9,"i_long":106.79867,"line":0}]]}