{"data":[[{"transit":false,"time":0,"line":6,"station_name":"Maja","station_id":"MJ","i_long":106.394373,"is_transit":false,"distance":0,"i_lat":-6.332307},{"is_transit":false,"transit":false,"station_name":"Cikoya","station_id":"CKY","i_lat":-6.33561,"line":3,"i_long":106.411216,"distance":1853,"time":4},{"line":6,"transit":false,"i_long":106.425991,"time":3,"station_id":"TGS","distance":2651,"i_lat":-6.328533,"station_name":"Tigaraksa","is_transit":false},{"is_transit":false,"i_lat":-6.327251,"i_long":106.460812,"time":5,"station_name":"Tenjo","distance":2974,"line":6,"transit":false,"station_id":"TEJ"},{"is_transit":false,"i_lat":-6.338021,"i_long":106.491338,"distance":3902,"line":0,"time":5,"station_id":"DAR","station_name":"Daru","transit":false},{"i_long":106.508482,"i_lat":-6.354349,"time":6,"station_id":"CJT","is_transit":false,"distance":2675,"line":3,"station_name":"Cilejit","transit":false},{"distance":7025,"line":6,"station_name":"Parung Panjang","time":9,"i_lat":-6.3441410000000005,"is_transit":false,"station_id":"PRP","i_long":106.568863,"transit":false},{"i_lat":-6.329547,"station_name":"Cicayur","station_id":"CC","line":3,"time":8,"i_long":106.617853,"transit":false,"is_transit":false,"distance":5968},{"line":3,"i_long":106.640411,"transit":false,"station_name":"Cisauk","is_transit":false,"time":4,"station_id":"CSK","distance":2519,"i_lat":-6.32484},{"line":6,"i_lat":-6.319871,"i_long":106.66566,"distance":1784,"station_name":"Serpong","time":4,"is_transit":false,"transit":false,"station_id":"SRP"},{"transit":false,"station_name":"Rawa Buntu","i_long":106.675475,"is_transit":false,"line":6,"i_lat":-6.314823,"time":4,"station_id":"RU","distance":2413},{"station_id":"SDM","i_lat":-6.296963,"line":6,"i_long":106.712277,"is_transit":false,"transit":false,"distance":4566,"station_name":"Sudimara","time":6},{"i_lat":-6.288927,"line":6,"i_long":106.728916,"station_name":"Jurangmangu","time":4,"station_id":"JMU","transit":false,"is_transit":false,"distance":1994},{"i_long":106.74273,"i_lat":-6.276362,"is_transit":false,"line":6,"transit":false,"station_id":"PDJ","time":3,"distance":2179,"station_name":"Pondokranji"},{"line":6,"time":8,"i_long":106.780334,"station_name":"Kebayoran","station_id":"KBY","distance":6218,"i_lat":-6.237242,"transit":false,"is_transit":false},{"station_name":"Palmerah","transit":false,"station_id":"PLM","is_transit":false,"distance":3737,"i_lat":-6.207404,"i_long":106.79689,"line":6,"time":7},{"station_id":"THB","distance":3191,"i_long":106.811091,"is_transit":true,"time":6,"transit":true,"station_name":"Tanah Abang","i_lat":-6.185545,"line":1},{"i_lat":-6.155215,"station_name":"Duri","i_long":106.800832,"line":1,"time":8,"station_id":"DU","transit":false,"is_transit":false,"distance":3632},{"line":1,"station_name":"Angke","transit":false,"i_long":106.79867,"station_id":"AK","is_transit":false,"time":4,"distance":1230,"i_lat":-6.144674}],[{"is_transit":false,"line":6,"station_name":"Maja","i_long":106.394373,"transit":false,"distance":0,"time":0,"i_lat":-6.332307,"station_id":"MJ"},{"i_lat":-6.33561,"time":4,"line":3,"transit":false,"station_id":"CKY","is_transit":false,"distance":1853,"i_long":106.411216,"station_name":"Cikoya"},{"station_name":"Tigaraksa","i_lat":-6.328533,"line":6,"distance":2651,"station_id":"TGS","is_transit":false,"time":3,"transit":false,"i_long":106.425991},{"transit":false,"station_id":"TEJ","distance":2974,"line":6,"time":5,"is_transit":false,"i_lat":-6.327251,"i_long":106.460812,"station_name":"Tenjo"},{"i_long":106.491338,"station_name":"Daru","station_id":"DAR","time":5,"transit":false,"distance":3902,"is_transit":false,"i_lat":-6.338021,"line":0},{"i_lat":-6.354349,"distance":2675,"station_name":"Cilejit","time":6,"is_transit":false,"transit":false,"station_id":"CJT","i_long":106.508482,"line":3},{"station_name":"Parung Panjang","station_id":"PRP","distance":7025,"i_long":106.568863,"i_lat":-6.3441410000000005,"transit":false,"is_transit":false,"time":9,"line":6},{"station_id":"CC","station_name":"Cicayur","is_transit":false,"distance":5968,"time":8,"i_lat":-6.329547,"i_long":106.617853,"line":3,"transit":false},{"is_transit":false,"distance":2519,"station_id":"CSK","i_lat":-6.32484,"line":3,"transit":false,"station_name":"Cisauk","time":4,"i_long":106.640411},{"i_long":106.66566,"line":6,"station_name":"Serpong","transit":false,"time":4,"distance":1784,"i_lat":-6.319871,"station_id":"SRP","is_transit":false},{"i_long":106.675475,"distance":2413,"is_transit":false,"i_lat":-6.314823,"line":6,"time":4,"transit":false,"station_id":"RU","station_name":"Rawa Buntu"},{"i_lat":-6.296963,"station_id":"SDM","is_transit":false,"time":6,"distance":4566,"i_long":106.712277,"line":6,"station_name":"Sudimara","transit":false},{"time":4,"transit":false,"station_name":"Jurangmangu","distance":1994,"i_lat":-6.288927,"station_id":"JMU","i_long":106.728916,"line":6,"is_transit":false},{"station_name":"Pondokranji","i_long":106.74273,"transit":false,"i_lat":-6.276362,"time":3,"distance":2179,"line":6,"station_id":"PDJ","is_transit":false},{"is_transit":false,"distance":6218,"time":8,"transit":false,"station_id":"KBY","i_lat":-6.237242,"station_name":"Kebayoran","i_long":106.780334,"line":6},{"transit":false,"station_id":"PLM","is_transit":false,"station_name":"Palmerah","i_lat":-6.207404,"line":6,"time":7,"i_long":106.79689,"distance":3737},{"time":6,"line":1,"i_lat":-6.185545,"is_transit":true,"i_long":106.811091,"transit":true,"station_id":"THB","station_name":"Tanah Abang","distance":3191},{"line":1,"is_transit":false,"time":5,"station_name":"Karet","distance":2029,"transit":false,"i_lat":-6.20132,"station_id":"KAT","i_long":106.816351},{"time":1,"station_id":"SUDB","distance":471,"i_long":106.819881,"line":1,"station_name":"Sudirman Baru","transit":false,"i_lat":-6.201433,"is_transit":false},{"station_name":"Sudirman","i_lat":-6.202263,"i_long":106.822649,"is_transit":false,"station_id":"SUD","line":1,"transit":false,"distance":280,"time":1},{"time":4,"i_long":106.84912,"line":2,"station_name":"Manggarai","transit":true,"i_lat":-6.209883,"station_id":"MRI","distance":3186,"is_transit":true},{"is_transit":false,"line":2,"i_lat":-6.198556,"time":4,"transit":false,"i_long":106.840169,"station_name":"Cikini","distance":1590,"station_id":"CKI"},{"station_id":"GDD","station_name":"Gondangdia","time":3,"transit":false,"is_transit":false,"distance":1750,"i_lat":-6.186295,"line":2,"i_long":106.832183},{"station_name":"Juanda","time":4,"i_lat":-6.166716,"i_long":106.828284,"station_id":"JUA","is_transit":false,"distance":2015,"transit":false,"line":2},{"transit":false,"station_name":"Sawah Besar","line":2,"distance":1149,"station_id":"SW","i_long":106.827103,"is_transit":false,"i_lat":-6.160725,"time":2},{"time":2,"distance":906,"i_lat":-6.149769,"i_long":106.82482,"station_name":"Manggabesar","station_id":"MGB","transit":false,"line":2,"is_transit":false},{"distance":1080,"station_id":"JAY","transit":false,"station_name":"Jayakarta","is_transit":false,"time":2,"i_lat":-6.141205,"i_long":106.820901,"line":2},{"is_transit":true,"line":2,"station_id":"JAKK","time":4,"i_long":106.812439,"distance":1264,"i_lat":-6.137569,"transit":true,"station_name":"Jakarta Kota"},{"line":4,"i_long":106.826365,"is_transit":true,"i_lat":-6.132549,"time":3,"transit":true,"distance":1364,"station_id":"KPB","station_name":"Kampung Bandan"},{"distance":4102,"transit":false,"time":9,"station_id":"AK","i_lat":-6.144674,"line":1,"is_transit":false,"i_long":106.79867,"station_name":"Angke"}],[{"line":6,"is_transit":false,"transit":false,"time":0,"i_long":106.394373,"station_name":"Maja","i_lat":-6.332307,"station_id":"MJ","distance":0},{"line":3,"station_name":"Cikoya","transit":false,"is_transit":false,"time":4,"distance":1853,"station_id":"CKY","i_lat":-6.33561,"i_long":106.411216},{"station_name":"Tigaraksa","i_long":106.425991,"station_id":"TGS","i_lat":-6.328533,"distance":2651,"transit":false,"is_transit":false,"line":6,"time":3},{"i_long":106.460812,"is_transit":false,"distance":2974,"transit":false,"i_lat":-6.327251,"station_name":"Tenjo","line":6,"station_id":"TEJ","time":5},{"line":0,"station_name":"Daru","distance":3902,"time":5,"is_transit":false,"transit":false,"station_id":"DAR","i_lat":-6.338021,"i_long":106.491338},{"i_lat":-6.354349,"station_name":"Cilejit","time":6,"transit":false,"distance":2675,"station_id":"CJT","line":3,"is_transit":false,"i_long":106.508482},{"station_name":"Parung Panjang","i_long":106.568863,"time":9,"distance":7025,"is_transit":false,"i_lat":-6.3441410000000005,"station_id":"PRP","transit":false,"line":6},{"transit":false,"is_transit":false,"distance":5968,"i_lat":-6.329547,"time":8,"line":3,"station_name":"Cicayur","i_long":106.617853,"station_id":"CC"},{"time":4,"distance":2519,"i_lat":-6.32484,"station_id":"CSK","transit":false,"is_transit":false,"line":3,"station_name":"Cisauk","i_long":106.640411},{"i_long":106.66566,"line":6,"station_id":"SRP","distance":1784,"transit":false,"i_lat":-6.319871,"is_transit":false,"time":4,"station_name":"Serpong"},{"i_lat":-6.314823,"is_transit":false,"line":6,"transit":false,"station_id":"RU","station_name":"Rawa Buntu","time":4,"distance":2413,"i_long":106.675475},{"is_transit":false,"time":6,"i_lat":-6.296963,"i_long":106.712277,"transit":false,"line":6,"station_name":"Sudimara","station_id":"SDM","distance":4566},{"i_long":106.728916,"line":6,"transit":false,"station_id":"JMU","station_name":"Jurangmangu","is_transit":false,"time":4,"i_lat":-6.288927,"distance":1994},{"i_lat":-6.276362,"station_name":"Pondokranji","distance":2179,"line":6,"i_long":106.74273,"station_id":"PDJ","time":3,"is_transit":false,"transit":false},{"station_name":"Kebayoran","line":6,"distance":6218,"is_transit":false,"time":8,"station_id":"KBY","i_lat":-6.237242,"transit":false,"i_long":106.780334},{"i_lat":-6.207404,"line":6,"distance":3737,"time":7,"i_long":106.79689,"station_id":"PLM","transit":false,"station_name":"Palmerah","is_transit":false},{"line":1,"i_long":106.811091,"station_id":"THB","i_lat":-6.185545,"time":6,"station_name":"Tanah Abang","transit":true,"distance":3191,"is_transit":true},{"line":1,"station_name":"Karet","i_long":106.816351,"is_transit":false,"station_id":"KAT","transit":false,"time":5,"distance":2029,"i_lat":-6.20132},{"i_long":106.819881,"transit":false,"time":1,"i_lat":-6.201433,"line":1,"station_name":"Sudirman Baru","station_id":"SUDB","is_transit":false,"distance":471},{"station_name":"Sudirman","is_transit":false,"station_id":"SUD","distance":280,"line":1,"transit":false,"time":1,"i_lat":-6.202263,"i_long":106.822649},{"station_name":"Manggarai","time":4,"line":2,"transit":false,"distance":3186,"i_lat":-6.209883,"station_id":"MRI","is_transit":false,"i_long":106.84912},{"line":1,"transit":false,"station_name":"Matraman","time":2,"i_long":106.858896,"i_lat":-6.212485,"distance":1275,"station_id":"MTR","is_transit":false},{"station_id":"JNG","distance":1377,"station_name":"Jatinegara","line":1,"i_lat":-6.215091,"is_transit":true,"i_long":106.86807400000001,"transit":true,"time":8},{"transit":false,"i_lat":-6.209188,"line":11,"is_transit":false,"i_long":106.861737,"station_name":"Pondok Jati","station_id":"POK","time":2,"distance":1236},{"station_name":"Kramat","distance":1829,"time":2,"i_lat":-6.193792,"transit":false,"i_long":106.855437,"line":11,"is_transit":false,"station_id":"KMT"},{"line":11,"station_id":"GST","distance":973,"is_transit":false,"time":1,"i_long":106.850107,"transit":false,"station_name":"Gang Sentiong","i_lat":-6.185975},{"line":11,"time":8,"station_id":"PSE","distance":1567,"i_lat":-6.174784,"is_transit":false,"i_long":106.84368,"transit":false,"station_name":"Pasar Senen"},{"station_id":"KMO","transit":false,"is_transit":false,"i_lat":-6.161728,"time":4,"i_long":106.839204,"line":11,"station_name":"Kemayoran","distance":1436},{"transit":false,"distance":1901,"station_id":"RJW","line":11,"station_name":"Rajawali","is_transit":false,"i_long":106.836569,"i_lat":-6.14505,"time":5},{"i_long":106.826365,"time":3,"i_lat":-6.132549,"line":4,"is_transit":true,"station_name":"Kampung Bandan","transit":true,"distance":1444,"station_id":"KPB"},{"i_long":106.79867,"time":9,"transit":false,"i_lat":-6.144674,"distance":4102,"station_name":"Angke","station_id":"AK","line":1,"is_transit":false}]]}