{"data":[[{"transit":false,"line":6,"time":0,"distance":0,"station_id":"MJ","is_transit":false,"station_name":"Maja","i_lat":-6.332307,"i_long":106.394373},{"distance":1853,"i_lat":-6.33561,"line":3,"i_long":106.411216,"station_name":"Cikoya","station_id":"CKY","transit":false,"is_transit":false,"time":4},{"is_transit":false,"time":3,"transit":false,"i_long":106.425991,"line":6,"station_id":"TGS","i_lat":-6.328533,"station_name":"Tigaraksa","distance":2651},{"station_id":"TEJ","is_transit":false,"time":5,"i_lat":-6.327251,"station_name":"Tenjo","i_long":106.460812,"distance":2974,"line":6,"transit":false},{"transit":false,"station_id":"DAR","i_long":106.491338,"time":5,"distance":3902,"i_lat":-6.338021,"is_transit":false,"station_name":"Daru","line":0},{"i_long":106.508482,"station_name":"Cilejit","is_transit":false,"line":3,"distance":2675,"time":6,"i_lat":-6.354349,"station_id":"CJT","transit":false},{"station_id":"PRP","time":9,"i_long":106.568863,"transit":false,"distance":7025,"is_transit":false,"station_name":"Parung Panjang","i_lat":-6.3441410000000005,"line":6},{"i_lat":-6.329547,"station_id":"CC","distance":5968,"transit":false,"time":8,"line":3,"station_name":"Cicayur","i_long":106.617853,"is_transit":false},{"time":4,"is_transit":false,"line":3,"i_long":106.640411,"distance":2519,"transit":false,"i_lat":-6.32484,"station_id":"CSK","station_name":"Cisauk"},{"distance":1784,"station_id":"SRP","transit":false,"is_transit":false,"line":6,"i_lat":-6.319871,"station_name":"Serpong","i_long":106.66566,"time":4},{"station_name":"Rawa Buntu","time":4,"i_long":106.675475,"transit":false,"is_transit":false,"line":6,"station_id":"RU","i_lat":-6.314823,"distance":2413},{"time":6,"station_name":"Sudimara","i_lat":-6.296963,"transit":false,"i_long":106.712277,"is_transit":false,"distance":4566,"line":6,"station_id":"SDM"},{"distance":1994,"i_long":106.728916,"is_transit":false,"station_name":"Jurangmangu","station_id":"JMU","line":6,"i_lat":-6.288927,"time":4,"transit":false},{"distance":2179,"line":6,"is_transit":false,"time":3,"i_long":106.74273,"i_lat":-6.276362,"station_name":"Pondokranji","transit":false,"station_id":"PDJ"},{"is_transit":false,"i_lat":-6.237242,"time":8,"transit":false,"station_id":"KBY","i_long":106.780334,"line":6,"station_name":"Kebayoran","distance":6218},{"is_transit":false,"time":7,"i_long":106.79689,"station_id":"PLM","station_name":"Palmerah","distance":3737,"line":6,"i_lat":-6.207404,"transit":false},{"line":1,"is_transit":true,"distance":3191,"i_long":106.811091,"station_id":"THB","transit":true,"station_name":"Tanah Abang","time":6,"i_lat":-6.185545},{"station_name":"Duri","i_lat":-6.155215,"is_transit":false,"transit":false,"distance":3632,"line":1,"time":8,"station_id":"DU","i_long":106.800832},{"distance":1230,"time":4,"i_long":106.79867,"line":1,"transit":false,"is_transit":false,"station_id":"AK","i_lat":-6.144674,"station_name":"Angke"},{"time":9,"station_name":"Kampung Bandan","i_lat":-6.132549,"line":4,"is_transit":true,"i_long":106.826365,"station_id":"KPB","transit":true,"distance":4102},{"distance":2185,"station_id":"AC","line":4,"i_lat":-6.128023,"i_long":106.84464,"station_name":"Ancol","time":4,"transit":false,"is_transit":false}],[{"time":0,"i_lat":-6.332307,"is_transit":false,"distance":0,"i_long":106.394373,"transit":false,"station_name":"Maja","line":6,"station_id":"MJ"},{"distance":1853,"time":4,"station_name":"Cikoya","line":3,"station_id":"CKY","transit":false,"i_long":106.411216,"is_transit":false,"i_lat":-6.33561},{"is_transit":false,"station_id":"TGS","line":6,"transit":false,"station_name":"Tigaraksa","i_long":106.425991,"distance":2651,"time":3,"i_lat":-6.328533},{"station_name":"Tenjo","line":6,"is_transit":false,"transit":false,"station_id":"TEJ","i_lat":-6.327251,"distance":2974,"i_long":106.460812,"time":5},{"station_id":"DAR","is_transit":false,"time":5,"distance":3902,"i_long":106.491338,"line":0,"transit":false,"i_lat":-6.338021,"station_name":"Daru"},{"is_transit":false,"distance":2675,"line":3,"time":6,"i_lat":-6.354349,"transit":false,"station_id":"CJT","station_name":"Cilejit","i_long":106.508482},{"station_id":"PRP","is_transit":false,"time":9,"i_long":106.568863,"i_lat":-6.3441410000000005,"station_name":"Parung Panjang","line":6,"transit":false,"distance":7025},{"station_id":"CC","is_transit":false,"transit":false,"station_name":"Cicayur","time":8,"distance":5968,"i_lat":-6.329547,"i_long":106.617853,"line":3},{"transit":false,"station_id":"CSK","time":4,"i_lat":-6.32484,"line":3,"distance":2519,"station_name":"Cisauk","i_long":106.640411,"is_transit":false},{"i_long":106.66566,"is_transit":false,"i_lat":-6.319871,"station_id":"SRP","station_name":"Serpong","time":4,"transit":false,"distance":1784,"line":6},{"time":4,"i_long":106.675475,"distance":2413,"station_name":"Rawa Buntu","line":6,"is_transit":false,"station_id":"RU","i_lat":-6.314823,"transit":false},{"time":6,"distance":4566,"i_lat":-6.296963,"i_long":106.712277,"line":6,"transit":false,"station_name":"Sudimara","is_transit":false,"station_id":"SDM"},{"distance":1994,"station_id":"JMU","time":4,"is_transit":false,"station_name":"Jurangmangu","line":6,"transit":false,"i_long":106.728916,"i_lat":-6.288927},{"transit":false,"station_id":"PDJ","distance":2179,"line":6,"i_long":106.74273,"station_name":"Pondokranji","is_transit":false,"time":3,"i_lat":-6.276362},{"is_transit":false,"line":6,"i_long":106.780334,"transit":false,"time":8,"distance":6218,"station_id":"KBY","station_name":"Kebayoran","i_lat":-6.237242},{"station_id":"PLM","distance":3737,"time":7,"i_lat":-6.207404,"transit":false,"line":6,"is_transit":false,"i_long":106.79689,"station_name":"Palmerah"},{"line":1,"station_name":"Tanah Abang","transit":true,"station_id":"THB","i_long":106.811091,"distance":3191,"is_transit":true,"time":6,"i_lat":-6.185545},{"i_lat":-6.20132,"i_long":106.816351,"line":1,"station_id":"KAT","distance":2029,"transit":false,"station_name":"Karet","time":5,"is_transit":false},{"station_name":"Sudirman Baru","distance":471,"line":1,"is_transit":false,"time":1,"i_long":106.819881,"station_id":"SUDB","transit":false,"i_lat":-6.201433},{"distance":280,"time":1,"i_lat":-6.202263,"i_long":106.822649,"line":1,"transit":false,"is_transit":false,"station_id":"SUD","station_name":"Sudirman"},{"station_name":"Manggarai","is_transit":true,"distance":3186,"transit":true,"time":4,"line":2,"i_lat":-6.209883,"station_id":"MRI","i_long":106.84912},{"time":4,"is_transit":false,"distance":1590,"transit":false,"i_lat":-6.198556,"station_id":"CKI","station_name":"Cikini","i_long":106.840169,"line":2},{"is_transit":false,"time":3,"distance":1750,"line":2,"i_long":106.832183,"i_lat":-6.186295,"station_name":"Gondangdia","station_id":"GDD","transit":false},{"distance":2015,"station_id":"JUA","is_transit":false,"transit":false,"station_name":"Juanda","time":4,"i_long":106.828284,"line":2,"i_lat":-6.166716},{"time":2,"station_id":"SW","station_name":"Sawah Besar","distance":1149,"transit":false,"is_transit":false,"i_long":106.827103,"line":2,"i_lat":-6.160725},{"station_id":"MGB","transit":false,"i_lat":-6.149769,"line":2,"distance":906,"is_transit":false,"station_name":"Manggabesar","time":2,"i_long":106.82482},{"i_lat":-6.141205,"distance":1080,"line":2,"time":2,"transit":false,"station_name":"Jayakarta","is_transit":false,"station_id":"JAY","i_long":106.820901},{"i_lat":-6.137569,"transit":true,"station_id":"JAKK","is_transit":true,"i_long":106.812439,"station_name":"Jakarta Kota","line":2,"time":4,"distance":1264},{"transit":true,"i_lat":-6.132549,"station_id":"KPB","time":3,"distance":1364,"station_name":"Kampung Bandan","is_transit":true,"i_long":106.826365,"line":4},{"station_name":"Ancol","station_id":"AC","is_transit":false,"line":4,"i_long":106.84464,"time":4,"distance":2185,"i_lat":-6.128023,"transit":false}],[{"time":0,"line":6,"transit":false,"station_id":"MJ","i_lat":-6.332307,"is_transit":false,"i_long":106.394373,"distance":0,"station_name":"Maja"},{"station_id":"CKY","station_name":"Cikoya","distance":1853,"i_long":106.411216,"is_transit":false,"transit":false,"i_lat":-6.33561,"line":3,"time":4},{"is_transit":false,"distance":2651,"i_long":106.425991,"line":6,"time":3,"i_lat":-6.328533,"station_id":"TGS","transit":false,"station_name":"Tigaraksa"},{"i_lat":-6.327251,"i_long":106.460812,"is_transit":false,"station_name":"Tenjo","line":6,"station_id":"TEJ","transit":false,"time":5,"distance":2974},{"station_id":"DAR","time":5,"station_name":"Daru","transit":false,"i_lat":-6.338021,"is_transit":false,"i_long":106.491338,"line":0,"distance":3902},{"distance":2675,"i_lat":-6.354349,"line":3,"time":6,"i_long":106.508482,"station_name":"Cilejit","is_transit":false,"transit":false,"station_id":"CJT"},{"station_id":"PRP","distance":7025,"transit":false,"is_transit":false,"time":9,"i_lat":-6.3441410000000005,"station_name":"Parung Panjang","i_long":106.568863,"line":6},{"is_transit":false,"i_lat":-6.329547,"i_long":106.617853,"line":3,"station_id":"CC","transit":false,"time":8,"station_name":"Cicayur","distance":5968},{"transit":false,"station_name":"Cisauk","station_id":"CSK","is_transit":false,"time":4,"distance":2519,"i_lat":-6.32484,"i_long":106.640411,"line":3},{"distance":1784,"i_lat":-6.319871,"station_id":"SRP","i_long":106.66566,"line":6,"station_name":"Serpong","is_transit":false,"transit":false,"time":4},{"i_lat":-6.314823,"distance":2413,"time":4,"transit":false,"i_long":106.675475,"line":6,"station_name":"Rawa Buntu","station_id":"RU","is_transit":false},{"i_lat":-6.296963,"distance":4566,"i_long":106.712277,"transit":false,"station_name":"Sudimara","line":6,"is_transit":false,"time":6,"station_id":"SDM"},{"transit":false,"is_transit":false,"time":4,"line":6,"distance":1994,"station_name":"Jurangmangu","i_lat":-6.288927,"i_long":106.728916,"station_id":"JMU"},{"i_lat":-6.276362,"i_long":106.74273,"time":3,"station_name":"Pondokranji","distance":2179,"station_id":"PDJ","transit":false,"line":6,"is_transit":false},{"is_transit":false,"i_long":106.780334,"station_name":"Kebayoran","distance":6218,"line":6,"i_lat":-6.237242,"transit":false,"station_id":"KBY","time":8},{"is_transit":false,"station_name":"Palmerah","distance":3737,"line":6,"station_id":"PLM","i_long":106.79689,"i_lat":-6.207404,"transit":false,"time":7},{"time":6,"transit":true,"i_lat":-6.185545,"i_long":106.811091,"is_transit":true,"station_id":"THB","distance":3191,"station_name":"Tanah Abang","line":1},{"station_name":"Karet","line":1,"i_lat":-6.20132,"time":5,"station_id":"KAT","distance":2029,"is_transit":false,"i_long":106.816351,"transit":false},{"station_id":"SUDB","is_transit":false,"time":1,"transit":false,"i_lat":-6.201433,"line":1,"station_name":"Sudirman Baru","distance":471,"i_long":106.819881},{"is_transit":false,"i_long":106.822649,"station_id":"SUD","i_lat":-6.202263,"distance":280,"time":1,"station_name":"Sudirman","transit":false,"line":1},{"transit":false,"i_lat":-6.209883,"i_long":106.84912,"time":4,"station_id":"MRI","station_name":"Manggarai","is_transit":false,"distance":3186,"line":2},{"station_name":"Matraman","is_transit":false,"distance":1275,"i_lat":-6.212485,"transit":false,"time":2,"line":1,"i_long":106.858896,"station_id":"MTR"},{"line":1,"time":8,"i_lat":-6.215091,"i_long":106.86807400000001,"station_id":"JNG","distance":1377,"station_name":"Jatinegara","transit":true,"is_transit":true},{"time":2,"i_lat":-6.209188,"station_id":"POK","i_long":106.861737,"line":11,"is_transit":false,"transit":false,"station_name":"Pondok Jati","distance":1236},{"distance":1829,"i_lat":-6.193792,"line":11,"i_long":106.855437,"station_id":"KMT","station_name":"Kramat","is_transit":false,"transit":false,"time":2},{"i_long":106.850107,"transit":false,"line":11,"is_transit":false,"i_lat":-6.185975,"distance":973,"station_name":"Gang Sentiong","time":1,"station_id":"GST"},{"station_name":"Pasar Senen","distance":1567,"transit":false,"station_id":"PSE","is_transit":false,"i_long":106.84368,"i_lat":-6.174784,"time":8,"line":11},{"station_name":"Kemayoran","station_id":"KMO","time":4,"i_long":106.839204,"is_transit":false,"transit":false,"distance":1436,"line":11,"i_lat":-6.161728},{"is_transit":false,"station_name":"Rajawali","time":5,"distance":1901,"station_id":"RJW","line":11,"transit":false,"i_lat":-6.14505,"i_long":106.836569},{"i_lat":-6.132549,"i_long":106.826365,"line":4,"station_id":"KPB","station_name":"Kampung Bandan","is_transit":true,"distance":1444,"transit":true,"time":3},{"time":4,"i_long":106.84464,"station_id":"AC","distance":2185,"i_lat":-6.128023,"line":4,"is_transit":false,"station_name":"Ancol","transit":false}]]}