{"data":[[{"i_lat":-6.332307,"is_transit":false,"station_name":"Maja","distance":0,"i_long":106.394373,"line":6,"transit":false,"time":0,"station_id":"MJ"},{"station_name":"Cikoya","i_lat":-6.33561,"i_long":106.411216,"distance":1853,"time":4,"transit":false,"is_transit":false,"line":0,"station_id":"CKY"},{"i_long":106.425991,"station_name":"Tigaraksa","line":6,"time":3,"transit":false,"station_id":"TGS","i_lat":-6.328533,"is_transit":false,"distance":2651},{"is_transit":false,"i_lat":-6.327251,"line":6,"i_long":106.460812,"distance":2974,"station_name":"Tenjo","station_id":"TEJ","time":5,"transit":false},{"transit":false,"station_name":"Daru","time":5,"distance":3902,"is_transit":false,"i_lat":-6.338021,"line":0,"i_long":106.491338,"station_id":"DAR"},{"station_id":"CJT","is_transit":false,"i_lat":-6.354349,"line":0,"distance":2675,"transit":false,"station_name":"Cilejit","time":6,"i_long":106.508482},{"time":9,"distance":7025,"is_transit":false,"station_name":"Parung Panjang","transit":false,"i_lat":-6.3441410000000005,"station_id":"PRP","i_long":106.568863,"line":6},{"is_transit":false,"distance":5968,"station_name":"Cicayur","station_id":"CC","transit":false,"i_lat":-6.329547,"line":0,"i_long":106.617853,"time":8},{"time":4,"transit":false,"line":0,"station_id":"CSK","station_name":"Cisauk","i_long":106.640411,"is_transit":false,"i_lat":-6.32484,"distance":2519},{"distance":1784,"station_name":"Serpong","is_transit":false,"i_lat":-6.319871,"time":4,"line":6,"transit":false,"station_id":"SRP","i_long":106.66566},{"i_lat":-6.314823,"station_id":"RU","station_name":"Rawa Buntu","transit":false,"i_long":106.675475,"line":6,"is_transit":false,"time":4,"distance":2413},{"i_lat":-6.296963,"transit":false,"distance":4566,"is_transit":false,"station_name":"Sudimara","time":6,"line":6,"station_id":"SDM","i_long":106.712277},{"station_name":"Jurangmangu","line":6,"time":4,"transit":false,"i_long":106.728916,"distance":1994,"is_transit":false,"station_id":"JMU","i_lat":-6.288927},{"line":6,"time":3,"station_name":"Pondokranji","i_lat":-6.276362,"i_long":106.74273,"station_id":"PDJ","distance":2179,"is_transit":false,"transit":false},{"i_long":106.780334,"time":8,"line":6,"station_name":"Kebayoran","is_transit":false,"distance":6218,"station_id":"KBY","i_lat":-6.237242,"transit":false},{"transit":false,"station_id":"PLM","i_lat":-6.207404,"station_name":"Palmerah","is_transit":false,"distance":3737,"i_long":106.79689,"time":7,"line":6},{"transit":true,"i_lat":-6.185545,"i_long":106.811091,"is_transit":true,"distance":3191,"time":6,"station_id":"THB","station_name":"Tanah Abang","line":1},{"i_lat":-6.155215,"transit":true,"station_id":"DU","is_transit":true,"time":8,"i_long":106.800832,"line":1,"distance":3632,"station_name":"Duri"},{"transit":false,"station_id":"AK","i_lat":-6.144674,"line":0,"time":4,"distance":1230,"is_transit":false,"i_long":106.79867,"station_name":"Angke"},{"i_long":106.826365,"station_name":"Kampung Bandan","time":9,"distance":4102,"transit":false,"line":0,"is_transit":true,"station_id":"KPB","i_lat":-6.132549},{"i_lat":-6.128023,"i_long":106.84464,"station_name":"Ancol","station_id":"AC","time":4,"line":0,"transit":false,"is_transit":false,"distance":2185}],[{"distance":0,"time":0,"is_transit":false,"station_name":"Maja","i_lat":-6.332307,"i_long":106.394373,"line":6,"station_id":"MJ","transit":false},{"line":0,"station_name":"Cikoya","station_id":"CKY","i_long":106.411216,"i_lat":-6.33561,"distance":1853,"time":4,"is_transit":false,"transit":false},{"transit":false,"i_long":106.425991,"i_lat":-6.328533,"station_id":"TGS","station_name":"Tigaraksa","line":6,"time":3,"distance":2651,"is_transit":false},{"distance":2974,"i_lat":-6.327251,"transit":false,"station_id":"TEJ","time":5,"station_name":"Tenjo","i_long":106.460812,"line":6,"is_transit":false},{"transit":false,"time":5,"is_transit":false,"station_id":"DAR","distance":3902,"station_name":"Daru","i_long":106.491338,"i_lat":-6.338021,"line":0},{"time":6,"i_lat":-6.354349,"station_name":"Cilejit","line":0,"transit":false,"is_transit":false,"distance":2675,"station_id":"CJT","i_long":106.508482},{"time":9,"station_name":"Parung Panjang","line":6,"i_long":106.568863,"i_lat":-6.3441410000000005,"distance":7025,"is_transit":false,"transit":false,"station_id":"PRP"},{"distance":5968,"i_long":106.617853,"is_transit":false,"station_id":"CC","time":8,"transit":false,"i_lat":-6.329547,"line":0,"station_name":"Cicayur"},{"is_transit":false,"transit":false,"station_id":"CSK","distance":2519,"time":4,"i_lat":-6.32484,"station_name":"Cisauk","i_long":106.640411,"line":0},{"i_lat":-6.319871,"is_transit":false,"transit":false,"i_long":106.66566,"time":4,"line":6,"distance":1784,"station_name":"Serpong","station_id":"SRP"},{"transit":false,"is_transit":false,"station_id":"RU","i_lat":-6.314823,"i_long":106.675475,"line":6,"station_name":"Rawa Buntu","time":4,"distance":2413},{"distance":4566,"line":6,"is_transit":false,"transit":false,"station_id":"SDM","time":6,"i_lat":-6.296963,"i_long":106.712277,"station_name":"Sudimara"},{"time":4,"distance":1994,"transit":false,"i_lat":-6.288927,"i_long":106.728916,"line":6,"is_transit":false,"station_id":"JMU","station_name":"Jurangmangu"},{"transit":false,"distance":2179,"station_id":"PDJ","i_lat":-6.276362,"time":3,"line":6,"station_name":"Pondokranji","is_transit":false,"i_long":106.74273},{"time":8,"line":6,"station_id":"KBY","station_name":"Kebayoran","transit":false,"is_transit":false,"distance":6218,"i_long":106.780334,"i_lat":-6.237242},{"i_long":106.79689,"is_transit":false,"station_name":"Palmerah","line":6,"transit":false,"station_id":"PLM","time":7,"distance":3737,"i_lat":-6.207404},{"station_name":"Tanah Abang","line":1,"distance":3191,"station_id":"THB","transit":true,"i_long":106.811091,"i_lat":-6.185545,"time":6,"is_transit":true},{"transit":false,"time":5,"i_long":106.816351,"station_id":"KAT","distance":2029,"i_lat":-6.20132,"line":1,"is_transit":false,"station_name":"Karet"},{"transit":false,"station_id":"SUDB","is_transit":false,"distance":471,"line":1,"station_name":"Sudirman Baru","time":1,"i_lat":-6.201433,"i_long":106.819881},{"transit":false,"is_transit":false,"station_id":"SUD","i_long":106.822649,"i_lat":-6.202263,"distance":280,"station_name":"Sudirman","time":1,"line":1},{"distance":3186,"line":0,"transit":true,"time":4,"station_id":"MRI","station_name":"Manggarai","i_long":106.84912,"i_lat":-6.209883,"is_transit":true},{"i_lat":-6.198556,"distance":1590,"time":4,"station_id":"CKI","line":0,"i_long":106.840169,"is_transit":false,"station_name":"Cikini","transit":false},{"transit":false,"is_transit":false,"station_id":"GDD","i_lat":-6.186295,"distance":1750,"line":2,"station_name":"Gondangdia","time":3,"i_long":106.832183},{"time":4,"station_name":"Juanda","transit":false,"i_lat":-6.166716,"distance":2015,"i_long":106.828284,"station_id":"JUA","is_transit":false,"line":2},{"station_name":"Sawah Besar","i_lat":-6.160725,"is_transit":false,"transit":false,"i_long":106.827103,"time":2,"line":2,"station_id":"SW","distance":1149},{"distance":906,"line":2,"station_name":"Manggabesar","i_long":106.82482,"time":2,"station_id":"MGB","transit":false,"is_transit":false,"i_lat":-6.149769},{"i_lat":-6.141205,"station_id":"JAY","time":2,"line":7,"station_name":"Jayakarta","transit":false,"distance":1080,"i_long":106.820901,"is_transit":false},{"line":0,"is_transit":true,"i_lat":-6.137569,"i_long":106.812439,"time":4,"distance":1264,"station_name":"Jakarta Kota","transit":true,"station_id":"JAKK"},{"distance":1364,"station_name":"Kampung Bandan","i_long":106.826365,"i_lat":-6.132549,"is_transit":true,"transit":false,"line":0,"time":3,"station_id":"KPB"},{"is_transit":false,"time":4,"i_long":106.84464,"line":0,"distance":2185,"station_id":"AC","station_name":"Ancol","transit":false,"i_lat":-6.128023}],[{"time":0,"transit":false,"i_lat":-6.332307,"is_transit":false,"line":6,"distance":0,"i_long":106.394373,"station_name":"Maja","station_id":"MJ"},{"station_id":"CKY","time":4,"transit":false,"is_transit":false,"line":0,"i_lat":-6.33561,"i_long":106.411216,"distance":1853,"station_name":"Cikoya"},{"line":6,"time":3,"i_lat":-6.328533,"transit":false,"is_transit":false,"distance":2651,"station_id":"TGS","station_name":"Tigaraksa","i_long":106.425991},{"i_lat":-6.327251,"i_long":106.460812,"transit":false,"distance":2974,"time":5,"station_name":"Tenjo","station_id":"TEJ","is_transit":false,"line":6},{"time":5,"is_transit":false,"i_lat":-6.338021,"station_id":"DAR","transit":false,"i_long":106.491338,"distance":3902,"station_name":"Daru","line":0},{"time":6,"station_id":"CJT","station_name":"Cilejit","is_transit":false,"i_long":106.508482,"i_lat":-6.354349,"line":0,"transit":false,"distance":2675},{"time":9,"station_name":"Parung Panjang","i_long":106.568863,"i_lat":-6.3441410000000005,"is_transit":false,"station_id":"PRP","distance":7025,"transit":false,"line":6},{"distance":5968,"line":0,"time":8,"i_lat":-6.329547,"station_name":"Cicayur","station_id":"CC","is_transit":false,"i_long":106.617853,"transit":false},{"line":0,"station_id":"CSK","station_name":"Cisauk","distance":2519,"time":4,"i_long":106.640411,"i_lat":-6.32484,"is_transit":false,"transit":false},{"is_transit":false,"transit":false,"station_id":"SRP","i_lat":-6.319871,"station_name":"Serpong","line":6,"i_long":106.66566,"time":4,"distance":1784},{"i_long":106.675475,"time":4,"line":6,"is_transit":false,"i_lat":-6.314823,"distance":2413,"station_id":"RU","station_name":"Rawa Buntu","transit":false},{"i_lat":-6.296963,"transit":false,"station_id":"SDM","is_transit":false,"time":6,"i_long":106.712277,"line":6,"distance":4566,"station_name":"Sudimara"},{"i_long":106.728916,"time":4,"distance":1994,"transit":false,"i_lat":-6.288927,"line":6,"is_transit":false,"station_name":"Jurangmangu","station_id":"JMU"},{"line":6,"station_id":"PDJ","station_name":"Pondokranji","i_lat":-6.276362,"transit":false,"i_long":106.74273,"time":3,"is_transit":false,"distance":2179},{"is_transit":false,"station_id":"KBY","i_lat":-6.237242,"time":8,"station_name":"Kebayoran","distance":6218,"transit":false,"i_long":106.780334,"line":6},{"i_long":106.79689,"line":6,"time":7,"i_lat":-6.207404,"transit":false,"distance":3737,"station_id":"PLM","is_transit":false,"station_name":"Palmerah"},{"station_name":"Tanah Abang","station_id":"THB","time":6,"is_transit":true,"distance":3191,"i_long":106.811091,"transit":true,"i_lat":-6.185545,"line":1},{"time":5,"transit":false,"i_lat":-6.20132,"i_long":106.816351,"distance":2029,"is_transit":false,"station_name":"Karet","line":1,"station_id":"KAT"},{"i_long":106.819881,"is_transit":false,"distance":471,"i_lat":-6.201433,"line":1,"time":1,"station_name":"Sudirman Baru","transit":false,"station_id":"SUDB"},{"is_transit":false,"station_name":"Sudirman","i_long":106.822649,"time":1,"line":1,"distance":280,"i_lat":-6.202263,"transit":false,"station_id":"SUD"},{"station_id":"MRI","line":0,"i_long":106.84912,"time":4,"distance":3186,"is_transit":true,"station_name":"Manggarai","transit":false,"i_lat":-6.209883},{"station_id":"MTR","i_lat":-6.212485,"time":2,"i_long":106.858896,"distance":1275,"is_transit":false,"station_name":"Matraman","line":1,"transit":false},{"station_name":"Jatinegara","i_lat":-6.215091,"station_id":"JNG","is_transit":true,"i_long":106.86807400000001,"transit":true,"line":0,"time":8,"distance":1377},{"station_name":"Pondok Jati","transit":false,"time":2,"is_transit":false,"distance":1236,"i_lat":-6.209188,"i_long":106.861737,"line":11,"station_id":"POK"},{"i_lat":-6.193792,"station_name":"Kramat","transit":false,"i_long":106.855437,"time":2,"distance":1829,"is_transit":false,"station_id":"KMT","line":11},{"station_name":"Gang Sentiong","is_transit":false,"station_id":"GST","transit":false,"i_lat":-6.185975,"line":11,"time":1,"distance":973,"i_long":106.850107},{"line":11,"station_name":"Pasar Senen","distance":1567,"i_lat":-6.174784,"station_id":"PSE","i_long":106.84368,"is_transit":false,"transit":false,"time":8},{"time":4,"distance":1436,"station_name":"Kemayoran","is_transit":false,"transit":false,"i_lat":-6.161728,"i_long":106.839204,"station_id":"KMO","line":11},{"i_lat":-6.14505,"i_long":106.836569,"station_name":"Rajawali","distance":1901,"time":5,"is_transit":false,"line":11,"transit":false,"station_id":"RJW"},{"line":0,"i_lat":-6.132549,"transit":true,"station_id":"KPB","time":3,"station_name":"Kampung Bandan","is_transit":true,"i_long":106.826365,"distance":1444},{"distance":2185,"i_lat":-6.128023,"transit":false,"station_name":"Ancol","i_long":106.84464,"time":4,"is_transit":false,"station_id":"AC","line":0}]]}