{"data":[[{"i_long":106.394373,"line":6,"station_id":"MJ","station_name":"Maja","is_transit":false,"transit":false,"time":0,"distance":0,"i_lat":-6.332307},{"station_id":"CKY","i_long":106.411216,"station_name":"Cikoya","distance":1853,"time":4,"i_lat":-6.33561,"line":3,"transit":false,"is_transit":false},{"station_name":"Tigaraksa","time":3,"station_id":"TGS","transit":false,"is_transit":false,"distance":2651,"i_long":106.425991,"i_lat":-6.328533,"line":6},{"i_long":106.460812,"line":6,"station_id":"TEJ","station_name":"Tenjo","transit":false,"i_lat":-6.327251,"time":5,"distance":2974,"is_transit":false},{"station_name":"Daru","is_transit":false,"transit":false,"time":5,"distance":3902,"i_long":106.491338,"station_id":"DAR","line":0,"i_lat":-6.338021},{"is_transit":false,"time":6,"i_long":106.508482,"i_lat":-6.354349,"line":3,"distance":2675,"transit":false,"station_name":"Cilejit","station_id":"CJT"},{"station_name":"Parung Panjang","station_id":"PRP","transit":false,"time":9,"i_lat":-6.3441410000000005,"i_long":106.568863,"is_transit":false,"distance":7025,"line":6},{"station_name":"Cicayur","is_transit":false,"line":3,"station_id":"CC","time":8,"distance":5968,"transit":false,"i_lat":-6.329547,"i_long":106.617853},{"station_name":"Cisauk","i_long":106.640411,"station_id":"CSK","time":4,"i_lat":-6.32484,"distance":2519,"line":3,"transit":false,"is_transit":false},{"i_long":106.66566,"is_transit":false,"distance":1784,"i_lat":-6.319871,"transit":false,"station_id":"SRP","station_name":"Serpong","time":4,"line":6},{"i_lat":-6.314823,"station_id":"RU","is_transit":false,"distance":2413,"i_long":106.675475,"time":4,"station_name":"Rawa Buntu","line":6,"transit":false},{"i_long":106.712277,"is_transit":false,"station_id":"SDM","transit":false,"time":6,"distance":4566,"station_name":"Sudimara","line":6,"i_lat":-6.296963},{"is_transit":false,"time":4,"distance":1994,"station_name":"Jurangmangu","i_lat":-6.288927,"line":6,"transit":false,"i_long":106.728916,"station_id":"JMU"},{"station_id":"PDJ","is_transit":false,"distance":2179,"time":3,"i_long":106.74273,"transit":false,"i_lat":-6.276362,"station_name":"Pondokranji","line":6},{"station_id":"KBY","distance":6218,"transit":false,"station_name":"Kebayoran","time":8,"i_lat":-6.237242,"line":6,"is_transit":false,"i_long":106.780334},{"station_id":"PLM","i_lat":-6.207404,"transit":false,"station_name":"Palmerah","is_transit":false,"time":7,"distance":3737,"i_long":106.79689,"line":6},{"transit":true,"is_transit":true,"distance":3191,"i_lat":-6.185545,"i_long":106.811091,"station_name":"Tanah Abang","station_id":"THB","line":1,"time":6},{"i_long":106.800832,"station_id":"DU","transit":false,"station_name":"Duri","distance":3632,"line":1,"i_lat":-6.155215,"is_transit":false,"time":8},{"line":1,"i_lat":-6.144674,"station_name":"Angke","time":4,"distance":1230,"transit":false,"is_transit":false,"station_id":"AK","i_long":106.79867}],[{"distance":0,"is_transit":false,"line":6,"time":0,"transit":false,"i_lat":-6.332307,"station_name":"Maja","i_long":106.394373,"station_id":"MJ"},{"transit":false,"is_transit":false,"i_long":106.411216,"station_id":"CKY","station_name":"Cikoya","line":3,"i_lat":-6.33561,"time":4,"distance":1853},{"line":6,"station_id":"TGS","time":3,"i_long":106.425991,"distance":2651,"transit":false,"i_lat":-6.328533,"station_name":"Tigaraksa","is_transit":false},{"time":5,"i_long":106.460812,"distance":2974,"is_transit":false,"station_id":"TEJ","transit":false,"line":6,"i_lat":-6.327251,"station_name":"Tenjo"},{"time":5,"distance":3902,"i_long":106.491338,"i_lat":-6.338021,"station_name":"Daru","transit":false,"is_transit":false,"line":0,"station_id":"DAR"},{"i_lat":-6.354349,"i_long":106.508482,"distance":2675,"transit":false,"station_name":"Cilejit","is_transit":false,"station_id":"CJT","line":3,"time":6},{"station_id":"PRP","i_long":106.568863,"i_lat":-6.3441410000000005,"is_transit":false,"time":9,"transit":false,"distance":7025,"line":6,"station_name":"Parung Panjang"},{"transit":false,"time":8,"i_lat":-6.329547,"station_id":"CC","i_long":106.617853,"line":3,"station_name":"Cicayur","distance":5968,"is_transit":false},{"transit":false,"i_long":106.640411,"station_name":"Cisauk","is_transit":false,"station_id":"CSK","distance":2519,"i_lat":-6.32484,"time":4,"line":3},{"i_lat":-6.319871,"station_name":"Serpong","distance":1784,"time":4,"station_id":"SRP","i_long":106.66566,"transit":false,"line":6,"is_transit":false},{"time":4,"line":6,"is_transit":false,"i_long":106.675475,"distance":2413,"transit":false,"station_name":"Rawa Buntu","station_id":"RU","i_lat":-6.314823},{"is_transit":false,"time":6,"station_name":"Sudimara","distance":4566,"transit":false,"station_id":"SDM","i_long":106.712277,"i_lat":-6.296963,"line":6},{"distance":1994,"transit":false,"station_id":"JMU","is_transit":false,"station_name":"Jurangmangu","time":4,"line":6,"i_lat":-6.288927,"i_long":106.728916},{"i_lat":-6.276362,"transit":false,"distance":2179,"i_long":106.74273,"time":3,"is_transit":false,"station_id":"PDJ","line":6,"station_name":"Pondokranji"},{"transit":false,"time":8,"i_lat":-6.237242,"is_transit":false,"station_id":"KBY","i_long":106.780334,"distance":6218,"station_name":"Kebayoran","line":6},{"time":7,"transit":false,"station_name":"Palmerah","is_transit":false,"distance":3737,"station_id":"PLM","i_long":106.79689,"line":6,"i_lat":-6.207404},{"station_name":"Tanah Abang","station_id":"THB","i_long":106.811091,"distance":3191,"transit":true,"time":6,"is_transit":true,"i_lat":-6.185545,"line":1},{"time":5,"station_id":"KAT","i_lat":-6.20132,"line":1,"i_long":106.816351,"distance":2029,"transit":false,"is_transit":false,"station_name":"Karet"},{"station_name":"Sudirman Baru","transit":false,"station_id":"SUDB","i_lat":-6.201433,"distance":471,"line":1,"is_transit":false,"i_long":106.819881,"time":1},{"time":1,"distance":280,"station_name":"Sudirman","i_long":106.822649,"is_transit":false,"station_id":"SUD","transit":false,"i_lat":-6.202263,"line":1},{"i_lat":-6.209883,"distance":3186,"line":2,"station_name":"Manggarai","time":4,"is_transit":true,"transit":true,"station_id":"MRI","i_long":106.84912},{"time":4,"station_id":"CKI","i_long":106.840169,"line":2,"station_name":"Cikini","transit":false,"distance":1590,"is_transit":false,"i_lat":-6.198556},{"time":3,"transit":false,"i_lat":-6.186295,"station_id":"GDD","is_transit":false,"line":2,"station_name":"Gondangdia","distance":1750,"i_long":106.832183},{"line":2,"is_transit":false,"i_long":106.828284,"station_id":"JUA","station_name":"Juanda","distance":2015,"time":4,"transit":false,"i_lat":-6.166716},{"station_id":"SW","transit":false,"line":2,"i_long":106.827103,"is_transit":false,"station_name":"Sawah Besar","time":2,"distance":1149,"i_lat":-6.160725},{"i_long":106.82482,"line":2,"station_name":"Manggabesar","i_lat":-6.149769,"is_transit":false,"time":2,"transit":false,"distance":906,"station_id":"MGB"},{"i_lat":-6.141205,"distance":1080,"time":2,"transit":false,"station_id":"JAY","i_long":106.820901,"station_name":"Jayakarta","line":2,"is_transit":false},{"line":2,"i_lat":-6.137569,"transit":true,"station_name":"Jakarta Kota","distance":1264,"i_long":106.812439,"time":4,"is_transit":true,"station_id":"JAKK"},{"line":4,"station_name":"Kampung Bandan","i_long":106.826365,"is_transit":true,"transit":true,"distance":1364,"station_id":"KPB","i_lat":-6.132549,"time":3},{"station_name":"Angke","i_long":106.79867,"line":1,"time":9,"transit":false,"distance":4102,"station_id":"AK","is_transit":false,"i_lat":-6.144674}],[{"line":6,"time":0,"i_long":106.394373,"station_name":"Maja","distance":0,"i_lat":-6.332307,"transit":false,"is_transit":false,"station_id":"MJ"},{"line":3,"transit":false,"station_name":"Cikoya","time":4,"station_id":"CKY","distance":1853,"i_lat":-6.33561,"i_long":106.411216,"is_transit":false},{"transit":false,"station_name":"Tigaraksa","distance":2651,"line":6,"i_lat":-6.328533,"station_id":"TGS","i_long":106.425991,"time":3,"is_transit":false},{"station_name":"Tenjo","transit":false,"is_transit":false,"time":5,"i_lat":-6.327251,"i_long":106.460812,"line":6,"station_id":"TEJ","distance":2974},{"station_name":"Daru","transit":false,"i_long":106.491338,"time":5,"distance":3902,"line":0,"is_transit":false,"station_id":"DAR","i_lat":-6.338021},{"transit":false,"station_name":"Cilejit","is_transit":false,"station_id":"CJT","i_lat":-6.354349,"i_long":106.508482,"time":6,"line":3,"distance":2675},{"transit":false,"time":9,"line":6,"station_name":"Parung Panjang","is_transit":false,"i_long":106.568863,"i_lat":-6.3441410000000005,"station_id":"PRP","distance":7025},{"station_id":"CC","i_lat":-6.329547,"i_long":106.617853,"line":3,"station_name":"Cicayur","transit":false,"distance":5968,"time":8,"is_transit":false},{"i_lat":-6.32484,"i_long":106.640411,"line":3,"distance":2519,"transit":false,"station_id":"CSK","time":4,"station_name":"Cisauk","is_transit":false},{"station_id":"SRP","is_transit":false,"i_long":106.66566,"line":6,"i_lat":-6.319871,"time":4,"station_name":"Serpong","transit":false,"distance":1784},{"i_lat":-6.314823,"line":6,"distance":2413,"station_id":"RU","time":4,"transit":false,"i_long":106.675475,"station_name":"Rawa Buntu","is_transit":false},{"time":6,"station_name":"Sudimara","transit":false,"distance":4566,"is_transit":false,"i_lat":-6.296963,"i_long":106.712277,"line":6,"station_id":"SDM"},{"line":6,"distance":1994,"i_lat":-6.288927,"is_transit":false,"i_long":106.728916,"station_id":"JMU","station_name":"Jurangmangu","time":4,"transit":false},{"station_id":"PDJ","station_name":"Pondokranji","distance":2179,"is_transit":false,"time":3,"transit":false,"i_lat":-6.276362,"i_long":106.74273,"line":6},{"station_name":"Kebayoran","transit":false,"is_transit":false,"i_lat":-6.237242,"time":8,"i_long":106.780334,"station_id":"KBY","distance":6218,"line":6},{"station_name":"Palmerah","line":6,"i_lat":-6.207404,"is_transit":false,"station_id":"PLM","distance":3737,"i_long":106.79689,"time":7,"transit":false},{"station_id":"THB","i_lat":-6.185545,"time":6,"distance":3191,"is_transit":true,"station_name":"Tanah Abang","i_long":106.811091,"line":1,"transit":true},{"station_name":"Karet","distance":2029,"time":5,"is_transit":false,"i_long":106.816351,"line":1,"transit":false,"i_lat":-6.20132,"station_id":"KAT"},{"station_name":"Sudirman Baru","time":1,"line":1,"distance":471,"i_lat":-6.201433,"station_id":"SUDB","is_transit":false,"i_long":106.819881,"transit":false},{"station_id":"SUD","distance":280,"time":1,"i_lat":-6.202263,"i_long":106.822649,"is_transit":false,"transit":false,"line":1,"station_name":"Sudirman"},{"i_lat":-6.209883,"i_long":106.84912,"station_name":"Manggarai","transit":false,"is_transit":false,"line":2,"distance":3186,"time":4,"station_id":"MRI"},{"transit":false,"station_name":"Matraman","distance":1275,"time":2,"i_long":106.858896,"i_lat":-6.212485,"line":1,"is_transit":false,"station_id":"MTR"},{"station_id":"JNG","time":8,"station_name":"Jatinegara","is_transit":true,"transit":true,"i_lat":-6.215091,"distance":1377,"line":1,"i_long":106.86807400000001},{"distance":1236,"transit":false,"station_id":"POK","i_lat":-6.209188,"line":11,"i_long":106.861737,"is_transit":false,"station_name":"Pondok Jati","time":2},{"i_long":106.855437,"station_id":"KMT","transit":false,"i_lat":-6.193792,"line":11,"distance":1829,"time":2,"station_name":"Kramat","is_transit":false},{"line":11,"station_name":"Gang Sentiong","transit":false,"is_transit":false,"i_long":106.850107,"distance":973,"station_id":"GST","i_lat":-6.185975,"time":1},{"station_id":"PSE","i_long":106.84368,"transit":false,"i_lat":-6.174784,"station_name":"Pasar Senen","distance":1567,"is_transit":false,"line":11,"time":8},{"line":11,"time":4,"station_name":"Kemayoran","transit":false,"station_id":"KMO","i_lat":-6.161728,"i_long":106.839204,"distance":1436,"is_transit":false},{"station_id":"RJW","line":11,"station_name":"Rajawali","is_transit":false,"i_lat":-6.14505,"distance":1901,"i_long":106.836569,"transit":false,"time":5},{"station_id":"KPB","i_long":106.826365,"transit":true,"line":4,"is_transit":true,"time":3,"i_lat":-6.132549,"distance":1444,"station_name":"Kampung Bandan"},{"line":1,"station_name":"Angke","distance":4102,"time":9,"station_id":"AK","is_transit":false,"transit":false,"i_lat":-6.144674,"i_long":106.79867}]]}