{"data":[[{"i_lat":-6.332307,"station_id":"MJ","time":0,"i_long":106.394373,"transit":false,"station_name":"Maja","distance":0,"line":6,"is_transit":false},{"i_long":106.411216,"is_transit":false,"distance":1853,"line":3,"station_name":"Cikoya","i_lat":-6.33561,"transit":false,"time":4,"station_id":"CKY"},{"line":6,"transit":false,"i_long":106.425991,"station_name":"Tigaraksa","is_transit":false,"station_id":"TGS","i_lat":-6.328533,"time":3,"distance":2651},{"station_name":"Tenjo","i_long":106.460812,"is_transit":false,"transit":false,"distance":2974,"station_id":"TEJ","line":6,"time":5,"i_lat":-6.327251},{"i_long":106.491338,"station_id":"DAR","is_transit":false,"distance":3902,"transit":false,"i_lat":-6.338021,"line":0,"station_name":"Daru","time":5},{"is_transit":false,"time":6,"distance":2675,"transit":false,"i_long":106.508482,"line":3,"station_id":"CJT","station_name":"Cilejit","i_lat":-6.354349},{"transit":false,"distance":7025,"time":9,"is_transit":false,"i_lat":-6.3441410000000005,"i_long":106.568863,"station_id":"PRP","line":6,"station_name":"Parung Panjang"},{"station_id":"CC","i_lat":-6.329547,"time":8,"transit":false,"i_long":106.617853,"station_name":"Cicayur","distance":5968,"line":3,"is_transit":false},{"is_transit":false,"station_name":"Cisauk","transit":false,"i_long":106.640411,"station_id":"CSK","i_lat":-6.32484,"time":4,"line":3,"distance":2519},{"distance":1784,"line":6,"is_transit":false,"time":4,"transit":false,"station_id":"SRP","station_name":"Serpong","i_long":106.66566,"i_lat":-6.319871},{"station_name":"Rawa Buntu","station_id":"RU","transit":false,"distance":2413,"is_transit":false,"i_long":106.675475,"line":6,"time":4,"i_lat":-6.314823},{"i_long":106.712277,"i_lat":-6.296963,"line":6,"station_id":"SDM","station_name":"Sudimara","transit":false,"distance":4566,"time":6,"is_transit":false},{"station_name":"Jurangmangu","station_id":"JMU","transit":false,"distance":1994,"i_long":106.728916,"is_transit":false,"i_lat":-6.288927,"line":6,"time":4},{"distance":2179,"station_id":"PDJ","transit":false,"is_transit":false,"line":6,"station_name":"Pondokranji","i_lat":-6.276362,"i_long":106.74273,"time":3},{"distance":6218,"station_name":"Kebayoran","i_lat":-6.237242,"transit":false,"line":6,"station_id":"KBY","i_long":106.780334,"is_transit":false,"time":8},{"station_name":"Palmerah","i_lat":-6.207404,"time":7,"transit":false,"station_id":"PLM","distance":3737,"is_transit":false,"i_long":106.79689,"line":6},{"distance":3191,"i_lat":-6.185545,"time":6,"station_id":"THB","i_long":106.811091,"transit":true,"line":1,"is_transit":true,"station_name":"Tanah Abang"},{"i_long":106.800832,"line":1,"station_name":"Duri","time":8,"transit":false,"station_id":"DU","distance":3632,"i_lat":-6.155215,"is_transit":false},{"station_name":"Angke","station_id":"AK","i_lat":-6.144674,"i_long":106.79867,"time":4,"line":1,"transit":false,"is_transit":false,"distance":1230}],[{"time":0,"station_name":"Maja","station_id":"MJ","distance":0,"i_long":106.394373,"is_transit":false,"i_lat":-6.332307,"line":6,"transit":false},{"distance":1853,"is_transit":false,"time":4,"transit":false,"station_id":"CKY","line":3,"i_lat":-6.33561,"i_long":106.411216,"station_name":"Cikoya"},{"i_long":106.425991,"time":3,"station_id":"TGS","station_name":"Tigaraksa","i_lat":-6.328533,"transit":false,"line":6,"is_transit":false,"distance":2651},{"station_name":"Tenjo","time":5,"distance":2974,"line":6,"station_id":"TEJ","is_transit":false,"i_long":106.460812,"transit":false,"i_lat":-6.327251},{"station_name":"Daru","station_id":"DAR","transit":false,"line":0,"time":5,"is_transit":false,"distance":3902,"i_lat":-6.338021,"i_long":106.491338},{"transit":false,"distance":2675,"is_transit":false,"i_lat":-6.354349,"line":3,"i_long":106.508482,"station_id":"CJT","station_name":"Cilejit","time":6},{"is_transit":false,"transit":false,"station_id":"PRP","i_long":106.568863,"line":6,"station_name":"Parung Panjang","distance":7025,"i_lat":-6.3441410000000005,"time":9},{"station_name":"Cicayur","time":8,"station_id":"CC","i_lat":-6.329547,"line":3,"distance":5968,"transit":false,"is_transit":false,"i_long":106.617853},{"station_name":"Cisauk","is_transit":false,"station_id":"CSK","line":3,"time":4,"i_lat":-6.32484,"transit":false,"i_long":106.640411,"distance":2519},{"is_transit":false,"distance":1784,"i_lat":-6.319871,"i_long":106.66566,"line":6,"transit":false,"station_name":"Serpong","station_id":"SRP","time":4},{"is_transit":false,"station_name":"Rawa Buntu","transit":false,"distance":2413,"i_lat":-6.314823,"station_id":"RU","line":6,"time":4,"i_long":106.675475},{"time":6,"line":6,"is_transit":false,"distance":4566,"transit":false,"station_name":"Sudimara","station_id":"SDM","i_long":106.712277,"i_lat":-6.296963},{"station_id":"JMU","station_name":"Jurangmangu","distance":1994,"i_long":106.728916,"transit":false,"time":4,"is_transit":false,"i_lat":-6.288927,"line":6},{"i_lat":-6.276362,"transit":false,"distance":2179,"i_long":106.74273,"time":3,"line":6,"station_name":"Pondokranji","is_transit":false,"station_id":"PDJ"},{"station_id":"KBY","is_transit":false,"i_lat":-6.237242,"station_name":"Kebayoran","distance":6218,"time":8,"i_long":106.780334,"transit":false,"line":6},{"station_name":"Palmerah","station_id":"PLM","time":7,"i_lat":-6.207404,"transit":false,"distance":3737,"is_transit":false,"i_long":106.79689,"line":6},{"transit":true,"i_long":106.811091,"distance":3191,"is_transit":true,"station_name":"Tanah Abang","time":6,"i_lat":-6.185545,"line":1,"station_id":"THB"},{"i_long":106.816351,"line":1,"station_name":"Karet","transit":false,"station_id":"KAT","distance":2029,"is_transit":false,"i_lat":-6.20132,"time":5},{"transit":false,"distance":471,"station_name":"Sudirman Baru","line":1,"i_long":106.819881,"i_lat":-6.201433,"time":1,"station_id":"SUDB","is_transit":false},{"line":1,"transit":false,"distance":280,"i_lat":-6.202263,"station_id":"SUD","is_transit":false,"time":1,"station_name":"Sudirman","i_long":106.822649},{"transit":true,"line":2,"time":4,"i_lat":-6.209883,"i_long":106.84912,"station_name":"Manggarai","distance":3186,"is_transit":true,"station_id":"MRI"},{"station_id":"CKI","station_name":"Cikini","transit":false,"time":4,"i_long":106.840169,"i_lat":-6.198556,"line":2,"distance":1590,"is_transit":false},{"i_long":106.832183,"transit":false,"distance":1750,"station_name":"Gondangdia","station_id":"GDD","line":2,"is_transit":false,"time":3,"i_lat":-6.186295},{"distance":2015,"time":4,"station_name":"Juanda","line":2,"station_id":"JUA","is_transit":false,"transit":false,"i_long":106.828284,"i_lat":-6.166716},{"time":2,"i_lat":-6.160725,"i_long":106.827103,"line":2,"distance":1149,"station_id":"SW","is_transit":false,"station_name":"Sawah Besar","transit":false},{"i_lat":-6.149769,"time":2,"i_long":106.82482,"transit":false,"station_name":"Manggabesar","line":2,"station_id":"MGB","is_transit":false,"distance":906},{"station_id":"JAY","transit":false,"station_name":"Jayakarta","i_lat":-6.141205,"is_transit":false,"distance":1080,"i_long":106.820901,"time":2,"line":2},{"is_transit":true,"transit":true,"station_id":"JAKK","time":4,"line":2,"station_name":"Jakarta Kota","i_lat":-6.137569,"distance":1264,"i_long":106.812439},{"station_id":"KPB","distance":1364,"transit":true,"time":3,"is_transit":true,"i_lat":-6.132549,"i_long":106.826365,"station_name":"Kampung Bandan","line":4},{"is_transit":false,"station_id":"AK","transit":false,"station_name":"Angke","distance":4102,"i_long":106.79867,"line":1,"time":9,"i_lat":-6.144674}],[{"station_id":"MJ","line":6,"is_transit":false,"i_long":106.394373,"station_name":"Maja","distance":0,"time":0,"transit":false,"i_lat":-6.332307},{"i_lat":-6.33561,"time":4,"i_long":106.411216,"station_id":"CKY","station_name":"Cikoya","is_transit":false,"transit":false,"distance":1853,"line":3},{"i_lat":-6.328533,"i_long":106.425991,"station_id":"TGS","is_transit":false,"transit":false,"station_name":"Tigaraksa","line":6,"distance":2651,"time":3},{"station_name":"Tenjo","distance":2974,"station_id":"TEJ","transit":false,"time":5,"is_transit":false,"i_lat":-6.327251,"i_long":106.460812,"line":6},{"i_lat":-6.338021,"line":0,"i_long":106.491338,"time":5,"distance":3902,"station_id":"DAR","is_transit":false,"transit":false,"station_name":"Daru"},{"station_name":"Cilejit","is_transit":false,"distance":2675,"i_long":106.508482,"i_lat":-6.354349,"station_id":"CJT","time":6,"line":3,"transit":false},{"time":9,"station_id":"PRP","is_transit":false,"line":6,"station_name":"Parung Panjang","distance":7025,"transit":false,"i_long":106.568863,"i_lat":-6.3441410000000005},{"i_lat":-6.329547,"is_transit":false,"station_name":"Cicayur","station_id":"CC","transit":false,"time":8,"i_long":106.617853,"line":3,"distance":5968},{"transit":false,"i_long":106.640411,"line":3,"station_name":"Cisauk","station_id":"CSK","distance":2519,"i_lat":-6.32484,"time":4,"is_transit":false},{"transit":false,"distance":1784,"is_transit":false,"time":4,"i_long":106.66566,"station_id":"SRP","station_name":"Serpong","line":6,"i_lat":-6.319871},{"station_name":"Rawa Buntu","i_lat":-6.314823,"transit":false,"i_long":106.675475,"line":6,"distance":2413,"is_transit":false,"time":4,"station_id":"RU"},{"station_name":"Sudimara","is_transit":false,"i_long":106.712277,"transit":false,"time":6,"i_lat":-6.296963,"line":6,"station_id":"SDM","distance":4566},{"station_name":"Jurangmangu","i_lat":-6.288927,"transit":false,"is_transit":false,"time":4,"i_long":106.728916,"station_id":"JMU","line":6,"distance":1994},{"transit":false,"distance":2179,"time":3,"station_id":"PDJ","is_transit":false,"i_lat":-6.276362,"line":6,"station_name":"Pondokranji","i_long":106.74273},{"transit":false,"station_id":"KBY","station_name":"Kebayoran","distance":6218,"is_transit":false,"time":8,"i_lat":-6.237242,"i_long":106.780334,"line":6},{"time":7,"transit":false,"is_transit":false,"station_id":"PLM","i_long":106.79689,"line":6,"station_name":"Palmerah","distance":3737,"i_lat":-6.207404},{"is_transit":true,"distance":3191,"i_lat":-6.185545,"station_id":"THB","transit":true,"i_long":106.811091,"station_name":"Tanah Abang","line":1,"time":6},{"transit":false,"i_lat":-6.20132,"is_transit":false,"time":5,"station_name":"Karet","distance":2029,"i_long":106.816351,"line":1,"station_id":"KAT"},{"i_lat":-6.201433,"station_name":"Sudirman Baru","distance":471,"transit":false,"line":1,"i_long":106.819881,"time":1,"is_transit":false,"station_id":"SUDB"},{"line":1,"i_lat":-6.202263,"i_long":106.822649,"transit":false,"station_id":"SUD","station_name":"Sudirman","is_transit":false,"time":1,"distance":280},{"distance":3186,"time":4,"i_long":106.84912,"station_name":"Manggarai","i_lat":-6.209883,"line":2,"is_transit":false,"transit":false,"station_id":"MRI"},{"time":2,"distance":1275,"i_lat":-6.212485,"i_long":106.858896,"station_name":"Matraman","line":1,"is_transit":false,"station_id":"MTR","transit":false},{"station_id":"JNG","transit":true,"distance":1377,"is_transit":true,"i_lat":-6.215091,"line":1,"i_long":106.86807400000001,"station_name":"Jatinegara","time":8},{"transit":false,"i_long":106.861737,"station_name":"Pondok Jati","distance":1236,"is_transit":false,"station_id":"POK","time":2,"i_lat":-6.209188,"line":11},{"time":2,"i_lat":-6.193792,"line":11,"station_id":"KMT","is_transit":false,"station_name":"Kramat","i_long":106.855437,"transit":false,"distance":1829},{"distance":973,"is_transit":false,"station_id":"GST","line":11,"transit":false,"time":1,"i_lat":-6.185975,"i_long":106.850107,"station_name":"Gang Sentiong"},{"transit":false,"time":8,"is_transit":false,"i_lat":-6.174784,"line":11,"station_name":"Pasar Senen","station_id":"PSE","i_long":106.84368,"distance":1567},{"station_name":"Kemayoran","distance":1436,"line":11,"station_id":"KMO","transit":false,"i_long":106.839204,"time":4,"is_transit":false,"i_lat":-6.161728},{"station_name":"Rajawali","i_long":106.836569,"time":5,"line":11,"distance":1901,"station_id":"RJW","is_transit":false,"i_lat":-6.14505,"transit":false},{"distance":1444,"i_lat":-6.132549,"transit":true,"station_name":"Kampung Bandan","time":3,"i_long":106.826365,"is_transit":true,"line":4,"station_id":"KPB"},{"station_id":"AK","is_transit":false,"i_long":106.79867,"station_name":"Angke","distance":4102,"transit":false,"i_lat":-6.144674,"line":1,"time":9}]]}