{"data":[[{"distance":0,"line":6,"is_transit":false,"station_id":"MJ","time":0,"station_name":"Maja","i_lat":-6.332307,"i_long":106.394373,"transit":false},{"i_long":106.411216,"station_name":"Cikoya","line":3,"station_id":"CKY","distance":1853,"time":4,"i_lat":-6.33561,"transit":false,"is_transit":false},{"transit":false,"time":3,"station_name":"Tigaraksa","i_lat":-6.328533,"i_long":106.425991,"line":6,"is_transit":false,"station_id":"TGS","distance":2651},{"line":6,"is_transit":false,"time":5,"i_long":106.460812,"distance":2974,"station_name":"Tenjo","i_lat":-6.327251,"station_id":"TEJ","transit":false},{"station_id":"DAR","time":5,"distance":3902,"station_name":"Daru","i_lat":-6.338021,"i_long":106.491338,"transit":false,"is_transit":false,"line":0},{"time":6,"station_id":"CJT","station_name":"Cilejit","transit":false,"i_long":106.508482,"line":3,"distance":2675,"i_lat":-6.354349,"is_transit":false},{"station_name":"Parung Panjang","transit":false,"line":6,"i_long":106.568863,"is_transit":false,"distance":7025,"time":9,"station_id":"PRP","i_lat":-6.3441410000000005},{"distance":5968,"station_id":"CC","time":8,"i_long":106.617853,"station_name":"Cicayur","line":3,"transit":false,"i_lat":-6.329547,"is_transit":false},{"i_lat":-6.32484,"station_name":"Cisauk","line":3,"station_id":"CSK","transit":false,"distance":2519,"is_transit":false,"i_long":106.640411,"time":4},{"time":4,"station_id":"SRP","is_transit":false,"distance":1784,"i_long":106.66566,"i_lat":-6.319871,"transit":false,"line":6,"station_name":"Serpong"},{"is_transit":false,"line":6,"transit":false,"i_lat":-6.314823,"time":4,"station_id":"RU","station_name":"Rawa Buntu","distance":2413,"i_long":106.675475},{"i_long":106.712277,"line":6,"station_name":"Sudimara","transit":false,"station_id":"SDM","i_lat":-6.296963,"is_transit":false,"time":6,"distance":4566},{"station_id":"JMU","transit":false,"time":4,"i_long":106.728916,"station_name":"Jurangmangu","distance":1994,"i_lat":-6.288927,"line":6,"is_transit":false},{"line":6,"station_name":"Pondokranji","i_long":106.74273,"station_id":"PDJ","transit":false,"i_lat":-6.276362,"is_transit":false,"time":3,"distance":2179},{"station_name":"Kebayoran","distance":6218,"station_id":"KBY","i_long":106.780334,"is_transit":false,"transit":false,"time":8,"i_lat":-6.237242,"line":6},{"station_id":"PLM","transit":false,"line":6,"time":7,"distance":3737,"is_transit":false,"i_lat":-6.207404,"station_name":"Palmerah","i_long":106.79689},{"station_id":"THB","station_name":"Tanah Abang","is_transit":true,"distance":3191,"transit":true,"time":6,"i_lat":-6.185545,"line":1,"i_long":106.811091},{"is_transit":false,"i_lat":-6.20132,"transit":false,"time":5,"station_name":"Karet","station_id":"KAT","distance":2029,"i_long":106.816351,"line":1},{"time":1,"distance":471,"i_long":106.819881,"station_name":"Sudirman Baru","is_transit":false,"transit":false,"i_lat":-6.201433,"line":1,"station_id":"SUDB"},{"distance":280,"is_transit":false,"station_name":"Sudirman","i_long":106.822649,"transit":false,"i_lat":-6.202263,"line":1,"station_id":"SUD","time":1},{"station_id":"MRI","line":2,"transit":true,"time":4,"i_long":106.84912,"station_name":"Manggarai","i_lat":-6.209883,"is_transit":true,"distance":3186},{"line":2,"is_transit":false,"i_lat":-6.226659,"transit":false,"distance":2610,"i_long":106.857948,"time":4,"station_id":"TEB","station_name":"Tebet"},{"line":2,"i_lat":-6.242512,"is_transit":false,"transit":false,"time":2,"i_long":106.856607,"station_id":"CW","station_name":"Cawang","distance":1230},{"station_id":"DRN","transit":false,"i_lat":-6.255332,"time":3,"i_long":106.85449,"line":2,"station_name":"Duren Kalibata","is_transit":false,"distance":1546},{"station_id":"PSMB","is_transit":false,"transit":false,"time":2,"station_name":"Pasar Minggu Baru","distance":824,"i_lat":-6.263214,"i_long":106.851577,"line":2},{"line":2,"distance":2380,"time":2,"station_id":"PSM","i_long":106.843999,"is_transit":false,"transit":false,"i_lat":-6.2842400000000005,"station_name":"Pasar Minggu"},{"transit":false,"distance":2820,"i_long":106.838896,"station_id":"TNT","station_name":"Tanjung Barat","i_lat":-6.3080680000000005,"line":2,"time":4,"is_transit":false},{"station_name":"Lenteng Agung","time":3,"line":2,"distance":2671,"i_long":106.832616,"i_lat":-6.330363,"station_id":"LNA","is_transit":false,"transit":false},{"station_name":"Univ. Pancasila","time":2,"i_lat":-6.339291,"distance":1029,"transit":false,"line":2,"i_long":106.834175,"is_transit":false,"station_id":"UP"},{"i_lat":-6.360749,"station_name":"Univ. Indonesia","line":2,"transit":false,"distance":2264,"station_id":"UI","i_long":106.831474,"time":3,"is_transit":false},{"line":2,"time":2,"distance":1109,"i_long":106.831114,"is_transit":false,"station_id":"POC","station_name":"Pondok Cina","transit":false,"i_lat":-6.369073},{"time":4,"distance":2727,"station_id":"DPB","i_lat":-6.391065,"station_name":"Depokbaru","i_long":106.819451,"line":2,"is_transit":false,"transit":false},{"distance":1584,"transit":false,"time":3,"i_lat":-6.405256,"i_long":106.816926,"line":2,"is_transit":false,"station_name":"Depok","station_id":"DP"},{"station_id":"CTA","i_long":106.800298,"time":6,"distance":5084,"is_transit":false,"station_name":"Citayam","i_lat":-6.448811,"transit":false,"line":2},{"transit":false,"i_lat":-6.493243,"distance":5197,"station_id":"BJD","station_name":"Bojonggede","i_long":106.792719,"time":5,"line":2,"is_transit":false},{"station_name":"Cilebut","i_long":106.800016,"line":2,"transit":false,"is_transit":false,"i_lat":-6.530544,"distance":4331,"time":5,"station_id":"CLT"},{"distance":7514,"i_lat":-6.594596,"i_long":106.790574,"station_id":"BOO","station_name":"Bogor","is_transit":false,"line":2,"time":9,"transit":false}],[{"is_transit":false,"station_name":"Maja","line":6,"i_lat":-6.332307,"transit":false,"station_id":"MJ","i_long":106.394373,"distance":0,"time":0},{"station_name":"Cikoya","station_id":"CKY","time":4,"i_lat":-6.33561,"transit":false,"distance":1853,"is_transit":false,"i_long":106.411216,"line":3},{"i_lat":-6.328533,"line":6,"is_transit":false,"distance":2651,"station_name":"Tigaraksa","station_id":"TGS","transit":false,"time":3,"i_long":106.425991},{"time":5,"station_id":"TEJ","transit":false,"i_lat":-6.327251,"station_name":"Tenjo","is_transit":false,"distance":2974,"i_long":106.460812,"line":6},{"is_transit":false,"time":5,"transit":false,"i_lat":-6.338021,"station_name":"Daru","i_long":106.491338,"distance":3902,"station_id":"DAR","line":0},{"i_long":106.508482,"time":6,"station_id":"CJT","transit":false,"is_transit":false,"distance":2675,"station_name":"Cilejit","line":3,"i_lat":-6.354349},{"station_id":"PRP","distance":7025,"station_name":"Parung Panjang","line":6,"time":9,"i_long":106.568863,"transit":false,"i_lat":-6.3441410000000005,"is_transit":false},{"i_long":106.617853,"distance":5968,"station_id":"CC","is_transit":false,"station_name":"Cicayur","i_lat":-6.329547,"line":3,"transit":false,"time":8},{"station_id":"CSK","time":4,"i_long":106.640411,"distance":2519,"is_transit":false,"line":3,"station_name":"Cisauk","transit":false,"i_lat":-6.32484},{"station_name":"Serpong","i_long":106.66566,"time":4,"i_lat":-6.319871,"line":6,"transit":false,"is_transit":false,"distance":1784,"station_id":"SRP"},{"distance":2413,"i_lat":-6.314823,"time":4,"station_name":"Rawa Buntu","line":6,"station_id":"RU","transit":false,"i_long":106.675475,"is_transit":false},{"distance":4566,"time":6,"station_name":"Sudimara","i_lat":-6.296963,"i_long":106.712277,"transit":false,"line":6,"is_transit":false,"station_id":"SDM"},{"is_transit":false,"line":6,"time":4,"station_id":"JMU","i_long":106.728916,"i_lat":-6.288927,"station_name":"Jurangmangu","transit":false,"distance":1994},{"time":3,"station_id":"PDJ","station_name":"Pondokranji","i_lat":-6.276362,"i_long":106.74273,"is_transit":false,"transit":false,"distance":2179,"line":6},{"time":8,"i_long":106.780334,"station_id":"KBY","station_name":"Kebayoran","line":6,"i_lat":-6.237242,"transit":false,"is_transit":false,"distance":6218},{"i_long":106.79689,"line":6,"i_lat":-6.207404,"distance":3737,"station_id":"PLM","station_name":"Palmerah","time":7,"transit":false,"is_transit":false},{"i_lat":-6.185545,"station_name":"Tanah Abang","station_id":"THB","transit":true,"line":1,"time":6,"is_transit":true,"i_long":106.811091,"distance":3191},{"station_id":"DU","time":8,"i_lat":-6.155215,"distance":3632,"is_transit":false,"line":1,"i_long":106.800832,"transit":false,"station_name":"Duri"},{"station_name":"Angke","distance":1230,"transit":false,"line":1,"time":4,"i_long":106.79867,"is_transit":false,"station_id":"AK","i_lat":-6.144674},{"distance":4102,"time":9,"station_id":"KPB","transit":true,"i_long":106.826365,"is_transit":true,"line":4,"i_lat":-6.132549,"station_name":"Kampung Bandan"},{"i_lat":-6.137569,"time":3,"station_name":"Jakarta Kota","distance":1364,"i_long":106.812439,"is_transit":true,"station_id":"JAKK","line":2,"transit":true},{"distance":1264,"station_name":"Jayakarta","is_transit":false,"transit":false,"time":4,"station_id":"JAY","i_lat":-6.141205,"line":2,"i_long":106.820901},{"i_lat":-6.149769,"time":2,"line":2,"is_transit":false,"station_id":"MGB","transit":false,"station_name":"Manggabesar","distance":1080,"i_long":106.82482},{"is_transit":false,"i_long":106.827103,"time":2,"line":2,"station_id":"SW","transit":false,"station_name":"Sawah Besar","distance":906,"i_lat":-6.160725},{"i_long":106.828284,"line":2,"station_id":"JUA","station_name":"Juanda","distance":1149,"is_transit":false,"i_lat":-6.166716,"time":2,"transit":false},{"time":4,"i_long":106.832183,"distance":2015,"transit":false,"i_lat":-6.186295,"line":2,"is_transit":false,"station_id":"GDD","station_name":"Gondangdia"},{"station_name":"Cikini","transit":false,"distance":1750,"i_lat":-6.198556,"station_id":"CKI","is_transit":false,"time":3,"i_long":106.840169,"line":2},{"transit":false,"time":4,"distance":1590,"i_long":106.84912,"is_transit":false,"i_lat":-6.209883,"line":2,"station_id":"MRI","station_name":"Manggarai"},{"time":4,"distance":2610,"is_transit":false,"transit":false,"i_long":106.857948,"station_name":"Tebet","line":2,"station_id":"TEB","i_lat":-6.226659},{"transit":false,"i_lat":-6.242512,"is_transit":false,"station_name":"Cawang","i_long":106.856607,"time":2,"distance":1230,"station_id":"CW","line":2},{"distance":1546,"station_id":"DRN","transit":false,"time":3,"station_name":"Duren Kalibata","i_lat":-6.255332,"line":2,"i_long":106.85449,"is_transit":false},{"i_lat":-6.263214,"station_id":"PSMB","line":2,"is_transit":false,"transit":false,"time":2,"station_name":"Pasar Minggu Baru","distance":824,"i_long":106.851577},{"is_transit":false,"distance":2380,"i_lat":-6.2842400000000005,"line":2,"i_long":106.843999,"time":2,"station_id":"PSM","transit":false,"station_name":"Pasar Minggu"},{"i_lat":-6.3080680000000005,"distance":2820,"line":2,"i_long":106.838896,"station_id":"TNT","transit":false,"time":4,"station_name":"Tanjung Barat","is_transit":false},{"i_lat":-6.330363,"station_id":"LNA","line":2,"i_long":106.832616,"time":3,"distance":2671,"station_name":"Lenteng Agung","transit":false,"is_transit":false},{"transit":false,"line":2,"distance":1029,"time":2,"station_name":"Univ. Pancasila","station_id":"UP","i_long":106.834175,"i_lat":-6.339291,"is_transit":false},{"station_name":"Univ. Indonesia","distance":2264,"i_long":106.831474,"station_id":"UI","is_transit":false,"time":3,"i_lat":-6.360749,"line":2,"transit":false},{"station_id":"POC","i_lat":-6.369073,"i_long":106.831114,"station_name":"Pondok Cina","is_transit":false,"transit":false,"line":2,"time":2,"distance":1109},{"i_long":106.819451,"station_id":"DPB","transit":false,"i_lat":-6.391065,"is_transit":false,"time":4,"station_name":"Depokbaru","distance":2727,"line":2},{"station_name":"Depok","i_long":106.816926,"is_transit":false,"transit":false,"station_id":"DP","i_lat":-6.405256,"time":3,"distance":1584,"line":2},{"transit":false,"distance":5084,"station_id":"CTA","i_lat":-6.448811,"line":2,"i_long":106.800298,"time":6,"is_transit":false,"station_name":"Citayam"},{"i_long":106.792719,"station_name":"Bojonggede","transit":false,"distance":5197,"time":5,"station_id":"BJD","line":2,"is_transit":false,"i_lat":-6.493243},{"distance":4331,"time":5,"station_name":"Cilebut","i_long":106.800016,"station_id":"CLT","line":2,"transit":false,"is_transit":false,"i_lat":-6.530544},{"i_lat":-6.594596,"station_name":"Bogor","distance":7514,"i_long":106.790574,"transit":false,"line":2,"station_id":"BOO","is_transit":false,"time":9}],[{"station_name":"Maja","transit":false,"i_long":106.394373,"time":0,"distance":0,"station_id":"MJ","line":6,"i_lat":-6.332307,"is_transit":false},{"is_transit":false,"transit":false,"station_id":"CKY","station_name":"Cikoya","i_long":106.411216,"distance":1853,"line":3,"i_lat":-6.33561,"time":4},{"distance":2651,"time":3,"i_lat":-6.328533,"line":6,"transit":false,"station_name":"Tigaraksa","i_long":106.425991,"station_id":"TGS","is_transit":false},{"station_id":"TEJ","line":6,"i_long":106.460812,"is_transit":false,"transit":false,"time":5,"station_name":"Tenjo","distance":2974,"i_lat":-6.327251},{"distance":3902,"station_id":"DAR","time":5,"i_long":106.491338,"is_transit":false,"i_lat":-6.338021,"transit":false,"line":0,"station_name":"Daru"},{"transit":false,"i_lat":-6.354349,"is_transit":false,"station_id":"CJT","time":6,"distance":2675,"station_name":"Cilejit","i_long":106.508482,"line":3},{"station_name":"Parung Panjang","i_lat":-6.3441410000000005,"i_long":106.568863,"station_id":"PRP","transit":false,"time":9,"line":6,"distance":7025,"is_transit":false},{"i_lat":-6.329547,"station_name":"Cicayur","distance":5968,"time":8,"line":3,"transit":false,"i_long":106.617853,"station_id":"CC","is_transit":false},{"is_transit":false,"station_id":"CSK","time":4,"station_name":"Cisauk","distance":2519,"i_long":106.640411,"line":3,"i_lat":-6.32484,"transit":false},{"distance":1784,"station_id":"SRP","transit":false,"time":4,"i_long":106.66566,"i_lat":-6.319871,"station_name":"Serpong","is_transit":false,"line":6},{"station_id":"RU","line":6,"i_lat":-6.314823,"is_transit":false,"time":4,"distance":2413,"transit":false,"station_name":"Rawa Buntu","i_long":106.675475},{"i_long":106.712277,"time":6,"transit":false,"is_transit":false,"i_lat":-6.296963,"station_name":"Sudimara","line":6,"station_id":"SDM","distance":4566},{"i_lat":-6.288927,"station_name":"Jurangmangu","is_transit":false,"time":4,"i_long":106.728916,"transit":false,"station_id":"JMU","line":6,"distance":1994},{"distance":2179,"i_lat":-6.276362,"line":6,"station_id":"PDJ","station_name":"Pondokranji","transit":false,"time":3,"is_transit":false,"i_long":106.74273},{"transit":false,"time":8,"is_transit":false,"station_id":"KBY","station_name":"Kebayoran","i_lat":-6.237242,"line":6,"i_long":106.780334,"distance":6218},{"time":7,"i_lat":-6.207404,"i_long":106.79689,"line":6,"is_transit":false,"distance":3737,"station_id":"PLM","station_name":"Palmerah","transit":false},{"distance":3191,"line":1,"station_id":"THB","i_lat":-6.185545,"station_name":"Tanah Abang","i_long":106.811091,"time":6,"transit":true,"is_transit":true},{"line":1,"distance":3632,"i_lat":-6.155215,"i_long":106.800832,"station_name":"Duri","time":8,"is_transit":false,"station_id":"DU","transit":false},{"i_long":106.79867,"station_id":"AK","i_lat":-6.144674,"time":4,"line":1,"station_name":"Angke","is_transit":false,"transit":false,"distance":1230},{"i_lat":-6.132549,"line":4,"i_long":106.826365,"time":9,"is_transit":true,"transit":true,"station_id":"KPB","station_name":"Kampung Bandan","distance":4102},{"is_transit":false,"time":3,"station_name":"Rajawali","line":11,"station_id":"RJW","distance":1444,"transit":false,"i_lat":-6.14505,"i_long":106.836569},{"distance":1901,"i_long":106.839204,"time":5,"transit":false,"line":11,"station_id":"KMO","is_transit":false,"i_lat":-6.161728,"station_name":"Kemayoran"},{"i_lat":-6.174784,"time":4,"station_name":"Pasar Senen","distance":1436,"i_long":106.84368,"transit":false,"station_id":"PSE","is_transit":false,"line":11},{"time":8,"station_id":"GST","i_long":106.850107,"station_name":"Gang Sentiong","is_transit":false,"distance":1567,"line":11,"i_lat":-6.185975,"transit":false},{"line":11,"is_transit":false,"station_name":"Kramat","i_lat":-6.193792,"station_id":"KMT","distance":973,"i_long":106.855437,"time":1,"transit":false},{"i_long":106.861737,"station_id":"POK","station_name":"Pondok Jati","transit":false,"line":11,"is_transit":false,"i_lat":-6.209188,"time":2,"distance":1829},{"is_transit":true,"i_lat":-6.215091,"i_long":106.86807400000001,"transit":true,"line":1,"station_id":"JNG","time":9,"distance":1236,"station_name":"Jatinegara"},{"i_lat":-6.212485,"distance":1377,"station_name":"Matraman","is_transit":false,"transit":false,"time":2,"station_id":"MTR","i_long":106.858896,"line":1},{"station_id":"MRI","time":2,"station_name":"Manggarai","is_transit":true,"i_long":106.84912,"line":2,"distance":1275,"transit":true,"i_lat":-6.209883},{"time":4,"station_id":"TEB","transit":false,"line":2,"i_lat":-6.226659,"i_long":106.857948,"is_transit":false,"station_name":"Tebet","distance":2610},{"time":2,"transit":false,"station_id":"CW","i_long":106.856607,"station_name":"Cawang","i_lat":-6.242512,"distance":1230,"is_transit":false,"line":2},{"station_id":"DRN","i_lat":-6.255332,"line":2,"time":3,"station_name":"Duren Kalibata","is_transit":false,"distance":1546,"i_long":106.85449,"transit":false},{"i_lat":-6.263214,"station_id":"PSMB","distance":824,"transit":false,"time":2,"is_transit":false,"line":2,"i_long":106.851577,"station_name":"Pasar Minggu Baru"},{"transit":false,"i_lat":-6.2842400000000005,"station_id":"PSM","time":2,"station_name":"Pasar Minggu","line":2,"distance":2380,"i_long":106.843999,"is_transit":false},{"i_lat":-6.3080680000000005,"transit":false,"station_id":"TNT","is_transit":false,"station_name":"Tanjung Barat","time":4,"i_long":106.838896,"line":2,"distance":2820},{"is_transit":false,"i_long":106.832616,"transit":false,"time":3,"i_lat":-6.330363,"line":2,"station_id":"LNA","station_name":"Lenteng Agung","distance":2671},{"station_id":"UP","is_transit":false,"transit":false,"time":2,"station_name":"Univ. Pancasila","i_lat":-6.339291,"distance":1029,"i_long":106.834175,"line":2},{"station_id":"UI","is_transit":false,"time":3,"i_long":106.831474,"line":2,"i_lat":-6.360749,"transit":false,"distance":2264,"station_name":"Univ. Indonesia"},{"i_long":106.831114,"station_id":"POC","transit":false,"time":2,"i_lat":-6.369073,"line":2,"is_transit":false,"station_name":"Pondok Cina","distance":1109},{"station_name":"Depokbaru","line":2,"transit":false,"station_id":"DPB","is_transit":false,"i_lat":-6.391065,"i_long":106.819451,"time":4,"distance":2727},{"distance":1584,"is_transit":false,"i_lat":-6.405256,"station_name":"Depok","station_id":"DP","transit":false,"time":3,"i_long":106.816926,"line":2},{"transit":false,"time":6,"station_id":"CTA","i_lat":-6.448811,"station_name":"Citayam","distance":5084,"i_long":106.800298,"line":2,"is_transit":false},{"station_name":"Bojonggede","i_long":106.792719,"transit":false,"line":2,"distance":5197,"i_lat":-6.493243,"is_transit":false,"station_id":"BJD","time":5},{"station_name":"Cilebut","is_transit":false,"station_id":"CLT","time":5,"i_lat":-6.530544,"distance":4331,"i_long":106.800016,"transit":false,"line":2},{"transit":false,"station_name":"Bogor","station_id":"BOO","distance":7514,"time":9,"i_long":106.790574,"line":2,"i_lat":-6.594596,"is_transit":false}]]}