{"data":[[{"is_transit":false,"i_long":106.394373,"transit":false,"station_name":"Maja","line":6,"time":0,"station_id":"MJ","distance":0,"i_lat":-6.332307},{"distance":1853,"transit":false,"station_name":"Cikoya","time":4,"is_transit":false,"i_lat":-6.33561,"station_id":"CKY","i_long":106.411216,"line":3},{"station_id":"TGS","station_name":"Tigaraksa","i_lat":-6.328533,"line":6,"distance":2651,"i_long":106.425991,"time":3,"is_transit":false,"transit":false},{"time":5,"i_long":106.460812,"transit":false,"line":6,"station_name":"Tenjo","is_transit":false,"distance":2974,"i_lat":-6.327251,"station_id":"TEJ"},{"station_name":"Daru","is_transit":false,"distance":3902,"i_lat":-6.338021,"time":5,"station_id":"DAR","transit":false,"line":0,"i_long":106.491338},{"time":6,"station_name":"Cilejit","station_id":"CJT","i_lat":-6.354349,"is_transit":false,"i_long":106.508482,"line":3,"transit":false,"distance":2675},{"transit":false,"station_name":"Parung Panjang","i_lat":-6.3441410000000005,"station_id":"PRP","line":6,"time":9,"distance":7025,"i_long":106.568863,"is_transit":false},{"station_id":"CC","is_transit":false,"transit":false,"i_long":106.617853,"time":8,"line":3,"i_lat":-6.329547,"station_name":"Cicayur","distance":5968},{"i_lat":-6.32484,"transit":false,"time":4,"i_long":106.640411,"station_name":"Cisauk","station_id":"CSK","is_transit":false,"line":3,"distance":2519},{"line":6,"time":4,"station_name":"Serpong","is_transit":false,"distance":1784,"station_id":"SRP","i_lat":-6.319871,"transit":false,"i_long":106.66566},{"time":4,"i_lat":-6.314823,"distance":2413,"is_transit":false,"line":6,"station_name":"Rawa Buntu","station_id":"RU","i_long":106.675475,"transit":false},{"i_long":106.712277,"i_lat":-6.296963,"line":6,"transit":false,"station_name":"Sudimara","time":6,"is_transit":false,"distance":4566,"station_id":"SDM"},{"station_name":"Jurangmangu","distance":1994,"time":4,"i_lat":-6.288927,"transit":false,"is_transit":false,"station_id":"JMU","i_long":106.728916,"line":6},{"i_lat":-6.276362,"i_long":106.74273,"time":3,"transit":false,"is_transit":false,"line":6,"station_name":"Pondokranji","distance":2179,"station_id":"PDJ"},{"station_id":"KBY","transit":false,"station_name":"Kebayoran","is_transit":false,"distance":6218,"i_lat":-6.237242,"line":6,"i_long":106.780334,"time":8},{"is_transit":false,"i_long":106.79689,"station_name":"Palmerah","distance":3737,"line":6,"time":7,"transit":false,"station_id":"PLM","i_lat":-6.207404},{"is_transit":true,"station_id":"THB","distance":3191,"station_name":"Tanah Abang","transit":true,"i_lat":-6.185545,"line":1,"time":6,"i_long":106.811091},{"i_long":106.816351,"station_id":"KAT","time":5,"distance":2029,"transit":false,"is_transit":false,"station_name":"Karet","i_lat":-6.20132,"line":1},{"line":1,"is_transit":false,"distance":471,"transit":false,"station_name":"Sudirman Baru","time":1,"i_lat":-6.201433,"i_long":106.819881,"station_id":"SUDB"},{"station_name":"Sudirman","is_transit":false,"line":1,"distance":280,"time":1,"i_long":106.822649,"transit":false,"i_lat":-6.202263,"station_id":"SUD"},{"line":2,"distance":3186,"station_name":"Manggarai","i_lat":-6.209883,"i_long":106.84912,"transit":true,"time":4,"station_id":"MRI","is_transit":true},{"line":2,"station_id":"TEB","is_transit":false,"transit":false,"time":4,"distance":2610,"i_lat":-6.226659,"i_long":106.857948,"station_name":"Tebet"},{"station_id":"CW","distance":1230,"i_long":106.856607,"transit":false,"station_name":"Cawang","is_transit":false,"time":2,"i_lat":-6.242512,"line":2},{"transit":false,"time":3,"station_id":"DRN","distance":1546,"i_lat":-6.255332,"line":2,"station_name":"Duren Kalibata","i_long":106.85449,"is_transit":false},{"transit":false,"is_transit":false,"distance":824,"station_name":"Pasar Minggu Baru","i_long":106.851577,"station_id":"PSMB","i_lat":-6.263214,"time":2,"line":2},{"distance":2380,"transit":false,"is_transit":false,"station_name":"Pasar Minggu","time":2,"i_long":106.843999,"line":2,"i_lat":-6.2842400000000005,"station_id":"PSM"},{"time":4,"station_id":"TNT","transit":false,"station_name":"Tanjung Barat","distance":2820,"is_transit":false,"i_lat":-6.3080680000000005,"line":2,"i_long":106.838896},{"transit":false,"line":2,"time":3,"station_id":"LNA","station_name":"Lenteng Agung","i_long":106.832616,"is_transit":false,"i_lat":-6.330363,"distance":2671},{"station_id":"UP","transit":false,"time":2,"station_name":"Univ. Pancasila","is_transit":false,"i_long":106.834175,"distance":1029,"i_lat":-6.339291,"line":2},{"station_id":"UI","line":2,"station_name":"Univ. Indonesia","is_transit":false,"transit":false,"time":3,"i_long":106.831474,"distance":2264,"i_lat":-6.360749},{"station_name":"Pondok Cina","station_id":"POC","i_long":106.831114,"line":2,"is_transit":false,"time":2,"i_lat":-6.369073,"transit":false,"distance":1109},{"station_id":"DPB","station_name":"Depokbaru","time":4,"i_lat":-6.391065,"is_transit":false,"line":2,"distance":2727,"i_long":106.819451,"transit":false},{"time":3,"distance":1584,"station_name":"Depok","station_id":"DP","i_lat":-6.405256,"i_long":106.816926,"transit":false,"line":2,"is_transit":false},{"distance":5084,"transit":false,"line":2,"i_lat":-6.448811,"station_name":"Citayam","station_id":"CTA","time":6,"i_long":106.800298,"is_transit":false},{"time":5,"transit":false,"i_long":106.792719,"station_id":"BJD","station_name":"Bojonggede","i_lat":-6.493243,"line":2,"distance":5197,"is_transit":false},{"distance":4331,"station_name":"Cilebut","i_lat":-6.530544,"station_id":"CLT","transit":false,"line":2,"is_transit":false,"i_long":106.800016,"time":5},{"line":2,"distance":7514,"station_name":"Bogor","time":9,"station_id":"BOO","i_lat":-6.594596,"transit":false,"i_long":106.790574,"is_transit":false}],[{"line":6,"station_id":"MJ","is_transit":false,"i_lat":-6.332307,"distance":0,"time":0,"station_name":"Maja","transit":false,"i_long":106.394373},{"line":3,"station_name":"Cikoya","is_transit":false,"i_lat":-6.33561,"distance":1853,"station_id":"CKY","transit":false,"time":4,"i_long":106.411216},{"time":3,"station_name":"Tigaraksa","i_long":106.425991,"i_lat":-6.328533,"station_id":"TGS","line":6,"distance":2651,"is_transit":false,"transit":false},{"i_lat":-6.327251,"line":6,"transit":false,"station_name":"Tenjo","i_long":106.460812,"time":5,"distance":2974,"station_id":"TEJ","is_transit":false},{"i_long":106.491338,"line":0,"station_id":"DAR","is_transit":false,"i_lat":-6.338021,"distance":3902,"station_name":"Daru","transit":false,"time":5},{"transit":false,"is_transit":false,"line":3,"distance":2675,"station_name":"Cilejit","station_id":"CJT","time":6,"i_long":106.508482,"i_lat":-6.354349},{"is_transit":false,"distance":7025,"i_lat":-6.3441410000000005,"station_id":"PRP","line":6,"time":9,"transit":false,"station_name":"Parung Panjang","i_long":106.568863},{"i_lat":-6.329547,"time":8,"station_name":"Cicayur","is_transit":false,"i_long":106.617853,"transit":false,"line":3,"station_id":"CC","distance":5968},{"station_id":"CSK","time":4,"is_transit":false,"i_lat":-6.32484,"i_long":106.640411,"station_name":"Cisauk","distance":2519,"line":3,"transit":false},{"station_id":"SRP","transit":false,"station_name":"Serpong","i_long":106.66566,"is_transit":false,"time":4,"line":6,"i_lat":-6.319871,"distance":1784},{"line":6,"transit":false,"distance":2413,"station_id":"RU","time":4,"station_name":"Rawa Buntu","is_transit":false,"i_long":106.675475,"i_lat":-6.314823},{"transit":false,"station_name":"Sudimara","i_lat":-6.296963,"is_transit":false,"time":6,"station_id":"SDM","distance":4566,"line":6,"i_long":106.712277},{"is_transit":false,"transit":false,"station_name":"Jurangmangu","time":4,"line":6,"station_id":"JMU","i_lat":-6.288927,"i_long":106.728916,"distance":1994},{"station_id":"PDJ","line":6,"station_name":"Pondokranji","i_long":106.74273,"distance":2179,"is_transit":false,"time":3,"i_lat":-6.276362,"transit":false},{"distance":6218,"i_lat":-6.237242,"line":6,"station_id":"KBY","transit":false,"station_name":"Kebayoran","is_transit":false,"i_long":106.780334,"time":8},{"i_lat":-6.207404,"station_id":"PLM","is_transit":false,"station_name":"Palmerah","distance":3737,"i_long":106.79689,"time":7,"line":6,"transit":false},{"i_lat":-6.185545,"i_long":106.811091,"line":1,"is_transit":true,"station_name":"Tanah Abang","transit":true,"station_id":"THB","distance":3191,"time":6},{"i_lat":-6.155215,"transit":false,"line":1,"is_transit":false,"time":8,"distance":3632,"i_long":106.800832,"station_id":"DU","station_name":"Duri"},{"station_id":"AK","distance":1230,"i_lat":-6.144674,"line":1,"station_name":"Angke","is_transit":false,"time":4,"transit":false,"i_long":106.79867},{"i_lat":-6.132549,"i_long":106.826365,"transit":true,"time":9,"station_id":"KPB","station_name":"Kampung Bandan","line":4,"distance":4102,"is_transit":true},{"transit":true,"i_long":106.812439,"station_id":"JAKK","time":3,"line":2,"distance":1364,"is_transit":true,"station_name":"Jakarta Kota","i_lat":-6.137569},{"transit":false,"line":2,"station_id":"JAY","is_transit":false,"i_long":106.820901,"distance":1264,"time":4,"i_lat":-6.141205,"station_name":"Jayakarta"},{"time":2,"station_name":"Manggabesar","i_lat":-6.149769,"is_transit":false,"transit":false,"i_long":106.82482,"station_id":"MGB","distance":1080,"line":2},{"time":2,"i_long":106.827103,"station_id":"SW","transit":false,"distance":906,"is_transit":false,"i_lat":-6.160725,"station_name":"Sawah Besar","line":2},{"i_lat":-6.166716,"i_long":106.828284,"distance":1149,"station_id":"JUA","line":2,"is_transit":false,"station_name":"Juanda","time":2,"transit":false},{"i_long":106.832183,"station_id":"GDD","is_transit":false,"transit":false,"line":2,"distance":2015,"time":4,"i_lat":-6.186295,"station_name":"Gondangdia"},{"transit":false,"i_long":106.840169,"distance":1750,"time":3,"line":2,"is_transit":false,"station_name":"Cikini","station_id":"CKI","i_lat":-6.198556},{"i_long":106.84912,"line":2,"station_id":"MRI","i_lat":-6.209883,"is_transit":false,"time":4,"station_name":"Manggarai","distance":1590,"transit":false},{"is_transit":false,"distance":2610,"time":4,"station_id":"TEB","transit":false,"line":2,"i_long":106.857948,"station_name":"Tebet","i_lat":-6.226659},{"i_lat":-6.242512,"distance":1230,"is_transit":false,"station_name":"Cawang","transit":false,"time":2,"line":2,"station_id":"CW","i_long":106.856607},{"station_name":"Duren Kalibata","distance":1546,"transit":false,"line":2,"station_id":"DRN","is_transit":false,"time":3,"i_lat":-6.255332,"i_long":106.85449},{"station_name":"Pasar Minggu Baru","time":2,"transit":false,"i_lat":-6.263214,"station_id":"PSMB","line":2,"is_transit":false,"i_long":106.851577,"distance":824},{"station_id":"PSM","distance":2380,"station_name":"Pasar Minggu","i_lat":-6.2842400000000005,"line":2,"is_transit":false,"time":2,"i_long":106.843999,"transit":false},{"distance":2820,"station_name":"Tanjung Barat","station_id":"TNT","transit":false,"time":4,"is_transit":false,"i_lat":-6.3080680000000005,"i_long":106.838896,"line":2},{"time":3,"i_lat":-6.330363,"i_long":106.832616,"transit":false,"station_name":"Lenteng Agung","line":2,"station_id":"LNA","is_transit":false,"distance":2671},{"station_id":"UP","is_transit":false,"transit":false,"station_name":"Univ. Pancasila","i_lat":-6.339291,"distance":1029,"time":2,"i_long":106.834175,"line":2},{"i_long":106.831474,"is_transit":false,"i_lat":-6.360749,"line":2,"station_name":"Univ. Indonesia","distance":2264,"transit":false,"time":3,"station_id":"UI"},{"distance":1109,"time":2,"line":2,"station_name":"Pondok Cina","station_id":"POC","is_transit":false,"i_long":106.831114,"i_lat":-6.369073,"transit":false},{"i_lat":-6.391065,"transit":false,"is_transit":false,"i_long":106.819451,"distance":2727,"station_name":"Depokbaru","line":2,"station_id":"DPB","time":4},{"station_id":"DP","time":3,"i_lat":-6.405256,"line":2,"distance":1584,"transit":false,"is_transit":false,"i_long":106.816926,"station_name":"Depok"},{"distance":5084,"i_lat":-6.448811,"station_name":"Citayam","time":6,"is_transit":false,"i_long":106.800298,"transit":false,"line":2,"station_id":"CTA"},{"distance":5197,"is_transit":false,"station_id":"BJD","line":2,"i_long":106.792719,"station_name":"Bojonggede","i_lat":-6.493243,"time":5,"transit":false},{"station_name":"Cilebut","transit":false,"time":5,"distance":4331,"line":2,"station_id":"CLT","is_transit":false,"i_lat":-6.530544,"i_long":106.800016},{"station_name":"Bogor","is_transit":false,"transit":false,"time":9,"i_lat":-6.594596,"station_id":"BOO","line":2,"i_long":106.790574,"distance":7514}],[{"i_lat":-6.332307,"station_name":"Maja","time":0,"distance":0,"station_id":"MJ","i_long":106.394373,"is_transit":false,"transit":false,"line":6},{"distance":1853,"station_name":"Cikoya","line":3,"is_transit":false,"time":4,"i_lat":-6.33561,"i_long":106.411216,"transit":false,"station_id":"CKY"},{"distance":2651,"i_long":106.425991,"time":3,"transit":false,"station_name":"Tigaraksa","i_lat":-6.328533,"line":6,"station_id":"TGS","is_transit":false},{"i_lat":-6.327251,"is_transit":false,"line":6,"distance":2974,"time":5,"station_name":"Tenjo","i_long":106.460812,"station_id":"TEJ","transit":false},{"line":0,"is_transit":false,"distance":3902,"transit":false,"time":5,"station_name":"Daru","i_lat":-6.338021,"i_long":106.491338,"station_id":"DAR"},{"transit":false,"station_name":"Cilejit","i_lat":-6.354349,"i_long":106.508482,"station_id":"CJT","distance":2675,"is_transit":false,"time":6,"line":3},{"i_long":106.568863,"transit":false,"time":9,"station_id":"PRP","distance":7025,"line":6,"station_name":"Parung Panjang","is_transit":false,"i_lat":-6.3441410000000005},{"station_id":"CC","station_name":"Cicayur","transit":false,"distance":5968,"time":8,"is_transit":false,"i_lat":-6.329547,"i_long":106.617853,"line":3},{"i_long":106.640411,"line":3,"transit":false,"station_name":"Cisauk","distance":2519,"i_lat":-6.32484,"time":4,"is_transit":false,"station_id":"CSK"},{"is_transit":false,"station_id":"SRP","line":6,"time":4,"i_lat":-6.319871,"distance":1784,"station_name":"Serpong","i_long":106.66566,"transit":false},{"station_name":"Rawa Buntu","distance":2413,"i_long":106.675475,"transit":false,"line":6,"station_id":"RU","is_transit":false,"time":4,"i_lat":-6.314823},{"station_name":"Sudimara","i_long":106.712277,"transit":false,"i_lat":-6.296963,"distance":4566,"line":6,"is_transit":false,"time":6,"station_id":"SDM"},{"line":6,"i_long":106.728916,"station_name":"Jurangmangu","station_id":"JMU","distance":1994,"is_transit":false,"transit":false,"i_lat":-6.288927,"time":4},{"i_long":106.74273,"i_lat":-6.276362,"station_name":"Pondokranji","station_id":"PDJ","transit":false,"distance":2179,"line":6,"is_transit":false,"time":3},{"line":6,"transit":false,"i_long":106.780334,"is_transit":false,"distance":6218,"station_name":"Kebayoran","time":8,"station_id":"KBY","i_lat":-6.237242},{"i_long":106.79689,"station_name":"Palmerah","time":7,"transit":false,"distance":3737,"line":6,"i_lat":-6.207404,"station_id":"PLM","is_transit":false},{"is_transit":true,"i_lat":-6.185545,"station_id":"THB","distance":3191,"station_name":"Tanah Abang","transit":true,"i_long":106.811091,"line":1,"time":6},{"is_transit":false,"time":8,"i_lat":-6.155215,"i_long":106.800832,"transit":false,"station_name":"Duri","station_id":"DU","line":1,"distance":3632},{"transit":false,"line":1,"i_lat":-6.144674,"is_transit":false,"i_long":106.79867,"distance":1230,"station_name":"Angke","time":4,"station_id":"AK"},{"time":9,"line":4,"station_id":"KPB","distance":4102,"transit":true,"station_name":"Kampung Bandan","is_transit":true,"i_lat":-6.132549,"i_long":106.826365},{"i_long":106.836569,"transit":false,"is_transit":false,"i_lat":-6.14505,"station_id":"RJW","line":11,"distance":1444,"station_name":"Rajawali","time":3},{"transit":false,"line":11,"distance":1901,"station_id":"KMO","i_lat":-6.161728,"i_long":106.839204,"station_name":"Kemayoran","time":5,"is_transit":false},{"transit":false,"distance":1436,"is_transit":false,"time":4,"line":11,"station_id":"PSE","station_name":"Pasar Senen","i_long":106.84368,"i_lat":-6.174784},{"is_transit":false,"time":8,"i_lat":-6.185975,"i_long":106.850107,"distance":1567,"line":11,"transit":false,"station_name":"Gang Sentiong","station_id":"GST"},{"distance":973,"station_name":"Kramat","time":1,"i_lat":-6.193792,"is_transit":false,"transit":false,"line":11,"i_long":106.855437,"station_id":"KMT"},{"time":2,"distance":1829,"station_id":"POK","transit":false,"i_lat":-6.209188,"i_long":106.861737,"line":11,"station_name":"Pondok Jati","is_transit":false},{"station_id":"JNG","is_transit":true,"distance":1236,"transit":true,"station_name":"Jatinegara","line":1,"time":9,"i_lat":-6.215091,"i_long":106.86807400000001},{"station_id":"MTR","i_lat":-6.212485,"line":1,"station_name":"Matraman","time":2,"distance":1377,"transit":false,"is_transit":false,"i_long":106.858896},{"station_name":"Manggarai","i_long":106.84912,"i_lat":-6.209883,"distance":1275,"line":2,"station_id":"MRI","transit":true,"is_transit":true,"time":2},{"is_transit":false,"distance":2610,"time":4,"station_id":"TEB","transit":false,"station_name":"Tebet","i_long":106.857948,"line":2,"i_lat":-6.226659},{"i_lat":-6.242512,"line":2,"is_transit":false,"time":2,"station_name":"Cawang","distance":1230,"i_long":106.856607,"station_id":"CW","transit":false},{"station_id":"DRN","i_long":106.85449,"time":3,"distance":1546,"station_name":"Duren Kalibata","i_lat":-6.255332,"line":2,"is_transit":false,"transit":false},{"i_long":106.851577,"station_id":"PSMB","i_lat":-6.263214,"time":2,"distance":824,"is_transit":false,"line":2,"transit":false,"station_name":"Pasar Minggu Baru"},{"distance":2380,"time":2,"station_id":"PSM","i_long":106.843999,"line":2,"i_lat":-6.2842400000000005,"station_name":"Pasar Minggu","transit":false,"is_transit":false},{"i_lat":-6.3080680000000005,"time":4,"station_id":"TNT","transit":false,"distance":2820,"is_transit":false,"i_long":106.838896,"line":2,"station_name":"Tanjung Barat"},{"time":3,"i_long":106.832616,"is_transit":false,"line":2,"station_id":"LNA","i_lat":-6.330363,"distance":2671,"transit":false,"station_name":"Lenteng Agung"},{"distance":1029,"is_transit":false,"line":2,"station_name":"Univ. Pancasila","station_id":"UP","i_lat":-6.339291,"time":2,"transit":false,"i_long":106.834175},{"time":3,"station_name":"Univ. Indonesia","distance":2264,"transit":false,"station_id":"UI","i_long":106.831474,"is_transit":false,"i_lat":-6.360749,"line":2},{"transit":false,"is_transit":false,"line":2,"distance":1109,"time":2,"i_lat":-6.369073,"station_id":"POC","i_long":106.831114,"station_name":"Pondok Cina"},{"i_long":106.819451,"station_id":"DPB","transit":false,"distance":2727,"line":2,"station_name":"Depokbaru","time":4,"i_lat":-6.391065,"is_transit":false},{"distance":1584,"station_id":"DP","transit":false,"time":3,"i_long":106.816926,"line":2,"i_lat":-6.405256,"is_transit":false,"station_name":"Depok"},{"station_id":"CTA","time":6,"i_lat":-6.448811,"transit":false,"distance":5084,"station_name":"Citayam","i_long":106.800298,"line":2,"is_transit":false},{"station_id":"BJD","time":5,"transit":false,"line":2,"station_name":"Bojonggede","distance":5197,"i_long":106.792719,"i_lat":-6.493243,"is_transit":false},{"station_id":"CLT","distance":4331,"line":2,"time":5,"transit":false,"station_name":"Cilebut","is_transit":false,"i_lat":-6.530544,"i_long":106.800016},{"station_name":"Bogor","transit":false,"time":9,"station_id":"BOO","is_transit":false,"i_long":106.790574,"distance":7514,"i_lat":-6.594596,"line":2}]]}