{"data":[[{"time":0,"station_id":"MJ","i_long":106.394373,"is_transit":false,"distance":0,"line":6,"transit":false,"station_name":"Maja","i_lat":-6.332307},{"is_transit":false,"time":4,"distance":1853,"station_name":"Cikoya","i_lat":-6.33561,"line":3,"i_long":106.411216,"transit":false,"station_id":"CKY"},{"i_long":106.425991,"line":6,"is_transit":false,"transit":false,"i_lat":-6.328533,"distance":2651,"time":3,"station_id":"TGS","station_name":"Tigaraksa"},{"line":6,"is_transit":false,"distance":2974,"transit":false,"i_lat":-6.327251,"i_long":106.460812,"time":5,"station_name":"Tenjo","station_id":"TEJ"},{"time":5,"distance":3902,"i_lat":-6.338021,"is_transit":false,"i_long":106.491338,"station_name":"Daru","line":0,"station_id":"DAR","transit":false},{"time":6,"line":3,"transit":false,"station_name":"Cilejit","station_id":"CJT","distance":2675,"is_transit":false,"i_lat":-6.354349,"i_long":106.508482},{"time":9,"station_name":"Parung Panjang","i_lat":-6.3441410000000005,"distance":7025,"is_transit":false,"line":6,"station_id":"PRP","i_long":106.568863,"transit":false},{"line":3,"distance":5968,"station_id":"CC","station_name":"Cicayur","is_transit":false,"i_lat":-6.329547,"i_long":106.617853,"transit":false,"time":8},{"i_long":106.640411,"line":3,"transit":false,"is_transit":false,"time":4,"distance":2519,"station_name":"Cisauk","i_lat":-6.32484,"station_id":"CSK"},{"line":6,"transit":false,"is_transit":false,"distance":1784,"station_id":"SRP","time":4,"i_lat":-6.319871,"station_name":"Serpong","i_long":106.66566},{"i_long":106.675475,"station_name":"Rawa Buntu","transit":false,"distance":2413,"is_transit":false,"i_lat":-6.314823,"time":4,"station_id":"RU","line":6},{"distance":4566,"station_id":"SDM","i_lat":-6.296963,"transit":false,"station_name":"Sudimara","line":6,"i_long":106.712277,"is_transit":false,"time":6},{"i_long":106.728916,"line":6,"transit":false,"is_transit":false,"i_lat":-6.288927,"time":4,"distance":1994,"station_name":"Jurangmangu","station_id":"JMU"},{"station_name":"Pondokranji","is_transit":false,"station_id":"PDJ","i_long":106.74273,"line":6,"distance":2179,"transit":false,"time":3,"i_lat":-6.276362},{"is_transit":false,"station_name":"Kebayoran","time":8,"i_lat":-6.237242,"i_long":106.780334,"distance":6218,"station_id":"KBY","transit":false,"line":6},{"transit":false,"line":6,"station_name":"Palmerah","i_long":106.79689,"time":7,"is_transit":false,"station_id":"PLM","i_lat":-6.207404,"distance":3737},{"time":6,"distance":3191,"station_name":"Tanah Abang","station_id":"THB","i_long":106.811091,"is_transit":true,"i_lat":-6.185545,"line":1,"transit":true},{"time":5,"is_transit":false,"station_id":"KAT","i_long":106.816351,"station_name":"Karet","distance":2029,"transit":false,"line":1,"i_lat":-6.20132},{"line":1,"station_name":"Sudirman Baru","transit":false,"distance":471,"time":1,"is_transit":false,"station_id":"SUDB","i_long":106.819881,"i_lat":-6.201433},{"station_id":"SUD","i_long":106.822649,"is_transit":false,"transit":false,"i_lat":-6.202263,"station_name":"Sudirman","time":1,"line":1,"distance":280},{"transit":true,"line":2,"i_long":106.84912,"station_id":"MRI","time":4,"distance":3186,"station_name":"Manggarai","is_transit":true,"i_lat":-6.209883},{"station_id":"TEB","time":4,"is_transit":false,"i_long":106.857948,"transit":false,"distance":2610,"station_name":"Tebet","line":2,"i_lat":-6.226659},{"station_id":"CW","line":2,"transit":false,"time":2,"station_name":"Cawang","i_lat":-6.242512,"is_transit":false,"i_long":106.856607,"distance":1230},{"i_long":106.85449,"transit":false,"i_lat":-6.255332,"is_transit":false,"line":2,"distance":1546,"station_id":"DRN","station_name":"Duren Kalibata","time":3},{"station_id":"PSMB","time":2,"i_long":106.851577,"is_transit":false,"distance":824,"transit":false,"i_lat":-6.263214,"station_name":"Pasar Minggu Baru","line":2},{"is_transit":false,"line":2,"i_long":106.843999,"time":2,"i_lat":-6.2842400000000005,"station_id":"PSM","distance":2380,"station_name":"Pasar Minggu","transit":false},{"station_id":"TNT","i_long":106.838896,"is_transit":false,"time":4,"i_lat":-6.3080680000000005,"transit":false,"distance":2820,"line":2,"station_name":"Tanjung Barat"},{"is_transit":false,"line":2,"station_name":"Lenteng Agung","time":3,"i_long":106.832616,"station_id":"LNA","i_lat":-6.330363,"transit":false,"distance":2671},{"station_id":"UP","is_transit":false,"i_long":106.834175,"i_lat":-6.339291,"time":2,"distance":1029,"transit":false,"line":2,"station_name":"Univ. Pancasila"},{"time":3,"is_transit":false,"i_long":106.831474,"station_id":"UI","station_name":"Univ. Indonesia","distance":2264,"transit":false,"i_lat":-6.360749,"line":2},{"line":2,"time":2,"distance":1109,"station_name":"Pondok Cina","i_lat":-6.369073,"transit":false,"is_transit":false,"i_long":106.831114,"station_id":"POC"},{"i_lat":-6.391065,"station_id":"DPB","distance":2727,"time":4,"i_long":106.819451,"transit":false,"station_name":"Depokbaru","is_transit":false,"line":2},{"line":2,"station_name":"Depok","i_long":106.816926,"time":3,"i_lat":-6.405256,"transit":false,"station_id":"DP","distance":1584,"is_transit":false},{"i_lat":-6.448811,"distance":5084,"i_long":106.800298,"time":6,"station_id":"CTA","line":2,"transit":false,"is_transit":false,"station_name":"Citayam"},{"time":5,"i_lat":-6.493243,"is_transit":false,"distance":5197,"i_long":106.792719,"transit":false,"station_name":"Bojonggede","station_id":"BJD","line":2},{"is_transit":false,"line":2,"distance":4331,"station_id":"CLT","station_name":"Cilebut","transit":false,"i_lat":-6.530544,"time":5,"i_long":106.800016},{"station_name":"Bogor","time":9,"transit":false,"distance":7514,"i_lat":-6.594596,"station_id":"BOO","is_transit":false,"i_long":106.790574,"line":2}],[{"line":6,"transit":false,"station_id":"MJ","station_name":"Maja","distance":0,"i_long":106.394373,"is_transit":false,"time":0,"i_lat":-6.332307},{"time":4,"line":3,"i_long":106.411216,"station_id":"CKY","i_lat":-6.33561,"transit":false,"station_name":"Cikoya","distance":1853,"is_transit":false},{"i_lat":-6.328533,"is_transit":false,"time":3,"transit":false,"station_id":"TGS","station_name":"Tigaraksa","i_long":106.425991,"line":6,"distance":2651},{"station_name":"Tenjo","line":6,"is_transit":false,"i_long":106.460812,"transit":false,"i_lat":-6.327251,"station_id":"TEJ","distance":2974,"time":5},{"station_id":"DAR","i_long":106.491338,"transit":false,"line":0,"distance":3902,"time":5,"i_lat":-6.338021,"station_name":"Daru","is_transit":false},{"time":6,"distance":2675,"i_lat":-6.354349,"transit":false,"is_transit":false,"station_id":"CJT","i_long":106.508482,"station_name":"Cilejit","line":3},{"distance":7025,"i_long":106.568863,"is_transit":false,"transit":false,"time":9,"i_lat":-6.3441410000000005,"station_name":"Parung Panjang","station_id":"PRP","line":6},{"is_transit":false,"station_id":"CC","station_name":"Cicayur","i_long":106.617853,"distance":5968,"transit":false,"time":8,"line":3,"i_lat":-6.329547},{"distance":2519,"time":4,"station_name":"Cisauk","station_id":"CSK","i_lat":-6.32484,"is_transit":false,"transit":false,"i_long":106.640411,"line":3},{"i_lat":-6.319871,"i_long":106.66566,"is_transit":false,"distance":1784,"line":6,"station_name":"Serpong","time":4,"station_id":"SRP","transit":false},{"line":6,"is_transit":false,"i_lat":-6.314823,"i_long":106.675475,"station_name":"Rawa Buntu","distance":2413,"transit":false,"time":4,"station_id":"RU"},{"is_transit":false,"i_long":106.712277,"i_lat":-6.296963,"time":6,"station_name":"Sudimara","line":6,"distance":4566,"station_id":"SDM","transit":false},{"i_lat":-6.288927,"transit":false,"line":6,"i_long":106.728916,"is_transit":false,"time":4,"station_name":"Jurangmangu","station_id":"JMU","distance":1994},{"station_name":"Pondokranji","transit":false,"line":6,"distance":2179,"time":3,"i_lat":-6.276362,"is_transit":false,"station_id":"PDJ","i_long":106.74273},{"is_transit":false,"i_long":106.780334,"transit":false,"station_name":"Kebayoran","station_id":"KBY","i_lat":-6.237242,"time":8,"distance":6218,"line":6},{"transit":false,"is_transit":false,"time":7,"station_id":"PLM","i_long":106.79689,"i_lat":-6.207404,"station_name":"Palmerah","distance":3737,"line":6},{"i_long":106.811091,"line":1,"transit":true,"time":6,"i_lat":-6.185545,"distance":3191,"station_id":"THB","is_transit":true,"station_name":"Tanah Abang"},{"station_id":"DU","i_lat":-6.155215,"station_name":"Duri","distance":3632,"time":8,"line":1,"is_transit":false,"transit":false,"i_long":106.800832},{"transit":false,"i_lat":-6.144674,"line":1,"distance":1230,"time":4,"station_name":"Angke","station_id":"AK","i_long":106.79867,"is_transit":false},{"i_long":106.826365,"is_transit":true,"line":4,"i_lat":-6.132549,"station_id":"KPB","time":9,"transit":true,"distance":4102,"station_name":"Kampung Bandan"},{"transit":true,"i_long":106.812439,"distance":1364,"station_name":"Jakarta Kota","time":3,"is_transit":true,"i_lat":-6.137569,"line":2,"station_id":"JAKK"},{"line":2,"station_name":"Jayakarta","time":4,"is_transit":false,"station_id":"JAY","transit":false,"i_lat":-6.141205,"distance":1264,"i_long":106.820901},{"transit":false,"time":2,"i_lat":-6.149769,"station_id":"MGB","i_long":106.82482,"is_transit":false,"distance":1080,"station_name":"Manggabesar","line":2},{"transit":false,"station_id":"SW","time":2,"is_transit":false,"station_name":"Sawah Besar","line":2,"distance":906,"i_lat":-6.160725,"i_long":106.827103},{"station_name":"Juanda","time":2,"is_transit":false,"distance":1149,"station_id":"JUA","line":2,"i_long":106.828284,"transit":false,"i_lat":-6.166716},{"i_long":106.832183,"line":2,"station_name":"Gondangdia","i_lat":-6.186295,"is_transit":false,"distance":2015,"transit":false,"station_id":"GDD","time":4},{"i_lat":-6.198556,"i_long":106.840169,"is_transit":false,"transit":false,"line":2,"time":3,"station_name":"Cikini","station_id":"CKI","distance":1750},{"station_name":"Manggarai","i_lat":-6.209883,"i_long":106.84912,"distance":1590,"line":2,"is_transit":false,"station_id":"MRI","time":4,"transit":false},{"transit":false,"i_lat":-6.226659,"station_id":"TEB","i_long":106.857948,"distance":2610,"line":2,"station_name":"Tebet","is_transit":false,"time":4},{"line":2,"i_lat":-6.242512,"transit":false,"station_name":"Cawang","is_transit":false,"station_id":"CW","i_long":106.856607,"distance":1230,"time":2},{"transit":false,"is_transit":false,"station_id":"DRN","i_long":106.85449,"i_lat":-6.255332,"line":2,"station_name":"Duren Kalibata","distance":1546,"time":3},{"station_name":"Pasar Minggu Baru","is_transit":false,"distance":824,"transit":false,"station_id":"PSMB","line":2,"i_lat":-6.263214,"i_long":106.851577,"time":2},{"line":2,"i_lat":-6.2842400000000005,"distance":2380,"station_id":"PSM","i_long":106.843999,"time":2,"transit":false,"station_name":"Pasar Minggu","is_transit":false},{"is_transit":false,"i_long":106.838896,"station_id":"TNT","i_lat":-6.3080680000000005,"line":2,"distance":2820,"time":4,"transit":false,"station_name":"Tanjung Barat"},{"distance":2671,"station_name":"Lenteng Agung","time":3,"is_transit":false,"station_id":"LNA","i_lat":-6.330363,"i_long":106.832616,"line":2,"transit":false},{"station_id":"UP","time":2,"transit":false,"is_transit":false,"i_lat":-6.339291,"distance":1029,"i_long":106.834175,"line":2,"station_name":"Univ. Pancasila"},{"is_transit":false,"time":3,"station_name":"Univ. Indonesia","transit":false,"distance":2264,"station_id":"UI","i_long":106.831474,"line":2,"i_lat":-6.360749},{"line":2,"time":2,"station_name":"Pondok Cina","distance":1109,"station_id":"POC","is_transit":false,"i_lat":-6.369073,"transit":false,"i_long":106.831114},{"distance":2727,"station_name":"Depokbaru","transit":false,"i_lat":-6.391065,"time":4,"is_transit":false,"station_id":"DPB","i_long":106.819451,"line":2},{"is_transit":false,"transit":false,"distance":1584,"i_lat":-6.405256,"i_long":106.816926,"station_id":"DP","station_name":"Depok","time":3,"line":2},{"transit":false,"distance":5084,"line":2,"i_long":106.800298,"i_lat":-6.448811,"station_id":"CTA","time":6,"station_name":"Citayam","is_transit":false},{"time":5,"station_name":"Bojonggede","station_id":"BJD","i_lat":-6.493243,"line":2,"is_transit":false,"i_long":106.792719,"transit":false,"distance":5197},{"is_transit":false,"time":5,"distance":4331,"i_lat":-6.530544,"i_long":106.800016,"station_id":"CLT","station_name":"Cilebut","transit":false,"line":2},{"time":9,"transit":false,"is_transit":false,"distance":7514,"station_name":"Bogor","i_long":106.790574,"station_id":"BOO","i_lat":-6.594596,"line":2}],[{"station_id":"MJ","line":6,"time":0,"i_long":106.394373,"i_lat":-6.332307,"distance":0,"transit":false,"station_name":"Maja","is_transit":false},{"time":4,"is_transit":false,"distance":1853,"transit":false,"station_id":"CKY","i_lat":-6.33561,"line":3,"station_name":"Cikoya","i_long":106.411216},{"distance":2651,"is_transit":false,"time":3,"line":6,"i_lat":-6.328533,"station_name":"Tigaraksa","i_long":106.425991,"transit":false,"station_id":"TGS"},{"time":5,"is_transit":false,"station_id":"TEJ","distance":2974,"i_long":106.460812,"line":6,"transit":false,"i_lat":-6.327251,"station_name":"Tenjo"},{"time":5,"transit":false,"i_lat":-6.338021,"line":0,"i_long":106.491338,"station_name":"Daru","distance":3902,"is_transit":false,"station_id":"DAR"},{"station_name":"Cilejit","line":3,"transit":false,"is_transit":false,"distance":2675,"i_lat":-6.354349,"time":6,"station_id":"CJT","i_long":106.508482},{"time":9,"is_transit":false,"distance":7025,"station_id":"PRP","i_long":106.568863,"transit":false,"i_lat":-6.3441410000000005,"station_name":"Parung Panjang","line":6},{"distance":5968,"time":8,"is_transit":false,"i_long":106.617853,"station_name":"Cicayur","i_lat":-6.329547,"line":3,"station_id":"CC","transit":false},{"station_id":"CSK","i_lat":-6.32484,"i_long":106.640411,"is_transit":false,"station_name":"Cisauk","distance":2519,"line":3,"transit":false,"time":4},{"i_long":106.66566,"station_id":"SRP","is_transit":false,"station_name":"Serpong","distance":1784,"time":4,"i_lat":-6.319871,"transit":false,"line":6},{"transit":false,"station_name":"Rawa Buntu","is_transit":false,"time":4,"station_id":"RU","line":6,"i_lat":-6.314823,"i_long":106.675475,"distance":2413},{"time":6,"transit":false,"distance":4566,"is_transit":false,"station_name":"Sudimara","line":6,"i_long":106.712277,"i_lat":-6.296963,"station_id":"SDM"},{"station_name":"Jurangmangu","is_transit":false,"i_lat":-6.288927,"transit":false,"distance":1994,"station_id":"JMU","i_long":106.728916,"time":4,"line":6},{"distance":2179,"station_name":"Pondokranji","time":3,"line":6,"station_id":"PDJ","i_lat":-6.276362,"transit":false,"i_long":106.74273,"is_transit":false},{"i_lat":-6.237242,"time":8,"station_name":"Kebayoran","distance":6218,"station_id":"KBY","transit":false,"i_long":106.780334,"is_transit":false,"line":6},{"is_transit":false,"distance":3737,"i_lat":-6.207404,"i_long":106.79689,"line":6,"station_name":"Palmerah","transit":false,"station_id":"PLM","time":7},{"i_long":106.811091,"transit":true,"station_name":"Tanah Abang","station_id":"THB","i_lat":-6.185545,"line":1,"is_transit":true,"time":6,"distance":3191},{"i_lat":-6.155215,"distance":3632,"transit":false,"station_name":"Duri","line":1,"i_long":106.800832,"station_id":"DU","time":8,"is_transit":false},{"line":1,"time":4,"station_name":"Angke","is_transit":false,"station_id":"AK","i_lat":-6.144674,"i_long":106.79867,"distance":1230,"transit":false},{"station_id":"KPB","time":9,"transit":true,"i_lat":-6.132549,"i_long":106.826365,"distance":4102,"is_transit":true,"line":4,"station_name":"Kampung Bandan"},{"line":11,"station_id":"RJW","i_lat":-6.14505,"station_name":"Rajawali","time":3,"transit":false,"is_transit":false,"distance":1444,"i_long":106.836569},{"i_lat":-6.161728,"distance":1901,"station_name":"Kemayoran","transit":false,"time":5,"is_transit":false,"i_long":106.839204,"station_id":"KMO","line":11},{"station_name":"Pasar Senen","distance":1436,"time":4,"is_transit":false,"i_lat":-6.174784,"i_long":106.84368,"line":11,"transit":false,"station_id":"PSE"},{"transit":false,"i_lat":-6.185975,"station_name":"Gang Sentiong","station_id":"GST","distance":1567,"time":8,"i_long":106.850107,"line":11,"is_transit":false},{"line":11,"distance":973,"is_transit":false,"i_lat":-6.193792,"transit":false,"i_long":106.855437,"station_name":"Kramat","station_id":"KMT","time":1},{"station_name":"Pondok Jati","line":11,"time":2,"distance":1829,"transit":false,"is_transit":false,"i_lat":-6.209188,"i_long":106.861737,"station_id":"POK"},{"distance":1236,"time":9,"line":1,"transit":true,"i_lat":-6.215091,"i_long":106.86807400000001,"station_name":"Jatinegara","is_transit":true,"station_id":"JNG"},{"i_long":106.858896,"station_id":"MTR","station_name":"Matraman","distance":1377,"is_transit":false,"time":2,"transit":false,"i_lat":-6.212485,"line":1},{"station_id":"MRI","distance":1275,"line":2,"time":2,"i_long":106.84912,"i_lat":-6.209883,"is_transit":true,"transit":true,"station_name":"Manggarai"},{"line":2,"station_id":"TEB","is_transit":false,"transit":false,"time":4,"distance":2610,"i_lat":-6.226659,"station_name":"Tebet","i_long":106.857948},{"station_id":"CW","transit":false,"time":2,"is_transit":false,"station_name":"Cawang","i_long":106.856607,"line":2,"distance":1230,"i_lat":-6.242512},{"transit":false,"i_lat":-6.255332,"distance":1546,"i_long":106.85449,"is_transit":false,"line":2,"time":3,"station_name":"Duren Kalibata","station_id":"DRN"},{"i_long":106.851577,"transit":false,"i_lat":-6.263214,"is_transit":false,"line":2,"time":2,"station_id":"PSMB","distance":824,"station_name":"Pasar Minggu Baru"},{"time":2,"station_id":"PSM","i_long":106.843999,"line":2,"is_transit":false,"i_lat":-6.2842400000000005,"station_name":"Pasar Minggu","distance":2380,"transit":false},{"station_name":"Tanjung Barat","transit":false,"station_id":"TNT","i_lat":-6.3080680000000005,"time":4,"i_long":106.838896,"is_transit":false,"distance":2820,"line":2},{"line":2,"i_long":106.832616,"station_name":"Lenteng Agung","is_transit":false,"time":3,"station_id":"LNA","distance":2671,"i_lat":-6.330363,"transit":false},{"distance":1029,"line":2,"time":2,"station_id":"UP","i_lat":-6.339291,"station_name":"Univ. Pancasila","i_long":106.834175,"is_transit":false,"transit":false},{"i_long":106.831474,"station_id":"UI","distance":2264,"transit":false,"line":2,"station_name":"Univ. Indonesia","is_transit":false,"i_lat":-6.360749,"time":3},{"is_transit":false,"i_lat":-6.369073,"time":2,"line":2,"station_id":"POC","i_long":106.831114,"distance":1109,"transit":false,"station_name":"Pondok Cina"},{"is_transit":false,"station_id":"DPB","time":4,"distance":2727,"i_lat":-6.391065,"i_long":106.819451,"line":2,"station_name":"Depokbaru","transit":false},{"transit":false,"is_transit":false,"i_lat":-6.405256,"time":3,"i_long":106.816926,"line":2,"distance":1584,"station_name":"Depok","station_id":"DP"},{"distance":5084,"line":2,"transit":false,"is_transit":false,"station_name":"Citayam","i_lat":-6.448811,"station_id":"CTA","i_long":106.800298,"time":6},{"i_lat":-6.493243,"line":2,"i_long":106.792719,"is_transit":false,"station_id":"BJD","distance":5197,"transit":false,"station_name":"Bojonggede","time":5},{"transit":false,"time":5,"distance":4331,"station_name":"Cilebut","line":2,"i_lat":-6.530544,"i_long":106.800016,"is_transit":false,"station_id":"CLT"},{"i_lat":-6.594596,"line":2,"station_name":"Bogor","is_transit":false,"transit":false,"time":9,"station_id":"BOO","i_long":106.790574,"distance":7514}]]}