{"data":[[{"station_id":"MJ","i_lat":-6.332307,"transit":false,"line":6,"time":0,"i_long":106.394373,"station_name":"Maja","distance":0,"is_transit":false},{"i_lat":-6.33561,"i_long":106.411216,"time":4,"station_id":"CKY","distance":1853,"line":0,"is_transit":false,"station_name":"Cikoya","transit":false},{"station_name":"Tigaraksa","i_lat":-6.328533,"transit":false,"distance":2651,"time":3,"is_transit":false,"station_id":"TGS","line":6,"i_long":106.425991},{"line":6,"i_lat":-6.327251,"distance":2974,"is_transit":false,"station_name":"Tenjo","transit":false,"i_long":106.460812,"station_id":"TEJ","time":5},{"i_lat":-6.338021,"is_transit":false,"line":0,"station_name":"Daru","i_long":106.491338,"transit":false,"distance":3902,"station_id":"DAR","time":5},{"station_id":"CJT","transit":false,"i_lat":-6.354349,"station_name":"Cilejit","is_transit":false,"i_long":106.508482,"line":0,"distance":2675,"time":6},{"time":9,"is_transit":false,"i_lat":-6.3441410000000005,"i_long":106.568863,"line":6,"station_name":"Parung Panjang","transit":false,"distance":7025,"station_id":"PRP"},{"distance":5968,"line":0,"station_id":"CC","i_lat":-6.329547,"time":8,"is_transit":false,"i_long":106.617853,"transit":false,"station_name":"Cicayur"},{"station_id":"CSK","distance":2519,"i_lat":-6.32484,"is_transit":false,"line":0,"station_name":"Cisauk","i_long":106.640411,"transit":false,"time":4},{"i_long":106.66566,"line":6,"i_lat":-6.319871,"distance":1784,"station_name":"Serpong","time":4,"is_transit":false,"transit":false,"station_id":"SRP"},{"line":6,"transit":false,"i_lat":-6.314823,"i_long":106.675475,"is_transit":false,"time":4,"station_id":"RU","station_name":"Rawa Buntu","distance":2413},{"station_name":"Sudimara","i_lat":-6.296963,"transit":false,"time":6,"distance":4566,"is_transit":false,"i_long":106.712277,"line":6,"station_id":"SDM"},{"i_long":106.728916,"transit":false,"distance":1994,"line":6,"time":4,"station_name":"Jurangmangu","is_transit":false,"station_id":"JMU","i_lat":-6.288927},{"i_lat":-6.276362,"i_long":106.74273,"line":6,"transit":false,"station_id":"PDJ","time":3,"distance":2179,"station_name":"Pondokranji","is_transit":false},{"station_name":"Kebayoran","i_lat":-6.237242,"i_long":106.780334,"transit":false,"distance":6218,"time":8,"station_id":"KBY","line":6,"is_transit":false},{"is_transit":false,"transit":false,"time":7,"distance":3737,"station_name":"Palmerah","i_lat":-6.207404,"station_id":"PLM","i_long":106.79689,"line":6},{"i_long":106.811091,"distance":3191,"station_id":"THB","time":6,"is_transit":true,"line":1,"i_lat":-6.185545,"station_name":"Tanah Abang","transit":true},{"transit":false,"i_long":106.816351,"is_transit":false,"i_lat":-6.20132,"line":1,"station_id":"KAT","distance":2029,"station_name":"Karet","time":5},{"station_name":"Sudirman Baru","distance":471,"time":1,"is_transit":false,"i_lat":-6.201433,"station_id":"SUDB","line":1,"i_long":106.819881,"transit":false},{"is_transit":false,"i_long":106.822649,"time":1,"i_lat":-6.202263,"transit":false,"station_name":"Sudirman","distance":280,"station_id":"SUD","line":1},{"station_id":"MRI","station_name":"Manggarai","time":4,"transit":true,"i_lat":-6.209883,"is_transit":true,"distance":3186,"i_long":106.84912,"line":0},{"station_id":"TEB","i_long":106.857948,"line":2,"distance":2610,"station_name":"Tebet","time":4,"i_lat":-6.226659,"transit":false,"is_transit":false},{"station_name":"Cawang","i_long":106.856607,"station_id":"CW","transit":false,"distance":1230,"is_transit":false,"time":2,"i_lat":-6.242512,"line":0},{"station_id":"DRN","line":0,"distance":1546,"station_name":"Duren Kalibata","transit":false,"is_transit":false,"time":3,"i_lat":-6.255332,"i_long":106.85449},{"transit":false,"line":2,"distance":824,"time":2,"station_name":"Pasar Minggu Baru","is_transit":false,"i_lat":-6.263214,"i_long":106.851577,"station_id":"PSMB"},{"transit":false,"station_id":"PSM","station_name":"Pasar Minggu","is_transit":false,"line":2,"i_long":106.843999,"time":2,"distance":2380,"i_lat":-6.2842400000000005},{"i_long":106.838896,"station_name":"Tanjung Barat","station_id":"TNT","i_lat":-6.3080680000000005,"time":4,"line":2,"distance":2820,"is_transit":false,"transit":false},{"time":3,"transit":false,"is_transit":false,"i_lat":-6.330363,"station_name":"Lenteng Agung","station_id":"LNA","line":2,"distance":2671,"i_long":106.832616},{"station_id":"UP","station_name":"Univ. Pancasila","line":2,"i_long":106.834175,"is_transit":false,"i_lat":-6.339291,"time":2,"transit":false,"distance":1029},{"i_long":106.831474,"station_name":"Univ. Indonesia","distance":2264,"station_id":"UI","i_lat":-6.360749,"line":2,"transit":false,"time":3,"is_transit":false},{"time":2,"transit":false,"station_id":"POC","station_name":"Pondok Cina","i_long":106.831114,"line":2,"is_transit":false,"i_lat":-6.369073,"distance":1109},{"i_lat":-6.391065,"i_long":106.819451,"is_transit":false,"line":0,"transit":false,"station_name":"Depokbaru","time":4,"station_id":"DPB","distance":2727},{"time":3,"station_name":"Depok","distance":1584,"line":0,"is_transit":false,"i_lat":-6.405256,"i_long":106.816926,"transit":false,"station_id":"DP"},{"i_lat":-6.448811,"distance":5084,"i_long":106.800298,"station_id":"CTA","station_name":"Citayam","time":6,"line":1,"is_transit":true,"transit":false},{"station_id":"BJD","station_name":"Bojonggede","time":5,"distance":5197,"is_transit":false,"line":0,"i_lat":-6.493243,"transit":false,"i_long":106.792719},{"time":5,"station_name":"Cilebut","distance":4331,"is_transit":false,"station_id":"CLT","i_long":106.800016,"line":0,"i_lat":-6.530544,"transit":false},{"distance":7514,"time":9,"station_name":"Bogor","transit":false,"line":1,"station_id":"BOO","i_lat":-6.594596,"is_transit":true,"i_long":106.790574}],[{"transit":false,"i_long":106.394373,"station_id":"MJ","i_lat":-6.332307,"time":0,"station_name":"Maja","is_transit":false,"line":6,"distance":0},{"station_name":"Cikoya","distance":1853,"station_id":"CKY","line":0,"i_long":106.411216,"transit":false,"i_lat":-6.33561,"time":4,"is_transit":false},{"time":3,"transit":false,"is_transit":false,"distance":2651,"i_long":106.425991,"line":6,"station_name":"Tigaraksa","station_id":"TGS","i_lat":-6.328533},{"is_transit":false,"station_id":"TEJ","distance":2974,"line":6,"time":5,"transit":false,"i_long":106.460812,"station_name":"Tenjo","i_lat":-6.327251},{"time":5,"station_name":"Daru","is_transit":false,"transit":false,"station_id":"DAR","i_lat":-6.338021,"i_long":106.491338,"line":0,"distance":3902},{"i_lat":-6.354349,"station_name":"Cilejit","transit":false,"distance":2675,"line":0,"time":6,"is_transit":false,"i_long":106.508482,"station_id":"CJT"},{"i_long":106.568863,"transit":false,"i_lat":-6.3441410000000005,"station_name":"Parung Panjang","line":6,"distance":7025,"time":9,"is_transit":false,"station_id":"PRP"},{"time":8,"line":0,"is_transit":false,"i_lat":-6.329547,"i_long":106.617853,"transit":false,"station_name":"Cicayur","distance":5968,"station_id":"CC"},{"transit":false,"i_long":106.640411,"distance":2519,"station_id":"CSK","i_lat":-6.32484,"line":0,"is_transit":false,"time":4,"station_name":"Cisauk"},{"station_name":"Serpong","station_id":"SRP","line":6,"distance":1784,"is_transit":false,"i_long":106.66566,"i_lat":-6.319871,"time":4,"transit":false},{"distance":2413,"transit":false,"station_name":"Rawa Buntu","station_id":"RU","i_long":106.675475,"line":6,"time":4,"is_transit":false,"i_lat":-6.314823},{"is_transit":false,"station_id":"SDM","station_name":"Sudimara","transit":false,"i_long":106.712277,"distance":4566,"time":6,"i_lat":-6.296963,"line":6},{"is_transit":false,"distance":1994,"line":6,"i_lat":-6.288927,"transit":false,"station_name":"Jurangmangu","station_id":"JMU","i_long":106.728916,"time":4},{"distance":2179,"is_transit":false,"transit":false,"station_id":"PDJ","line":6,"time":3,"i_lat":-6.276362,"i_long":106.74273,"station_name":"Pondokranji"},{"i_long":106.780334,"distance":6218,"i_lat":-6.237242,"is_transit":false,"station_name":"Kebayoran","transit":false,"time":8,"station_id":"KBY","line":6},{"i_long":106.79689,"line":6,"station_name":"Palmerah","station_id":"PLM","time":7,"distance":3737,"is_transit":false,"transit":false,"i_lat":-6.207404},{"i_lat":-6.185545,"time":6,"is_transit":true,"line":1,"station_name":"Tanah Abang","station_id":"THB","distance":3191,"transit":true,"i_long":106.811091},{"station_id":"DU","time":8,"is_transit":true,"line":1,"i_long":106.800832,"i_lat":-6.155215,"station_name":"Duri","distance":3632,"transit":true},{"station_id":"AK","transit":false,"station_name":"Angke","i_lat":-6.144674,"line":0,"is_transit":false,"time":4,"i_long":106.79867,"distance":1230},{"time":9,"line":0,"station_name":"Kampung Bandan","is_transit":true,"transit":false,"station_id":"KPB","i_lat":-6.132549,"distance":4102,"i_long":106.826365},{"line":0,"is_transit":true,"station_name":"Jakarta Kota","i_long":106.812439,"i_lat":-6.137569,"distance":1364,"transit":true,"station_id":"JAKK","time":3},{"time":4,"station_name":"Jayakarta","i_long":106.820901,"line":7,"i_lat":-6.141205,"transit":false,"station_id":"JAY","distance":1264,"is_transit":false},{"station_id":"MGB","transit":false,"is_transit":false,"time":2,"i_lat":-6.149769,"station_name":"Manggabesar","distance":1080,"line":2,"i_long":106.82482},{"time":2,"transit":false,"i_lat":-6.160725,"i_long":106.827103,"distance":906,"is_transit":false,"station_name":"Sawah Besar","line":2,"station_id":"SW"},{"i_long":106.828284,"is_transit":false,"distance":1149,"i_lat":-6.166716,"line":2,"time":2,"station_name":"Juanda","transit":false,"station_id":"JUA"},{"station_name":"Gondangdia","is_transit":false,"i_long":106.832183,"time":4,"line":2,"distance":2015,"i_lat":-6.186295,"transit":false,"station_id":"GDD"},{"station_id":"CKI","line":0,"i_long":106.840169,"time":3,"distance":1750,"is_transit":false,"station_name":"Cikini","transit":false,"i_lat":-6.198556},{"station_id":"MRI","i_lat":-6.209883,"time":4,"i_long":106.84912,"distance":1590,"station_name":"Manggarai","is_transit":true,"line":0,"transit":true},{"distance":2610,"i_lat":-6.226659,"station_id":"TEB","is_transit":false,"i_long":106.857948,"transit":false,"line":2,"time":4,"station_name":"Tebet"},{"station_name":"Cawang","transit":false,"time":2,"is_transit":false,"distance":1230,"i_lat":-6.242512,"i_long":106.856607,"line":0,"station_id":"CW"},{"i_lat":-6.255332,"station_name":"Duren Kalibata","transit":false,"i_long":106.85449,"time":3,"distance":1546,"is_transit":false,"station_id":"DRN","line":0},{"station_name":"Pasar Minggu Baru","transit":false,"is_transit":false,"station_id":"PSMB","i_lat":-6.263214,"line":2,"time":2,"distance":824,"i_long":106.851577},{"line":2,"station_name":"Pasar Minggu","distance":2380,"i_lat":-6.2842400000000005,"station_id":"PSM","i_long":106.843999,"is_transit":false,"transit":false,"time":2},{"station_id":"TNT","is_transit":false,"distance":2820,"line":2,"station_name":"Tanjung Barat","i_lat":-6.3080680000000005,"transit":false,"i_long":106.838896,"time":4},{"station_id":"LNA","is_transit":false,"line":2,"station_name":"Lenteng Agung","i_lat":-6.330363,"distance":2671,"i_long":106.832616,"time":3,"transit":false},{"is_transit":false,"station_name":"Univ. Pancasila","station_id":"UP","time":2,"line":2,"i_lat":-6.339291,"transit":false,"distance":1029,"i_long":106.834175},{"line":2,"time":3,"i_lat":-6.360749,"is_transit":false,"station_name":"Univ. Indonesia","distance":2264,"station_id":"UI","transit":false,"i_long":106.831474},{"i_long":106.831114,"station_id":"POC","i_lat":-6.369073,"distance":1109,"time":2,"station_name":"Pondok Cina","transit":false,"is_transit":false,"line":2},{"line":0,"time":4,"transit":false,"station_id":"DPB","i_long":106.819451,"is_transit":false,"station_name":"Depokbaru","distance":2727,"i_lat":-6.391065},{"time":3,"transit":false,"distance":1584,"line":0,"station_name":"Depok","station_id":"DP","i_lat":-6.405256,"i_long":106.816926,"is_transit":false},{"is_transit":true,"station_id":"CTA","i_long":106.800298,"station_name":"Citayam","transit":false,"distance":5084,"i_lat":-6.448811,"time":6,"line":1},{"station_id":"BJD","line":0,"i_long":106.792719,"station_name":"Bojonggede","i_lat":-6.493243,"distance":5197,"is_transit":false,"transit":false,"time":5},{"time":5,"station_name":"Cilebut","i_lat":-6.530544,"is_transit":false,"line":0,"station_id":"CLT","i_long":106.800016,"transit":false,"distance":4331},{"i_long":106.790574,"station_name":"Bogor","time":9,"station_id":"BOO","line":1,"i_lat":-6.594596,"is_transit":true,"transit":false,"distance":7514}],[{"i_long":106.394373,"is_transit":false,"distance":0,"station_id":"MJ","line":6,"transit":false,"time":0,"station_name":"Maja","i_lat":-6.332307},{"line":0,"i_long":106.411216,"time":4,"is_transit":false,"station_name":"Cikoya","transit":false,"station_id":"CKY","i_lat":-6.33561,"distance":1853},{"distance":2651,"time":3,"line":6,"station_name":"Tigaraksa","i_lat":-6.328533,"i_long":106.425991,"transit":false,"is_transit":false,"station_id":"TGS"},{"transit":false,"line":6,"i_lat":-6.327251,"distance":2974,"time":5,"is_transit":false,"i_long":106.460812,"station_id":"TEJ","station_name":"Tenjo"},{"distance":3902,"time":5,"station_name":"Daru","is_transit":false,"station_id":"DAR","line":0,"i_long":106.491338,"transit":false,"i_lat":-6.338021},{"time":6,"i_long":106.508482,"station_name":"Cilejit","is_transit":false,"i_lat":-6.354349,"line":0,"distance":2675,"transit":false,"station_id":"CJT"},{"distance":7025,"is_transit":false,"i_lat":-6.3441410000000005,"i_long":106.568863,"transit":false,"station_name":"Parung Panjang","station_id":"PRP","time":9,"line":6},{"transit":false,"is_transit":false,"i_long":106.617853,"station_name":"Cicayur","station_id":"CC","line":0,"time":8,"distance":5968,"i_lat":-6.329547},{"station_id":"CSK","transit":false,"distance":2519,"is_transit":false,"station_name":"Cisauk","i_long":106.640411,"i_lat":-6.32484,"time":4,"line":0},{"time":4,"transit":false,"is_transit":false,"station_id":"SRP","distance":1784,"station_name":"Serpong","i_long":106.66566,"line":6,"i_lat":-6.319871},{"time":4,"line":6,"station_id":"RU","is_transit":false,"distance":2413,"i_lat":-6.314823,"station_name":"Rawa Buntu","transit":false,"i_long":106.675475},{"is_transit":false,"distance":4566,"station_name":"Sudimara","station_id":"SDM","i_lat":-6.296963,"line":6,"time":6,"transit":false,"i_long":106.712277},{"distance":1994,"line":6,"station_name":"Jurangmangu","station_id":"JMU","i_long":106.728916,"time":4,"transit":false,"is_transit":false,"i_lat":-6.288927},{"transit":false,"line":6,"distance":2179,"time":3,"station_name":"Pondokranji","is_transit":false,"station_id":"PDJ","i_lat":-6.276362,"i_long":106.74273},{"i_long":106.780334,"station_id":"KBY","transit":false,"is_transit":false,"time":8,"distance":6218,"station_name":"Kebayoran","i_lat":-6.237242,"line":6},{"i_lat":-6.207404,"time":7,"station_name":"Palmerah","i_long":106.79689,"distance":3737,"is_transit":false,"transit":false,"station_id":"PLM","line":6},{"time":6,"distance":3191,"station_name":"Tanah Abang","transit":true,"line":1,"i_lat":-6.185545,"i_long":106.811091,"is_transit":true,"station_id":"THB"},{"is_transit":true,"i_long":106.800832,"line":1,"time":8,"station_id":"DU","transit":true,"i_lat":-6.155215,"station_name":"Duri","distance":3632},{"is_transit":false,"time":4,"transit":false,"station_id":"AK","i_long":106.79867,"station_name":"Angke","i_lat":-6.144674,"line":0,"distance":1230},{"station_name":"Kampung Bandan","transit":true,"is_transit":true,"i_lat":-6.132549,"station_id":"KPB","i_long":106.826365,"time":9,"line":0,"distance":4102},{"distance":1444,"is_transit":false,"line":11,"station_id":"RJW","time":3,"station_name":"Rajawali","transit":false,"i_long":106.836569,"i_lat":-6.14505},{"time":5,"station_name":"Kemayoran","station_id":"KMO","transit":false,"i_lat":-6.161728,"i_long":106.839204,"is_transit":false,"distance":1901,"line":11},{"station_name":"Pasar Senen","i_lat":-6.174784,"time":4,"distance":1436,"transit":false,"is_transit":false,"i_long":106.84368,"station_id":"PSE","line":11},{"is_transit":false,"i_long":106.850107,"station_name":"Gang Sentiong","transit":false,"distance":1567,"time":8,"station_id":"GST","i_lat":-6.185975,"line":11},{"i_lat":-6.193792,"i_long":106.855437,"transit":false,"is_transit":false,"time":1,"station_name":"Kramat","station_id":"KMT","line":11,"distance":973},{"distance":1829,"line":11,"time":2,"is_transit":false,"station_name":"Pondok Jati","transit":false,"i_long":106.861737,"station_id":"POK","i_lat":-6.209188},{"is_transit":true,"transit":true,"i_lat":-6.215091,"station_name":"Jatinegara","distance":1236,"station_id":"JNG","i_long":106.86807400000001,"time":9,"line":0},{"time":2,"line":1,"station_id":"MTR","station_name":"Matraman","distance":1377,"i_lat":-6.212485,"transit":false,"i_long":106.858896,"is_transit":false},{"i_long":106.84912,"line":0,"is_transit":true,"station_id":"MRI","transit":true,"station_name":"Manggarai","distance":1275,"time":2,"i_lat":-6.209883},{"station_id":"TEB","distance":2610,"i_long":106.857948,"line":2,"is_transit":false,"i_lat":-6.226659,"station_name":"Tebet","transit":false,"time":4},{"transit":false,"i_lat":-6.242512,"station_name":"Cawang","is_transit":false,"distance":1230,"station_id":"CW","i_long":106.856607,"line":0,"time":2},{"i_lat":-6.255332,"transit":false,"line":0,"distance":1546,"is_transit":false,"time":3,"station_name":"Duren Kalibata","i_long":106.85449,"station_id":"DRN"},{"distance":824,"i_lat":-6.263214,"i_long":106.851577,"line":2,"station_id":"PSMB","transit":false,"time":2,"station_name":"Pasar Minggu Baru","is_transit":false},{"distance":2380,"is_transit":false,"i_lat":-6.2842400000000005,"station_id":"PSM","line":2,"station_name":"Pasar Minggu","i_long":106.843999,"time":2,"transit":false},{"line":2,"transit":false,"station_name":"Tanjung Barat","station_id":"TNT","time":4,"distance":2820,"is_transit":false,"i_lat":-6.3080680000000005,"i_long":106.838896},{"i_long":106.832616,"is_transit":false,"distance":2671,"station_id":"LNA","time":3,"station_name":"Lenteng Agung","i_lat":-6.330363,"line":2,"transit":false},{"transit":false,"distance":1029,"station_name":"Univ. Pancasila","i_lat":-6.339291,"line":2,"i_long":106.834175,"time":2,"is_transit":false,"station_id":"UP"},{"time":3,"is_transit":false,"i_long":106.831474,"station_name":"Univ. Indonesia","line":2,"i_lat":-6.360749,"transit":false,"distance":2264,"station_id":"UI"},{"station_name":"Pondok Cina","transit":false,"is_transit":false,"station_id":"POC","time":2,"distance":1109,"i_long":106.831114,"i_lat":-6.369073,"line":2},{"line":0,"time":4,"station_name":"Depokbaru","i_long":106.819451,"transit":false,"distance":2727,"i_lat":-6.391065,"station_id":"DPB","is_transit":false},{"i_lat":-6.405256,"station_name":"Depok","is_transit":false,"distance":1584,"line":0,"station_id":"DP","i_long":106.816926,"time":3,"transit":false},{"station_id":"CTA","i_lat":-6.448811,"i_long":106.800298,"line":1,"time":6,"is_transit":true,"station_name":"Citayam","transit":false,"distance":5084},{"i_long":106.792719,"station_id":"BJD","distance":5197,"time":5,"is_transit":false,"station_name":"Bojonggede","transit":false,"line":0,"i_lat":-6.493243},{"is_transit":false,"time":5,"station_name":"Cilebut","i_long":106.800016,"line":0,"distance":4331,"i_lat":-6.530544,"transit":false,"station_id":"CLT"},{"line":1,"station_name":"Bogor","transit":false,"i_long":106.790574,"time":9,"is_transit":true,"station_id":"BOO","distance":7514,"i_lat":-6.594596}]]}