{"data":[[{"distance":0,"transit":false,"i_lat":-6.332307,"station_name":"Maja","station_id":"MJ","is_transit":false,"time":0,"i_long":106.394373,"line":6},{"i_lat":-6.33561,"time":4,"transit":false,"line":3,"station_id":"CKY","distance":1853,"station_name":"Cikoya","is_transit":false,"i_long":106.411216},{"station_id":"TGS","line":6,"station_name":"Tigaraksa","i_long":106.425991,"i_lat":-6.328533,"distance":2651,"time":3,"transit":false,"is_transit":false},{"time":5,"transit":false,"is_transit":false,"line":6,"station_name":"Tenjo","i_long":106.460812,"i_lat":-6.327251,"station_id":"TEJ","distance":2974},{"transit":false,"station_id":"DAR","i_long":106.491338,"line":0,"is_transit":false,"distance":3902,"time":5,"station_name":"Daru","i_lat":-6.338021},{"transit":false,"i_long":106.508482,"distance":2675,"station_id":"CJT","station_name":"Cilejit","i_lat":-6.354349,"time":6,"is_transit":false,"line":3}]]}