{"data":[[{"is_transit":false,"station_id":"MJ","i_lat":-6.332307,"i_long":106.394373,"distance":0,"transit":false,"line":6,"time":0,"station_name":"Maja"},{"transit":false,"station_id":"CKY","time":4,"is_transit":false,"i_long":106.411216,"distance":1853,"station_name":"Cikoya","i_lat":-6.33561,"line":0},{"i_lat":-6.328533,"distance":2651,"station_name":"Tigaraksa","station_id":"TGS","time":3,"is_transit":false,"i_long":106.425991,"line":6,"transit":false},{"i_lat":-6.327251,"i_long":106.460812,"distance":2974,"time":5,"station_name":"Tenjo","line":6,"station_id":"TEJ","transit":false,"is_transit":false},{"i_lat":-6.338021,"distance":3902,"time":5,"station_id":"DAR","i_long":106.491338,"is_transit":false,"line":0,"transit":false,"station_name":"Daru"},{"station_name":"Cilejit","transit":false,"distance":2675,"line":0,"time":6,"is_transit":false,"i_lat":-6.354349,"i_long":106.508482,"station_id":"CJT"},{"time":9,"transit":false,"is_transit":false,"i_lat":-6.3441410000000005,"line":6,"i_long":106.568863,"station_id":"PRP","station_name":"Parung Panjang","distance":7025},{"i_lat":-6.329547,"line":0,"distance":5968,"station_id":"CC","i_long":106.617853,"transit":false,"is_transit":false,"time":8,"station_name":"Cicayur"},{"distance":2519,"i_lat":-6.32484,"line":0,"station_id":"CSK","is_transit":false,"transit":false,"time":4,"station_name":"Cisauk","i_long":106.640411},{"line":6,"i_lat":-6.319871,"station_id":"SRP","distance":1784,"time":4,"station_name":"Serpong","i_long":106.66566,"transit":false,"is_transit":false},{"is_transit":false,"station_id":"RU","distance":2413,"transit":false,"line":6,"station_name":"Rawa Buntu","i_lat":-6.314823,"i_long":106.675475,"time":4},{"time":6,"transit":false,"distance":4566,"station_id":"SDM","is_transit":false,"i_lat":-6.296963,"i_long":106.712277,"line":6,"station_name":"Sudimara"},{"station_name":"Jurangmangu","i_long":106.728916,"is_transit":false,"transit":false,"i_lat":-6.288927,"distance":1994,"line":6,"station_id":"JMU","time":4},{"i_long":106.74273,"distance":2179,"transit":false,"station_id":"PDJ","is_transit":false,"station_name":"Pondokranji","time":3,"i_lat":-6.276362,"line":6},{"transit":false,"time":8,"is_transit":false,"i_lat":-6.237242,"station_name":"Kebayoran","line":6,"i_long":106.780334,"station_id":"KBY","distance":6218},{"distance":3737,"line":6,"transit":false,"station_id":"PLM","i_lat":-6.207404,"is_transit":false,"i_long":106.79689,"station_name":"Palmerah","time":7},{"time":6,"i_lat":-6.185545,"is_transit":true,"line":1,"transit":true,"station_id":"THB","distance":3191,"station_name":"Tanah Abang","i_long":106.811091},{"distance":2029,"transit":false,"i_lat":-6.20132,"station_id":"KAT","is_transit":false,"station_name":"Karet","time":5,"i_long":106.816351,"line":1},{"i_lat":-6.201433,"line":1,"station_id":"SUDB","is_transit":false,"transit":false,"time":1,"station_name":"Sudirman Baru","distance":471,"i_long":106.819881},{"transit":false,"time":1,"is_transit":false,"station_id":"SUD","i_lat":-6.202263,"i_long":106.822649,"line":1,"station_name":"Sudirman","distance":280},{"i_lat":-6.209883,"station_id":"MRI","i_long":106.84912,"transit":false,"time":4,"distance":3186,"is_transit":true,"station_name":"Manggarai","line":0},{"station_id":"MTR","time":2,"i_lat":-6.212485,"transit":false,"line":1,"distance":1275,"is_transit":false,"station_name":"Matraman","i_long":106.858896},{"transit":false,"station_id":"JNG","i_lat":-6.215091,"line":0,"distance":1377,"station_name":"Jatinegara","is_transit":true,"time":8,"i_long":106.86807400000001},{"time":3,"station_name":"Klender","station_id":"KLD","is_transit":false,"distance":3395,"line":1,"transit":false,"i_long":106.899548,"i_lat":-6.2135},{"station_id":"BUA","i_long":106.922662,"time":2,"station_name":"Buaran","distance":3100,"transit":false,"is_transit":false,"i_lat":-6.215568,"line":0},{"line":1,"transit":false,"distance":1305,"is_transit":false,"station_id":"KLDB","station_name":"Klenderbaru","i_long":106.939679,"i_lat":-6.217455,"time":1},{"i_long":106.951283,"transit":false,"line":0,"station_name":"Cakung","is_transit":false,"distance":1385,"i_lat":-6.219053,"station_id":"CUK","time":8},{"i_lat":-6.224515,"is_transit":false,"i_long":106.977657,"transit":false,"station_id":"KRI","station_name":"Kranji","distance":3097,"time":3,"line":1},{"i_lat":-6.236616,"station_name":"Bekasi","time":4,"distance":2520,"is_transit":false,"line":0,"transit":false,"station_id":"BKS","i_long":106.997013},{"station_name":"Bekasi Timur","is_transit":false,"i_long":107.016735,"line":0,"i_lat":-6.248029,"distance":2368,"station_id":"BKST","transit":false,"time":2},{"distance":4460,"is_transit":false,"i_lat":-6.258864,"station_id":"TB","i_long":107.055722,"station_name":"Tambun","line":1,"time":7,"transit":false},{"i_long":107.083084,"line":0,"distance":3420,"transit":false,"time":3,"is_transit":false,"station_name":"Cibitung","i_lat":-6.261877,"station_id":"CIT"},{"is_transit":false,"time":2,"transit":false,"i_lat":-6.262938,"i_long":107.093313,"distance":2800,"station_id":"TLM","station_name":"Metland Telaga Murni","line":1},{"distance":3689,"transit":false,"line":0,"time":4,"station_id":"CKR","is_transit":false,"station_name":"Cikarang","i_long":107.144613,"i_lat":-6.2553149999999995}],[{"is_transit":false,"i_lat":-6.332307,"distance":0,"transit":false,"line":6,"i_long":106.394373,"time":0,"station_name":"Maja","station_id":"MJ"},{"station_name":"Cikoya","time":4,"i_long":106.411216,"station_id":"CKY","transit":false,"distance":1853,"is_transit":false,"i_lat":-6.33561,"line":0},{"station_id":"TGS","transit":false,"time":3,"i_lat":-6.328533,"line":6,"distance":2651,"is_transit":false,"i_long":106.425991,"station_name":"Tigaraksa"},{"distance":2974,"transit":false,"station_id":"TEJ","time":5,"is_transit":false,"station_name":"Tenjo","i_lat":-6.327251,"line":6,"i_long":106.460812},{"time":5,"transit":false,"i_long":106.491338,"is_transit":false,"station_name":"Daru","distance":3902,"station_id":"DAR","line":0,"i_lat":-6.338021},{"station_id":"CJT","transit":false,"distance":2675,"time":6,"station_name":"Cilejit","is_transit":false,"i_lat":-6.354349,"line":0,"i_long":106.508482},{"transit":false,"i_lat":-6.3441410000000005,"time":9,"is_transit":false,"line":6,"station_id":"PRP","i_long":106.568863,"distance":7025,"station_name":"Parung Panjang"},{"i_lat":-6.329547,"i_long":106.617853,"time":8,"transit":false,"station_name":"Cicayur","distance":5968,"line":0,"is_transit":false,"station_id":"CC"},{"time":4,"i_lat":-6.32484,"transit":false,"line":0,"i_long":106.640411,"station_name":"Cisauk","distance":2519,"station_id":"CSK","is_transit":false},{"i_long":106.66566,"is_transit":false,"time":4,"i_lat":-6.319871,"transit":false,"line":6,"station_id":"SRP","station_name":"Serpong","distance":1784},{"i_lat":-6.314823,"transit":false,"distance":2413,"station_id":"RU","time":4,"station_name":"Rawa Buntu","is_transit":false,"i_long":106.675475,"line":6},{"line":6,"station_id":"SDM","time":6,"i_long":106.712277,"station_name":"Sudimara","i_lat":-6.296963,"is_transit":false,"distance":4566,"transit":false},{"i_lat":-6.288927,"is_transit":false,"transit":false,"station_id":"JMU","i_long":106.728916,"distance":1994,"line":6,"time":4,"station_name":"Jurangmangu"},{"i_long":106.74273,"transit":false,"line":6,"time":3,"is_transit":false,"distance":2179,"station_name":"Pondokranji","station_id":"PDJ","i_lat":-6.276362},{"station_name":"Kebayoran","i_lat":-6.237242,"transit":false,"i_long":106.780334,"line":6,"station_id":"KBY","distance":6218,"time":8,"is_transit":false},{"i_lat":-6.207404,"station_name":"Palmerah","transit":false,"station_id":"PLM","time":7,"distance":3737,"i_long":106.79689,"line":6,"is_transit":false},{"is_transit":true,"distance":3191,"i_long":106.811091,"time":6,"transit":true,"i_lat":-6.185545,"station_name":"Tanah Abang","line":1,"station_id":"THB"},{"station_name":"Duri","is_transit":true,"station_id":"DU","time":8,"distance":3632,"i_lat":-6.155215,"i_long":106.800832,"line":1,"transit":true},{"station_id":"AK","i_long":106.79867,"line":0,"station_name":"Angke","time":4,"transit":false,"i_lat":-6.144674,"distance":1230,"is_transit":false},{"transit":true,"station_id":"KPB","is_transit":true,"time":9,"station_name":"Kampung Bandan","line":0,"distance":4102,"i_long":106.826365,"i_lat":-6.132549},{"transit":false,"line":11,"is_transit":false,"i_lat":-6.14505,"i_long":106.836569,"station_id":"RJW","time":3,"distance":1444,"station_name":"Rajawali"},{"time":5,"distance":1901,"line":11,"transit":false,"is_transit":false,"station_id":"KMO","i_lat":-6.161728,"station_name":"Kemayoran","i_long":106.839204},{"i_lat":-6.174784,"time":4,"distance":1436,"transit":false,"i_long":106.84368,"is_transit":false,"station_name":"Pasar Senen","line":11,"station_id":"PSE"},{"is_transit":false,"station_name":"Gang Sentiong","i_long":106.850107,"transit":false,"station_id":"GST","distance":1567,"time":8,"line":11,"i_lat":-6.185975},{"transit":false,"i_lat":-6.193792,"distance":973,"station_name":"Kramat","line":11,"is_transit":false,"time":1,"i_long":106.855437,"station_id":"KMT"},{"line":11,"station_id":"POK","distance":1829,"i_long":106.861737,"is_transit":false,"station_name":"Pondok Jati","i_lat":-6.209188,"transit":false,"time":2},{"station_name":"Jatinegara","transit":true,"line":0,"time":9,"distance":1236,"i_long":106.86807400000001,"i_lat":-6.215091,"station_id":"JNG","is_transit":true},{"is_transit":false,"time":3,"line":1,"transit":false,"i_long":106.899548,"i_lat":-6.2135,"station_id":"KLD","distance":3395,"station_name":"Klender"},{"distance":3100,"i_long":106.922662,"transit":false,"time":2,"is_transit":false,"station_id":"BUA","station_name":"Buaran","line":0,"i_lat":-6.215568},{"station_id":"KLDB","line":1,"transit":false,"distance":1305,"i_long":106.939679,"station_name":"Klenderbaru","is_transit":false,"i_lat":-6.217455,"time":1},{"distance":1385,"station_id":"CUK","is_transit":false,"time":8,"i_lat":-6.219053,"transit":false,"i_long":106.951283,"line":0,"station_name":"Cakung"},{"i_long":106.977657,"station_id":"KRI","is_transit":false,"distance":3097,"time":3,"station_name":"Kranji","line":1,"i_lat":-6.224515,"transit":false},{"station_name":"Bekasi","line":0,"distance":2520,"time":4,"station_id":"BKS","is_transit":false,"i_long":106.997013,"i_lat":-6.236616,"transit":false},{"is_transit":false,"transit":false,"station_name":"Bekasi Timur","distance":2368,"i_long":107.016735,"time":2,"station_id":"BKST","i_lat":-6.248029,"line":0},{"station_name":"Tambun","transit":false,"i_long":107.055722,"station_id":"TB","is_transit":false,"i_lat":-6.258864,"line":1,"distance":4460,"time":7},{"time":3,"transit":false,"distance":3420,"i_lat":-6.261877,"i_long":107.083084,"line":0,"is_transit":false,"station_name":"Cibitung","station_id":"CIT"},{"line":1,"transit":false,"time":2,"station_name":"Metland Telaga Murni","i_lat":-6.262938,"station_id":"TLM","is_transit":false,"distance":2800,"i_long":107.093313},{"station_name":"Cikarang","transit":false,"i_long":107.144613,"i_lat":-6.2553149999999995,"distance":3689,"is_transit":false,"time":4,"station_id":"CKR","line":0}],[{"is_transit":false,"station_name":"Maja","transit":false,"distance":0,"line":6,"i_long":106.394373,"i_lat":-6.332307,"time":0,"station_id":"MJ"},{"station_name":"Cikoya","station_id":"CKY","is_transit":false,"i_long":106.411216,"line":0,"distance":1853,"time":4,"transit":false,"i_lat":-6.33561},{"i_long":106.425991,"distance":2651,"transit":false,"time":3,"station_id":"TGS","is_transit":false,"station_name":"Tigaraksa","line":6,"i_lat":-6.328533},{"is_transit":false,"i_long":106.460812,"transit":false,"line":6,"distance":2974,"time":5,"station_name":"Tenjo","station_id":"TEJ","i_lat":-6.327251},{"i_lat":-6.338021,"station_name":"Daru","transit":false,"is_transit":false,"i_long":106.491338,"distance":3902,"station_id":"DAR","time":5,"line":0},{"i_lat":-6.354349,"i_long":106.508482,"distance":2675,"station_name":"Cilejit","is_transit":false,"line":0,"transit":false,"station_id":"CJT","time":6},{"is_transit":false,"distance":7025,"i_long":106.568863,"station_name":"Parung Panjang","transit":false,"i_lat":-6.3441410000000005,"time":9,"station_id":"PRP","line":6},{"station_name":"Cicayur","station_id":"CC","distance":5968,"transit":false,"time":8,"is_transit":false,"i_long":106.617853,"i_lat":-6.329547,"line":0},{"station_name":"Cisauk","i_long":106.640411,"transit":false,"distance":2519,"line":0,"station_id":"CSK","i_lat":-6.32484,"time":4,"is_transit":false},{"i_lat":-6.319871,"distance":1784,"transit":false,"station_id":"SRP","station_name":"Serpong","line":6,"is_transit":false,"time":4,"i_long":106.66566},{"station_name":"Rawa Buntu","i_long":106.675475,"line":6,"i_lat":-6.314823,"station_id":"RU","time":4,"transit":false,"distance":2413,"is_transit":false},{"time":6,"i_long":106.712277,"station_name":"Sudimara","transit":false,"line":6,"is_transit":false,"station_id":"SDM","i_lat":-6.296963,"distance":4566},{"is_transit":false,"distance":1994,"line":6,"station_name":"Jurangmangu","station_id":"JMU","i_long":106.728916,"i_lat":-6.288927,"transit":false,"time":4},{"transit":false,"station_id":"PDJ","time":3,"line":6,"distance":2179,"is_transit":false,"station_name":"Pondokranji","i_lat":-6.276362,"i_long":106.74273},{"i_long":106.780334,"is_transit":false,"distance":6218,"time":8,"transit":false,"station_id":"KBY","i_lat":-6.237242,"line":6,"station_name":"Kebayoran"},{"station_id":"PLM","line":6,"is_transit":false,"station_name":"Palmerah","distance":3737,"transit":false,"i_lat":-6.207404,"i_long":106.79689,"time":7},{"line":1,"i_lat":-6.185545,"time":6,"station_id":"THB","station_name":"Tanah Abang","i_long":106.811091,"distance":3191,"transit":true,"is_transit":true},{"distance":3632,"line":1,"station_id":"DU","station_name":"Duri","i_long":106.800832,"transit":true,"time":8,"is_transit":true,"i_lat":-6.155215},{"i_lat":-6.144674,"station_name":"Angke","i_long":106.79867,"time":4,"distance":1230,"station_id":"AK","line":0,"transit":false,"is_transit":false},{"line":0,"i_lat":-6.132549,"time":9,"distance":4102,"station_id":"KPB","is_transit":true,"i_long":106.826365,"transit":false,"station_name":"Kampung Bandan"},{"time":3,"transit":true,"is_transit":true,"station_name":"Jakarta Kota","station_id":"JAKK","distance":1364,"i_lat":-6.137569,"line":0,"i_long":106.812439},{"i_long":106.820901,"line":7,"distance":1264,"transit":false,"time":4,"is_transit":false,"station_id":"JAY","i_lat":-6.141205,"station_name":"Jayakarta"},{"i_lat":-6.149769,"line":2,"is_transit":false,"station_id":"MGB","distance":1080,"transit":false,"station_name":"Manggabesar","i_long":106.82482,"time":2},{"i_lat":-6.160725,"is_transit":false,"i_long":106.827103,"line":2,"time":2,"transit":false,"distance":906,"station_name":"Sawah Besar","station_id":"SW"},{"line":2,"is_transit":false,"station_name":"Juanda","time":2,"i_lat":-6.166716,"distance":1149,"i_long":106.828284,"transit":false,"station_id":"JUA"},{"station_name":"Gondangdia","transit":false,"station_id":"GDD","i_lat":-6.186295,"distance":2015,"line":2,"is_transit":false,"i_long":106.832183,"time":4},{"is_transit":false,"i_long":106.840169,"station_id":"CKI","time":3,"i_lat":-6.198556,"transit":false,"line":0,"distance":1750,"station_name":"Cikini"},{"i_lat":-6.209883,"is_transit":true,"i_long":106.84912,"station_name":"Manggarai","time":4,"station_id":"MRI","distance":1590,"transit":true,"line":0},{"i_long":106.858896,"station_name":"Matraman","is_transit":false,"line":1,"station_id":"MTR","transit":false,"i_lat":-6.212485,"distance":1275,"time":2},{"station_name":"Jatinegara","is_transit":true,"time":8,"i_lat":-6.215091,"station_id":"JNG","distance":1377,"i_long":106.86807400000001,"transit":false,"line":0},{"line":1,"is_transit":false,"time":3,"distance":3395,"transit":false,"i_lat":-6.2135,"station_id":"KLD","station_name":"Klender","i_long":106.899548},{"station_id":"BUA","time":2,"station_name":"Buaran","i_lat":-6.215568,"i_long":106.922662,"is_transit":false,"distance":3100,"transit":false,"line":0},{"distance":1305,"time":1,"station_name":"Klenderbaru","i_long":106.939679,"is_transit":false,"transit":false,"station_id":"KLDB","line":1,"i_lat":-6.217455},{"line":0,"i_long":106.951283,"time":8,"is_transit":false,"station_id":"CUK","i_lat":-6.219053,"distance":1385,"station_name":"Cakung","transit":false},{"transit":false,"station_id":"KRI","station_name":"Kranji","is_transit":false,"time":3,"distance":3097,"i_long":106.977657,"line":1,"i_lat":-6.224515},{"is_transit":false,"station_id":"BKS","distance":2520,"line":0,"i_lat":-6.236616,"i_long":106.997013,"time":4,"transit":false,"station_name":"Bekasi"},{"i_lat":-6.248029,"station_id":"BKST","station_name":"Bekasi Timur","transit":false,"is_transit":false,"line":0,"time":2,"distance":2368,"i_long":107.016735},{"station_name":"Tambun","i_long":107.055722,"i_lat":-6.258864,"station_id":"TB","time":7,"line":1,"is_transit":false,"distance":4460,"transit":false},{"transit":false,"station_name":"Cibitung","time":3,"i_long":107.083084,"station_id":"CIT","is_transit":false,"line":0,"i_lat":-6.261877,"distance":3420},{"is_transit":false,"i_lat":-6.262938,"transit":false,"station_id":"TLM","time":2,"i_long":107.093313,"line":1,"station_name":"Metland Telaga Murni","distance":2800},{"station_name":"Cikarang","transit":false,"i_lat":-6.2553149999999995,"time":4,"is_transit":false,"distance":3689,"line":0,"i_long":107.144613,"station_id":"CKR"}],[{"line":6,"i_long":106.394373,"station_name":"Maja","distance":0,"is_transit":false,"station_id":"MJ","i_lat":-6.332307,"transit":false,"time":0},{"distance":1853,"station_name":"Cikoya","i_long":106.411216,"time":4,"transit":false,"station_id":"CKY","is_transit":false,"i_lat":-6.33561,"line":0},{"station_id":"TGS","line":6,"distance":2651,"time":3,"i_long":106.425991,"transit":false,"station_name":"Tigaraksa","is_transit":false,"i_lat":-6.328533},{"distance":2974,"station_id":"TEJ","station_name":"Tenjo","line":6,"i_lat":-6.327251,"is_transit":false,"time":5,"i_long":106.460812,"transit":false},{"station_name":"Daru","line":0,"distance":3902,"transit":false,"i_lat":-6.338021,"is_transit":false,"i_long":106.491338,"station_id":"DAR","time":5},{"station_id":"CJT","time":6,"transit":false,"distance":2675,"station_name":"Cilejit","is_transit":false,"i_long":106.508482,"i_lat":-6.354349,"line":0},{"line":6,"station_name":"Parung Panjang","distance":7025,"station_id":"PRP","time":9,"is_transit":false,"i_long":106.568863,"i_lat":-6.3441410000000005,"transit":false},{"is_transit":false,"i_long":106.617853,"time":8,"station_id":"CC","i_lat":-6.329547,"station_name":"Cicayur","transit":false,"line":0,"distance":5968},{"station_id":"CSK","time":4,"transit":false,"station_name":"Cisauk","i_lat":-6.32484,"i_long":106.640411,"line":0,"is_transit":false,"distance":2519},{"i_lat":-6.319871,"is_transit":false,"line":6,"distance":1784,"transit":false,"station_id":"SRP","time":4,"i_long":106.66566,"station_name":"Serpong"},{"i_lat":-6.314823,"station_id":"RU","i_long":106.675475,"transit":false,"distance":2413,"is_transit":false,"line":6,"station_name":"Rawa Buntu","time":4},{"distance":4566,"is_transit":false,"i_long":106.712277,"time":6,"transit":false,"i_lat":-6.296963,"station_id":"SDM","line":6,"station_name":"Sudimara"},{"station_id":"JMU","time":4,"is_transit":false,"line":6,"i_long":106.728916,"station_name":"Jurangmangu","distance":1994,"i_lat":-6.288927,"transit":false},{"is_transit":false,"line":6,"distance":2179,"time":3,"station_name":"Pondokranji","station_id":"PDJ","i_lat":-6.276362,"i_long":106.74273,"transit":false},{"line":6,"transit":false,"station_id":"KBY","time":8,"is_transit":false,"i_long":106.780334,"distance":6218,"i_lat":-6.237242,"station_name":"Kebayoran"},{"is_transit":false,"i_lat":-6.207404,"i_long":106.79689,"distance":3737,"time":7,"line":6,"station_id":"PLM","transit":false,"station_name":"Palmerah"},{"is_transit":true,"distance":3191,"time":6,"i_long":106.811091,"station_name":"Tanah Abang","transit":true,"i_lat":-6.185545,"line":1,"station_id":"THB"},{"i_long":106.816351,"transit":false,"station_id":"KAT","time":5,"station_name":"Karet","line":1,"is_transit":false,"distance":2029,"i_lat":-6.20132},{"transit":false,"distance":471,"is_transit":false,"i_lat":-6.201433,"i_long":106.819881,"station_id":"SUDB","time":1,"station_name":"Sudirman Baru","line":1},{"i_long":106.822649,"i_lat":-6.202263,"distance":280,"station_id":"SUD","time":1,"line":1,"station_name":"Sudirman","is_transit":false,"transit":false},{"distance":3186,"station_name":"Manggarai","i_long":106.84912,"is_transit":true,"time":4,"station_id":"MRI","transit":true,"i_lat":-6.209883,"line":0},{"i_long":106.840169,"station_id":"CKI","i_lat":-6.198556,"station_name":"Cikini","transit":false,"distance":1590,"time":4,"is_transit":false,"line":0},{"is_transit":false,"distance":1750,"time":3,"transit":false,"station_name":"Gondangdia","i_long":106.832183,"line":2,"i_lat":-6.186295,"station_id":"GDD"},{"station_name":"Juanda","transit":false,"i_lat":-6.166716,"i_long":106.828284,"is_transit":false,"time":4,"station_id":"JUA","line":2,"distance":2015},{"station_id":"SW","is_transit":false,"line":2,"i_long":106.827103,"transit":false,"time":2,"station_name":"Sawah Besar","i_lat":-6.160725,"distance":1149},{"i_long":106.82482,"time":2,"is_transit":false,"station_name":"Manggabesar","i_lat":-6.149769,"line":2,"transit":false,"station_id":"MGB","distance":906},{"i_lat":-6.141205,"transit":false,"distance":1080,"time":2,"line":7,"station_name":"Jayakarta","i_long":106.820901,"station_id":"JAY","is_transit":false},{"is_transit":true,"i_long":106.812439,"station_name":"Jakarta Kota","distance":1264,"transit":true,"i_lat":-6.137569,"station_id":"JAKK","time":4,"line":0},{"station_id":"KPB","distance":1364,"transit":true,"i_long":106.826365,"time":3,"i_lat":-6.132549,"is_transit":true,"station_name":"Kampung Bandan","line":0},{"transit":false,"i_long":106.836569,"distance":1444,"station_id":"RJW","line":11,"is_transit":false,"time":3,"station_name":"Rajawali","i_lat":-6.14505},{"distance":1901,"transit":false,"station_name":"Kemayoran","is_transit":false,"i_long":106.839204,"station_id":"KMO","i_lat":-6.161728,"time":5,"line":11},{"is_transit":false,"transit":false,"time":4,"station_id":"PSE","i_long":106.84368,"i_lat":-6.174784,"distance":1436,"station_name":"Pasar Senen","line":11},{"station_name":"Gang Sentiong","time":8,"i_lat":-6.185975,"station_id":"GST","i_long":106.850107,"line":11,"distance":1567,"transit":false,"is_transit":false},{"time":1,"transit":false,"station_name":"Kramat","i_long":106.855437,"station_id":"KMT","is_transit":false,"i_lat":-6.193792,"line":11,"distance":973},{"station_name":"Pondok Jati","distance":1829,"is_transit":false,"station_id":"POK","time":2,"transit":false,"i_long":106.861737,"i_lat":-6.209188,"line":11},{"station_name":"Jatinegara","station_id":"JNG","time":9,"is_transit":true,"i_lat":-6.215091,"line":0,"i_long":106.86807400000001,"transit":true,"distance":1236},{"i_lat":-6.2135,"is_transit":false,"i_long":106.899548,"transit":false,"distance":3395,"time":3,"station_name":"Klender","line":1,"station_id":"KLD"},{"line":0,"distance":3100,"station_id":"BUA","is_transit":false,"transit":false,"i_long":106.922662,"time":2,"station_name":"Buaran","i_lat":-6.215568},{"distance":1305,"transit":false,"station_id":"KLDB","time":1,"i_long":106.939679,"station_name":"Klenderbaru","is_transit":false,"i_lat":-6.217455,"line":1},{"distance":1385,"time":8,"is_transit":false,"station_id":"CUK","i_long":106.951283,"transit":false,"station_name":"Cakung","line":0,"i_lat":-6.219053},{"line":1,"distance":3097,"is_transit":false,"station_id":"KRI","station_name":"Kranji","i_long":106.977657,"transit":false,"i_lat":-6.224515,"time":3},{"line":0,"distance":2520,"transit":false,"station_name":"Bekasi","station_id":"BKS","is_transit":false,"i_long":106.997013,"time":4,"i_lat":-6.236616},{"station_name":"Bekasi Timur","station_id":"BKST","time":2,"transit":false,"i_lat":-6.248029,"distance":2368,"is_transit":false,"line":0,"i_long":107.016735},{"line":1,"transit":false,"i_lat":-6.258864,"time":7,"station_id":"TB","is_transit":false,"distance":4460,"station_name":"Tambun","i_long":107.055722},{"line":0,"station_name":"Cibitung","i_lat":-6.261877,"distance":3420,"transit":false,"i_long":107.083084,"station_id":"CIT","time":3,"is_transit":false},{"line":1,"time":2,"i_lat":-6.262938,"transit":false,"station_name":"Metland Telaga Murni","distance":2800,"is_transit":false,"station_id":"TLM","i_long":107.093313},{"station_id":"CKR","is_transit":false,"i_long":107.144613,"transit":false,"time":4,"i_lat":-6.2553149999999995,"line":0,"distance":3689,"station_name":"Cikarang"}]]}