{"data":[[{"station_id":"MJ","i_lat":-6.332307,"time":0,"transit":false,"station_name":"Maja","line":6,"distance":0,"is_transit":false,"i_long":106.394373},{"distance":1853,"transit":false,"time":4,"is_transit":false,"line":3,"station_name":"Cikoya","station_id":"CKY","i_lat":-6.33561,"i_long":106.411216},{"line":6,"time":3,"station_id":"TGS","distance":2651,"station_name":"Tigaraksa","is_transit":false,"i_long":106.425991,"i_lat":-6.328533,"transit":false},{"station_id":"TEJ","i_long":106.460812,"line":6,"time":5,"station_name":"Tenjo","transit":false,"distance":2974,"i_lat":-6.327251,"is_transit":false},{"transit":false,"time":5,"line":0,"is_transit":false,"station_id":"DAR","distance":3902,"i_long":106.491338,"station_name":"Daru","i_lat":-6.338021},{"is_transit":false,"distance":2675,"i_long":106.508482,"time":6,"station_name":"Cilejit","transit":false,"i_lat":-6.354349,"line":3,"station_id":"CJT"},{"i_long":106.568863,"line":6,"station_name":"Parung Panjang","distance":7025,"is_transit":false,"i_lat":-6.3441410000000005,"time":9,"station_id":"PRP","transit":false},{"distance":5968,"i_lat":-6.329547,"station_name":"Cicayur","is_transit":false,"time":8,"station_id":"CC","transit":false,"i_long":106.617853,"line":3}]]}