{"data":[[{"line":6,"station_name":"Maja","transit":false,"i_long":106.394373,"station_id":"MJ","is_transit":false,"time":0,"distance":0,"i_lat":-6.332307},{"is_transit":false,"line":3,"station_name":"Cikoya","i_long":106.411216,"transit":false,"distance":1853,"time":4,"i_lat":-6.33561,"station_id":"CKY"},{"i_lat":-6.328533,"time":3,"line":6,"transit":false,"station_id":"TGS","is_transit":false,"distance":2651,"i_long":106.425991,"station_name":"Tigaraksa"},{"station_name":"Tenjo","i_lat":-6.327251,"line":6,"distance":2974,"station_id":"TEJ","is_transit":false,"time":5,"transit":false,"i_long":106.460812},{"transit":false,"station_id":"DAR","distance":3902,"line":0,"time":5,"is_transit":false,"i_lat":-6.338021,"i_long":106.491338,"station_name":"Daru"},{"i_long":106.508482,"station_name":"Cilejit","station_id":"CJT","time":6,"transit":false,"distance":2675,"is_transit":false,"i_lat":-6.354349,"line":3},{"i_lat":-6.3441410000000005,"distance":7025,"station_name":"Parung Panjang","time":9,"is_transit":false,"transit":false,"station_id":"PRP","i_long":106.568863,"line":6},{"station_name":"Cicayur","station_id":"CC","distance":5968,"i_long":106.617853,"i_lat":-6.329547,"transit":false,"is_transit":false,"time":8,"line":3},{"station_id":"CSK","station_name":"Cisauk","is_transit":false,"distance":2519,"time":4,"i_lat":-6.32484,"i_long":106.640411,"line":3,"transit":false},{"is_transit":false,"distance":1784,"station_id":"SRP","i_lat":-6.319871,"line":6,"transit":false,"station_name":"Serpong","time":4,"i_long":106.66566},{"i_long":106.675475,"line":6,"station_name":"Rawa Buntu","transit":false,"time":4,"distance":2413,"i_lat":-6.314823,"station_id":"RU","is_transit":false},{"i_long":106.712277,"distance":4566,"is_transit":false,"i_lat":-6.296963,"line":6,"time":6,"transit":false,"station_id":"SDM","station_name":"Sudimara"},{"i_lat":-6.288927,"station_id":"JMU","is_transit":false,"time":4,"distance":1994,"i_long":106.728916,"line":6,"station_name":"Jurangmangu","transit":false},{"time":3,"transit":false,"station_name":"Pondokranji","distance":2179,"i_lat":-6.276362,"station_id":"PDJ","i_long":106.74273,"line":6,"is_transit":false},{"station_name":"Kebayoran","i_long":106.780334,"transit":false,"i_lat":-6.237242,"time":8,"distance":6218,"line":6,"station_id":"KBY","is_transit":false},{"is_transit":false,"distance":3737,"time":7,"transit":false,"station_id":"PLM","i_lat":-6.207404,"station_name":"Palmerah","i_long":106.79689,"line":6},{"transit":true,"station_id":"THB","is_transit":true,"station_name":"Tanah Abang","i_lat":-6.185545,"line":1,"time":6,"i_long":106.811091,"distance":3191},{"transit":false,"i_long":106.816351,"station_id":"KAT","is_transit":false,"distance":2029,"station_name":"Karet","time":5,"i_lat":-6.20132,"line":1},{"line":1,"is_transit":false,"time":1,"station_name":"Sudirman Baru","distance":471,"transit":false,"i_lat":-6.201433,"station_id":"SUDB","i_long":106.819881},{"time":1,"station_id":"SUD","distance":280,"i_long":106.822649,"line":1,"station_name":"Sudirman","transit":false,"i_lat":-6.202263,"is_transit":false},{"station_name":"Manggarai","i_lat":-6.209883,"i_long":106.84912,"is_transit":true,"station_id":"MRI","line":2,"transit":true,"distance":3186,"time":4},{"time":4,"i_long":106.857948,"line":2,"station_name":"Tebet","transit":false,"i_lat":-6.226659,"station_id":"TEB","distance":2610,"is_transit":false},{"is_transit":false,"line":2,"i_lat":-6.242512,"time":2,"transit":false,"i_long":106.856607,"station_name":"Cawang","distance":1230,"station_id":"CW"},{"station_id":"DRN","station_name":"Duren Kalibata","time":3,"transit":false,"is_transit":false,"distance":1546,"i_lat":-6.255332,"line":2,"i_long":106.85449},{"station_name":"Pasar Minggu Baru","time":2,"i_lat":-6.263214,"i_long":106.851577,"station_id":"PSMB","is_transit":false,"distance":824,"transit":false,"line":2},{"transit":false,"station_name":"Pasar Minggu","line":2,"distance":2380,"station_id":"PSM","i_long":106.843999,"is_transit":false,"i_lat":-6.2842400000000005,"time":2},{"time":4,"distance":2820,"i_lat":-6.3080680000000005,"i_long":106.838896,"station_name":"Tanjung Barat","station_id":"TNT","transit":false,"line":2,"is_transit":false},{"distance":2671,"station_id":"LNA","transit":false,"station_name":"Lenteng Agung","is_transit":false,"time":3,"i_lat":-6.330363,"i_long":106.832616,"line":2},{"is_transit":false,"line":2,"station_id":"UP","time":2,"i_long":106.834175,"distance":1029,"i_lat":-6.339291,"transit":false,"station_name":"Univ. Pancasila"},{"line":2,"i_long":106.831474,"is_transit":false,"i_lat":-6.360749,"time":3,"transit":false,"distance":2264,"station_id":"UI","station_name":"Univ. Indonesia"},{"distance":1109,"transit":false,"time":2,"station_id":"POC","i_lat":-6.369073,"line":2,"is_transit":false,"i_long":106.831114,"station_name":"Pondok Cina"},{"line":2,"is_transit":false,"transit":false,"time":4,"i_long":106.819451,"station_name":"Depokbaru","i_lat":-6.391065,"station_id":"DPB","distance":2727},{"line":2,"station_name":"Depok","transit":false,"is_transit":false,"time":3,"distance":1584,"station_id":"DP","i_lat":-6.405256,"i_long":106.816926},{"time":6,"i_long":106.800298,"i_lat":-6.448811,"transit":false,"is_transit":false,"line":2,"distance":5084,"station_name":"Citayam","station_id":"CTA"}],[{"station_id":"MJ","line":6,"station_name":"Maja","time":0,"is_transit":false,"i_lat":-6.332307,"distance":0,"i_long":106.394373,"transit":false},{"distance":1853,"is_transit":false,"transit":false,"station_id":"CKY","i_lat":-6.33561,"station_name":"Cikoya","line":3,"time":4,"i_long":106.411216},{"time":3,"i_long":106.425991,"transit":false,"station_id":"TGS","station_name":"Tigaraksa","is_transit":false,"distance":2651,"line":6,"i_lat":-6.328533},{"line":6,"distance":2974,"station_name":"Tenjo","time":5,"station_id":"TEJ","transit":false,"is_transit":false,"i_long":106.460812,"i_lat":-6.327251},{"transit":false,"station_id":"DAR","is_transit":false,"line":0,"i_long":106.491338,"time":5,"i_lat":-6.338021,"station_name":"Daru","distance":3902},{"line":3,"i_long":106.508482,"station_id":"CJT","is_transit":false,"distance":2675,"i_lat":-6.354349,"transit":false,"station_name":"Cilejit","time":6},{"station_name":"Parung Panjang","is_transit":false,"time":9,"distance":7025,"station_id":"PRP","transit":false,"line":6,"i_long":106.568863,"i_lat":-6.3441410000000005},{"i_long":106.617853,"station_name":"Cicayur","is_transit":false,"station_id":"CC","time":8,"line":3,"distance":5968,"i_lat":-6.329547,"transit":false},{"line":3,"is_transit":false,"i_long":106.640411,"transit":false,"station_id":"CSK","station_name":"Cisauk","i_lat":-6.32484,"time":4,"distance":2519},{"station_id":"SRP","line":6,"time":4,"station_name":"Serpong","distance":1784,"i_lat":-6.319871,"transit":false,"i_long":106.66566,"is_transit":false},{"time":4,"transit":false,"line":6,"station_name":"Rawa Buntu","i_long":106.675475,"i_lat":-6.314823,"station_id":"RU","distance":2413,"is_transit":false},{"is_transit":false,"distance":4566,"transit":false,"line":6,"i_long":106.712277,"station_id":"SDM","station_name":"Sudimara","i_lat":-6.296963,"time":6},{"line":6,"station_id":"JMU","distance":1994,"transit":false,"station_name":"Jurangmangu","i_lat":-6.288927,"is_transit":false,"time":4,"i_long":106.728916},{"i_long":106.74273,"station_name":"Pondokranji","transit":false,"i_lat":-6.276362,"distance":2179,"time":3,"station_id":"PDJ","is_transit":false,"line":6},{"i_long":106.780334,"i_lat":-6.237242,"transit":false,"station_name":"Kebayoran","time":8,"line":6,"is_transit":false,"distance":6218,"station_id":"KBY"},{"line":6,"station_name":"Palmerah","distance":3737,"time":7,"station_id":"PLM","i_lat":-6.207404,"is_transit":false,"i_long":106.79689,"transit":false},{"transit":true,"time":6,"i_lat":-6.185545,"i_long":106.811091,"is_transit":true,"line":1,"distance":3191,"station_name":"Tanah Abang","station_id":"THB"},{"transit":false,"i_long":106.800832,"distance":3632,"line":1,"station_name":"Duri","station_id":"DU","is_transit":false,"time":8,"i_lat":-6.155215},{"time":4,"i_long":106.79867,"transit":false,"line":1,"distance":1230,"station_id":"AK","i_lat":-6.144674,"station_name":"Angke","is_transit":false},{"transit":true,"distance":4102,"i_lat":-6.132549,"line":4,"station_name":"Kampung Bandan","time":9,"is_transit":true,"station_id":"KPB","i_long":106.826365},{"station_name":"Jakarta Kota","time":3,"station_id":"JAKK","distance":1364,"is_transit":true,"i_lat":-6.137569,"i_long":106.812439,"transit":true,"line":2},{"is_transit":false,"i_long":106.820901,"station_id":"JAY","time":4,"station_name":"Jayakarta","transit":false,"distance":1264,"line":2,"i_lat":-6.141205},{"time":2,"transit":false,"distance":1080,"i_lat":-6.149769,"line":2,"station_id":"MGB","i_long":106.82482,"station_name":"Manggabesar","is_transit":false},{"i_long":106.827103,"transit":false,"station_name":"Sawah Besar","time":2,"distance":906,"line":2,"i_lat":-6.160725,"station_id":"SW","is_transit":false},{"transit":false,"station_id":"JUA","distance":1149,"i_lat":-6.166716,"i_long":106.828284,"station_name":"Juanda","line":2,"is_transit":false,"time":2},{"time":4,"i_lat":-6.186295,"transit":false,"distance":2015,"station_name":"Gondangdia","is_transit":false,"station_id":"GDD","i_long":106.832183,"line":2},{"line":2,"i_long":106.840169,"station_id":"CKI","time":3,"station_name":"Cikini","distance":1750,"i_lat":-6.198556,"is_transit":false,"transit":false},{"station_id":"MRI","line":2,"station_name":"Manggarai","is_transit":false,"transit":false,"time":4,"distance":1590,"i_lat":-6.209883,"i_long":106.84912},{"time":4,"station_id":"TEB","line":2,"station_name":"Tebet","transit":false,"is_transit":false,"i_lat":-6.226659,"i_long":106.857948,"distance":2610},{"distance":1230,"line":2,"station_name":"Cawang","time":2,"is_transit":false,"i_lat":-6.242512,"station_id":"CW","transit":false,"i_long":106.856607},{"transit":false,"station_id":"DRN","is_transit":false,"i_lat":-6.255332,"distance":1546,"i_long":106.85449,"station_name":"Duren Kalibata","time":3,"line":2},{"transit":false,"distance":824,"i_lat":-6.263214,"i_long":106.851577,"station_name":"Pasar Minggu Baru","is_transit":false,"station_id":"PSMB","time":2,"line":2},{"station_id":"PSM","i_long":106.843999,"is_transit":false,"line":2,"i_lat":-6.2842400000000005,"time":2,"distance":2380,"transit":false,"station_name":"Pasar Minggu"},{"station_name":"Tanjung Barat","i_lat":-6.3080680000000005,"station_id":"TNT","time":4,"is_transit":false,"distance":2820,"transit":false,"line":2,"i_long":106.838896},{"station_id":"LNA","i_lat":-6.330363,"time":3,"line":2,"transit":false,"is_transit":false,"distance":2671,"station_name":"Lenteng Agung","i_long":106.832616},{"station_id":"UP","i_lat":-6.339291,"station_name":"Univ. Pancasila","is_transit":false,"line":2,"time":2,"distance":1029,"transit":false,"i_long":106.834175},{"is_transit":false,"i_long":106.831474,"time":3,"station_id":"UI","i_lat":-6.360749,"transit":false,"station_name":"Univ. Indonesia","distance":2264,"line":2},{"i_lat":-6.369073,"station_name":"Pondok Cina","transit":false,"station_id":"POC","time":2,"i_long":106.831114,"line":2,"is_transit":false,"distance":1109},{"time":4,"line":2,"station_id":"DPB","is_transit":false,"distance":2727,"transit":false,"i_long":106.819451,"i_lat":-6.391065,"station_name":"Depokbaru"},{"is_transit":false,"i_lat":-6.405256,"station_id":"DP","line":2,"i_long":106.816926,"distance":1584,"time":3,"station_name":"Depok","transit":false},{"is_transit":false,"distance":5084,"time":6,"i_long":106.800298,"transit":false,"station_id":"CTA","station_name":"Citayam","i_lat":-6.448811,"line":2}],[{"transit":false,"i_lat":-6.332307,"time":0,"i_long":106.394373,"station_id":"MJ","distance":0,"line":6,"station_name":"Maja","is_transit":false},{"station_id":"CKY","station_name":"Cikoya","distance":1853,"transit":false,"is_transit":false,"i_long":106.411216,"line":3,"i_lat":-6.33561,"time":4},{"i_long":106.425991,"is_transit":false,"station_id":"TGS","station_name":"Tigaraksa","distance":2651,"i_lat":-6.328533,"line":6,"transit":false,"time":3},{"i_long":106.460812,"is_transit":false,"distance":2974,"station_name":"Tenjo","station_id":"TEJ","line":6,"time":5,"transit":false,"i_lat":-6.327251},{"station_id":"DAR","distance":3902,"is_transit":false,"station_name":"Daru","transit":false,"i_lat":-6.338021,"line":0,"i_long":106.491338,"time":5},{"transit":false,"i_lat":-6.354349,"line":3,"time":6,"distance":2675,"station_name":"Cilejit","station_id":"CJT","is_transit":false,"i_long":106.508482},{"i_long":106.568863,"is_transit":false,"station_name":"Parung Panjang","i_lat":-6.3441410000000005,"line":6,"station_id":"PRP","distance":7025,"transit":false,"time":9},{"line":3,"station_id":"CC","i_long":106.617853,"time":8,"is_transit":false,"distance":5968,"transit":false,"i_lat":-6.329547,"station_name":"Cicayur"},{"transit":false,"is_transit":false,"time":4,"distance":2519,"station_id":"CSK","i_long":106.640411,"line":3,"station_name":"Cisauk","i_lat":-6.32484},{"i_long":106.66566,"line":6,"i_lat":-6.319871,"transit":false,"is_transit":false,"time":4,"distance":1784,"station_id":"SRP","station_name":"Serpong"},{"i_long":106.675475,"is_transit":false,"station_name":"Rawa Buntu","station_id":"RU","transit":false,"time":4,"line":6,"distance":2413,"i_lat":-6.314823},{"time":6,"distance":4566,"is_transit":false,"i_long":106.712277,"station_id":"SDM","transit":false,"station_name":"Sudimara","line":6,"i_lat":-6.296963},{"station_name":"Jurangmangu","i_lat":-6.288927,"is_transit":false,"station_id":"JMU","time":4,"distance":1994,"i_long":106.728916,"line":6,"transit":false},{"transit":false,"time":3,"station_id":"PDJ","is_transit":false,"station_name":"Pondokranji","distance":2179,"i_lat":-6.276362,"i_long":106.74273,"line":6},{"station_id":"KBY","i_long":106.780334,"distance":6218,"i_lat":-6.237242,"line":6,"is_transit":false,"station_name":"Kebayoran","time":8,"transit":false},{"i_lat":-6.207404,"station_id":"PLM","station_name":"Palmerah","i_long":106.79689,"transit":false,"is_transit":false,"time":7,"distance":3737,"line":6},{"i_long":106.811091,"line":1,"i_lat":-6.185545,"is_transit":true,"distance":3191,"transit":true,"station_name":"Tanah Abang","time":6,"station_id":"THB"},{"time":8,"station_name":"Duri","i_lat":-6.155215,"i_long":106.800832,"line":1,"distance":3632,"station_id":"DU","is_transit":false,"transit":false},{"is_transit":false,"transit":false,"station_name":"Angke","time":4,"distance":1230,"i_lat":-6.144674,"line":1,"i_long":106.79867,"station_id":"AK"},{"is_transit":true,"i_lat":-6.132549,"station_name":"Kampung Bandan","station_id":"KPB","transit":true,"distance":4102,"time":9,"line":4,"i_long":106.826365},{"station_name":"Rajawali","station_id":"RJW","i_lat":-6.14505,"time":3,"i_long":106.836569,"line":11,"transit":false,"is_transit":false,"distance":1444},{"i_lat":-6.161728,"transit":false,"time":5,"line":11,"distance":1901,"station_name":"Kemayoran","station_id":"KMO","is_transit":false,"i_long":106.839204},{"line":11,"i_lat":-6.174784,"i_long":106.84368,"is_transit":false,"distance":1436,"station_id":"PSE","station_name":"Pasar Senen","time":4,"transit":false},{"time":8,"station_name":"Gang Sentiong","i_long":106.850107,"line":11,"transit":false,"i_lat":-6.185975,"station_id":"GST","distance":1567,"is_transit":false},{"i_lat":-6.193792,"station_id":"KMT","time":1,"transit":false,"is_transit":false,"i_long":106.855437,"station_name":"Kramat","line":11,"distance":973},{"station_name":"Pondok Jati","i_lat":-6.209188,"distance":1829,"line":11,"is_transit":false,"station_id":"POK","time":2,"transit":false,"i_long":106.861737},{"i_lat":-6.215091,"line":1,"time":9,"distance":1236,"i_long":106.86807400000001,"station_name":"Jatinegara","transit":true,"station_id":"JNG","is_transit":true},{"i_long":106.858896,"line":1,"is_transit":false,"transit":false,"i_lat":-6.212485,"time":2,"station_id":"MTR","distance":1377,"station_name":"Matraman"},{"i_lat":-6.209883,"i_long":106.84912,"transit":true,"station_name":"Manggarai","line":2,"distance":1275,"station_id":"MRI","is_transit":true,"time":2},{"transit":false,"station_name":"Tebet","station_id":"TEB","distance":2610,"time":4,"is_transit":false,"i_lat":-6.226659,"line":2,"i_long":106.857948},{"is_transit":false,"line":2,"station_id":"CW","i_long":106.856607,"transit":false,"station_name":"Cawang","time":2,"i_lat":-6.242512,"distance":1230},{"station_name":"Duren Kalibata","transit":false,"is_transit":false,"i_long":106.85449,"distance":1546,"time":3,"i_lat":-6.255332,"station_id":"DRN","line":2},{"station_name":"Pasar Minggu Baru","station_id":"PSMB","time":2,"distance":824,"transit":false,"is_transit":false,"i_lat":-6.263214,"line":2,"i_long":106.851577},{"i_long":106.843999,"distance":2380,"station_id":"PSM","time":2,"transit":false,"is_transit":false,"i_lat":-6.2842400000000005,"line":2,"station_name":"Pasar Minggu"},{"line":2,"is_transit":false,"station_name":"Tanjung Barat","station_id":"TNT","distance":2820,"transit":false,"i_long":106.838896,"i_lat":-6.3080680000000005,"time":4},{"station_id":"LNA","transit":false,"i_lat":-6.330363,"line":2,"i_long":106.832616,"distance":2671,"is_transit":false,"time":3,"station_name":"Lenteng Agung"},{"i_lat":-6.339291,"distance":1029,"transit":false,"station_id":"UP","line":2,"station_name":"Univ. Pancasila","is_transit":false,"i_long":106.834175,"time":2},{"station_name":"Univ. Indonesia","distance":2264,"is_transit":false,"transit":false,"i_long":106.831474,"line":2,"station_id":"UI","time":3,"i_lat":-6.360749},{"i_long":106.831114,"time":2,"line":2,"is_transit":false,"station_id":"POC","transit":false,"distance":1109,"station_name":"Pondok Cina","i_lat":-6.369073},{"station_name":"Depokbaru","time":4,"line":2,"transit":false,"is_transit":false,"distance":2727,"i_long":106.819451,"station_id":"DPB","i_lat":-6.391065},{"station_id":"DP","time":3,"transit":false,"i_long":106.816926,"is_transit":false,"i_lat":-6.405256,"station_name":"Depok","line":2,"distance":1584},{"station_name":"Citayam","transit":false,"is_transit":false,"time":6,"distance":5084,"station_id":"CTA","i_lat":-6.448811,"line":2,"i_long":106.800298}]]}