{"data":[[{"is_transit":false,"line":6,"time":0,"station_name":"Maja","i_lat":-6.332307,"transit":false,"i_long":106.394373,"distance":0,"station_id":"MJ"},{"time":4,"station_id":"CKY","transit":false,"is_transit":false,"station_name":"Cikoya","i_lat":-6.33561,"line":0,"distance":1853,"i_long":106.411216},{"station_id":"TGS","i_lat":-6.328533,"line":6,"time":3,"transit":false,"is_transit":false,"station_name":"Tigaraksa","distance":2651,"i_long":106.425991},{"distance":2974,"station_name":"Tenjo","station_id":"TEJ","time":5,"line":6,"i_lat":-6.327251,"is_transit":false,"i_long":106.460812,"transit":false},{"transit":false,"line":0,"i_long":106.491338,"station_name":"Daru","distance":3902,"time":5,"station_id":"DAR","is_transit":false,"i_lat":-6.338021},{"station_id":"CJT","station_name":"Cilejit","transit":false,"time":6,"is_transit":false,"i_lat":-6.354349,"distance":2675,"line":0,"i_long":106.508482},{"time":9,"i_long":106.568863,"distance":7025,"station_name":"Parung Panjang","i_lat":-6.3441410000000005,"transit":false,"line":6,"station_id":"PRP","is_transit":false},{"time":8,"line":0,"is_transit":false,"station_name":"Cicayur","distance":5968,"i_lat":-6.329547,"i_long":106.617853,"station_id":"CC","transit":false},{"line":0,"station_name":"Cisauk","time":4,"station_id":"CSK","i_lat":-6.32484,"transit":false,"is_transit":false,"distance":2519,"i_long":106.640411},{"station_id":"SRP","distance":1784,"time":4,"is_transit":false,"i_lat":-6.319871,"i_long":106.66566,"transit":false,"station_name":"Serpong","line":6},{"time":4,"distance":2413,"is_transit":false,"station_name":"Rawa Buntu","line":6,"station_id":"RU","i_lat":-6.314823,"transit":false,"i_long":106.675475},{"transit":false,"i_long":106.712277,"distance":4566,"is_transit":false,"line":6,"station_id":"SDM","i_lat":-6.296963,"time":6,"station_name":"Sudimara"},{"transit":false,"i_long":106.728916,"station_id":"JMU","i_lat":-6.288927,"distance":1994,"time":4,"line":6,"is_transit":false,"station_name":"Jurangmangu"},{"station_name":"Pondokranji","time":3,"station_id":"PDJ","line":6,"i_lat":-6.276362,"i_long":106.74273,"is_transit":false,"distance":2179,"transit":false},{"station_name":"Kebayoran","i_lat":-6.237242,"i_long":106.780334,"line":6,"station_id":"KBY","time":8,"transit":false,"is_transit":false,"distance":6218},{"i_long":106.79689,"line":6,"transit":false,"i_lat":-6.207404,"is_transit":false,"station_id":"PLM","station_name":"Palmerah","time":7,"distance":3737},{"distance":3191,"time":6,"station_id":"THB","i_long":106.811091,"line":1,"i_lat":-6.185545,"station_name":"Tanah Abang","is_transit":true,"transit":true},{"station_id":"KAT","station_name":"Karet","distance":2029,"i_long":106.816351,"time":5,"i_lat":-6.20132,"transit":false,"line":1,"is_transit":false},{"distance":471,"station_name":"Sudirman Baru","station_id":"SUDB","transit":false,"i_lat":-6.201433,"line":1,"time":1,"is_transit":false,"i_long":106.819881},{"station_name":"Sudirman","is_transit":false,"time":1,"i_lat":-6.202263,"i_long":106.822649,"station_id":"SUD","distance":280,"line":1,"transit":false},{"i_lat":-6.209883,"time":4,"is_transit":true,"station_id":"MRI","line":0,"distance":3186,"station_name":"Manggarai","transit":true,"i_long":106.84912},{"station_name":"Cikini","time":4,"line":0,"is_transit":false,"i_lat":-6.198556,"station_id":"CKI","distance":1590,"i_long":106.840169,"transit":false}],[{"line":6,"distance":0,"i_long":106.394373,"station_id":"MJ","time":0,"transit":false,"is_transit":false,"station_name":"Maja","i_lat":-6.332307},{"time":4,"is_transit":false,"line":0,"i_long":106.411216,"station_name":"Cikoya","i_lat":-6.33561,"distance":1853,"station_id":"CKY","transit":false},{"station_id":"TGS","distance":2651,"i_lat":-6.328533,"line":6,"is_transit":false,"time":3,"station_name":"Tigaraksa","i_long":106.425991,"transit":false},{"i_long":106.460812,"transit":false,"time":5,"is_transit":false,"i_lat":-6.327251,"line":6,"station_name":"Tenjo","distance":2974,"station_id":"TEJ"},{"i_lat":-6.338021,"i_long":106.491338,"line":0,"time":5,"is_transit":false,"station_name":"Daru","distance":3902,"station_id":"DAR","transit":false},{"time":6,"transit":false,"is_transit":false,"station_name":"Cilejit","line":0,"i_long":106.508482,"distance":2675,"i_lat":-6.354349,"station_id":"CJT"},{"station_id":"PRP","station_name":"Parung Panjang","i_long":106.568863,"transit":false,"is_transit":false,"distance":7025,"i_lat":-6.3441410000000005,"line":6,"time":9},{"transit":false,"is_transit":false,"line":0,"station_name":"Cicayur","time":8,"i_long":106.617853,"distance":5968,"i_lat":-6.329547,"station_id":"CC"},{"time":4,"is_transit":false,"distance":2519,"i_lat":-6.32484,"i_long":106.640411,"station_name":"Cisauk","transit":false,"line":0,"station_id":"CSK"},{"distance":1784,"station_id":"SRP","is_transit":false,"station_name":"Serpong","i_long":106.66566,"line":6,"i_lat":-6.319871,"transit":false,"time":4},{"station_id":"RU","time":4,"transit":false,"distance":2413,"i_long":106.675475,"line":6,"station_name":"Rawa Buntu","is_transit":false,"i_lat":-6.314823},{"transit":false,"station_name":"Sudimara","i_long":106.712277,"distance":4566,"is_transit":false,"line":6,"time":6,"i_lat":-6.296963,"station_id":"SDM"},{"i_lat":-6.288927,"line":6,"time":4,"distance":1994,"transit":false,"is_transit":false,"station_name":"Jurangmangu","station_id":"JMU","i_long":106.728916},{"i_lat":-6.276362,"station_id":"PDJ","time":3,"is_transit":false,"distance":2179,"i_long":106.74273,"line":6,"transit":false,"station_name":"Pondokranji"},{"time":8,"i_lat":-6.237242,"transit":false,"is_transit":false,"distance":6218,"line":6,"i_long":106.780334,"station_id":"KBY","station_name":"Kebayoran"},{"line":6,"distance":3737,"station_id":"PLM","i_lat":-6.207404,"i_long":106.79689,"transit":false,"is_transit":false,"station_name":"Palmerah","time":7},{"transit":true,"station_id":"THB","distance":3191,"is_transit":true,"station_name":"Tanah Abang","i_lat":-6.185545,"line":1,"i_long":106.811091,"time":6},{"transit":true,"i_long":106.800832,"is_transit":true,"time":8,"station_name":"Duri","line":1,"station_id":"DU","distance":3632,"i_lat":-6.155215},{"i_lat":-6.144674,"station_id":"AK","time":4,"station_name":"Angke","line":0,"distance":1230,"transit":false,"is_transit":false,"i_long":106.79867},{"transit":false,"is_transit":true,"station_name":"Kampung Bandan","station_id":"KPB","distance":4102,"i_long":106.826365,"i_lat":-6.132549,"time":9,"line":0},{"i_long":106.812439,"line":0,"transit":true,"station_name":"Jakarta Kota","is_transit":true,"distance":1364,"i_lat":-6.137569,"time":3,"station_id":"JAKK"},{"time":4,"is_transit":false,"i_lat":-6.141205,"i_long":106.820901,"transit":false,"station_name":"Jayakarta","distance":1264,"station_id":"JAY","line":7},{"transit":false,"is_transit":false,"time":2,"station_name":"Manggabesar","station_id":"MGB","i_lat":-6.149769,"i_long":106.82482,"distance":1080,"line":2},{"line":2,"transit":false,"station_name":"Sawah Besar","station_id":"SW","is_transit":false,"time":2,"i_lat":-6.160725,"distance":906,"i_long":106.827103},{"time":2,"i_lat":-6.166716,"station_name":"Juanda","is_transit":false,"station_id":"JUA","transit":false,"i_long":106.828284,"line":2,"distance":1149},{"is_transit":false,"i_long":106.832183,"line":2,"transit":false,"station_name":"Gondangdia","distance":2015,"time":4,"station_id":"GDD","i_lat":-6.186295},{"transit":false,"i_lat":-6.198556,"station_id":"CKI","is_transit":false,"line":0,"station_name":"Cikini","i_long":106.840169,"distance":1750,"time":3}],[{"distance":0,"line":6,"station_id":"MJ","time":0,"transit":false,"station_name":"Maja","i_lat":-6.332307,"is_transit":false,"i_long":106.394373},{"station_name":"Cikoya","line":0,"transit":false,"distance":1853,"is_transit":false,"i_lat":-6.33561,"i_long":106.411216,"station_id":"CKY","time":4},{"station_id":"TGS","line":6,"i_long":106.425991,"transit":false,"is_transit":false,"distance":2651,"time":3,"station_name":"Tigaraksa","i_lat":-6.328533},{"is_transit":false,"i_long":106.460812,"line":6,"i_lat":-6.327251,"transit":false,"station_name":"Tenjo","station_id":"TEJ","time":5,"distance":2974},{"distance":3902,"line":0,"i_long":106.491338,"transit":false,"i_lat":-6.338021,"station_id":"DAR","time":5,"is_transit":false,"station_name":"Daru"},{"distance":2675,"transit":false,"i_lat":-6.354349,"time":6,"is_transit":false,"i_long":106.508482,"station_id":"CJT","line":0,"station_name":"Cilejit"},{"i_long":106.568863,"station_id":"PRP","is_transit":false,"distance":7025,"station_name":"Parung Panjang","time":9,"line":6,"i_lat":-6.3441410000000005,"transit":false},{"distance":5968,"line":0,"time":8,"transit":false,"station_id":"CC","i_long":106.617853,"station_name":"Cicayur","is_transit":false,"i_lat":-6.329547},{"transit":false,"i_lat":-6.32484,"i_long":106.640411,"line":0,"time":4,"is_transit":false,"station_name":"Cisauk","station_id":"CSK","distance":2519},{"station_id":"SRP","i_lat":-6.319871,"transit":false,"distance":1784,"i_long":106.66566,"time":4,"station_name":"Serpong","is_transit":false,"line":6},{"time":4,"station_name":"Rawa Buntu","i_long":106.675475,"transit":false,"i_lat":-6.314823,"is_transit":false,"station_id":"RU","distance":2413,"line":6},{"i_long":106.712277,"line":6,"station_name":"Sudimara","is_transit":false,"i_lat":-6.296963,"station_id":"SDM","time":6,"transit":false,"distance":4566},{"is_transit":false,"transit":false,"station_id":"JMU","time":4,"distance":1994,"station_name":"Jurangmangu","i_long":106.728916,"line":6,"i_lat":-6.288927},{"i_lat":-6.276362,"i_long":106.74273,"line":6,"distance":2179,"station_id":"PDJ","is_transit":false,"time":3,"transit":false,"station_name":"Pondokranji"},{"time":8,"station_name":"Kebayoran","station_id":"KBY","transit":false,"is_transit":false,"i_long":106.780334,"line":6,"i_lat":-6.237242,"distance":6218},{"is_transit":false,"distance":3737,"i_lat":-6.207404,"i_long":106.79689,"station_name":"Palmerah","station_id":"PLM","transit":false,"time":7,"line":6},{"is_transit":true,"i_long":106.811091,"station_id":"THB","time":6,"distance":3191,"i_lat":-6.185545,"line":1,"station_name":"Tanah Abang","transit":true},{"distance":3632,"station_id":"DU","time":8,"is_transit":true,"station_name":"Duri","transit":true,"i_lat":-6.155215,"i_long":106.800832,"line":1},{"is_transit":false,"distance":1230,"station_name":"Angke","i_lat":-6.144674,"time":4,"station_id":"AK","transit":false,"i_long":106.79867,"line":0},{"is_transit":true,"distance":4102,"line":0,"i_lat":-6.132549,"time":9,"station_name":"Kampung Bandan","transit":true,"station_id":"KPB","i_long":106.826365},{"i_long":106.836569,"line":11,"station_id":"RJW","is_transit":false,"distance":1444,"station_name":"Rajawali","i_lat":-6.14505,"transit":false,"time":3},{"line":11,"time":5,"transit":false,"i_lat":-6.161728,"is_transit":false,"distance":1901,"station_name":"Kemayoran","station_id":"KMO","i_long":106.839204},{"line":11,"is_transit":false,"station_id":"PSE","distance":1436,"transit":false,"station_name":"Pasar Senen","i_long":106.84368,"i_lat":-6.174784,"time":4},{"line":11,"time":8,"distance":1567,"i_lat":-6.185975,"is_transit":false,"i_long":106.850107,"transit":false,"station_id":"GST","station_name":"Gang Sentiong"},{"i_long":106.855437,"is_transit":false,"i_lat":-6.193792,"station_id":"KMT","line":11,"distance":973,"station_name":"Kramat","time":1,"transit":false},{"is_transit":false,"time":2,"station_name":"Pondok Jati","i_lat":-6.209188,"transit":false,"i_long":106.861737,"line":11,"distance":1829,"station_id":"POK"},{"transit":true,"time":9,"station_name":"Jatinegara","i_lat":-6.215091,"i_long":106.86807400000001,"station_id":"JNG","line":0,"distance":1236,"is_transit":true},{"i_lat":-6.212485,"line":1,"i_long":106.858896,"time":2,"station_id":"MTR","is_transit":false,"distance":1377,"transit":false,"station_name":"Matraman"},{"time":2,"station_name":"Manggarai","transit":true,"station_id":"MRI","is_transit":true,"i_lat":-6.209883,"line":0,"distance":1275,"i_long":106.84912},{"time":4,"is_transit":false,"i_lat":-6.198556,"line":0,"i_long":106.840169,"station_name":"Cikini","station_id":"CKI","transit":false,"distance":1590}],[{"i_long":106.394373,"is_transit":false,"station_name":"Maja","transit":false,"line":6,"time":0,"station_id":"MJ","distance":0,"i_lat":-6.332307},{"time":4,"line":0,"station_id":"CKY","station_name":"Cikoya","transit":false,"distance":1853,"is_transit":false,"i_long":106.411216,"i_lat":-6.33561},{"i_lat":-6.328533,"distance":2651,"time":3,"is_transit":false,"line":6,"transit":false,"i_long":106.425991,"station_name":"Tigaraksa","station_id":"TGS"},{"i_long":106.460812,"station_id":"TEJ","is_transit":false,"transit":false,"time":5,"distance":2974,"station_name":"Tenjo","i_lat":-6.327251,"line":6},{"line":0,"transit":false,"station_name":"Daru","distance":3902,"is_transit":false,"i_long":106.491338,"i_lat":-6.338021,"station_id":"DAR","time":5},{"station_name":"Cilejit","line":0,"i_long":106.508482,"time":6,"i_lat":-6.354349,"station_id":"CJT","is_transit":false,"distance":2675,"transit":false},{"station_id":"PRP","is_transit":false,"transit":false,"distance":7025,"i_long":106.568863,"time":9,"station_name":"Parung Panjang","i_lat":-6.3441410000000005,"line":6},{"line":0,"i_lat":-6.329547,"time":8,"distance":5968,"station_id":"CC","station_name":"Cicayur","is_transit":false,"transit":false,"i_long":106.617853},{"transit":false,"distance":2519,"time":4,"i_lat":-6.32484,"is_transit":false,"line":0,"i_long":106.640411,"station_id":"CSK","station_name":"Cisauk"},{"station_id":"SRP","distance":1784,"line":6,"transit":false,"time":4,"is_transit":false,"i_lat":-6.319871,"i_long":106.66566,"station_name":"Serpong"},{"is_transit":false,"i_lat":-6.314823,"station_id":"RU","time":4,"distance":2413,"transit":false,"i_long":106.675475,"station_name":"Rawa Buntu","line":6},{"transit":false,"i_lat":-6.296963,"is_transit":false,"i_long":106.712277,"time":6,"station_name":"Sudimara","distance":4566,"line":6,"station_id":"SDM"},{"station_id":"JMU","transit":false,"i_lat":-6.288927,"station_name":"Jurangmangu","i_long":106.728916,"time":4,"is_transit":false,"distance":1994,"line":6},{"line":6,"distance":2179,"i_long":106.74273,"is_transit":false,"time":3,"transit":false,"i_lat":-6.276362,"station_name":"Pondokranji","station_id":"PDJ"},{"distance":6218,"transit":false,"station_id":"KBY","i_lat":-6.237242,"i_long":106.780334,"line":6,"time":8,"is_transit":false,"station_name":"Kebayoran"},{"is_transit":false,"i_lat":-6.207404,"transit":false,"station_name":"Palmerah","i_long":106.79689,"time":7,"station_id":"PLM","line":6,"distance":3737},{"station_id":"THB","distance":3191,"station_name":"Tanah Abang","transit":true,"i_long":106.811091,"i_lat":-6.185545,"time":6,"is_transit":true,"line":1},{"time":5,"is_transit":false,"line":1,"transit":false,"station_id":"KAT","station_name":"Karet","i_lat":-6.20132,"i_long":106.816351,"distance":2029},{"i_long":106.819881,"transit":false,"is_transit":false,"i_lat":-6.201433,"line":1,"station_id":"SUDB","time":1,"station_name":"Sudirman Baru","distance":471},{"i_lat":-6.202263,"is_transit":false,"station_id":"SUD","time":1,"line":1,"transit":false,"distance":280,"i_long":106.822649,"station_name":"Sudirman"},{"station_id":"MRI","is_transit":true,"i_long":106.84912,"time":4,"transit":false,"station_name":"Manggarai","line":0,"distance":3186,"i_lat":-6.209883},{"line":1,"time":2,"is_transit":false,"transit":false,"station_id":"MTR","distance":1275,"station_name":"Matraman","i_lat":-6.212485,"i_long":106.858896},{"station_id":"JNG","i_long":106.86807400000001,"transit":true,"line":0,"time":8,"i_lat":-6.215091,"distance":1377,"station_name":"Jatinegara","is_transit":true},{"time":2,"station_name":"Pondok Jati","transit":false,"is_transit":false,"i_lat":-6.209188,"distance":1236,"i_long":106.861737,"station_id":"POK","line":11},{"station_name":"Kramat","line":11,"is_transit":false,"transit":false,"distance":1829,"i_lat":-6.193792,"station_id":"KMT","time":2,"i_long":106.855437},{"i_long":106.850107,"station_name":"Gang Sentiong","i_lat":-6.185975,"line":11,"is_transit":false,"distance":973,"transit":false,"time":1,"station_id":"GST"},{"transit":false,"i_lat":-6.174784,"i_long":106.84368,"station_name":"Pasar Senen","line":11,"station_id":"PSE","is_transit":false,"time":8,"distance":1567},{"time":4,"i_lat":-6.161728,"station_name":"Kemayoran","line":11,"distance":1436,"transit":false,"is_transit":false,"station_id":"KMO","i_long":106.839204},{"time":5,"is_transit":false,"i_long":106.836569,"transit":false,"station_name":"Rajawali","distance":1901,"i_lat":-6.14505,"line":11,"station_id":"RJW"},{"line":0,"i_long":106.826365,"time":3,"is_transit":true,"station_id":"KPB","i_lat":-6.132549,"distance":1444,"station_name":"Kampung Bandan","transit":true},{"transit":true,"station_id":"JAKK","station_name":"Jakarta Kota","is_transit":true,"time":3,"distance":1364,"i_long":106.812439,"line":0,"i_lat":-6.137569},{"is_transit":false,"station_id":"JAY","distance":1264,"line":7,"i_lat":-6.141205,"i_long":106.820901,"time":4,"transit":false,"station_name":"Jayakarta"},{"i_lat":-6.149769,"station_id":"MGB","station_name":"Manggabesar","transit":false,"is_transit":false,"line":2,"time":2,"distance":1080,"i_long":106.82482},{"i_lat":-6.160725,"i_long":106.827103,"line":2,"station_id":"SW","time":2,"is_transit":false,"distance":906,"transit":false,"station_name":"Sawah Besar"},{"i_lat":-6.166716,"i_long":106.828284,"station_id":"JUA","line":2,"time":2,"is_transit":false,"station_name":"Juanda","transit":false,"distance":1149},{"station_id":"GDD","is_transit":false,"line":2,"i_lat":-6.186295,"i_long":106.832183,"time":4,"station_name":"Gondangdia","transit":false,"distance":2015},{"line":0,"station_id":"CKI","time":3,"distance":1750,"transit":false,"is_transit":false,"station_name":"Cikini","i_lat":-6.198556,"i_long":106.840169}]]}