{"data":[[{"distance":0,"time":0,"transit":false,"is_transit":false,"line":6,"i_lat":-6.332307,"i_long":106.394373,"station_id":"MJ","station_name":"Maja"},{"line":3,"is_transit":false,"distance":1853,"time":4,"i_lat":-6.33561,"transit":false,"station_name":"Cikoya","station_id":"CKY","i_long":106.411216},{"i_lat":-6.328533,"station_id":"TGS","distance":2651,"line":6,"i_long":106.425991,"transit":false,"station_name":"Tigaraksa","is_transit":false,"time":3},{"i_lat":-6.327251,"distance":2974,"station_name":"Tenjo","transit":false,"i_long":106.460812,"is_transit":false,"time":5,"station_id":"TEJ","line":6},{"station_name":"Daru","transit":false,"i_long":106.491338,"is_transit":false,"line":0,"station_id":"DAR","time":5,"distance":3902,"i_lat":-6.338021},{"is_transit":false,"transit":false,"station_id":"CJT","station_name":"Cilejit","distance":2675,"line":3,"i_lat":-6.354349,"time":6,"i_long":106.508482},{"line":6,"distance":7025,"is_transit":false,"time":9,"transit":false,"i_lat":-6.3441410000000005,"station_id":"PRP","station_name":"Parung Panjang","i_long":106.568863},{"i_lat":-6.329547,"transit":false,"is_transit":false,"i_long":106.617853,"station_name":"Cicayur","station_id":"CC","time":8,"distance":5968,"line":3}]]}