{"data":[[{"i_lat":-6.332307,"station_name":"Maja","station_id":"MJ","line":6,"time":0,"i_long":106.394373,"distance":0,"is_transit":false,"transit":false},{"is_transit":false,"time":4,"i_long":106.411216,"distance":1853,"line":0,"station_name":"Cikoya","station_id":"CKY","i_lat":-6.33561,"transit":false},{"line":6,"i_long":106.425991,"is_transit":false,"transit":false,"i_lat":-6.328533,"distance":2651,"station_name":"Tigaraksa","time":3,"station_id":"TGS"},{"transit":false,"time":5,"station_id":"TEJ","is_transit":false,"line":6,"distance":2974,"i_long":106.460812,"station_name":"Tenjo","i_lat":-6.327251},{"time":5,"station_name":"Daru","is_transit":false,"i_lat":-6.338021,"line":0,"transit":false,"station_id":"DAR","distance":3902,"i_long":106.491338},{"station_name":"Cilejit","station_id":"CJT","i_lat":-6.354349,"is_transit":false,"distance":2675,"transit":false,"time":6,"i_long":106.508482,"line":0},{"transit":false,"distance":7025,"time":9,"station_name":"Parung Panjang","i_lat":-6.3441410000000005,"i_long":106.568863,"station_id":"PRP","line":6,"is_transit":false},{"station_name":"Cicayur","i_lat":-6.329547,"is_transit":false,"line":0,"time":8,"station_id":"CC","transit":false,"distance":5968,"i_long":106.617853}]]}