{"data":[[{"time":0,"distance":0,"station_name":"Maja","is_transit":false,"transit":false,"i_lat":-6.332307,"i_long":106.394373,"line":6,"station_id":"MJ"},{"is_transit":false,"time":4,"station_id":"CKY","transit":false,"station_name":"Cikoya","i_lat":-6.33561,"distance":1853,"line":3,"i_long":106.411216},{"transit":false,"station_name":"Tigaraksa","time":3,"distance":2651,"station_id":"TGS","line":6,"i_long":106.425991,"is_transit":false,"i_lat":-6.328533},{"i_lat":-6.327251,"station_name":"Tenjo","is_transit":false,"transit":false,"time":5,"station_id":"TEJ","line":6,"i_long":106.460812,"distance":2974},{"is_transit":false,"distance":3902,"station_id":"DAR","time":5,"i_lat":-6.338021,"line":0,"i_long":106.491338,"transit":false,"station_name":"Daru"},{"line":3,"transit":false,"station_id":"CJT","is_transit":false,"distance":2675,"station_name":"Cilejit","time":6,"i_long":106.508482,"i_lat":-6.354349},{"transit":false,"time":9,"station_id":"PRP","i_lat":-6.3441410000000005,"line":6,"distance":7025,"station_name":"Parung Panjang","i_long":106.568863,"is_transit":false},{"i_long":106.617853,"station_id":"CC","transit":false,"distance":5968,"station_name":"Cicayur","time":8,"line":3,"i_lat":-6.329547,"is_transit":false},{"transit":false,"i_long":106.640411,"line":3,"distance":2519,"time":4,"i_lat":-6.32484,"is_transit":false,"station_name":"Cisauk","station_id":"CSK"},{"i_lat":-6.319871,"line":6,"station_name":"Serpong","station_id":"SRP","distance":1784,"i_long":106.66566,"transit":false,"is_transit":false,"time":4},{"line":6,"transit":false,"i_lat":-6.314823,"i_long":106.675475,"is_transit":false,"station_name":"Rawa Buntu","distance":2413,"time":4,"station_id":"RU"},{"station_name":"Sudimara","line":6,"transit":false,"distance":4566,"i_long":106.712277,"station_id":"SDM","is_transit":false,"time":6,"i_lat":-6.296963},{"station_id":"JMU","station_name":"Jurangmangu","time":4,"transit":false,"i_long":106.728916,"line":6,"is_transit":false,"distance":1994,"i_lat":-6.288927},{"i_long":106.74273,"i_lat":-6.276362,"is_transit":false,"station_name":"Pondokranji","time":3,"transit":false,"station_id":"PDJ","line":6,"distance":2179},{"time":8,"station_name":"Kebayoran","i_lat":-6.237242,"transit":false,"i_long":106.780334,"is_transit":false,"station_id":"KBY","distance":6218,"line":6},{"station_name":"Palmerah","i_long":106.79689,"transit":false,"is_transit":false,"station_id":"PLM","time":7,"i_lat":-6.207404,"distance":3737,"line":6},{"is_transit":true,"distance":3191,"i_lat":-6.185545,"transit":true,"station_id":"THB","i_long":106.811091,"station_name":"Tanah Abang","time":6,"line":1},{"line":1,"station_id":"KAT","transit":false,"i_lat":-6.20132,"time":5,"distance":2029,"station_name":"Karet","i_long":106.816351,"is_transit":false},{"time":1,"line":1,"station_id":"SUDB","distance":471,"station_name":"Sudirman Baru","transit":false,"i_long":106.819881,"i_lat":-6.201433,"is_transit":false},{"distance":280,"station_id":"SUD","transit":false,"station_name":"Sudirman","i_long":106.822649,"line":1,"time":1,"is_transit":false,"i_lat":-6.202263},{"line":2,"time":4,"i_long":106.84912,"distance":3186,"station_name":"Manggarai","i_lat":-6.209883,"is_transit":false,"station_id":"MRI","transit":false},{"station_id":"MTR","distance":1275,"is_transit":false,"transit":false,"i_lat":-6.212485,"line":1,"time":2,"i_long":106.858896,"station_name":"Matraman"},{"is_transit":false,"station_name":"Jatinegara","i_lat":-6.215091,"time":8,"transit":false,"i_long":106.86807400000001,"distance":1377,"line":1,"station_id":"JNG"},{"is_transit":false,"time":3,"i_long":106.899548,"station_id":"KLD","i_lat":-6.2135,"line":1,"station_name":"Klender","transit":false,"distance":3395},{"transit":false,"i_long":106.922662,"is_transit":false,"i_lat":-6.215568,"distance":3100,"line":1,"station_name":"Buaran","station_id":"BUA","time":2},{"is_transit":false,"i_long":106.939679,"i_lat":-6.217455,"time":1,"station_id":"KLDB","transit":false,"distance":1305,"line":1,"station_name":"Klenderbaru"},{"i_lat":-6.219053,"transit":false,"i_long":106.951283,"time":8,"station_name":"Cakung","is_transit":false,"line":1,"distance":1385,"station_id":"CUK"},{"transit":false,"line":1,"i_long":106.977657,"distance":3097,"station_id":"KRI","station_name":"Kranji","i_lat":-6.224515,"time":3,"is_transit":false},{"station_name":"Bekasi","station_id":"BKS","i_lat":-6.236616,"is_transit":false,"time":4,"i_long":106.997013,"transit":false,"distance":2520,"line":1},{"station_name":"Bekasi Timur","transit":false,"station_id":"BKST","time":2,"is_transit":false,"i_lat":-6.248029,"line":1,"distance":2368,"i_long":107.016735},{"time":7,"i_lat":-6.258864,"distance":4460,"station_id":"TB","line":1,"is_transit":false,"station_name":"Tambun","transit":false,"i_long":107.055722},{"station_name":"Cibitung","time":3,"distance":3420,"is_transit":false,"transit":false,"i_lat":-6.261877,"i_long":107.083084,"station_id":"CIT","line":1}],[{"station_id":"MJ","i_long":106.394373,"time":0,"station_name":"Maja","is_transit":false,"i_lat":-6.332307,"line":6,"distance":0,"transit":false},{"i_long":106.411216,"line":3,"is_transit":false,"time":4,"transit":false,"station_name":"Cikoya","distance":1853,"station_id":"CKY","i_lat":-6.33561},{"transit":false,"station_id":"TGS","station_name":"Tigaraksa","i_lat":-6.328533,"i_long":106.425991,"line":6,"is_transit":false,"distance":2651,"time":3},{"station_name":"Tenjo","distance":2974,"line":6,"is_transit":false,"i_long":106.460812,"time":5,"transit":false,"station_id":"TEJ","i_lat":-6.327251},{"station_name":"Daru","station_id":"DAR","i_long":106.491338,"line":0,"distance":3902,"time":5,"transit":false,"is_transit":false,"i_lat":-6.338021},{"station_id":"CJT","line":3,"distance":2675,"time":6,"transit":false,"i_lat":-6.354349,"i_long":106.508482,"station_name":"Cilejit","is_transit":false},{"station_name":"Parung Panjang","transit":false,"station_id":"PRP","i_long":106.568863,"line":6,"is_transit":false,"time":9,"i_lat":-6.3441410000000005,"distance":7025},{"distance":5968,"line":3,"i_long":106.617853,"station_name":"Cicayur","is_transit":false,"station_id":"CC","i_lat":-6.329547,"transit":false,"time":8},{"line":3,"time":4,"distance":2519,"station_id":"CSK","i_long":106.640411,"station_name":"Cisauk","i_lat":-6.32484,"transit":false,"is_transit":false},{"transit":false,"i_long":106.66566,"i_lat":-6.319871,"time":4,"line":6,"distance":1784,"station_id":"SRP","is_transit":false,"station_name":"Serpong"},{"line":6,"distance":2413,"is_transit":false,"station_id":"RU","i_long":106.675475,"transit":false,"time":4,"station_name":"Rawa Buntu","i_lat":-6.314823},{"is_transit":false,"transit":false,"distance":4566,"station_id":"SDM","i_long":106.712277,"time":6,"i_lat":-6.296963,"station_name":"Sudimara","line":6},{"station_id":"JMU","is_transit":false,"station_name":"Jurangmangu","distance":1994,"line":6,"transit":false,"i_lat":-6.288927,"i_long":106.728916,"time":4},{"distance":2179,"is_transit":false,"station_id":"PDJ","transit":false,"i_lat":-6.276362,"i_long":106.74273,"time":3,"line":6,"station_name":"Pondokranji"},{"i_long":106.780334,"is_transit":false,"line":6,"time":8,"i_lat":-6.237242,"transit":false,"distance":6218,"station_id":"KBY","station_name":"Kebayoran"},{"distance":3737,"is_transit":false,"transit":false,"i_lat":-6.207404,"time":7,"station_id":"PLM","line":6,"i_long":106.79689,"station_name":"Palmerah"},{"station_name":"Tanah Abang","station_id":"THB","transit":true,"is_transit":true,"line":1,"time":6,"i_lat":-6.185545,"i_long":106.811091,"distance":3191},{"station_id":"DU","distance":3632,"transit":false,"is_transit":false,"i_lat":-6.155215,"time":8,"station_name":"Duri","i_long":106.800832,"line":1},{"distance":1230,"station_id":"AK","transit":false,"i_lat":-6.144674,"line":1,"station_name":"Angke","is_transit":false,"time":4,"i_long":106.79867},{"station_id":"KPB","is_transit":true,"transit":true,"station_name":"Kampung Bandan","line":4,"time":9,"distance":4102,"i_long":106.826365,"i_lat":-6.132549},{"time":3,"line":11,"distance":1444,"station_name":"Rajawali","is_transit":false,"station_id":"RJW","transit":false,"i_lat":-6.14505,"i_long":106.836569},{"station_id":"KMO","transit":false,"station_name":"Kemayoran","i_long":106.839204,"is_transit":false,"time":5,"i_lat":-6.161728,"line":11,"distance":1901},{"time":4,"i_lat":-6.174784,"station_name":"Pasar Senen","is_transit":false,"transit":false,"i_long":106.84368,"distance":1436,"line":11,"station_id":"PSE"},{"i_lat":-6.185975,"distance":1567,"line":11,"is_transit":false,"transit":false,"station_id":"GST","time":8,"station_name":"Gang Sentiong","i_long":106.850107},{"transit":false,"distance":973,"line":11,"time":1,"i_lat":-6.193792,"i_long":106.855437,"station_name":"Kramat","is_transit":false,"station_id":"KMT"},{"time":2,"is_transit":false,"i_lat":-6.209188,"transit":false,"distance":1829,"station_name":"Pondok Jati","station_id":"POK","i_long":106.861737,"line":11},{"i_long":106.86807400000001,"line":1,"i_lat":-6.215091,"distance":1236,"station_id":"JNG","station_name":"Jatinegara","is_transit":true,"time":9,"transit":true},{"station_id":"KLD","distance":3395,"transit":false,"time":3,"i_long":106.899548,"is_transit":false,"i_lat":-6.2135,"line":1,"station_name":"Klender"},{"distance":3100,"station_id":"BUA","line":1,"i_lat":-6.215568,"station_name":"Buaran","is_transit":false,"time":2,"transit":false,"i_long":106.922662},{"i_lat":-6.217455,"time":1,"distance":1305,"is_transit":false,"line":1,"transit":false,"station_name":"Klenderbaru","i_long":106.939679,"station_id":"KLDB"},{"distance":1385,"time":8,"station_name":"Cakung","i_long":106.951283,"station_id":"CUK","i_lat":-6.219053,"line":1,"transit":false,"is_transit":false},{"line":1,"station_name":"Kranji","transit":false,"station_id":"KRI","time":3,"i_lat":-6.224515,"distance":3097,"i_long":106.977657,"is_transit":false},{"station_name":"Bekasi","time":4,"i_long":106.997013,"distance":2520,"line":1,"station_id":"BKS","is_transit":false,"transit":false,"i_lat":-6.236616},{"i_long":107.016735,"station_name":"Bekasi Timur","is_transit":false,"station_id":"BKST","distance":2368,"time":2,"transit":false,"line":1,"i_lat":-6.248029},{"time":7,"station_id":"TB","transit":false,"is_transit":false,"distance":4460,"i_lat":-6.258864,"station_name":"Tambun","line":1,"i_long":107.055722},{"i_long":107.083084,"i_lat":-6.261877,"line":1,"station_id":"CIT","time":3,"distance":3420,"station_name":"Cibitung","transit":false,"is_transit":false}],[{"station_name":"Maja","distance":0,"line":6,"station_id":"MJ","transit":false,"is_transit":false,"i_lat":-6.332307,"i_long":106.394373,"time":0},{"line":3,"transit":false,"is_transit":false,"station_name":"Cikoya","station_id":"CKY","i_lat":-6.33561,"distance":1853,"i_long":106.411216,"time":4},{"is_transit":false,"i_lat":-6.328533,"station_id":"TGS","time":3,"station_name":"Tigaraksa","distance":2651,"transit":false,"i_long":106.425991,"line":6},{"station_id":"TEJ","station_name":"Tenjo","i_lat":-6.327251,"is_transit":false,"transit":false,"i_long":106.460812,"line":6,"distance":2974,"time":5},{"station_name":"Daru","is_transit":false,"time":5,"i_lat":-6.338021,"distance":3902,"station_id":"DAR","line":0,"i_long":106.491338,"transit":false},{"distance":2675,"time":6,"line":3,"is_transit":false,"station_id":"CJT","transit":false,"i_long":106.508482,"i_lat":-6.354349,"station_name":"Cilejit"},{"station_id":"PRP","distance":7025,"station_name":"Parung Panjang","is_transit":false,"time":9,"i_long":106.568863,"transit":false,"i_lat":-6.3441410000000005,"line":6},{"line":3,"station_name":"Cicayur","station_id":"CC","i_long":106.617853,"time":8,"transit":false,"distance":5968,"i_lat":-6.329547,"is_transit":false},{"i_lat":-6.32484,"i_long":106.640411,"distance":2519,"line":3,"station_name":"Cisauk","is_transit":false,"station_id":"CSK","transit":false,"time":4},{"i_lat":-6.319871,"i_long":106.66566,"time":4,"is_transit":false,"station_name":"Serpong","line":6,"distance":1784,"station_id":"SRP","transit":false},{"is_transit":false,"station_name":"Rawa Buntu","time":4,"i_lat":-6.314823,"distance":2413,"transit":false,"station_id":"RU","i_long":106.675475,"line":6},{"station_name":"Sudimara","transit":false,"is_transit":false,"station_id":"SDM","i_long":106.712277,"time":6,"distance":4566,"line":6,"i_lat":-6.296963},{"line":6,"station_id":"JMU","time":4,"station_name":"Jurangmangu","transit":false,"is_transit":false,"i_long":106.728916,"i_lat":-6.288927,"distance":1994},{"line":6,"station_name":"Pondokranji","is_transit":false,"station_id":"PDJ","distance":2179,"i_long":106.74273,"time":3,"i_lat":-6.276362,"transit":false},{"line":6,"transit":false,"station_name":"Kebayoran","distance":6218,"station_id":"KBY","is_transit":false,"time":8,"i_lat":-6.237242,"i_long":106.780334},{"i_lat":-6.207404,"i_long":106.79689,"is_transit":false,"line":6,"transit":false,"station_name":"Palmerah","distance":3737,"station_id":"PLM","time":7},{"transit":true,"time":6,"station_id":"THB","i_lat":-6.185545,"line":1,"distance":3191,"station_name":"Tanah Abang","is_transit":true,"i_long":106.811091},{"distance":3632,"station_id":"DU","transit":false,"i_long":106.800832,"i_lat":-6.155215,"station_name":"Duri","line":1,"is_transit":false,"time":8},{"i_long":106.79867,"i_lat":-6.144674,"station_name":"Angke","distance":1230,"line":1,"transit":false,"time":4,"station_id":"AK","is_transit":false},{"i_lat":-6.132549,"station_id":"KPB","transit":true,"is_transit":true,"i_long":106.826365,"station_name":"Kampung Bandan","time":9,"line":4,"distance":4102},{"station_name":"Jakarta Kota","is_transit":true,"i_long":106.812439,"i_lat":-6.137569,"station_id":"JAKK","line":2,"transit":true,"time":3,"distance":1364},{"distance":1264,"time":4,"line":2,"is_transit":false,"station_name":"Jayakarta","station_id":"JAY","transit":false,"i_lat":-6.141205,"i_long":106.820901},{"distance":1080,"transit":false,"station_name":"Manggabesar","station_id":"MGB","line":2,"is_transit":false,"i_lat":-6.149769,"i_long":106.82482,"time":2},{"time":2,"i_long":106.827103,"line":2,"distance":906,"is_transit":false,"transit":false,"i_lat":-6.160725,"station_name":"Sawah Besar","station_id":"SW"},{"station_name":"Juanda","line":2,"is_transit":false,"transit":false,"distance":1149,"station_id":"JUA","time":2,"i_long":106.828284,"i_lat":-6.166716},{"station_id":"GDD","distance":2015,"i_lat":-6.186295,"transit":false,"time":4,"line":2,"is_transit":false,"i_long":106.832183,"station_name":"Gondangdia"},{"line":2,"station_id":"CKI","transit":false,"time":3,"i_lat":-6.198556,"is_transit":false,"i_long":106.840169,"distance":1750,"station_name":"Cikini"},{"distance":1590,"i_lat":-6.209883,"time":4,"station_name":"Manggarai","line":2,"is_transit":true,"i_long":106.84912,"station_id":"MRI","transit":true},{"distance":1275,"is_transit":false,"station_id":"MTR","time":2,"line":1,"station_name":"Matraman","transit":false,"i_lat":-6.212485,"i_long":106.858896},{"i_long":106.86807400000001,"distance":1377,"station_name":"Jatinegara","is_transit":false,"time":8,"transit":false,"i_lat":-6.215091,"station_id":"JNG","line":1},{"station_name":"Klender","line":1,"distance":3395,"time":3,"transit":false,"is_transit":false,"i_lat":-6.2135,"station_id":"KLD","i_long":106.899548},{"time":2,"station_id":"BUA","i_long":106.922662,"transit":false,"line":1,"station_name":"Buaran","i_lat":-6.215568,"distance":3100,"is_transit":false},{"station_id":"KLDB","time":1,"i_lat":-6.217455,"is_transit":false,"distance":1305,"line":1,"station_name":"Klenderbaru","transit":false,"i_long":106.939679},{"distance":1385,"station_id":"CUK","i_lat":-6.219053,"is_transit":false,"transit":false,"station_name":"Cakung","i_long":106.951283,"line":1,"time":8},{"transit":false,"station_name":"Kranji","i_lat":-6.224515,"i_long":106.977657,"station_id":"KRI","time":3,"line":1,"is_transit":false,"distance":3097},{"station_name":"Bekasi","distance":2520,"time":4,"transit":false,"i_lat":-6.236616,"station_id":"BKS","is_transit":false,"line":1,"i_long":106.997013},{"distance":2368,"station_id":"BKST","transit":false,"is_transit":false,"i_lat":-6.248029,"station_name":"Bekasi Timur","time":2,"line":1,"i_long":107.016735},{"station_id":"TB","time":7,"station_name":"Tambun","transit":false,"i_lat":-6.258864,"line":1,"i_long":107.055722,"distance":4460,"is_transit":false},{"i_lat":-6.261877,"transit":false,"station_id":"CIT","distance":3420,"time":3,"is_transit":false,"i_long":107.083084,"line":1,"station_name":"Cibitung"}],[{"time":0,"distance":0,"i_lat":-6.332307,"station_name":"Maja","transit":false,"station_id":"MJ","i_long":106.394373,"line":6,"is_transit":false},{"line":3,"is_transit":false,"time":4,"distance":1853,"station_name":"Cikoya","i_long":106.411216,"i_lat":-6.33561,"station_id":"CKY","transit":false},{"i_long":106.425991,"is_transit":false,"line":6,"station_name":"Tigaraksa","distance":2651,"i_lat":-6.328533,"station_id":"TGS","transit":false,"time":3},{"station_name":"Tenjo","transit":false,"is_transit":false,"i_long":106.460812,"station_id":"TEJ","time":5,"line":6,"distance":2974,"i_lat":-6.327251},{"is_transit":false,"station_name":"Daru","i_lat":-6.338021,"time":5,"i_long":106.491338,"station_id":"DAR","transit":false,"distance":3902,"line":0},{"line":3,"station_id":"CJT","i_long":106.508482,"distance":2675,"time":6,"i_lat":-6.354349,"is_transit":false,"station_name":"Cilejit","transit":false},{"transit":false,"station_name":"Parung Panjang","i_lat":-6.3441410000000005,"is_transit":false,"i_long":106.568863,"distance":7025,"station_id":"PRP","line":6,"time":9},{"i_long":106.617853,"i_lat":-6.329547,"distance":5968,"station_name":"Cicayur","time":8,"transit":false,"line":3,"is_transit":false,"station_id":"CC"},{"station_name":"Cisauk","line":3,"is_transit":false,"distance":2519,"i_lat":-6.32484,"time":4,"i_long":106.640411,"transit":false,"station_id":"CSK"},{"i_lat":-6.319871,"distance":1784,"station_id":"SRP","transit":false,"i_long":106.66566,"line":6,"time":4,"is_transit":false,"station_name":"Serpong"},{"i_long":106.675475,"time":4,"station_name":"Rawa Buntu","is_transit":false,"i_lat":-6.314823,"station_id":"RU","line":6,"transit":false,"distance":2413},{"station_name":"Sudimara","station_id":"SDM","distance":4566,"transit":false,"i_long":106.712277,"line":6,"time":6,"i_lat":-6.296963,"is_transit":false},{"transit":false,"i_long":106.728916,"station_id":"JMU","i_lat":-6.288927,"line":6,"time":4,"distance":1994,"station_name":"Jurangmangu","is_transit":false},{"is_transit":false,"station_id":"PDJ","line":6,"station_name":"Pondokranji","distance":2179,"time":3,"transit":false,"i_long":106.74273,"i_lat":-6.276362},{"i_lat":-6.237242,"line":6,"is_transit":false,"station_name":"Kebayoran","i_long":106.780334,"transit":false,"time":8,"station_id":"KBY","distance":6218},{"time":7,"transit":false,"i_lat":-6.207404,"distance":3737,"is_transit":false,"station_name":"Palmerah","i_long":106.79689,"station_id":"PLM","line":6},{"station_name":"Tanah Abang","line":1,"transit":true,"distance":3191,"station_id":"THB","time":6,"i_long":106.811091,"is_transit":true,"i_lat":-6.185545},{"is_transit":false,"i_lat":-6.20132,"station_id":"KAT","transit":false,"line":1,"station_name":"Karet","time":5,"i_long":106.816351,"distance":2029},{"station_id":"SUDB","is_transit":false,"distance":471,"transit":false,"time":1,"i_lat":-6.201433,"line":1,"i_long":106.819881,"station_name":"Sudirman Baru"},{"distance":280,"transit":false,"time":1,"station_id":"SUD","i_lat":-6.202263,"line":1,"station_name":"Sudirman","is_transit":false,"i_long":106.822649},{"distance":3186,"i_lat":-6.209883,"time":4,"transit":true,"station_name":"Manggarai","is_transit":true,"i_long":106.84912,"line":2,"station_id":"MRI"},{"transit":false,"time":4,"station_name":"Cikini","distance":1590,"i_long":106.840169,"line":2,"i_lat":-6.198556,"station_id":"CKI","is_transit":false},{"station_id":"GDD","transit":false,"line":2,"station_name":"Gondangdia","i_lat":-6.186295,"i_long":106.832183,"is_transit":false,"time":3,"distance":1750},{"station_id":"JUA","i_long":106.828284,"station_name":"Juanda","is_transit":false,"transit":false,"i_lat":-6.166716,"time":4,"distance":2015,"line":2},{"is_transit":false,"distance":1149,"station_name":"Sawah Besar","i_long":106.827103,"line":2,"transit":false,"station_id":"SW","i_lat":-6.160725,"time":2},{"is_transit":false,"time":2,"i_lat":-6.149769,"line":2,"station_name":"Manggabesar","station_id":"MGB","transit":false,"i_long":106.82482,"distance":906},{"i_lat":-6.141205,"i_long":106.820901,"distance":1080,"line":2,"transit":false,"is_transit":false,"station_name":"Jayakarta","station_id":"JAY","time":2},{"line":2,"i_lat":-6.137569,"distance":1264,"is_transit":true,"i_long":106.812439,"time":4,"transit":true,"station_id":"JAKK","station_name":"Jakarta Kota"},{"time":3,"is_transit":true,"transit":true,"i_long":106.826365,"line":4,"station_name":"Kampung Bandan","i_lat":-6.132549,"station_id":"KPB","distance":1364},{"line":11,"is_transit":false,"time":3,"transit":false,"station_name":"Rajawali","station_id":"RJW","i_long":106.836569,"distance":1444,"i_lat":-6.14505},{"transit":false,"station_name":"Kemayoran","is_transit":false,"time":5,"line":11,"distance":1901,"station_id":"KMO","i_lat":-6.161728,"i_long":106.839204},{"is_transit":false,"station_name":"Pasar Senen","distance":1436,"i_lat":-6.174784,"i_long":106.84368,"station_id":"PSE","transit":false,"line":11,"time":4},{"time":8,"i_lat":-6.185975,"is_transit":false,"station_id":"GST","station_name":"Gang Sentiong","distance":1567,"i_long":106.850107,"transit":false,"line":11},{"is_transit":false,"time":1,"i_long":106.855437,"line":11,"transit":false,"station_id":"KMT","station_name":"Kramat","i_lat":-6.193792,"distance":973},{"station_name":"Pondok Jati","transit":false,"station_id":"POK","is_transit":false,"i_lat":-6.209188,"distance":1829,"time":2,"line":11,"i_long":106.861737},{"i_lat":-6.215091,"is_transit":true,"time":9,"distance":1236,"station_id":"JNG","i_long":106.86807400000001,"line":1,"station_name":"Jatinegara","transit":true},{"station_name":"Klender","i_lat":-6.2135,"station_id":"KLD","line":1,"is_transit":false,"distance":3395,"time":3,"transit":false,"i_long":106.899548},{"transit":false,"i_lat":-6.215568,"line":1,"is_transit":false,"station_name":"Buaran","i_long":106.922662,"time":2,"station_id":"BUA","distance":3100},{"station_name":"Klenderbaru","transit":false,"distance":1305,"is_transit":false,"time":1,"i_lat":-6.217455,"i_long":106.939679,"line":1,"station_id":"KLDB"},{"time":8,"transit":false,"line":1,"i_lat":-6.219053,"is_transit":false,"station_name":"Cakung","distance":1385,"station_id":"CUK","i_long":106.951283},{"line":1,"i_long":106.977657,"i_lat":-6.224515,"transit":false,"station_name":"Kranji","distance":3097,"time":3,"station_id":"KRI","is_transit":false},{"distance":2520,"i_long":106.997013,"i_lat":-6.236616,"line":1,"time":4,"station_name":"Bekasi","is_transit":false,"station_id":"BKS","transit":false},{"transit":false,"distance":2368,"is_transit":false,"i_long":107.016735,"station_id":"BKST","station_name":"Bekasi Timur","i_lat":-6.248029,"line":1,"time":2},{"i_long":107.055722,"station_name":"Tambun","distance":4460,"station_id":"TB","time":7,"transit":false,"i_lat":-6.258864,"line":1,"is_transit":false},{"is_transit":false,"time":3,"station_id":"CIT","station_name":"Cibitung","i_long":107.083084,"i_lat":-6.261877,"distance":3420,"transit":false,"line":1}]]}