{"data":[[{"line":6,"i_lat":-6.332307,"distance":0,"time":0,"transit":false,"is_transit":false,"i_long":106.394373,"station_id":"MJ","station_name":"Maja"},{"is_transit":false,"transit":false,"time":4,"distance":1853,"line":3,"station_id":"CKY","station_name":"Cikoya","i_long":106.411216,"i_lat":-6.33561},{"is_transit":false,"time":3,"station_id":"TGS","i_lat":-6.328533,"line":6,"station_name":"Tigaraksa","distance":2651,"transit":false,"i_long":106.425991},{"i_lat":-6.327251,"line":6,"station_name":"Tenjo","is_transit":false,"time":5,"distance":2974,"transit":false,"i_long":106.460812,"station_id":"TEJ"},{"station_name":"Daru","station_id":"DAR","is_transit":false,"i_lat":-6.338021,"line":0,"transit":false,"time":5,"distance":3902,"i_long":106.491338},{"station_id":"CJT","distance":2675,"transit":false,"time":6,"station_name":"Cilejit","i_lat":-6.354349,"i_long":106.508482,"line":3,"is_transit":false}]]}