{"data":[[{"is_transit":false,"i_lat":-6.332307,"i_long":106.394373,"time":0,"line":6,"transit":false,"distance":0,"station_name":"Maja","station_id":"MJ"},{"transit":false,"i_long":106.411216,"is_transit":false,"distance":1853,"station_id":"CKY","station_name":"Cikoya","time":4,"i_lat":-6.33561,"line":3},{"transit":false,"distance":2651,"line":6,"station_id":"TGS","time":3,"i_long":106.425991,"i_lat":-6.328533,"station_name":"Tigaraksa","is_transit":false},{"station_id":"TEJ","distance":2974,"i_lat":-6.327251,"is_transit":false,"i_long":106.460812,"line":6,"time":5,"transit":false,"station_name":"Tenjo"},{"is_transit":false,"i_lat":-6.338021,"station_name":"Daru","distance":3902,"line":0,"i_long":106.491338,"time":5,"station_id":"DAR","transit":false},{"i_lat":-6.354349,"station_name":"Cilejit","transit":false,"line":3,"is_transit":false,"distance":2675,"station_id":"CJT","time":6,"i_long":106.508482},{"transit":false,"station_name":"Parung Panjang","i_long":106.568863,"line":6,"time":9,"station_id":"PRP","distance":7025,"i_lat":-6.3441410000000005,"is_transit":false},{"transit":false,"distance":5968,"station_id":"CC","time":8,"is_transit":false,"station_name":"Cicayur","i_lat":-6.329547,"line":3,"i_long":106.617853},{"is_transit":false,"station_name":"Cisauk","time":4,"distance":2519,"station_id":"CSK","i_lat":-6.32484,"i_long":106.640411,"transit":false,"line":3},{"distance":1784,"transit":false,"i_lat":-6.319871,"is_transit":false,"i_long":106.66566,"time":4,"station_name":"Serpong","station_id":"SRP","line":6},{"transit":false,"distance":2413,"station_id":"RU","is_transit":false,"line":6,"i_long":106.675475,"i_lat":-6.314823,"time":4,"station_name":"Rawa Buntu"},{"time":6,"i_lat":-6.296963,"distance":4566,"i_long":106.712277,"line":6,"is_transit":false,"transit":false,"station_id":"SDM","station_name":"Sudimara"},{"i_long":106.728916,"station_id":"JMU","transit":false,"is_transit":false,"i_lat":-6.288927,"line":6,"station_name":"Jurangmangu","distance":1994,"time":4},{"transit":false,"station_id":"PDJ","time":3,"i_long":106.74273,"i_lat":-6.276362,"station_name":"Pondokranji","is_transit":false,"line":6,"distance":2179},{"is_transit":false,"time":8,"station_name":"Kebayoran","distance":6218,"line":6,"i_long":106.780334,"transit":false,"station_id":"KBY","i_lat":-6.237242},{"is_transit":false,"time":7,"i_long":106.79689,"station_id":"PLM","line":6,"i_lat":-6.207404,"transit":false,"station_name":"Palmerah","distance":3737},{"is_transit":true,"distance":3191,"transit":true,"station_id":"THB","i_long":106.811091,"line":1,"time":6,"station_name":"Tanah Abang","i_lat":-6.185545},{"line":1,"transit":false,"i_lat":-6.20132,"time":5,"station_name":"Karet","is_transit":false,"distance":2029,"station_id":"KAT","i_long":106.816351},{"station_name":"Sudirman Baru","i_long":106.819881,"i_lat":-6.201433,"time":1,"transit":false,"distance":471,"station_id":"SUDB","line":1,"is_transit":false},{"transit":false,"line":1,"is_transit":false,"time":1,"distance":280,"station_id":"SUD","station_name":"Sudirman","i_long":106.822649,"i_lat":-6.202263},{"station_name":"Manggarai","line":2,"station_id":"MRI","distance":3186,"i_lat":-6.209883,"i_long":106.84912,"time":4,"is_transit":true,"transit":true},{"i_long":106.840169,"transit":false,"station_name":"Cikini","is_transit":false,"station_id":"CKI","line":2,"time":4,"distance":1590,"i_lat":-6.198556}],[{"is_transit":false,"time":0,"station_id":"MJ","i_long":106.394373,"transit":false,"i_lat":-6.332307,"line":6,"distance":0,"station_name":"Maja"},{"station_id":"CKY","transit":false,"i_lat":-6.33561,"distance":1853,"line":3,"station_name":"Cikoya","is_transit":false,"time":4,"i_long":106.411216},{"distance":2651,"i_long":106.425991,"station_name":"Tigaraksa","i_lat":-6.328533,"is_transit":false,"line":6,"transit":false,"time":3,"station_id":"TGS"},{"time":5,"transit":false,"station_name":"Tenjo","i_lat":-6.327251,"station_id":"TEJ","distance":2974,"is_transit":false,"i_long":106.460812,"line":6},{"time":5,"distance":3902,"i_long":106.491338,"transit":false,"station_name":"Daru","is_transit":false,"station_id":"DAR","i_lat":-6.338021,"line":0},{"i_lat":-6.354349,"station_id":"CJT","distance":2675,"time":6,"transit":false,"i_long":106.508482,"line":3,"station_name":"Cilejit","is_transit":false},{"station_id":"PRP","i_lat":-6.3441410000000005,"time":9,"line":6,"i_long":106.568863,"transit":false,"distance":7025,"is_transit":false,"station_name":"Parung Panjang"},{"time":8,"station_name":"Cicayur","i_lat":-6.329547,"transit":false,"station_id":"CC","i_long":106.617853,"line":3,"is_transit":false,"distance":5968},{"distance":2519,"transit":false,"station_id":"CSK","is_transit":false,"line":3,"i_lat":-6.32484,"station_name":"Cisauk","time":4,"i_long":106.640411},{"is_transit":false,"station_name":"Serpong","line":6,"i_long":106.66566,"distance":1784,"station_id":"SRP","time":4,"i_lat":-6.319871,"transit":false},{"i_long":106.675475,"station_name":"Rawa Buntu","transit":false,"station_id":"RU","distance":2413,"line":6,"i_lat":-6.314823,"time":4,"is_transit":false},{"station_id":"SDM","is_transit":false,"i_long":106.712277,"line":6,"transit":false,"station_name":"Sudimara","time":6,"i_lat":-6.296963,"distance":4566},{"station_name":"Jurangmangu","i_long":106.728916,"transit":false,"station_id":"JMU","time":4,"is_transit":false,"distance":1994,"line":6,"i_lat":-6.288927},{"distance":2179,"line":6,"station_name":"Pondokranji","station_id":"PDJ","is_transit":false,"i_long":106.74273,"i_lat":-6.276362,"transit":false,"time":3},{"station_name":"Kebayoran","line":6,"is_transit":false,"transit":false,"i_lat":-6.237242,"i_long":106.780334,"distance":6218,"station_id":"KBY","time":8},{"time":7,"distance":3737,"station_id":"PLM","i_lat":-6.207404,"station_name":"Palmerah","i_long":106.79689,"transit":false,"line":6,"is_transit":false},{"time":6,"transit":true,"distance":3191,"is_transit":true,"i_lat":-6.185545,"i_long":106.811091,"station_name":"Tanah Abang","line":1,"station_id":"THB"},{"transit":false,"is_transit":false,"station_id":"DU","distance":3632,"i_lat":-6.155215,"time":8,"line":1,"station_name":"Duri","i_long":106.800832},{"station_name":"Angke","i_lat":-6.144674,"time":4,"distance":1230,"line":1,"i_long":106.79867,"transit":false,"is_transit":false,"station_id":"AK"},{"i_lat":-6.132549,"line":4,"station_id":"KPB","station_name":"Kampung Bandan","is_transit":true,"i_long":106.826365,"distance":4102,"time":9,"transit":true},{"i_long":106.812439,"transit":true,"i_lat":-6.137569,"is_transit":true,"line":2,"time":3,"station_name":"Jakarta Kota","distance":1364,"station_id":"JAKK"},{"time":4,"is_transit":false,"distance":1264,"transit":false,"station_id":"JAY","station_name":"Jayakarta","i_lat":-6.141205,"i_long":106.820901,"line":2},{"is_transit":false,"i_lat":-6.149769,"station_name":"Manggabesar","time":2,"i_long":106.82482,"line":2,"transit":false,"distance":1080,"station_id":"MGB"},{"time":2,"distance":906,"station_name":"Sawah Besar","i_long":106.827103,"transit":false,"i_lat":-6.160725,"line":2,"station_id":"SW","is_transit":false},{"station_id":"JUA","is_transit":false,"transit":false,"station_name":"Juanda","time":2,"i_lat":-6.166716,"distance":1149,"i_long":106.828284,"line":2},{"transit":false,"station_name":"Gondangdia","i_long":106.832183,"station_id":"GDD","i_lat":-6.186295,"time":4,"is_transit":false,"distance":2015,"line":2},{"line":2,"transit":false,"i_long":106.840169,"distance":1750,"station_name":"Cikini","time":3,"is_transit":false,"i_lat":-6.198556,"station_id":"CKI"}],[{"station_id":"MJ","time":0,"is_transit":false,"station_name":"Maja","distance":0,"transit":false,"i_lat":-6.332307,"i_long":106.394373,"line":6},{"time":4,"line":3,"i_lat":-6.33561,"station_name":"Cikoya","station_id":"CKY","transit":false,"is_transit":false,"distance":1853,"i_long":106.411216},{"i_long":106.425991,"is_transit":false,"time":3,"i_lat":-6.328533,"line":6,"station_id":"TGS","transit":false,"distance":2651,"station_name":"Tigaraksa"},{"i_long":106.460812,"station_id":"TEJ","transit":false,"distance":2974,"line":6,"i_lat":-6.327251,"station_name":"Tenjo","is_transit":false,"time":5},{"distance":3902,"i_lat":-6.338021,"transit":false,"i_long":106.491338,"line":0,"is_transit":false,"station_id":"DAR","time":5,"station_name":"Daru"},{"distance":2675,"transit":false,"station_name":"Cilejit","station_id":"CJT","line":3,"is_transit":false,"time":6,"i_lat":-6.354349,"i_long":106.508482},{"distance":7025,"i_long":106.568863,"line":6,"station_name":"Parung Panjang","station_id":"PRP","transit":false,"is_transit":false,"time":9,"i_lat":-6.3441410000000005},{"line":3,"distance":5968,"i_long":106.617853,"time":8,"i_lat":-6.329547,"station_id":"CC","transit":false,"is_transit":false,"station_name":"Cicayur"},{"i_long":106.640411,"is_transit":false,"i_lat":-6.32484,"station_id":"CSK","distance":2519,"line":3,"time":4,"transit":false,"station_name":"Cisauk"},{"line":6,"time":4,"transit":false,"station_name":"Serpong","i_lat":-6.319871,"distance":1784,"is_transit":false,"station_id":"SRP","i_long":106.66566},{"station_id":"RU","station_name":"Rawa Buntu","i_long":106.675475,"line":6,"i_lat":-6.314823,"time":4,"distance":2413,"transit":false,"is_transit":false},{"station_name":"Sudimara","station_id":"SDM","transit":false,"i_lat":-6.296963,"distance":4566,"i_long":106.712277,"time":6,"is_transit":false,"line":6},{"station_id":"JMU","transit":false,"i_long":106.728916,"distance":1994,"station_name":"Jurangmangu","line":6,"i_lat":-6.288927,"time":4,"is_transit":false},{"time":3,"transit":false,"i_long":106.74273,"station_name":"Pondokranji","i_lat":-6.276362,"line":6,"distance":2179,"is_transit":false,"station_id":"PDJ"},{"station_name":"Kebayoran","is_transit":false,"i_lat":-6.237242,"transit":false,"station_id":"KBY","distance":6218,"line":6,"i_long":106.780334,"time":8},{"transit":false,"station_id":"PLM","is_transit":false,"station_name":"Palmerah","time":7,"distance":3737,"i_lat":-6.207404,"i_long":106.79689,"line":6},{"transit":true,"time":6,"station_id":"THB","station_name":"Tanah Abang","is_transit":true,"i_long":106.811091,"distance":3191,"line":1,"i_lat":-6.185545},{"i_long":106.800832,"distance":3632,"line":1,"station_name":"Duri","time":8,"is_transit":false,"i_lat":-6.155215,"station_id":"DU","transit":false},{"time":4,"distance":1230,"transit":false,"is_transit":false,"line":1,"station_id":"AK","i_lat":-6.144674,"station_name":"Angke","i_long":106.79867},{"i_long":106.826365,"time":9,"station_id":"KPB","is_transit":true,"distance":4102,"line":4,"i_lat":-6.132549,"transit":true,"station_name":"Kampung Bandan"},{"distance":1444,"station_name":"Rajawali","line":11,"station_id":"RJW","is_transit":false,"i_lat":-6.14505,"transit":false,"time":3,"i_long":106.836569},{"distance":1901,"time":5,"line":11,"is_transit":false,"station_id":"KMO","transit":false,"i_lat":-6.161728,"i_long":106.839204,"station_name":"Kemayoran"},{"distance":1436,"line":11,"transit":false,"i_lat":-6.174784,"station_name":"Pasar Senen","i_long":106.84368,"time":4,"is_transit":false,"station_id":"PSE"},{"distance":1567,"transit":false,"i_lat":-6.185975,"i_long":106.850107,"time":8,"line":11,"is_transit":false,"station_name":"Gang Sentiong","station_id":"GST"},{"station_name":"Kramat","i_lat":-6.193792,"station_id":"KMT","distance":973,"transit":false,"is_transit":false,"i_long":106.855437,"time":1,"line":11},{"i_long":106.861737,"line":11,"is_transit":false,"time":2,"distance":1829,"transit":false,"station_name":"Pondok Jati","station_id":"POK","i_lat":-6.209188},{"i_lat":-6.215091,"transit":true,"time":9,"is_transit":true,"i_long":106.86807400000001,"line":1,"station_name":"Jatinegara","distance":1236,"station_id":"JNG"},{"station_name":"Matraman","i_long":106.858896,"distance":1377,"time":2,"transit":false,"station_id":"MTR","i_lat":-6.212485,"line":1,"is_transit":false},{"i_lat":-6.209883,"is_transit":true,"transit":true,"station_name":"Manggarai","distance":1275,"i_long":106.84912,"line":2,"station_id":"MRI","time":2},{"distance":1590,"station_id":"CKI","station_name":"Cikini","is_transit":false,"i_lat":-6.198556,"time":4,"line":2,"i_long":106.840169,"transit":false}],[{"is_transit":false,"station_name":"Maja","time":0,"line":6,"transit":false,"station_id":"MJ","distance":0,"i_lat":-6.332307,"i_long":106.394373},{"time":4,"i_long":106.411216,"station_name":"Cikoya","is_transit":false,"distance":1853,"i_lat":-6.33561,"transit":false,"line":3,"station_id":"CKY"},{"i_lat":-6.328533,"station_name":"Tigaraksa","line":6,"i_long":106.425991,"station_id":"TGS","is_transit":false,"transit":false,"time":3,"distance":2651},{"time":5,"station_name":"Tenjo","distance":2974,"i_long":106.460812,"is_transit":false,"transit":false,"station_id":"TEJ","line":6,"i_lat":-6.327251},{"i_long":106.491338,"station_id":"DAR","i_lat":-6.338021,"distance":3902,"is_transit":false,"time":5,"station_name":"Daru","transit":false,"line":0},{"transit":false,"station_name":"Cilejit","station_id":"CJT","is_transit":false,"i_lat":-6.354349,"i_long":106.508482,"line":3,"time":6,"distance":2675},{"time":9,"distance":7025,"i_long":106.568863,"transit":false,"is_transit":false,"station_name":"Parung Panjang","station_id":"PRP","i_lat":-6.3441410000000005,"line":6},{"station_name":"Cicayur","transit":false,"is_transit":false,"time":8,"station_id":"CC","distance":5968,"i_lat":-6.329547,"i_long":106.617853,"line":3},{"transit":false,"station_name":"Cisauk","is_transit":false,"time":4,"i_lat":-6.32484,"i_long":106.640411,"station_id":"CSK","distance":2519,"line":3},{"distance":1784,"i_lat":-6.319871,"station_name":"Serpong","time":4,"transit":false,"station_id":"SRP","line":6,"is_transit":false,"i_long":106.66566},{"distance":2413,"transit":false,"line":6,"station_name":"Rawa Buntu","is_transit":false,"i_long":106.675475,"station_id":"RU","time":4,"i_lat":-6.314823},{"distance":4566,"station_name":"Sudimara","time":6,"i_long":106.712277,"line":6,"is_transit":false,"i_lat":-6.296963,"transit":false,"station_id":"SDM"},{"distance":1994,"is_transit":false,"station_name":"Jurangmangu","time":4,"line":6,"transit":false,"i_long":106.728916,"station_id":"JMU","i_lat":-6.288927},{"transit":false,"station_name":"Pondokranji","is_transit":false,"distance":2179,"station_id":"PDJ","i_long":106.74273,"line":6,"time":3,"i_lat":-6.276362},{"is_transit":false,"i_lat":-6.237242,"station_id":"KBY","station_name":"Kebayoran","i_long":106.780334,"distance":6218,"transit":false,"time":8,"line":6},{"distance":3737,"time":7,"station_name":"Palmerah","i_lat":-6.207404,"transit":false,"station_id":"PLM","is_transit":false,"line":6,"i_long":106.79689},{"is_transit":true,"distance":3191,"station_name":"Tanah Abang","line":1,"i_lat":-6.185545,"station_id":"THB","i_long":106.811091,"transit":true,"time":6},{"time":5,"line":1,"transit":false,"station_name":"Karet","station_id":"KAT","distance":2029,"i_lat":-6.20132,"is_transit":false,"i_long":106.816351},{"transit":false,"station_id":"SUDB","is_transit":false,"i_lat":-6.201433,"i_long":106.819881,"line":1,"station_name":"Sudirman Baru","time":1,"distance":471},{"time":1,"distance":280,"i_long":106.822649,"transit":false,"i_lat":-6.202263,"line":1,"station_name":"Sudirman","station_id":"SUD","is_transit":false},{"transit":false,"station_name":"Manggarai","station_id":"MRI","time":4,"is_transit":false,"distance":3186,"line":2,"i_lat":-6.209883,"i_long":106.84912},{"line":1,"transit":false,"station_id":"MTR","is_transit":false,"time":2,"i_lat":-6.212485,"i_long":106.858896,"station_name":"Matraman","distance":1275},{"is_transit":true,"distance":1377,"line":1,"i_lat":-6.215091,"station_name":"Jatinegara","time":8,"transit":true,"i_long":106.86807400000001,"station_id":"JNG"},{"line":11,"time":2,"distance":1236,"transit":false,"i_lat":-6.209188,"station_id":"POK","is_transit":false,"i_long":106.861737,"station_name":"Pondok Jati"},{"station_name":"Kramat","i_long":106.855437,"is_transit":false,"station_id":"KMT","line":11,"time":2,"transit":false,"distance":1829,"i_lat":-6.193792},{"is_transit":false,"transit":false,"time":1,"line":11,"distance":973,"station_name":"Gang Sentiong","i_lat":-6.185975,"i_long":106.850107,"station_id":"GST"},{"transit":false,"time":8,"i_lat":-6.174784,"line":11,"i_long":106.84368,"distance":1567,"station_id":"PSE","is_transit":false,"station_name":"Pasar Senen"},{"transit":false,"distance":1436,"time":4,"i_lat":-6.161728,"i_long":106.839204,"line":11,"is_transit":false,"station_name":"Kemayoran","station_id":"KMO"},{"station_name":"Rajawali","station_id":"RJW","line":11,"is_transit":false,"time":5,"distance":1901,"i_long":106.836569,"i_lat":-6.14505,"transit":false},{"station_name":"Kampung Bandan","is_transit":true,"i_long":106.826365,"i_lat":-6.132549,"line":4,"distance":1444,"transit":true,"station_id":"KPB","time":3},{"station_name":"Jakarta Kota","distance":1364,"line":2,"station_id":"JAKK","time":3,"is_transit":true,"transit":true,"i_long":106.812439,"i_lat":-6.137569},{"transit":false,"is_transit":false,"i_long":106.820901,"distance":1264,"station_name":"Jayakarta","time":4,"station_id":"JAY","i_lat":-6.141205,"line":2},{"transit":false,"is_transit":false,"station_name":"Manggabesar","station_id":"MGB","line":2,"distance":1080,"time":2,"i_lat":-6.149769,"i_long":106.82482},{"time":2,"line":2,"is_transit":false,"transit":false,"distance":906,"i_lat":-6.160725,"i_long":106.827103,"station_id":"SW","station_name":"Sawah Besar"},{"station_id":"JUA","transit":false,"time":2,"i_lat":-6.166716,"station_name":"Juanda","distance":1149,"is_transit":false,"i_long":106.828284,"line":2},{"i_long":106.832183,"station_id":"GDD","distance":2015,"transit":false,"line":2,"station_name":"Gondangdia","is_transit":false,"time":4,"i_lat":-6.186295},{"station_id":"CKI","time":3,"i_lat":-6.198556,"line":2,"i_long":106.840169,"station_name":"Cikini","is_transit":false,"transit":false,"distance":1750}]]}