{"data":[[{"station_name":"Maja","i_long":106.394373,"distance":0,"is_transit":false,"time":0,"station_id":"MJ","i_lat":-6.332307,"transit":false,"line":6},{"transit":false,"i_lat":-6.33561,"is_transit":false,"i_long":106.411216,"station_name":"Cikoya","line":3,"time":4,"station_id":"CKY","distance":1853},{"line":6,"station_id":"TGS","transit":false,"i_lat":-6.328533,"station_name":"Tigaraksa","is_transit":false,"time":3,"distance":2651,"i_long":106.425991},{"distance":2974,"time":5,"transit":false,"station_name":"Tenjo","i_lat":-6.327251,"line":6,"station_id":"TEJ","is_transit":false,"i_long":106.460812},{"transit":false,"time":5,"is_transit":false,"line":0,"station_name":"Daru","station_id":"DAR","distance":3902,"i_lat":-6.338021,"i_long":106.491338},{"station_name":"Cilejit","time":6,"is_transit":false,"line":3,"distance":2675,"transit":false,"station_id":"CJT","i_lat":-6.354349,"i_long":106.508482}]]}