{"data":[[{"i_long":106.394373,"distance":0,"transit":false,"line":6,"station_name":"Maja","is_transit":false,"i_lat":-6.332307,"station_id":"MJ","time":0},{"station_id":"CKY","is_transit":false,"transit":false,"i_lat":-6.33561,"time":4,"station_name":"Cikoya","i_long":106.411216,"distance":1853,"line":3},{"station_name":"Tigaraksa","transit":false,"distance":2651,"is_transit":false,"line":6,"time":3,"i_long":106.425991,"station_id":"TGS","i_lat":-6.328533},{"station_name":"Tenjo","time":5,"i_lat":-6.327251,"is_transit":false,"line":6,"station_id":"TEJ","transit":false,"i_long":106.460812,"distance":2974},{"transit":false,"station_name":"Daru","station_id":"DAR","time":5,"i_long":106.491338,"is_transit":false,"line":0,"i_lat":-6.338021,"distance":3902},{"line":3,"i_lat":-6.354349,"time":6,"station_id":"CJT","station_name":"Cilejit","i_long":106.508482,"distance":2675,"transit":false,"is_transit":false},{"distance":7025,"time":9,"line":6,"i_long":106.568863,"station_name":"Parung Panjang","is_transit":false,"transit":false,"station_id":"PRP","i_lat":-6.3441410000000005},{"line":3,"i_lat":-6.329547,"transit":false,"is_transit":false,"station_id":"CC","station_name":"Cicayur","time":8,"distance":5968,"i_long":106.617853},{"station_id":"CSK","line":3,"transit":false,"is_transit":false,"time":4,"distance":2519,"i_lat":-6.32484,"i_long":106.640411,"station_name":"Cisauk"},{"line":6,"i_long":106.66566,"distance":1784,"time":4,"transit":false,"station_id":"SRP","i_lat":-6.319871,"is_transit":false,"station_name":"Serpong"},{"distance":2413,"i_lat":-6.314823,"line":6,"station_name":"Rawa Buntu","i_long":106.675475,"time":4,"transit":false,"is_transit":false,"station_id":"RU"},{"line":6,"is_transit":false,"i_lat":-6.296963,"station_name":"Sudimara","time":6,"transit":false,"i_long":106.712277,"distance":4566,"station_id":"SDM"},{"transit":false,"station_name":"Jurangmangu","i_long":106.728916,"is_transit":false,"time":4,"station_id":"JMU","distance":1994,"line":6,"i_lat":-6.288927},{"distance":2179,"station_id":"PDJ","station_name":"Pondokranji","transit":false,"line":6,"i_lat":-6.276362,"i_long":106.74273,"is_transit":false,"time":3},{"is_transit":false,"station_name":"Kebayoran","station_id":"KBY","time":8,"i_lat":-6.237242,"i_long":106.780334,"line":6,"distance":6218,"transit":false},{"is_transit":false,"station_id":"PLM","time":7,"distance":3737,"station_name":"Palmerah","i_lat":-6.207404,"transit":false,"i_long":106.79689,"line":6},{"i_lat":-6.185545,"is_transit":true,"distance":3191,"line":1,"transit":true,"station_name":"Tanah Abang","time":6,"i_long":106.811091,"station_id":"THB"},{"i_long":106.816351,"transit":false,"station_id":"KAT","i_lat":-6.20132,"time":5,"is_transit":false,"distance":2029,"line":1,"station_name":"Karet"},{"distance":471,"line":1,"station_id":"SUDB","i_lat":-6.201433,"transit":false,"i_long":106.819881,"is_transit":false,"station_name":"Sudirman Baru","time":1},{"is_transit":false,"time":1,"transit":false,"i_lat":-6.202263,"line":1,"station_name":"Sudirman","station_id":"SUD","i_long":106.822649,"distance":280},{"transit":false,"distance":3186,"station_name":"Manggarai","line":2,"station_id":"MRI","is_transit":false,"i_long":106.84912,"time":4,"i_lat":-6.209883},{"line":1,"transit":false,"i_lat":-6.212485,"distance":1275,"time":2,"i_long":106.858896,"is_transit":false,"station_name":"Matraman","station_id":"MTR"},{"transit":false,"distance":1377,"line":1,"is_transit":false,"time":8,"station_name":"Jatinegara","i_lat":-6.215091,"station_id":"JNG","i_long":106.86807400000001},{"line":1,"is_transit":false,"i_long":106.899548,"i_lat":-6.2135,"station_name":"Klender","time":3,"transit":false,"distance":3395,"station_id":"KLD"},{"distance":3100,"line":1,"i_lat":-6.215568,"station_name":"Buaran","transit":false,"time":2,"i_long":106.922662,"station_id":"BUA","is_transit":false},{"is_transit":false,"line":1,"station_id":"KLDB","station_name":"Klenderbaru","time":1,"distance":1305,"transit":false,"i_lat":-6.217455,"i_long":106.939679},{"station_id":"CUK","is_transit":false,"i_lat":-6.219053,"distance":1385,"i_long":106.951283,"line":1,"station_name":"Cakung","transit":false,"time":8},{"transit":false,"distance":3097,"station_id":"KRI","is_transit":false,"station_name":"Kranji","i_long":106.977657,"i_lat":-6.224515,"line":1,"time":3},{"transit":false,"distance":2520,"i_long":106.997013,"station_name":"Bekasi","line":1,"station_id":"BKS","i_lat":-6.236616,"is_transit":false,"time":4},{"i_long":107.016735,"transit":false,"station_name":"Bekasi Timur","station_id":"BKST","i_lat":-6.248029,"is_transit":false,"line":1,"time":2,"distance":2368},{"station_name":"Tambun","line":1,"is_transit":false,"i_lat":-6.258864,"time":7,"i_long":107.055722,"transit":false,"station_id":"TB","distance":4460},{"line":1,"time":3,"is_transit":false,"transit":false,"station_name":"Cibitung","station_id":"CIT","distance":3420,"i_long":107.083084,"i_lat":-6.261877}],[{"line":6,"station_name":"Maja","transit":false,"i_lat":-6.332307,"is_transit":false,"station_id":"MJ","distance":0,"time":0,"i_long":106.394373},{"distance":1853,"i_lat":-6.33561,"i_long":106.411216,"line":3,"is_transit":false,"station_name":"Cikoya","time":4,"station_id":"CKY","transit":false},{"time":3,"i_lat":-6.328533,"station_name":"Tigaraksa","distance":2651,"station_id":"TGS","transit":false,"i_long":106.425991,"line":6,"is_transit":false},{"transit":false,"station_name":"Tenjo","time":5,"is_transit":false,"i_long":106.460812,"distance":2974,"line":6,"station_id":"TEJ","i_lat":-6.327251},{"station_id":"DAR","transit":false,"time":5,"i_lat":-6.338021,"i_long":106.491338,"station_name":"Daru","is_transit":false,"distance":3902,"line":0},{"transit":false,"is_transit":false,"i_long":106.508482,"i_lat":-6.354349,"station_id":"CJT","station_name":"Cilejit","line":3,"time":6,"distance":2675},{"i_long":106.568863,"is_transit":false,"i_lat":-6.3441410000000005,"line":6,"distance":7025,"station_name":"Parung Panjang","transit":false,"time":9,"station_id":"PRP"},{"transit":false,"is_transit":false,"line":3,"station_id":"CC","distance":5968,"station_name":"Cicayur","i_lat":-6.329547,"i_long":106.617853,"time":8},{"is_transit":false,"station_id":"CSK","line":3,"i_long":106.640411,"transit":false,"i_lat":-6.32484,"distance":2519,"time":4,"station_name":"Cisauk"},{"station_id":"SRP","station_name":"Serpong","i_long":106.66566,"i_lat":-6.319871,"is_transit":false,"time":4,"transit":false,"distance":1784,"line":6},{"time":4,"distance":2413,"i_lat":-6.314823,"i_long":106.675475,"line":6,"transit":false,"station_name":"Rawa Buntu","station_id":"RU","is_transit":false},{"i_lat":-6.296963,"i_long":106.712277,"time":6,"is_transit":false,"line":6,"station_id":"SDM","distance":4566,"transit":false,"station_name":"Sudimara"},{"line":6,"station_id":"JMU","i_lat":-6.288927,"station_name":"Jurangmangu","distance":1994,"time":4,"transit":false,"i_long":106.728916,"is_transit":false},{"i_lat":-6.276362,"distance":2179,"is_transit":false,"time":3,"station_name":"Pondokranji","line":6,"station_id":"PDJ","transit":false,"i_long":106.74273},{"time":8,"line":6,"is_transit":false,"transit":false,"distance":6218,"station_id":"KBY","i_long":106.780334,"station_name":"Kebayoran","i_lat":-6.237242},{"transit":false,"i_long":106.79689,"i_lat":-6.207404,"is_transit":false,"station_id":"PLM","station_name":"Palmerah","time":7,"line":6,"distance":3737},{"station_name":"Tanah Abang","station_id":"THB","is_transit":true,"time":6,"line":1,"distance":3191,"transit":true,"i_lat":-6.185545,"i_long":106.811091},{"distance":3632,"transit":false,"is_transit":false,"i_lat":-6.155215,"station_name":"Duri","line":1,"i_long":106.800832,"time":8,"station_id":"DU"},{"station_name":"Angke","is_transit":false,"time":4,"i_long":106.79867,"distance":1230,"i_lat":-6.144674,"line":1,"transit":false,"station_id":"AK"},{"time":9,"i_long":106.826365,"i_lat":-6.132549,"line":4,"distance":4102,"transit":true,"is_transit":true,"station_name":"Kampung Bandan","station_id":"KPB"},{"distance":1444,"station_name":"Rajawali","transit":false,"station_id":"RJW","time":3,"i_long":106.836569,"i_lat":-6.14505,"line":11,"is_transit":false},{"i_lat":-6.161728,"station_name":"Kemayoran","time":5,"distance":1901,"line":11,"i_long":106.839204,"station_id":"KMO","is_transit":false,"transit":false},{"i_long":106.84368,"transit":false,"time":4,"line":11,"station_id":"PSE","distance":1436,"is_transit":false,"i_lat":-6.174784,"station_name":"Pasar Senen"},{"station_name":"Gang Sentiong","distance":1567,"i_long":106.850107,"transit":false,"i_lat":-6.185975,"is_transit":false,"line":11,"time":8,"station_id":"GST"},{"station_id":"KMT","i_long":106.855437,"i_lat":-6.193792,"time":1,"station_name":"Kramat","is_transit":false,"distance":973,"transit":false,"line":11},{"transit":false,"station_name":"Pondok Jati","station_id":"POK","is_transit":false,"time":2,"i_long":106.861737,"i_lat":-6.209188,"line":11,"distance":1829},{"is_transit":true,"i_long":106.86807400000001,"transit":true,"station_name":"Jatinegara","distance":1236,"station_id":"JNG","i_lat":-6.215091,"time":9,"line":1},{"station_id":"KLD","i_long":106.899548,"transit":false,"is_transit":false,"line":1,"time":3,"distance":3395,"i_lat":-6.2135,"station_name":"Klender"},{"i_long":106.922662,"i_lat":-6.215568,"line":1,"station_name":"Buaran","station_id":"BUA","is_transit":false,"time":2,"transit":false,"distance":3100},{"line":1,"station_id":"KLDB","transit":false,"time":1,"is_transit":false,"i_lat":-6.217455,"i_long":106.939679,"station_name":"Klenderbaru","distance":1305},{"time":8,"station_id":"CUK","i_lat":-6.219053,"transit":false,"is_transit":false,"station_name":"Cakung","i_long":106.951283,"distance":1385,"line":1},{"distance":3097,"station_id":"KRI","is_transit":false,"station_name":"Kranji","time":3,"i_long":106.977657,"transit":false,"i_lat":-6.224515,"line":1},{"time":4,"distance":2520,"i_lat":-6.236616,"i_long":106.997013,"is_transit":false,"station_id":"BKS","station_name":"Bekasi","transit":false,"line":1},{"station_id":"BKST","station_name":"Bekasi Timur","is_transit":false,"i_lat":-6.248029,"time":2,"transit":false,"i_long":107.016735,"line":1,"distance":2368},{"i_long":107.055722,"transit":false,"is_transit":false,"distance":4460,"station_id":"TB","station_name":"Tambun","time":7,"i_lat":-6.258864,"line":1},{"time":3,"i_lat":-6.261877,"station_name":"Cibitung","distance":3420,"i_long":107.083084,"is_transit":false,"station_id":"CIT","line":1,"transit":false}],[{"i_long":106.394373,"i_lat":-6.332307,"transit":false,"distance":0,"station_id":"MJ","line":6,"station_name":"Maja","time":0,"is_transit":false},{"line":3,"transit":false,"is_transit":false,"time":4,"i_long":106.411216,"station_name":"Cikoya","station_id":"CKY","distance":1853,"i_lat":-6.33561},{"station_id":"TGS","i_lat":-6.328533,"line":6,"transit":false,"i_long":106.425991,"is_transit":false,"distance":2651,"time":3,"station_name":"Tigaraksa"},{"i_long":106.460812,"station_name":"Tenjo","station_id":"TEJ","distance":2974,"i_lat":-6.327251,"is_transit":false,"line":6,"time":5,"transit":false},{"i_lat":-6.338021,"line":0,"i_long":106.491338,"distance":3902,"is_transit":false,"station_name":"Daru","station_id":"DAR","time":5,"transit":false},{"i_lat":-6.354349,"distance":2675,"station_id":"CJT","station_name":"Cilejit","is_transit":false,"time":6,"transit":false,"line":3,"i_long":106.508482},{"distance":7025,"is_transit":false,"line":6,"station_name":"Parung Panjang","transit":false,"station_id":"PRP","i_long":106.568863,"time":9,"i_lat":-6.3441410000000005},{"is_transit":false,"distance":5968,"i_long":106.617853,"station_name":"Cicayur","time":8,"transit":false,"station_id":"CC","line":3,"i_lat":-6.329547},{"distance":2519,"transit":false,"i_lat":-6.32484,"station_name":"Cisauk","station_id":"CSK","is_transit":false,"time":4,"i_long":106.640411,"line":3},{"station_name":"Serpong","station_id":"SRP","transit":false,"is_transit":false,"distance":1784,"i_lat":-6.319871,"line":6,"i_long":106.66566,"time":4},{"distance":2413,"i_lat":-6.314823,"transit":false,"is_transit":false,"i_long":106.675475,"station_name":"Rawa Buntu","time":4,"line":6,"station_id":"RU"},{"station_id":"SDM","is_transit":false,"transit":false,"time":6,"distance":4566,"i_lat":-6.296963,"i_long":106.712277,"station_name":"Sudimara","line":6},{"transit":false,"time":4,"is_transit":false,"distance":1994,"station_id":"JMU","line":6,"i_long":106.728916,"station_name":"Jurangmangu","i_lat":-6.288927},{"station_id":"PDJ","i_lat":-6.276362,"line":6,"is_transit":false,"station_name":"Pondokranji","time":3,"i_long":106.74273,"distance":2179,"transit":false},{"i_lat":-6.237242,"station_name":"Kebayoran","is_transit":false,"i_long":106.780334,"time":8,"line":6,"distance":6218,"station_id":"KBY","transit":false},{"i_long":106.79689,"distance":3737,"i_lat":-6.207404,"is_transit":false,"station_id":"PLM","station_name":"Palmerah","transit":false,"line":6,"time":7},{"distance":3191,"is_transit":true,"time":6,"line":1,"station_name":"Tanah Abang","transit":true,"station_id":"THB","i_long":106.811091,"i_lat":-6.185545},{"is_transit":false,"station_id":"DU","i_long":106.800832,"distance":3632,"transit":false,"line":1,"time":8,"station_name":"Duri","i_lat":-6.155215},{"distance":1230,"station_name":"Angke","time":4,"i_lat":-6.144674,"is_transit":false,"line":1,"transit":false,"i_long":106.79867,"station_id":"AK"},{"distance":4102,"station_id":"KPB","i_lat":-6.132549,"station_name":"Kampung Bandan","time":9,"i_long":106.826365,"is_transit":true,"line":4,"transit":true},{"station_name":"Jakarta Kota","i_lat":-6.137569,"i_long":106.812439,"station_id":"JAKK","line":2,"transit":true,"is_transit":true,"time":3,"distance":1364},{"station_name":"Jayakarta","line":2,"is_transit":false,"distance":1264,"station_id":"JAY","transit":false,"time":4,"i_lat":-6.141205,"i_long":106.820901},{"time":2,"is_transit":false,"distance":1080,"i_lat":-6.149769,"line":2,"station_id":"MGB","transit":false,"i_long":106.82482,"station_name":"Manggabesar"},{"station_name":"Sawah Besar","transit":false,"line":2,"i_lat":-6.160725,"time":2,"station_id":"SW","distance":906,"i_long":106.827103,"is_transit":false},{"distance":1149,"time":2,"i_lat":-6.166716,"i_long":106.828284,"station_name":"Juanda","station_id":"JUA","line":2,"is_transit":false,"transit":false},{"is_transit":false,"transit":false,"station_id":"GDD","station_name":"Gondangdia","line":2,"i_long":106.832183,"i_lat":-6.186295,"time":4,"distance":2015},{"time":3,"station_name":"Cikini","i_lat":-6.198556,"line":2,"transit":false,"distance":1750,"is_transit":false,"station_id":"CKI","i_long":106.840169},{"line":2,"i_lat":-6.209883,"station_id":"MRI","is_transit":true,"i_long":106.84912,"time":4,"transit":true,"distance":1590,"station_name":"Manggarai"},{"transit":false,"time":2,"station_id":"MTR","i_long":106.858896,"i_lat":-6.212485,"station_name":"Matraman","distance":1275,"is_transit":false,"line":1},{"station_name":"Jatinegara","time":8,"distance":1377,"is_transit":false,"i_lat":-6.215091,"i_long":106.86807400000001,"line":1,"transit":false,"station_id":"JNG"},{"i_lat":-6.2135,"distance":3395,"line":1,"station_name":"Klender","station_id":"KLD","transit":false,"time":3,"i_long":106.899548,"is_transit":false},{"is_transit":false,"station_name":"Buaran","transit":false,"station_id":"BUA","time":2,"i_lat":-6.215568,"i_long":106.922662,"distance":3100,"line":1},{"station_name":"Klenderbaru","is_transit":false,"line":1,"i_lat":-6.217455,"time":1,"station_id":"KLDB","transit":false,"distance":1305,"i_long":106.939679},{"transit":false,"station_name":"Cakung","station_id":"CUK","time":8,"is_transit":false,"distance":1385,"line":1,"i_lat":-6.219053,"i_long":106.951283},{"line":1,"transit":false,"station_id":"KRI","is_transit":false,"time":3,"i_lat":-6.224515,"i_long":106.977657,"station_name":"Kranji","distance":3097},{"is_transit":false,"distance":2520,"line":1,"i_lat":-6.236616,"station_name":"Bekasi","time":4,"transit":false,"i_long":106.997013,"station_id":"BKS"},{"line":1,"time":2,"distance":2368,"transit":false,"i_lat":-6.248029,"station_id":"BKST","is_transit":false,"i_long":107.016735,"station_name":"Bekasi Timur"},{"station_name":"Tambun","i_long":107.055722,"is_transit":false,"station_id":"TB","line":1,"time":7,"transit":false,"distance":4460,"i_lat":-6.258864},{"is_transit":false,"transit":false,"time":3,"line":1,"distance":3420,"station_name":"Cibitung","i_lat":-6.261877,"i_long":107.083084,"station_id":"CIT"}],[{"transit":false,"time":0,"i_lat":-6.332307,"line":6,"i_long":106.394373,"distance":0,"station_id":"MJ","is_transit":false,"station_name":"Maja"},{"transit":false,"distance":1853,"time":4,"i_lat":-6.33561,"i_long":106.411216,"line":3,"is_transit":false,"station_name":"Cikoya","station_id":"CKY"},{"station_name":"Tigaraksa","station_id":"TGS","line":6,"is_transit":false,"time":3,"distance":2651,"i_long":106.425991,"i_lat":-6.328533,"transit":false},{"station_name":"Tenjo","is_transit":false,"i_long":106.460812,"i_lat":-6.327251,"line":6,"distance":2974,"transit":false,"station_id":"TEJ","time":5},{"station_name":"Daru","distance":3902,"line":0,"station_id":"DAR","time":5,"is_transit":false,"transit":false,"i_long":106.491338,"i_lat":-6.338021},{"transit":false,"is_transit":false,"i_long":106.508482,"distance":2675,"station_name":"Cilejit","time":6,"station_id":"CJT","i_lat":-6.354349,"line":3},{"transit":false,"is_transit":false,"station_name":"Parung Panjang","station_id":"PRP","line":6,"distance":7025,"time":9,"i_lat":-6.3441410000000005,"i_long":106.568863},{"station_name":"Cicayur","i_lat":-6.329547,"station_id":"CC","distance":5968,"time":8,"transit":false,"is_transit":false,"i_long":106.617853,"line":3},{"time":4,"station_name":"Cisauk","i_long":106.640411,"station_id":"CSK","is_transit":false,"line":3,"distance":2519,"transit":false,"i_lat":-6.32484},{"line":6,"station_id":"SRP","i_long":106.66566,"time":4,"distance":1784,"i_lat":-6.319871,"station_name":"Serpong","is_transit":false,"transit":false},{"line":6,"station_name":"Rawa Buntu","distance":2413,"is_transit":false,"i_long":106.675475,"i_lat":-6.314823,"time":4,"transit":false,"station_id":"RU"},{"transit":false,"i_lat":-6.296963,"distance":4566,"i_long":106.712277,"station_name":"Sudimara","station_id":"SDM","time":6,"is_transit":false,"line":6},{"i_lat":-6.288927,"line":6,"time":4,"station_id":"JMU","is_transit":false,"distance":1994,"transit":false,"station_name":"Jurangmangu","i_long":106.728916},{"distance":2179,"is_transit":false,"i_lat":-6.276362,"station_name":"Pondokranji","i_long":106.74273,"time":3,"transit":false,"station_id":"PDJ","line":6},{"is_transit":false,"transit":false,"station_name":"Kebayoran","time":8,"i_lat":-6.237242,"distance":6218,"line":6,"station_id":"KBY","i_long":106.780334},{"station_name":"Palmerah","time":7,"is_transit":false,"distance":3737,"line":6,"i_lat":-6.207404,"station_id":"PLM","i_long":106.79689,"transit":false},{"distance":3191,"i_lat":-6.185545,"i_long":106.811091,"is_transit":true,"line":1,"time":6,"station_name":"Tanah Abang","transit":true,"station_id":"THB"},{"i_long":106.816351,"line":1,"station_id":"KAT","is_transit":false,"time":5,"transit":false,"distance":2029,"i_lat":-6.20132,"station_name":"Karet"},{"distance":471,"station_id":"SUDB","transit":false,"station_name":"Sudirman Baru","is_transit":false,"i_lat":-6.201433,"time":1,"line":1,"i_long":106.819881},{"station_name":"Sudirman","i_lat":-6.202263,"is_transit":false,"time":1,"distance":280,"station_id":"SUD","transit":false,"i_long":106.822649,"line":1},{"i_lat":-6.209883,"i_long":106.84912,"is_transit":true,"station_name":"Manggarai","line":2,"station_id":"MRI","distance":3186,"time":4,"transit":true},{"i_lat":-6.198556,"station_id":"CKI","is_transit":false,"station_name":"Cikini","time":4,"transit":false,"line":2,"i_long":106.840169,"distance":1590},{"time":3,"line":2,"transit":false,"station_id":"GDD","i_lat":-6.186295,"is_transit":false,"i_long":106.832183,"station_name":"Gondangdia","distance":1750},{"transit":false,"station_id":"JUA","is_transit":false,"time":4,"distance":2015,"i_long":106.828284,"line":2,"i_lat":-6.166716,"station_name":"Juanda"},{"i_long":106.827103,"transit":false,"is_transit":false,"distance":1149,"i_lat":-6.160725,"line":2,"time":2,"station_id":"SW","station_name":"Sawah Besar"},{"i_long":106.82482,"line":2,"transit":false,"distance":906,"station_id":"MGB","station_name":"Manggabesar","i_lat":-6.149769,"time":2,"is_transit":false},{"station_name":"Jayakarta","transit":false,"line":2,"is_transit":false,"time":2,"i_long":106.820901,"i_lat":-6.141205,"distance":1080,"station_id":"JAY"},{"is_transit":true,"i_long":106.812439,"line":2,"station_id":"JAKK","transit":true,"station_name":"Jakarta Kota","distance":1264,"i_lat":-6.137569,"time":4},{"i_long":106.826365,"line":4,"is_transit":true,"time":3,"station_id":"KPB","transit":true,"station_name":"Kampung Bandan","distance":1364,"i_lat":-6.132549},{"transit":false,"station_id":"RJW","i_lat":-6.14505,"is_transit":false,"i_long":106.836569,"distance":1444,"station_name":"Rajawali","time":3,"line":11},{"transit":false,"i_lat":-6.161728,"time":5,"station_name":"Kemayoran","i_long":106.839204,"line":11,"distance":1901,"is_transit":false,"station_id":"KMO"},{"is_transit":false,"station_id":"PSE","time":4,"transit":false,"i_lat":-6.174784,"i_long":106.84368,"line":11,"station_name":"Pasar Senen","distance":1436},{"is_transit":false,"line":11,"distance":1567,"transit":false,"station_id":"GST","i_long":106.850107,"station_name":"Gang Sentiong","i_lat":-6.185975,"time":8},{"time":1,"distance":973,"line":11,"is_transit":false,"i_lat":-6.193792,"i_long":106.855437,"station_id":"KMT","station_name":"Kramat","transit":false},{"station_name":"Pondok Jati","line":11,"is_transit":false,"i_lat":-6.209188,"distance":1829,"transit":false,"time":2,"station_id":"POK","i_long":106.861737},{"i_long":106.86807400000001,"station_id":"JNG","line":1,"is_transit":true,"station_name":"Jatinegara","i_lat":-6.215091,"transit":true,"distance":1236,"time":9},{"transit":false,"line":1,"time":3,"i_lat":-6.2135,"station_name":"Klender","i_long":106.899548,"is_transit":false,"station_id":"KLD","distance":3395},{"station_name":"Buaran","i_lat":-6.215568,"i_long":106.922662,"transit":false,"station_id":"BUA","is_transit":false,"time":2,"distance":3100,"line":1},{"transit":false,"time":1,"distance":1305,"i_lat":-6.217455,"station_id":"KLDB","station_name":"Klenderbaru","is_transit":false,"line":1,"i_long":106.939679},{"line":1,"i_lat":-6.219053,"i_long":106.951283,"station_name":"Cakung","station_id":"CUK","time":8,"transit":false,"distance":1385,"is_transit":false},{"i_long":106.977657,"distance":3097,"transit":false,"line":1,"station_id":"KRI","time":3,"station_name":"Kranji","i_lat":-6.224515,"is_transit":false},{"time":4,"transit":false,"i_long":106.997013,"station_name":"Bekasi","station_id":"BKS","i_lat":-6.236616,"distance":2520,"line":1,"is_transit":false},{"is_transit":false,"time":2,"line":1,"i_lat":-6.248029,"transit":false,"station_name":"Bekasi Timur","distance":2368,"i_long":107.016735,"station_id":"BKST"},{"transit":false,"station_name":"Tambun","is_transit":false,"station_id":"TB","line":1,"distance":4460,"i_lat":-6.258864,"i_long":107.055722,"time":7},{"station_id":"CIT","time":3,"transit":false,"distance":3420,"line":1,"i_long":107.083084,"station_name":"Cibitung","is_transit":false,"i_lat":-6.261877}]]}