{"data":[[{"i_lat":-6.332307,"i_long":106.394373,"station_name":"Maja","distance":0,"station_id":"MJ","transit":false,"line":6,"time":0,"is_transit":false},{"time":4,"station_name":"Cikoya","i_long":106.411216,"station_id":"CKY","i_lat":-6.33561,"distance":1853,"line":3,"is_transit":false,"transit":false},{"i_lat":-6.328533,"i_long":106.425991,"station_name":"Tigaraksa","line":6,"distance":2651,"transit":false,"station_id":"TGS","is_transit":false,"time":3},{"i_long":106.460812,"is_transit":false,"time":5,"line":6,"transit":false,"distance":2974,"station_name":"Tenjo","station_id":"TEJ","i_lat":-6.327251},{"time":5,"station_id":"DAR","is_transit":false,"transit":false,"station_name":"Daru","i_lat":-6.338021,"line":0,"i_long":106.491338,"distance":3902},{"distance":2675,"station_name":"Cilejit","i_long":106.508482,"transit":false,"station_id":"CJT","i_lat":-6.354349,"is_transit":false,"time":6,"line":3},{"i_lat":-6.3441410000000005,"station_id":"PRP","station_name":"Parung Panjang","time":9,"i_long":106.568863,"distance":7025,"line":6,"transit":false,"is_transit":false},{"distance":5968,"i_lat":-6.329547,"is_transit":false,"i_long":106.617853,"time":8,"line":3,"transit":false,"station_id":"CC","station_name":"Cicayur"},{"is_transit":false,"distance":2519,"i_long":106.640411,"transit":false,"station_id":"CSK","line":3,"time":4,"station_name":"Cisauk","i_lat":-6.32484},{"station_id":"SRP","distance":1784,"i_long":106.66566,"station_name":"Serpong","line":6,"is_transit":false,"time":4,"i_lat":-6.319871,"transit":false},{"station_name":"Rawa Buntu","i_long":106.675475,"transit":false,"is_transit":false,"line":6,"i_lat":-6.314823,"time":4,"station_id":"RU","distance":2413},{"i_long":106.712277,"transit":false,"is_transit":false,"time":6,"station_id":"SDM","station_name":"Sudimara","line":6,"distance":4566,"i_lat":-6.296963},{"time":4,"transit":false,"i_lat":-6.288927,"line":6,"station_id":"JMU","station_name":"Jurangmangu","is_transit":false,"distance":1994,"i_long":106.728916},{"is_transit":false,"distance":2179,"station_name":"Pondokranji","station_id":"PDJ","line":6,"transit":false,"i_lat":-6.276362,"i_long":106.74273,"time":3},{"i_long":106.780334,"time":8,"transit":false,"i_lat":-6.237242,"station_name":"Kebayoran","is_transit":false,"station_id":"KBY","line":6,"distance":6218},{"transit":false,"time":7,"distance":3737,"station_id":"PLM","is_transit":false,"i_long":106.79689,"station_name":"Palmerah","i_lat":-6.207404,"line":6},{"distance":3191,"time":6,"i_lat":-6.185545,"station_id":"THB","is_transit":true,"transit":true,"line":1,"station_name":"Tanah Abang","i_long":106.811091},{"station_name":"Karet","is_transit":false,"station_id":"KAT","transit":false,"line":1,"i_long":106.816351,"time":5,"i_lat":-6.20132,"distance":2029},{"is_transit":false,"time":1,"transit":false,"distance":471,"i_long":106.819881,"station_id":"SUDB","line":1,"station_name":"Sudirman Baru","i_lat":-6.201433},{"time":1,"transit":false,"i_long":106.822649,"station_name":"Sudirman","station_id":"SUD","distance":280,"line":1,"is_transit":false,"i_lat":-6.202263},{"is_transit":true,"time":4,"station_name":"Manggarai","station_id":"MRI","i_lat":-6.209883,"i_long":106.84912,"line":2,"transit":true,"distance":3186},{"transit":false,"is_transit":false,"time":4,"station_id":"TEB","i_lat":-6.226659,"distance":2610,"station_name":"Tebet","i_long":106.857948,"line":2},{"i_long":106.856607,"line":2,"i_lat":-6.242512,"distance":1230,"time":2,"station_id":"CW","station_name":"Cawang","transit":false,"is_transit":false},{"distance":1546,"i_long":106.85449,"transit":false,"is_transit":false,"station_id":"DRN","time":3,"station_name":"Duren Kalibata","line":2,"i_lat":-6.255332},{"i_long":106.851577,"station_id":"PSMB","line":2,"transit":false,"station_name":"Pasar Minggu Baru","distance":824,"is_transit":false,"i_lat":-6.263214,"time":2},{"distance":2380,"i_long":106.843999,"i_lat":-6.2842400000000005,"line":2,"time":2,"station_id":"PSM","station_name":"Pasar Minggu","is_transit":false,"transit":false},{"is_transit":false,"i_long":106.838896,"station_id":"TNT","i_lat":-6.3080680000000005,"distance":2820,"time":4,"line":2,"station_name":"Tanjung Barat","transit":false},{"time":3,"station_name":"Lenteng Agung","i_lat":-6.330363,"transit":false,"i_long":106.832616,"is_transit":false,"line":2,"distance":2671,"station_id":"LNA"},{"time":2,"distance":1029,"station_name":"Univ. Pancasila","i_long":106.834175,"is_transit":false,"transit":false,"line":2,"station_id":"UP","i_lat":-6.339291},{"i_long":106.831474,"line":2,"time":3,"station_name":"Univ. Indonesia","transit":false,"i_lat":-6.360749,"is_transit":false,"station_id":"UI","distance":2264},{"transit":false,"station_name":"Pondok Cina","i_long":106.831114,"line":2,"time":2,"distance":1109,"station_id":"POC","is_transit":false,"i_lat":-6.369073},{"line":2,"station_name":"Depokbaru","i_long":106.819451,"time":4,"distance":2727,"i_lat":-6.391065,"is_transit":false,"station_id":"DPB","transit":false},{"i_long":106.816926,"i_lat":-6.405256,"is_transit":false,"line":2,"station_id":"DP","time":3,"distance":1584,"station_name":"Depok","transit":false},{"i_lat":-6.448811,"i_long":106.800298,"is_transit":false,"line":2,"time":6,"distance":5084,"station_id":"CTA","station_name":"Citayam","transit":false}],[{"transit":false,"station_id":"MJ","station_name":"Maja","distance":0,"i_long":106.394373,"time":0,"is_transit":false,"i_lat":-6.332307,"line":6},{"station_name":"Cikoya","transit":false,"is_transit":false,"station_id":"CKY","i_lat":-6.33561,"line":3,"time":4,"distance":1853,"i_long":106.411216},{"is_transit":false,"line":6,"i_long":106.425991,"time":3,"transit":false,"distance":2651,"i_lat":-6.328533,"station_id":"TGS","station_name":"Tigaraksa"},{"station_name":"Tenjo","station_id":"TEJ","i_lat":-6.327251,"is_transit":false,"distance":2974,"line":6,"time":5,"i_long":106.460812,"transit":false},{"line":0,"i_long":106.491338,"distance":3902,"station_name":"Daru","time":5,"station_id":"DAR","transit":false,"is_transit":false,"i_lat":-6.338021},{"i_lat":-6.354349,"time":6,"transit":false,"line":3,"is_transit":false,"i_long":106.508482,"station_id":"CJT","station_name":"Cilejit","distance":2675},{"time":9,"i_long":106.568863,"distance":7025,"is_transit":false,"station_id":"PRP","i_lat":-6.3441410000000005,"station_name":"Parung Panjang","transit":false,"line":6},{"is_transit":false,"line":3,"station_id":"CC","transit":false,"station_name":"Cicayur","time":8,"i_lat":-6.329547,"i_long":106.617853,"distance":5968},{"time":4,"distance":2519,"station_name":"Cisauk","i_lat":-6.32484,"i_long":106.640411,"station_id":"CSK","is_transit":false,"line":3,"transit":false},{"i_lat":-6.319871,"transit":false,"line":6,"is_transit":false,"time":4,"i_long":106.66566,"distance":1784,"station_id":"SRP","station_name":"Serpong"},{"line":6,"is_transit":false,"i_long":106.675475,"distance":2413,"station_id":"RU","transit":false,"time":4,"i_lat":-6.314823,"station_name":"Rawa Buntu"},{"transit":false,"distance":4566,"is_transit":false,"station_id":"SDM","i_long":106.712277,"line":6,"station_name":"Sudimara","time":6,"i_lat":-6.296963},{"distance":1994,"i_lat":-6.288927,"line":6,"time":4,"station_id":"JMU","transit":false,"station_name":"Jurangmangu","is_transit":false,"i_long":106.728916},{"transit":false,"i_long":106.74273,"station_id":"PDJ","time":3,"distance":2179,"is_transit":false,"i_lat":-6.276362,"line":6,"station_name":"Pondokranji"},{"time":8,"station_name":"Kebayoran","i_lat":-6.237242,"line":6,"station_id":"KBY","transit":false,"i_long":106.780334,"distance":6218,"is_transit":false},{"i_long":106.79689,"distance":3737,"station_id":"PLM","is_transit":false,"time":7,"transit":false,"line":6,"i_lat":-6.207404,"station_name":"Palmerah"},{"transit":true,"i_lat":-6.185545,"station_name":"Tanah Abang","time":6,"is_transit":true,"distance":3191,"i_long":106.811091,"line":1,"station_id":"THB"},{"line":1,"time":8,"station_name":"Duri","i_lat":-6.155215,"transit":false,"is_transit":false,"station_id":"DU","distance":3632,"i_long":106.800832},{"is_transit":false,"i_lat":-6.144674,"i_long":106.79867,"station_id":"AK","distance":1230,"line":1,"time":4,"transit":false,"station_name":"Angke"},{"is_transit":true,"station_id":"KPB","i_lat":-6.132549,"transit":true,"line":4,"time":9,"distance":4102,"station_name":"Kampung Bandan","i_long":106.826365},{"i_lat":-6.137569,"i_long":106.812439,"distance":1364,"time":3,"station_name":"Jakarta Kota","station_id":"JAKK","is_transit":true,"transit":true,"line":2},{"transit":false,"time":4,"i_lat":-6.141205,"is_transit":false,"station_id":"JAY","station_name":"Jayakarta","i_long":106.820901,"line":2,"distance":1264},{"distance":1080,"line":2,"time":2,"station_name":"Manggabesar","is_transit":false,"i_lat":-6.149769,"transit":false,"station_id":"MGB","i_long":106.82482},{"i_long":106.827103,"station_name":"Sawah Besar","line":2,"transit":false,"time":2,"i_lat":-6.160725,"is_transit":false,"distance":906,"station_id":"SW"},{"time":2,"station_id":"JUA","is_transit":false,"distance":1149,"i_lat":-6.166716,"i_long":106.828284,"line":2,"transit":false,"station_name":"Juanda"},{"i_lat":-6.186295,"station_name":"Gondangdia","transit":false,"is_transit":false,"station_id":"GDD","distance":2015,"time":4,"line":2,"i_long":106.832183},{"i_lat":-6.198556,"i_long":106.840169,"station_name":"Cikini","line":2,"time":3,"distance":1750,"is_transit":false,"transit":false,"station_id":"CKI"},{"i_lat":-6.209883,"i_long":106.84912,"time":4,"station_id":"MRI","station_name":"Manggarai","is_transit":false,"line":2,"transit":false,"distance":1590},{"line":2,"distance":2610,"station_name":"Tebet","transit":false,"is_transit":false,"i_lat":-6.226659,"time":4,"i_long":106.857948,"station_id":"TEB"},{"i_long":106.856607,"time":2,"is_transit":false,"station_id":"CW","line":2,"i_lat":-6.242512,"distance":1230,"transit":false,"station_name":"Cawang"},{"time":3,"i_long":106.85449,"i_lat":-6.255332,"station_id":"DRN","station_name":"Duren Kalibata","distance":1546,"transit":false,"is_transit":false,"line":2},{"distance":824,"station_id":"PSMB","station_name":"Pasar Minggu Baru","is_transit":false,"transit":false,"i_lat":-6.263214,"i_long":106.851577,"line":2,"time":2},{"is_transit":false,"station_id":"PSM","distance":2380,"time":2,"i_long":106.843999,"line":2,"transit":false,"station_name":"Pasar Minggu","i_lat":-6.2842400000000005},{"line":2,"i_lat":-6.3080680000000005,"transit":false,"station_name":"Tanjung Barat","station_id":"TNT","distance":2820,"time":4,"is_transit":false,"i_long":106.838896},{"transit":false,"line":2,"i_lat":-6.330363,"station_id":"LNA","is_transit":false,"distance":2671,"station_name":"Lenteng Agung","i_long":106.832616,"time":3},{"time":2,"transit":false,"is_transit":false,"station_id":"UP","i_lat":-6.339291,"distance":1029,"line":2,"station_name":"Univ. Pancasila","i_long":106.834175},{"is_transit":false,"line":2,"time":3,"i_long":106.831474,"i_lat":-6.360749,"distance":2264,"station_id":"UI","transit":false,"station_name":"Univ. Indonesia"},{"station_name":"Pondok Cina","is_transit":false,"distance":1109,"i_lat":-6.369073,"line":2,"time":2,"i_long":106.831114,"transit":false,"station_id":"POC"},{"is_transit":false,"line":2,"distance":2727,"station_id":"DPB","transit":false,"i_lat":-6.391065,"time":4,"i_long":106.819451,"station_name":"Depokbaru"},{"transit":false,"time":3,"i_long":106.816926,"station_id":"DP","distance":1584,"i_lat":-6.405256,"line":2,"station_name":"Depok","is_transit":false},{"i_lat":-6.448811,"is_transit":false,"i_long":106.800298,"time":6,"station_name":"Citayam","line":2,"distance":5084,"station_id":"CTA","transit":false}],[{"distance":0,"station_id":"MJ","is_transit":false,"i_lat":-6.332307,"i_long":106.394373,"transit":false,"station_name":"Maja","line":6,"time":0},{"station_name":"Cikoya","i_lat":-6.33561,"line":3,"is_transit":false,"distance":1853,"transit":false,"station_id":"CKY","time":4,"i_long":106.411216},{"time":3,"distance":2651,"is_transit":false,"line":6,"station_name":"Tigaraksa","station_id":"TGS","transit":false,"i_long":106.425991,"i_lat":-6.328533},{"i_lat":-6.327251,"station_id":"TEJ","line":6,"i_long":106.460812,"time":5,"station_name":"Tenjo","is_transit":false,"distance":2974,"transit":false},{"i_lat":-6.338021,"transit":false,"station_id":"DAR","line":0,"station_name":"Daru","time":5,"distance":3902,"is_transit":false,"i_long":106.491338},{"is_transit":false,"transit":false,"station_name":"Cilejit","distance":2675,"time":6,"station_id":"CJT","line":3,"i_lat":-6.354349,"i_long":106.508482},{"time":9,"is_transit":false,"station_name":"Parung Panjang","i_lat":-6.3441410000000005,"transit":false,"station_id":"PRP","line":6,"distance":7025,"i_long":106.568863},{"distance":5968,"i_long":106.617853,"line":3,"time":8,"station_name":"Cicayur","i_lat":-6.329547,"transit":false,"station_id":"CC","is_transit":false},{"is_transit":false,"distance":2519,"line":3,"i_lat":-6.32484,"i_long":106.640411,"time":4,"station_name":"Cisauk","station_id":"CSK","transit":false},{"distance":1784,"i_long":106.66566,"transit":false,"i_lat":-6.319871,"is_transit":false,"line":6,"time":4,"station_name":"Serpong","station_id":"SRP"},{"station_name":"Rawa Buntu","time":4,"i_long":106.675475,"line":6,"station_id":"RU","distance":2413,"transit":false,"i_lat":-6.314823,"is_transit":false},{"i_lat":-6.296963,"station_id":"SDM","distance":4566,"station_name":"Sudimara","is_transit":false,"transit":false,"line":6,"i_long":106.712277,"time":6},{"transit":false,"distance":1994,"station_name":"Jurangmangu","is_transit":false,"time":4,"line":6,"i_lat":-6.288927,"i_long":106.728916,"station_id":"JMU"},{"line":6,"i_lat":-6.276362,"distance":2179,"i_long":106.74273,"station_name":"Pondokranji","is_transit":false,"transit":false,"time":3,"station_id":"PDJ"},{"distance":6218,"station_name":"Kebayoran","is_transit":false,"i_long":106.780334,"line":6,"i_lat":-6.237242,"transit":false,"time":8,"station_id":"KBY"},{"line":6,"i_long":106.79689,"time":7,"transit":false,"station_name":"Palmerah","is_transit":false,"distance":3737,"i_lat":-6.207404,"station_id":"PLM"},{"distance":3191,"transit":true,"is_transit":true,"line":1,"station_id":"THB","station_name":"Tanah Abang","i_long":106.811091,"i_lat":-6.185545,"time":6},{"i_lat":-6.155215,"i_long":106.800832,"is_transit":false,"line":1,"station_id":"DU","distance":3632,"time":8,"station_name":"Duri","transit":false},{"station_id":"AK","distance":1230,"i_lat":-6.144674,"line":1,"is_transit":false,"i_long":106.79867,"time":4,"station_name":"Angke","transit":false},{"transit":true,"distance":4102,"is_transit":true,"i_lat":-6.132549,"i_long":106.826365,"line":4,"time":9,"station_name":"Kampung Bandan","station_id":"KPB"},{"transit":false,"station_name":"Rajawali","time":3,"distance":1444,"station_id":"RJW","i_long":106.836569,"i_lat":-6.14505,"is_transit":false,"line":11},{"is_transit":false,"transit":false,"i_lat":-6.161728,"i_long":106.839204,"station_name":"Kemayoran","time":5,"distance":1901,"station_id":"KMO","line":11},{"is_transit":false,"station_id":"PSE","i_lat":-6.174784,"distance":1436,"line":11,"station_name":"Pasar Senen","i_long":106.84368,"time":4,"transit":false},{"line":11,"is_transit":false,"i_lat":-6.185975,"time":8,"station_name":"Gang Sentiong","distance":1567,"station_id":"GST","i_long":106.850107,"transit":false},{"is_transit":false,"station_id":"KMT","i_lat":-6.193792,"i_long":106.855437,"station_name":"Kramat","line":11,"time":1,"distance":973,"transit":false},{"station_id":"POK","time":2,"transit":false,"station_name":"Pondok Jati","i_lat":-6.209188,"is_transit":false,"i_long":106.861737,"line":11,"distance":1829},{"distance":1236,"i_lat":-6.215091,"i_long":106.86807400000001,"line":1,"time":9,"is_transit":true,"station_name":"Jatinegara","station_id":"JNG","transit":true},{"is_transit":false,"i_long":106.858896,"station_name":"Matraman","line":1,"transit":false,"station_id":"MTR","i_lat":-6.212485,"time":2,"distance":1377},{"distance":1275,"is_transit":true,"i_lat":-6.209883,"station_name":"Manggarai","time":2,"i_long":106.84912,"station_id":"MRI","line":2,"transit":true},{"line":2,"time":4,"i_long":106.857948,"station_id":"TEB","transit":false,"station_name":"Tebet","distance":2610,"is_transit":false,"i_lat":-6.226659},{"i_long":106.856607,"station_id":"CW","i_lat":-6.242512,"line":2,"station_name":"Cawang","time":2,"distance":1230,"is_transit":false,"transit":false},{"station_name":"Duren Kalibata","distance":1546,"i_long":106.85449,"line":2,"time":3,"is_transit":false,"station_id":"DRN","i_lat":-6.255332,"transit":false},{"i_long":106.851577,"time":2,"transit":false,"i_lat":-6.263214,"is_transit":false,"line":2,"distance":824,"station_name":"Pasar Minggu Baru","station_id":"PSMB"},{"i_long":106.843999,"station_id":"PSM","is_transit":false,"transit":false,"time":2,"station_name":"Pasar Minggu","i_lat":-6.2842400000000005,"distance":2380,"line":2},{"time":4,"distance":2820,"i_long":106.838896,"station_name":"Tanjung Barat","line":2,"is_transit":false,"station_id":"TNT","i_lat":-6.3080680000000005,"transit":false},{"transit":false,"time":3,"station_name":"Lenteng Agung","distance":2671,"i_lat":-6.330363,"i_long":106.832616,"station_id":"LNA","line":2,"is_transit":false},{"transit":false,"i_long":106.834175,"line":2,"time":2,"distance":1029,"station_id":"UP","i_lat":-6.339291,"station_name":"Univ. Pancasila","is_transit":false},{"station_id":"UI","i_long":106.831474,"time":3,"distance":2264,"is_transit":false,"line":2,"station_name":"Univ. Indonesia","i_lat":-6.360749,"transit":false},{"is_transit":false,"i_lat":-6.369073,"i_long":106.831114,"station_id":"POC","distance":1109,"line":2,"time":2,"transit":false,"station_name":"Pondok Cina"},{"station_name":"Depokbaru","transit":false,"time":4,"i_lat":-6.391065,"distance":2727,"is_transit":false,"i_long":106.819451,"line":2,"station_id":"DPB"},{"station_name":"Depok","distance":1584,"line":2,"i_lat":-6.405256,"transit":false,"station_id":"DP","i_long":106.816926,"is_transit":false,"time":3},{"i_long":106.800298,"time":6,"distance":5084,"transit":false,"i_lat":-6.448811,"line":2,"is_transit":false,"station_name":"Citayam","station_id":"CTA"}]]}