{"data":[[{"i_long":106.394373,"station_name":"Maja","line":6,"station_id":"MJ","is_transit":false,"time":0,"distance":0,"transit":false,"i_lat":-6.332307},{"is_transit":false,"station_name":"Cikoya","time":4,"station_id":"CKY","distance":1853,"i_lat":-6.33561,"i_long":106.411216,"line":0,"transit":false},{"i_long":106.425991,"distance":2651,"transit":false,"is_transit":false,"time":3,"station_id":"TGS","line":6,"i_lat":-6.328533,"station_name":"Tigaraksa"},{"transit":false,"i_lat":-6.327251,"station_name":"Tenjo","i_long":106.460812,"station_id":"TEJ","is_transit":false,"line":6,"time":5,"distance":2974},{"transit":false,"station_id":"DAR","time":5,"station_name":"Daru","line":0,"is_transit":false,"distance":3902,"i_lat":-6.338021,"i_long":106.491338},{"is_transit":false,"distance":2675,"station_name":"Cilejit","transit":false,"station_id":"CJT","line":0,"i_long":106.508482,"i_lat":-6.354349,"time":6}]]}