{"data":[[{"distance":0,"station_id":"MJ","station_name":"Maja","line":6,"i_lat":-6.332307,"transit":false,"i_long":106.394373,"time":0,"is_transit":false},{"i_lat":-6.33561,"time":4,"i_long":106.411216,"station_name":"Cikoya","station_id":"CKY","line":3,"is_transit":false,"distance":1853,"transit":false},{"distance":2651,"station_name":"Tigaraksa","station_id":"TGS","transit":false,"is_transit":false,"i_long":106.425991,"line":6,"i_lat":-6.328533,"time":3},{"distance":2974,"i_long":106.460812,"line":6,"time":5,"transit":false,"station_name":"Tenjo","i_lat":-6.327251,"station_id":"TEJ","is_transit":false},{"is_transit":false,"station_name":"Daru","i_lat":-6.338021,"i_long":106.491338,"station_id":"DAR","transit":false,"line":0,"time":5,"distance":3902},{"line":3,"is_transit":false,"station_id":"CJT","time":6,"i_long":106.508482,"transit":false,"station_name":"Cilejit","distance":2675,"i_lat":-6.354349},{"is_transit":false,"time":9,"i_long":106.568863,"line":6,"transit":false,"station_name":"Parung Panjang","distance":7025,"i_lat":-6.3441410000000005,"station_id":"PRP"},{"time":8,"line":3,"station_name":"Cicayur","transit":false,"station_id":"CC","is_transit":false,"distance":5968,"i_lat":-6.329547,"i_long":106.617853},{"i_lat":-6.32484,"time":4,"station_id":"CSK","line":3,"transit":false,"is_transit":false,"distance":2519,"i_long":106.640411,"station_name":"Cisauk"},{"is_transit":false,"time":4,"transit":false,"i_lat":-6.319871,"line":6,"station_name":"Serpong","station_id":"SRP","distance":1784,"i_long":106.66566},{"distance":2413,"i_long":106.675475,"transit":false,"i_lat":-6.314823,"line":6,"is_transit":false,"station_name":"Rawa Buntu","time":4,"station_id":"RU"},{"station_name":"Sudimara","line":6,"station_id":"SDM","time":6,"transit":false,"is_transit":false,"distance":4566,"i_lat":-6.296963,"i_long":106.712277},{"i_lat":-6.288927,"station_id":"JMU","station_name":"Jurangmangu","time":4,"line":6,"transit":false,"is_transit":false,"distance":1994,"i_long":106.728916},{"distance":2179,"station_id":"PDJ","i_long":106.74273,"transit":false,"station_name":"Pondokranji","is_transit":false,"time":3,"line":6,"i_lat":-6.276362},{"transit":false,"distance":6218,"line":6,"is_transit":false,"station_name":"Kebayoran","time":8,"station_id":"KBY","i_long":106.780334,"i_lat":-6.237242},{"line":6,"distance":3737,"station_id":"PLM","i_long":106.79689,"transit":false,"station_name":"Palmerah","is_transit":false,"i_lat":-6.207404,"time":7},{"station_name":"Tanah Abang","i_long":106.811091,"transit":true,"distance":3191,"is_transit":true,"time":6,"station_id":"THB","line":1,"i_lat":-6.185545},{"distance":2029,"line":1,"i_lat":-6.20132,"station_id":"KAT","station_name":"Karet","time":5,"transit":false,"is_transit":false,"i_long":106.816351},{"transit":false,"time":1,"station_id":"SUDB","line":1,"station_name":"Sudirman Baru","is_transit":false,"i_lat":-6.201433,"distance":471,"i_long":106.819881},{"station_name":"Sudirman","time":1,"i_long":106.822649,"line":1,"i_lat":-6.202263,"station_id":"SUD","transit":false,"distance":280,"is_transit":false},{"transit":false,"i_long":106.84912,"line":2,"i_lat":-6.209883,"distance":3186,"station_name":"Manggarai","time":4,"station_id":"MRI","is_transit":false},{"line":1,"is_transit":false,"station_name":"Matraman","station_id":"MTR","time":2,"i_long":106.858896,"i_lat":-6.212485,"transit":false,"distance":1275},{"is_transit":false,"distance":1377,"i_lat":-6.215091,"station_id":"JNG","transit":false,"i_long":106.86807400000001,"line":1,"time":8,"station_name":"Jatinegara"},{"is_transit":false,"time":3,"distance":3395,"i_lat":-6.2135,"station_name":"Klender","station_id":"KLD","i_long":106.899548,"line":1,"transit":false},{"is_transit":false,"i_lat":-6.215568,"transit":false,"station_name":"Buaran","station_id":"BUA","time":2,"i_long":106.922662,"line":1,"distance":3100},{"line":1,"station_name":"Klenderbaru","time":1,"distance":1305,"is_transit":false,"i_lat":-6.217455,"i_long":106.939679,"transit":false,"station_id":"KLDB"},{"is_transit":false,"station_id":"CUK","line":1,"time":8,"transit":false,"i_lat":-6.219053,"distance":1385,"station_name":"Cakung","i_long":106.951283},{"line":1,"i_long":106.977657,"station_id":"KRI","is_transit":false,"transit":false,"i_lat":-6.224515,"distance":3097,"station_name":"Kranji","time":3},{"transit":false,"i_lat":-6.236616,"is_transit":false,"line":1,"station_id":"BKS","station_name":"Bekasi","time":4,"distance":2520,"i_long":106.997013},{"distance":2368,"station_name":"Bekasi Timur","station_id":"BKST","time":2,"i_long":107.016735,"line":1,"is_transit":false,"i_lat":-6.248029,"transit":false},{"distance":4460,"i_long":107.055722,"station_name":"Tambun","is_transit":false,"line":1,"transit":false,"i_lat":-6.258864,"station_id":"TB","time":7},{"distance":3420,"station_name":"Cibitung","i_long":107.083084,"line":1,"time":3,"i_lat":-6.261877,"transit":false,"station_id":"CIT","is_transit":false},{"station_id":"TLM","transit":false,"i_lat":-6.262938,"station_name":"Metland Telaga Murni","distance":2800,"is_transit":false,"time":2,"i_long":107.093313,"line":1},{"i_lat":-6.2553149999999995,"transit":false,"time":4,"distance":3689,"station_name":"Cikarang","is_transit":false,"station_id":"CKR","line":1,"i_long":107.144613}],[{"time":0,"distance":0,"is_transit":false,"i_lat":-6.332307,"transit":false,"station_name":"Maja","line":6,"station_id":"MJ","i_long":106.394373},{"time":4,"distance":1853,"station_name":"Cikoya","transit":false,"i_long":106.411216,"is_transit":false,"station_id":"CKY","line":3,"i_lat":-6.33561},{"i_lat":-6.328533,"i_long":106.425991,"station_id":"TGS","distance":2651,"station_name":"Tigaraksa","is_transit":false,"time":3,"transit":false,"line":6},{"transit":false,"line":6,"i_long":106.460812,"is_transit":false,"station_id":"TEJ","distance":2974,"station_name":"Tenjo","time":5,"i_lat":-6.327251},{"station_id":"DAR","time":5,"i_long":106.491338,"station_name":"Daru","line":0,"is_transit":false,"transit":false,"distance":3902,"i_lat":-6.338021},{"i_lat":-6.354349,"is_transit":false,"station_id":"CJT","time":6,"i_long":106.508482,"transit":false,"distance":2675,"station_name":"Cilejit","line":3},{"station_id":"PRP","station_name":"Parung Panjang","i_lat":-6.3441410000000005,"is_transit":false,"transit":false,"distance":7025,"line":6,"i_long":106.568863,"time":9},{"distance":5968,"transit":false,"i_long":106.617853,"station_name":"Cicayur","station_id":"CC","i_lat":-6.329547,"line":3,"time":8,"is_transit":false},{"i_long":106.640411,"distance":2519,"is_transit":false,"time":4,"station_id":"CSK","transit":false,"line":3,"i_lat":-6.32484,"station_name":"Cisauk"},{"station_name":"Serpong","distance":1784,"transit":false,"station_id":"SRP","is_transit":false,"time":4,"i_long":106.66566,"line":6,"i_lat":-6.319871},{"station_id":"RU","line":6,"transit":false,"station_name":"Rawa Buntu","time":4,"i_lat":-6.314823,"is_transit":false,"i_long":106.675475,"distance":2413},{"line":6,"transit":false,"station_name":"Sudimara","i_lat":-6.296963,"time":6,"distance":4566,"is_transit":false,"station_id":"SDM","i_long":106.712277},{"time":4,"line":6,"station_name":"Jurangmangu","distance":1994,"transit":false,"is_transit":false,"i_lat":-6.288927,"i_long":106.728916,"station_id":"JMU"},{"transit":false,"i_long":106.74273,"station_id":"PDJ","time":3,"distance":2179,"station_name":"Pondokranji","is_transit":false,"line":6,"i_lat":-6.276362},{"line":6,"i_lat":-6.237242,"transit":false,"is_transit":false,"time":8,"distance":6218,"i_long":106.780334,"station_name":"Kebayoran","station_id":"KBY"},{"line":6,"station_name":"Palmerah","is_transit":false,"distance":3737,"transit":false,"i_lat":-6.207404,"i_long":106.79689,"time":7,"station_id":"PLM"},{"is_transit":true,"i_lat":-6.185545,"line":1,"station_id":"THB","transit":true,"station_name":"Tanah Abang","distance":3191,"time":6,"i_long":106.811091},{"transit":false,"line":1,"station_id":"DU","i_long":106.800832,"station_name":"Duri","time":8,"is_transit":false,"distance":3632,"i_lat":-6.155215},{"is_transit":false,"station_name":"Angke","i_lat":-6.144674,"line":1,"time":4,"station_id":"AK","i_long":106.79867,"distance":1230,"transit":false},{"is_transit":true,"station_id":"KPB","transit":true,"i_lat":-6.132549,"line":4,"station_name":"Kampung Bandan","time":9,"distance":4102,"i_long":106.826365},{"i_long":106.836569,"transit":false,"distance":1444,"is_transit":false,"station_name":"Rajawali","station_id":"RJW","i_lat":-6.14505,"time":3,"line":11},{"i_lat":-6.161728,"i_long":106.839204,"is_transit":false,"time":5,"line":11,"station_name":"Kemayoran","station_id":"KMO","transit":false,"distance":1901},{"transit":false,"is_transit":false,"time":4,"i_lat":-6.174784,"line":11,"station_id":"PSE","station_name":"Pasar Senen","distance":1436,"i_long":106.84368},{"i_long":106.850107,"station_id":"GST","time":8,"station_name":"Gang Sentiong","i_lat":-6.185975,"line":11,"transit":false,"is_transit":false,"distance":1567},{"transit":false,"station_name":"Kramat","i_long":106.855437,"station_id":"KMT","time":1,"distance":973,"line":11,"is_transit":false,"i_lat":-6.193792},{"line":11,"station_name":"Pondok Jati","station_id":"POK","is_transit":false,"distance":1829,"i_lat":-6.209188,"i_long":106.861737,"transit":false,"time":2},{"i_long":106.86807400000001,"line":1,"transit":true,"i_lat":-6.215091,"station_id":"JNG","is_transit":true,"distance":1236,"station_name":"Jatinegara","time":9},{"is_transit":false,"time":3,"i_long":106.899548,"line":1,"transit":false,"distance":3395,"station_name":"Klender","i_lat":-6.2135,"station_id":"KLD"},{"transit":false,"distance":3100,"i_lat":-6.215568,"time":2,"line":1,"is_transit":false,"station_name":"Buaran","station_id":"BUA","i_long":106.922662},{"distance":1305,"is_transit":false,"line":1,"i_long":106.939679,"transit":false,"time":1,"station_name":"Klenderbaru","i_lat":-6.217455,"station_id":"KLDB"},{"line":1,"station_id":"CUK","i_lat":-6.219053,"time":8,"station_name":"Cakung","distance":1385,"is_transit":false,"transit":false,"i_long":106.951283},{"is_transit":false,"transit":false,"i_lat":-6.224515,"station_id":"KRI","time":3,"line":1,"station_name":"Kranji","i_long":106.977657,"distance":3097},{"i_long":106.997013,"is_transit":false,"station_name":"Bekasi","transit":false,"time":4,"station_id":"BKS","line":1,"i_lat":-6.236616,"distance":2520},{"i_lat":-6.248029,"station_id":"BKST","station_name":"Bekasi Timur","is_transit":false,"distance":2368,"i_long":107.016735,"line":1,"time":2,"transit":false},{"i_long":107.055722,"line":1,"i_lat":-6.258864,"station_id":"TB","is_transit":false,"distance":4460,"transit":false,"station_name":"Tambun","time":7},{"i_lat":-6.261877,"transit":false,"i_long":107.083084,"time":3,"distance":3420,"line":1,"station_name":"Cibitung","is_transit":false,"station_id":"CIT"},{"i_lat":-6.262938,"station_name":"Metland Telaga Murni","station_id":"TLM","transit":false,"line":1,"distance":2800,"is_transit":false,"time":2,"i_long":107.093313},{"i_lat":-6.2553149999999995,"time":4,"transit":false,"line":1,"i_long":107.144613,"distance":3689,"station_name":"Cikarang","station_id":"CKR","is_transit":false}],[{"transit":false,"distance":0,"is_transit":false,"station_id":"MJ","time":0,"i_lat":-6.332307,"line":6,"station_name":"Maja","i_long":106.394373},{"i_lat":-6.33561,"time":4,"transit":false,"station_id":"CKY","station_name":"Cikoya","line":3,"is_transit":false,"distance":1853,"i_long":106.411216},{"time":3,"station_name":"Tigaraksa","distance":2651,"transit":false,"i_long":106.425991,"station_id":"TGS","is_transit":false,"i_lat":-6.328533,"line":6},{"line":6,"i_long":106.460812,"is_transit":false,"time":5,"i_lat":-6.327251,"station_name":"Tenjo","transit":false,"station_id":"TEJ","distance":2974},{"is_transit":false,"i_lat":-6.338021,"i_long":106.491338,"line":0,"time":5,"transit":false,"station_id":"DAR","station_name":"Daru","distance":3902},{"station_id":"CJT","transit":false,"time":6,"i_lat":-6.354349,"line":3,"is_transit":false,"station_name":"Cilejit","distance":2675,"i_long":106.508482},{"is_transit":false,"line":6,"time":9,"transit":false,"i_long":106.568863,"station_id":"PRP","station_name":"Parung Panjang","i_lat":-6.3441410000000005,"distance":7025},{"station_id":"CC","time":8,"transit":false,"i_lat":-6.329547,"i_long":106.617853,"line":3,"is_transit":false,"station_name":"Cicayur","distance":5968},{"station_id":"CSK","i_long":106.640411,"transit":false,"time":4,"line":3,"station_name":"Cisauk","is_transit":false,"distance":2519,"i_lat":-6.32484},{"time":4,"line":6,"distance":1784,"station_name":"Serpong","i_lat":-6.319871,"is_transit":false,"station_id":"SRP","transit":false,"i_long":106.66566},{"is_transit":false,"station_name":"Rawa Buntu","station_id":"RU","transit":false,"time":4,"i_lat":-6.314823,"line":6,"i_long":106.675475,"distance":2413},{"distance":4566,"transit":false,"station_id":"SDM","is_transit":false,"i_lat":-6.296963,"station_name":"Sudimara","time":6,"i_long":106.712277,"line":6},{"station_id":"JMU","distance":1994,"i_long":106.728916,"is_transit":false,"line":6,"time":4,"station_name":"Jurangmangu","i_lat":-6.288927,"transit":false},{"i_long":106.74273,"transit":false,"station_name":"Pondokranji","distance":2179,"station_id":"PDJ","time":3,"i_lat":-6.276362,"is_transit":false,"line":6},{"time":8,"i_long":106.780334,"transit":false,"station_id":"KBY","station_name":"Kebayoran","is_transit":false,"line":6,"i_lat":-6.237242,"distance":6218},{"distance":3737,"line":6,"i_long":106.79689,"station_id":"PLM","i_lat":-6.207404,"time":7,"is_transit":false,"transit":false,"station_name":"Palmerah"},{"distance":3191,"time":6,"i_long":106.811091,"line":1,"station_name":"Tanah Abang","station_id":"THB","transit":true,"is_transit":true,"i_lat":-6.185545},{"distance":3632,"i_lat":-6.155215,"time":8,"is_transit":false,"transit":false,"station_name":"Duri","i_long":106.800832,"line":1,"station_id":"DU"},{"is_transit":false,"i_lat":-6.144674,"time":4,"i_long":106.79867,"station_name":"Angke","station_id":"AK","distance":1230,"transit":false,"line":1},{"is_transit":true,"distance":4102,"i_long":106.826365,"time":9,"line":4,"transit":true,"i_lat":-6.132549,"station_name":"Kampung Bandan","station_id":"KPB"},{"station_id":"JAKK","distance":1364,"i_long":106.812439,"station_name":"Jakarta Kota","transit":true,"is_transit":true,"time":3,"i_lat":-6.137569,"line":2},{"distance":1264,"i_lat":-6.141205,"line":2,"is_transit":false,"station_name":"Jayakarta","station_id":"JAY","i_long":106.820901,"time":4,"transit":false},{"i_long":106.82482,"i_lat":-6.149769,"is_transit":false,"transit":false,"distance":1080,"station_name":"Manggabesar","station_id":"MGB","line":2,"time":2},{"time":2,"distance":906,"transit":false,"station_name":"Sawah Besar","i_long":106.827103,"line":2,"station_id":"SW","i_lat":-6.160725,"is_transit":false},{"distance":1149,"i_lat":-6.166716,"is_transit":false,"i_long":106.828284,"station_id":"JUA","transit":false,"station_name":"Juanda","time":2,"line":2},{"station_id":"GDD","line":2,"station_name":"Gondangdia","transit":false,"time":4,"i_long":106.832183,"is_transit":false,"distance":2015,"i_lat":-6.186295},{"station_name":"Cikini","station_id":"CKI","transit":false,"is_transit":false,"i_lat":-6.198556,"i_long":106.840169,"distance":1750,"line":2,"time":3},{"i_long":106.84912,"time":4,"i_lat":-6.209883,"distance":1590,"transit":true,"station_id":"MRI","station_name":"Manggarai","line":2,"is_transit":true},{"station_id":"MTR","i_lat":-6.212485,"is_transit":false,"time":2,"line":1,"transit":false,"distance":1275,"i_long":106.858896,"station_name":"Matraman"},{"station_id":"JNG","i_long":106.86807400000001,"i_lat":-6.215091,"line":1,"is_transit":false,"time":8,"station_name":"Jatinegara","transit":false,"distance":1377},{"time":3,"distance":3395,"i_lat":-6.2135,"i_long":106.899548,"line":1,"station_name":"Klender","transit":false,"station_id":"KLD","is_transit":false},{"i_lat":-6.215568,"line":1,"station_id":"BUA","is_transit":false,"transit":false,"distance":3100,"time":2,"i_long":106.922662,"station_name":"Buaran"},{"time":1,"station_name":"Klenderbaru","distance":1305,"i_long":106.939679,"line":1,"i_lat":-6.217455,"transit":false,"is_transit":false,"station_id":"KLDB"},{"time":8,"transit":false,"station_name":"Cakung","distance":1385,"i_lat":-6.219053,"i_long":106.951283,"station_id":"CUK","line":1,"is_transit":false},{"station_name":"Kranji","time":3,"station_id":"KRI","i_long":106.977657,"is_transit":false,"transit":false,"distance":3097,"i_lat":-6.224515,"line":1},{"i_lat":-6.236616,"distance":2520,"i_long":106.997013,"line":1,"station_name":"Bekasi","station_id":"BKS","transit":false,"is_transit":false,"time":4},{"transit":false,"distance":2368,"i_lat":-6.248029,"station_id":"BKST","i_long":107.016735,"station_name":"Bekasi Timur","is_transit":false,"time":2,"line":1},{"line":1,"distance":4460,"station_name":"Tambun","station_id":"TB","time":7,"transit":false,"i_long":107.055722,"i_lat":-6.258864,"is_transit":false},{"station_name":"Cibitung","time":3,"i_lat":-6.261877,"i_long":107.083084,"transit":false,"station_id":"CIT","distance":3420,"line":1,"is_transit":false},{"time":2,"distance":2800,"i_long":107.093313,"line":1,"station_id":"TLM","i_lat":-6.262938,"station_name":"Metland Telaga Murni","is_transit":false,"transit":false},{"transit":false,"station_name":"Cikarang","is_transit":false,"i_long":107.144613,"time":4,"station_id":"CKR","line":1,"distance":3689,"i_lat":-6.2553149999999995}],[{"station_id":"MJ","time":0,"i_lat":-6.332307,"line":6,"station_name":"Maja","distance":0,"i_long":106.394373,"is_transit":false,"transit":false},{"time":4,"is_transit":false,"i_long":106.411216,"station_name":"Cikoya","distance":1853,"transit":false,"i_lat":-6.33561,"line":3,"station_id":"CKY"},{"line":6,"transit":false,"i_lat":-6.328533,"i_long":106.425991,"is_transit":false,"station_name":"Tigaraksa","station_id":"TGS","distance":2651,"time":3},{"station_name":"Tenjo","i_lat":-6.327251,"station_id":"TEJ","time":5,"line":6,"i_long":106.460812,"transit":false,"is_transit":false,"distance":2974},{"is_transit":false,"transit":false,"station_id":"DAR","distance":3902,"i_lat":-6.338021,"i_long":106.491338,"station_name":"Daru","line":0,"time":5},{"distance":2675,"transit":false,"line":3,"station_name":"Cilejit","i_lat":-6.354349,"i_long":106.508482,"time":6,"station_id":"CJT","is_transit":false},{"transit":false,"distance":7025,"i_lat":-6.3441410000000005,"station_name":"Parung Panjang","i_long":106.568863,"time":9,"line":6,"is_transit":false,"station_id":"PRP"},{"is_transit":false,"transit":false,"i_long":106.617853,"line":3,"distance":5968,"station_name":"Cicayur","station_id":"CC","i_lat":-6.329547,"time":8},{"is_transit":false,"station_id":"CSK","i_lat":-6.32484,"station_name":"Cisauk","distance":2519,"transit":false,"line":3,"time":4,"i_long":106.640411},{"is_transit":false,"i_long":106.66566,"distance":1784,"i_lat":-6.319871,"transit":false,"station_name":"Serpong","time":4,"line":6,"station_id":"SRP"},{"is_transit":false,"distance":2413,"station_name":"Rawa Buntu","transit":false,"time":4,"i_long":106.675475,"line":6,"station_id":"RU","i_lat":-6.314823},{"transit":false,"line":6,"distance":4566,"station_id":"SDM","i_long":106.712277,"time":6,"station_name":"Sudimara","is_transit":false,"i_lat":-6.296963},{"i_lat":-6.288927,"line":6,"is_transit":false,"transit":false,"time":4,"station_name":"Jurangmangu","station_id":"JMU","distance":1994,"i_long":106.728916},{"time":3,"distance":2179,"line":6,"station_name":"Pondokranji","is_transit":false,"i_long":106.74273,"i_lat":-6.276362,"station_id":"PDJ","transit":false},{"transit":false,"time":8,"line":6,"station_id":"KBY","distance":6218,"i_lat":-6.237242,"station_name":"Kebayoran","is_transit":false,"i_long":106.780334},{"time":7,"i_long":106.79689,"station_name":"Palmerah","is_transit":false,"i_lat":-6.207404,"station_id":"PLM","transit":false,"distance":3737,"line":6},{"station_id":"THB","station_name":"Tanah Abang","transit":true,"i_long":106.811091,"line":1,"time":6,"distance":3191,"is_transit":true,"i_lat":-6.185545},{"time":5,"transit":false,"i_long":106.816351,"i_lat":-6.20132,"distance":2029,"line":1,"station_name":"Karet","is_transit":false,"station_id":"KAT"},{"line":1,"distance":471,"time":1,"station_id":"SUDB","station_name":"Sudirman Baru","transit":false,"is_transit":false,"i_long":106.819881,"i_lat":-6.201433},{"transit":false,"station_id":"SUD","i_long":106.822649,"distance":280,"time":1,"station_name":"Sudirman","line":1,"is_transit":false,"i_lat":-6.202263},{"is_transit":true,"distance":3186,"time":4,"i_lat":-6.209883,"line":2,"transit":true,"station_id":"MRI","i_long":106.84912,"station_name":"Manggarai"},{"is_transit":false,"time":4,"distance":1590,"i_lat":-6.198556,"i_long":106.840169,"station_name":"Cikini","station_id":"CKI","line":2,"transit":false},{"i_long":106.832183,"station_name":"Gondangdia","time":3,"distance":1750,"line":2,"transit":false,"is_transit":false,"station_id":"GDD","i_lat":-6.186295},{"i_lat":-6.166716,"is_transit":false,"i_long":106.828284,"station_name":"Juanda","distance":2015,"transit":false,"time":4,"station_id":"JUA","line":2},{"is_transit":false,"transit":false,"line":2,"station_name":"Sawah Besar","distance":1149,"time":2,"station_id":"SW","i_long":106.827103,"i_lat":-6.160725},{"time":2,"i_long":106.82482,"station_id":"MGB","station_name":"Manggabesar","distance":906,"line":2,"transit":false,"is_transit":false,"i_lat":-6.149769},{"station_name":"Jayakarta","station_id":"JAY","distance":1080,"transit":false,"i_lat":-6.141205,"is_transit":false,"time":2,"i_long":106.820901,"line":2},{"is_transit":true,"i_lat":-6.137569,"station_name":"Jakarta Kota","station_id":"JAKK","time":4,"i_long":106.812439,"distance":1264,"line":2,"transit":true},{"time":3,"i_lat":-6.132549,"transit":true,"is_transit":true,"i_long":106.826365,"station_id":"KPB","line":4,"station_name":"Kampung Bandan","distance":1364},{"transit":false,"is_transit":false,"distance":1444,"i_lat":-6.14505,"station_id":"RJW","time":3,"i_long":106.836569,"line":11,"station_name":"Rajawali"},{"distance":1901,"i_lat":-6.161728,"i_long":106.839204,"is_transit":false,"station_name":"Kemayoran","line":11,"transit":false,"station_id":"KMO","time":5},{"station_name":"Pasar Senen","is_transit":false,"i_lat":-6.174784,"line":11,"transit":false,"station_id":"PSE","time":4,"distance":1436,"i_long":106.84368},{"transit":false,"is_transit":false,"line":11,"station_id":"GST","time":8,"station_name":"Gang Sentiong","i_long":106.850107,"distance":1567,"i_lat":-6.185975},{"i_long":106.855437,"time":1,"distance":973,"i_lat":-6.193792,"station_id":"KMT","station_name":"Kramat","transit":false,"is_transit":false,"line":11},{"line":11,"is_transit":false,"station_name":"Pondok Jati","i_long":106.861737,"time":2,"transit":false,"distance":1829,"i_lat":-6.209188,"station_id":"POK"},{"line":1,"time":9,"station_name":"Jatinegara","i_lat":-6.215091,"transit":true,"station_id":"JNG","distance":1236,"is_transit":true,"i_long":106.86807400000001},{"i_long":106.899548,"line":1,"station_name":"Klender","time":3,"distance":3395,"transit":false,"is_transit":false,"i_lat":-6.2135,"station_id":"KLD"},{"station_id":"BUA","distance":3100,"line":1,"time":2,"i_lat":-6.215568,"i_long":106.922662,"transit":false,"station_name":"Buaran","is_transit":false},{"line":1,"transit":false,"is_transit":false,"time":1,"station_name":"Klenderbaru","distance":1305,"i_long":106.939679,"station_id":"KLDB","i_lat":-6.217455},{"time":8,"i_long":106.951283,"transit":false,"station_name":"Cakung","i_lat":-6.219053,"is_transit":false,"line":1,"station_id":"CUK","distance":1385},{"time":3,"transit":false,"is_transit":false,"station_id":"KRI","distance":3097,"station_name":"Kranji","i_long":106.977657,"i_lat":-6.224515,"line":1},{"is_transit":false,"station_id":"BKS","time":4,"line":1,"distance":2520,"station_name":"Bekasi","i_long":106.997013,"i_lat":-6.236616,"transit":false},{"line":1,"transit":false,"distance":2368,"i_lat":-6.248029,"i_long":107.016735,"station_id":"BKST","is_transit":false,"station_name":"Bekasi Timur","time":2},{"i_long":107.055722,"is_transit":false,"transit":false,"station_id":"TB","distance":4460,"time":7,"i_lat":-6.258864,"line":1,"station_name":"Tambun"},{"station_id":"CIT","transit":false,"is_transit":false,"time":3,"line":1,"station_name":"Cibitung","i_long":107.083084,"distance":3420,"i_lat":-6.261877},{"transit":false,"station_name":"Metland Telaga Murni","time":2,"distance":2800,"i_lat":-6.262938,"i_long":107.093313,"is_transit":false,"line":1,"station_id":"TLM"},{"transit":false,"is_transit":false,"station_id":"CKR","station_name":"Cikarang","distance":3689,"line":1,"time":4,"i_long":107.144613,"i_lat":-6.2553149999999995}]]}