{"data":[[{"station_id":"MJ","time":0,"i_long":106.394373,"is_transit":false,"i_lat":-6.332307,"station_name":"Maja","transit":false,"distance":0,"line":6},{"station_name":"Cikoya","i_long":106.411216,"transit":false,"time":4,"is_transit":false,"station_id":"CKY","i_lat":-6.33561,"distance":1853,"line":3},{"is_transit":false,"distance":2651,"time":3,"line":6,"station_id":"TGS","station_name":"Tigaraksa","i_lat":-6.328533,"transit":false,"i_long":106.425991},{"distance":2974,"station_name":"Tenjo","i_long":106.460812,"time":5,"i_lat":-6.327251,"line":6,"transit":false,"station_id":"TEJ","is_transit":false},{"i_long":106.491338,"transit":false,"is_transit":false,"station_id":"DAR","distance":3902,"station_name":"Daru","i_lat":-6.338021,"time":5,"line":0},{"line":3,"distance":2675,"i_lat":-6.354349,"i_long":106.508482,"is_transit":false,"time":6,"station_id":"CJT","transit":false,"station_name":"Cilejit"},{"line":6,"transit":false,"i_long":106.568863,"distance":7025,"is_transit":false,"time":9,"station_name":"Parung Panjang","station_id":"PRP","i_lat":-6.3441410000000005},{"station_id":"CC","transit":false,"i_long":106.617853,"station_name":"Cicayur","i_lat":-6.329547,"line":3,"time":8,"is_transit":false,"distance":5968}]]}