{"data":[[{"station_name":"Maja","time":0,"is_transit":false,"i_lat":-6.332307,"i_long":106.394373,"line":6,"station_id":"MJ","distance":0,"transit":false},{"transit":false,"station_id":"CKY","i_long":106.411216,"station_name":"Cikoya","i_lat":-6.33561,"line":3,"is_transit":false,"time":4,"distance":1853},{"time":3,"i_lat":-6.328533,"transit":false,"line":6,"station_name":"Tigaraksa","distance":2651,"station_id":"TGS","is_transit":false,"i_long":106.425991},{"station_id":"TEJ","time":5,"station_name":"Tenjo","i_long":106.460812,"line":6,"is_transit":false,"transit":false,"distance":2974,"i_lat":-6.327251},{"line":0,"time":5,"i_lat":-6.338021,"is_transit":false,"distance":3902,"transit":false,"station_id":"DAR","station_name":"Daru","i_long":106.491338},{"transit":false,"station_id":"CJT","distance":2675,"i_long":106.508482,"station_name":"Cilejit","time":6,"line":3,"is_transit":false,"i_lat":-6.354349},{"station_name":"Parung Panjang","is_transit":false,"distance":7025,"i_long":106.568863,"line":6,"station_id":"PRP","i_lat":-6.3441410000000005,"time":9,"transit":false},{"transit":false,"station_name":"Cicayur","line":3,"i_long":106.617853,"station_id":"CC","is_transit":false,"i_lat":-6.329547,"time":8,"distance":5968},{"distance":2519,"i_lat":-6.32484,"i_long":106.640411,"time":4,"station_name":"Cisauk","station_id":"CSK","is_transit":false,"line":3,"transit":false},{"i_long":106.66566,"i_lat":-6.319871,"line":6,"time":4,"station_name":"Serpong","distance":1784,"station_id":"SRP","transit":false,"is_transit":false},{"station_name":"Rawa Buntu","station_id":"RU","is_transit":false,"time":4,"i_long":106.675475,"line":6,"i_lat":-6.314823,"transit":false,"distance":2413},{"i_long":106.712277,"line":6,"transit":false,"is_transit":false,"time":6,"distance":4566,"station_id":"SDM","station_name":"Sudimara","i_lat":-6.296963},{"line":6,"is_transit":false,"transit":false,"distance":1994,"station_id":"JMU","i_lat":-6.288927,"station_name":"Jurangmangu","i_long":106.728916,"time":4},{"line":6,"i_long":106.74273,"i_lat":-6.276362,"distance":2179,"transit":false,"station_id":"PDJ","station_name":"Pondokranji","time":3,"is_transit":false},{"station_id":"KBY","station_name":"Kebayoran","distance":6218,"time":8,"i_lat":-6.237242,"transit":false,"line":6,"is_transit":false,"i_long":106.780334},{"station_id":"PLM","station_name":"Palmerah","i_long":106.79689,"line":6,"time":7,"is_transit":false,"transit":false,"i_lat":-6.207404,"distance":3737},{"station_id":"THB","station_name":"Tanah Abang","i_lat":-6.185545,"i_long":106.811091,"is_transit":true,"line":1,"transit":true,"time":6,"distance":3191},{"is_transit":false,"station_id":"KAT","time":5,"transit":false,"station_name":"Karet","distance":2029,"i_lat":-6.20132,"i_long":106.816351,"line":1},{"transit":false,"station_id":"SUDB","i_lat":-6.201433,"i_long":106.819881,"station_name":"Sudirman Baru","time":1,"distance":471,"line":1,"is_transit":false},{"station_id":"SUD","station_name":"Sudirman","transit":false,"i_lat":-6.202263,"time":1,"is_transit":false,"distance":280,"i_long":106.822649,"line":1},{"line":2,"time":4,"station_name":"Manggarai","i_long":106.84912,"station_id":"MRI","i_lat":-6.209883,"is_transit":false,"distance":3186,"transit":false},{"transit":false,"time":2,"station_name":"Matraman","is_transit":false,"i_lat":-6.212485,"station_id":"MTR","distance":1275,"i_long":106.858896,"line":1},{"i_lat":-6.215091,"transit":false,"is_transit":false,"station_id":"JNG","time":8,"i_long":106.86807400000001,"station_name":"Jatinegara","line":1,"distance":1377},{"station_id":"KLD","i_long":106.899548,"distance":3395,"time":3,"i_lat":-6.2135,"line":1,"transit":false,"is_transit":false,"station_name":"Klender"},{"distance":3100,"is_transit":false,"station_name":"Buaran","line":1,"transit":false,"i_lat":-6.215568,"station_id":"BUA","time":2,"i_long":106.922662},{"is_transit":false,"i_lat":-6.217455,"station_id":"KLDB","line":1,"time":1,"station_name":"Klenderbaru","transit":false,"distance":1305,"i_long":106.939679},{"i_long":106.951283,"transit":false,"station_id":"CUK","is_transit":false,"line":1,"time":8,"distance":1385,"station_name":"Cakung","i_lat":-6.219053},{"station_id":"KRI","i_long":106.977657,"time":3,"i_lat":-6.224515,"is_transit":false,"distance":3097,"transit":false,"line":1,"station_name":"Kranji"},{"i_long":106.997013,"distance":2520,"time":4,"station_id":"BKS","station_name":"Bekasi","is_transit":false,"transit":false,"line":1,"i_lat":-6.236616},{"i_lat":-6.248029,"line":1,"transit":false,"is_transit":false,"time":2,"station_name":"Bekasi Timur","station_id":"BKST","distance":2368,"i_long":107.016735},{"line":1,"distance":4460,"is_transit":false,"time":7,"i_lat":-6.258864,"station_id":"TB","station_name":"Tambun","i_long":107.055722,"transit":false},{"is_transit":false,"transit":false,"time":3,"distance":3420,"station_name":"Cibitung","i_long":107.083084,"line":1,"i_lat":-6.261877,"station_id":"CIT"},{"is_transit":false,"station_name":"Metland Telaga Murni","i_lat":-6.262938,"distance":2800,"line":1,"station_id":"TLM","time":2,"i_long":107.093313,"transit":false},{"i_long":107.144613,"is_transit":false,"distance":3689,"line":1,"station_name":"Cikarang","transit":false,"station_id":"CKR","i_lat":-6.2553149999999995,"time":4}],[{"is_transit":false,"time":0,"line":6,"distance":0,"i_long":106.394373,"transit":false,"station_id":"MJ","i_lat":-6.332307,"station_name":"Maja"},{"distance":1853,"i_long":106.411216,"i_lat":-6.33561,"line":3,"transit":false,"station_id":"CKY","station_name":"Cikoya","time":4,"is_transit":false},{"transit":false,"time":3,"station_id":"TGS","distance":2651,"is_transit":false,"station_name":"Tigaraksa","i_long":106.425991,"i_lat":-6.328533,"line":6},{"i_long":106.460812,"line":6,"station_name":"Tenjo","i_lat":-6.327251,"time":5,"transit":false,"is_transit":false,"station_id":"TEJ","distance":2974},{"station_name":"Daru","station_id":"DAR","time":5,"distance":3902,"i_lat":-6.338021,"transit":false,"i_long":106.491338,"line":0,"is_transit":false},{"transit":false,"station_name":"Cilejit","distance":2675,"i_long":106.508482,"is_transit":false,"i_lat":-6.354349,"station_id":"CJT","time":6,"line":3},{"i_lat":-6.3441410000000005,"is_transit":false,"distance":7025,"i_long":106.568863,"line":6,"station_name":"Parung Panjang","transit":false,"time":9,"station_id":"PRP"},{"line":3,"distance":5968,"time":8,"transit":false,"i_long":106.617853,"station_id":"CC","is_transit":false,"station_name":"Cicayur","i_lat":-6.329547},{"transit":false,"i_lat":-6.32484,"station_name":"Cisauk","i_long":106.640411,"distance":2519,"is_transit":false,"station_id":"CSK","line":3,"time":4},{"station_name":"Serpong","i_long":106.66566,"line":6,"transit":false,"station_id":"SRP","distance":1784,"i_lat":-6.319871,"time":4,"is_transit":false},{"i_lat":-6.314823,"i_long":106.675475,"station_id":"RU","distance":2413,"time":4,"transit":false,"station_name":"Rawa Buntu","line":6,"is_transit":false},{"station_name":"Sudimara","line":6,"is_transit":false,"i_lat":-6.296963,"time":6,"transit":false,"station_id":"SDM","distance":4566,"i_long":106.712277},{"i_long":106.728916,"line":6,"time":4,"transit":false,"is_transit":false,"i_lat":-6.288927,"distance":1994,"station_name":"Jurangmangu","station_id":"JMU"},{"i_long":106.74273,"transit":false,"time":3,"is_transit":false,"distance":2179,"line":6,"i_lat":-6.276362,"station_name":"Pondokranji","station_id":"PDJ"},{"transit":false,"time":8,"station_id":"KBY","is_transit":false,"station_name":"Kebayoran","line":6,"distance":6218,"i_lat":-6.237242,"i_long":106.780334},{"time":7,"i_lat":-6.207404,"station_name":"Palmerah","transit":false,"is_transit":false,"i_long":106.79689,"line":6,"station_id":"PLM","distance":3737},{"i_long":106.811091,"station_id":"THB","distance":3191,"is_transit":true,"station_name":"Tanah Abang","i_lat":-6.185545,"time":6,"line":1,"transit":true},{"i_long":106.800832,"station_id":"DU","time":8,"line":1,"transit":false,"is_transit":false,"station_name":"Duri","distance":3632,"i_lat":-6.155215},{"i_lat":-6.144674,"time":4,"station_name":"Angke","station_id":"AK","distance":1230,"line":1,"is_transit":false,"i_long":106.79867,"transit":false},{"is_transit":true,"i_long":106.826365,"line":4,"station_name":"Kampung Bandan","transit":true,"time":9,"i_lat":-6.132549,"station_id":"KPB","distance":4102},{"transit":false,"station_name":"Rajawali","distance":1444,"i_lat":-6.14505,"line":11,"time":3,"station_id":"RJW","i_long":106.836569,"is_transit":false},{"distance":1901,"i_lat":-6.161728,"time":5,"transit":false,"i_long":106.839204,"station_id":"KMO","is_transit":false,"line":11,"station_name":"Kemayoran"},{"is_transit":false,"station_id":"PSE","time":4,"station_name":"Pasar Senen","line":11,"i_long":106.84368,"distance":1436,"i_lat":-6.174784,"transit":false},{"station_name":"Gang Sentiong","is_transit":false,"distance":1567,"station_id":"GST","line":11,"i_long":106.850107,"transit":false,"time":8,"i_lat":-6.185975},{"i_lat":-6.193792,"line":11,"station_name":"Kramat","i_long":106.855437,"is_transit":false,"transit":false,"station_id":"KMT","distance":973,"time":1},{"i_long":106.861737,"line":11,"i_lat":-6.209188,"distance":1829,"station_id":"POK","time":2,"transit":false,"is_transit":false,"station_name":"Pondok Jati"},{"distance":1236,"transit":true,"time":9,"station_id":"JNG","station_name":"Jatinegara","i_lat":-6.215091,"line":1,"i_long":106.86807400000001,"is_transit":true},{"i_lat":-6.2135,"line":1,"time":3,"distance":3395,"station_name":"Klender","is_transit":false,"i_long":106.899548,"transit":false,"station_id":"KLD"},{"station_name":"Buaran","is_transit":false,"i_lat":-6.215568,"i_long":106.922662,"distance":3100,"time":2,"station_id":"BUA","line":1,"transit":false},{"line":1,"is_transit":false,"i_lat":-6.217455,"time":1,"transit":false,"distance":1305,"station_id":"KLDB","station_name":"Klenderbaru","i_long":106.939679},{"line":1,"time":8,"is_transit":false,"station_name":"Cakung","i_lat":-6.219053,"i_long":106.951283,"transit":false,"station_id":"CUK","distance":1385},{"station_name":"Kranji","transit":false,"line":1,"i_long":106.977657,"station_id":"KRI","is_transit":false,"i_lat":-6.224515,"distance":3097,"time":3},{"time":4,"i_lat":-6.236616,"is_transit":false,"transit":false,"i_long":106.997013,"line":1,"distance":2520,"station_id":"BKS","station_name":"Bekasi"},{"line":1,"is_transit":false,"time":2,"i_lat":-6.248029,"transit":false,"station_id":"BKST","distance":2368,"station_name":"Bekasi Timur","i_long":107.016735},{"station_id":"TB","time":7,"station_name":"Tambun","i_long":107.055722,"line":1,"i_lat":-6.258864,"transit":false,"distance":4460,"is_transit":false},{"station_name":"Cibitung","i_long":107.083084,"line":1,"i_lat":-6.261877,"distance":3420,"transit":false,"station_id":"CIT","is_transit":false,"time":3},{"station_id":"TLM","distance":2800,"is_transit":false,"i_lat":-6.262938,"time":2,"line":1,"transit":false,"i_long":107.093313,"station_name":"Metland Telaga Murni"},{"i_lat":-6.2553149999999995,"station_name":"Cikarang","time":4,"is_transit":false,"transit":false,"line":1,"i_long":107.144613,"distance":3689,"station_id":"CKR"}],[{"transit":false,"distance":0,"i_long":106.394373,"time":0,"station_name":"Maja","line":6,"is_transit":false,"i_lat":-6.332307,"station_id":"MJ"},{"i_lat":-6.33561,"is_transit":false,"time":4,"distance":1853,"transit":false,"station_id":"CKY","station_name":"Cikoya","line":3,"i_long":106.411216},{"i_lat":-6.328533,"station_id":"TGS","transit":false,"is_transit":false,"station_name":"Tigaraksa","i_long":106.425991,"distance":2651,"line":6,"time":3},{"station_name":"Tenjo","i_long":106.460812,"station_id":"TEJ","i_lat":-6.327251,"is_transit":false,"line":6,"transit":false,"distance":2974,"time":5},{"i_long":106.491338,"i_lat":-6.338021,"time":5,"line":0,"station_id":"DAR","station_name":"Daru","distance":3902,"transit":false,"is_transit":false},{"station_id":"CJT","line":3,"distance":2675,"time":6,"i_lat":-6.354349,"transit":false,"is_transit":false,"station_name":"Cilejit","i_long":106.508482},{"i_lat":-6.3441410000000005,"station_name":"Parung Panjang","i_long":106.568863,"transit":false,"line":6,"is_transit":false,"station_id":"PRP","time":9,"distance":7025},{"station_id":"CC","distance":5968,"i_lat":-6.329547,"station_name":"Cicayur","is_transit":false,"i_long":106.617853,"line":3,"transit":false,"time":8},{"distance":2519,"transit":false,"station_id":"CSK","i_long":106.640411,"station_name":"Cisauk","line":3,"time":4,"i_lat":-6.32484,"is_transit":false},{"i_lat":-6.319871,"distance":1784,"line":6,"station_name":"Serpong","time":4,"station_id":"SRP","transit":false,"i_long":106.66566,"is_transit":false},{"transit":false,"station_name":"Rawa Buntu","station_id":"RU","i_long":106.675475,"time":4,"line":6,"i_lat":-6.314823,"distance":2413,"is_transit":false},{"is_transit":false,"distance":4566,"i_lat":-6.296963,"transit":false,"i_long":106.712277,"time":6,"line":6,"station_name":"Sudimara","station_id":"SDM"},{"i_long":106.728916,"line":6,"station_id":"JMU","station_name":"Jurangmangu","transit":false,"time":4,"is_transit":false,"distance":1994,"i_lat":-6.288927},{"transit":false,"distance":2179,"station_id":"PDJ","station_name":"Pondokranji","i_long":106.74273,"is_transit":false,"i_lat":-6.276362,"time":3,"line":6},{"distance":6218,"station_name":"Kebayoran","line":6,"i_long":106.780334,"i_lat":-6.237242,"station_id":"KBY","transit":false,"time":8,"is_transit":false},{"transit":false,"i_long":106.79689,"i_lat":-6.207404,"station_id":"PLM","line":6,"time":7,"is_transit":false,"distance":3737,"station_name":"Palmerah"},{"distance":3191,"i_lat":-6.185545,"station_name":"Tanah Abang","station_id":"THB","is_transit":true,"time":6,"i_long":106.811091,"transit":true,"line":1},{"transit":false,"station_id":"DU","is_transit":false,"station_name":"Duri","i_long":106.800832,"time":8,"line":1,"distance":3632,"i_lat":-6.155215},{"i_long":106.79867,"transit":false,"is_transit":false,"line":1,"distance":1230,"station_name":"Angke","time":4,"station_id":"AK","i_lat":-6.144674},{"time":9,"station_id":"KPB","i_lat":-6.132549,"distance":4102,"line":4,"transit":true,"is_transit":true,"station_name":"Kampung Bandan","i_long":106.826365},{"is_transit":true,"transit":true,"time":3,"distance":1364,"i_long":106.812439,"station_name":"Jakarta Kota","line":2,"i_lat":-6.137569,"station_id":"JAKK"},{"i_long":106.820901,"transit":false,"distance":1264,"is_transit":false,"station_name":"Jayakarta","line":2,"station_id":"JAY","time":4,"i_lat":-6.141205},{"station_id":"MGB","time":2,"transit":false,"i_long":106.82482,"station_name":"Manggabesar","is_transit":false,"i_lat":-6.149769,"line":2,"distance":1080},{"station_id":"SW","i_lat":-6.160725,"time":2,"transit":false,"is_transit":false,"station_name":"Sawah Besar","distance":906,"i_long":106.827103,"line":2},{"i_lat":-6.166716,"station_name":"Juanda","is_transit":false,"station_id":"JUA","distance":1149,"line":2,"transit":false,"i_long":106.828284,"time":2},{"line":2,"station_id":"GDD","is_transit":false,"station_name":"Gondangdia","i_lat":-6.186295,"transit":false,"distance":2015,"time":4,"i_long":106.832183},{"line":2,"station_id":"CKI","station_name":"Cikini","is_transit":false,"i_lat":-6.198556,"transit":false,"distance":1750,"time":3,"i_long":106.840169},{"is_transit":true,"station_id":"MRI","distance":1590,"transit":true,"i_long":106.84912,"line":2,"i_lat":-6.209883,"time":4,"station_name":"Manggarai"},{"station_name":"Matraman","is_transit":false,"time":2,"i_lat":-6.212485,"transit":false,"station_id":"MTR","i_long":106.858896,"line":1,"distance":1275},{"is_transit":false,"distance":1377,"transit":false,"station_id":"JNG","time":8,"station_name":"Jatinegara","i_lat":-6.215091,"line":1,"i_long":106.86807400000001},{"station_name":"Klender","transit":false,"station_id":"KLD","i_long":106.899548,"is_transit":false,"i_lat":-6.2135,"line":1,"distance":3395,"time":3},{"time":2,"station_id":"BUA","station_name":"Buaran","i_lat":-6.215568,"distance":3100,"line":1,"transit":false,"is_transit":false,"i_long":106.922662},{"station_name":"Klenderbaru","i_lat":-6.217455,"station_id":"KLDB","i_long":106.939679,"line":1,"time":1,"distance":1305,"transit":false,"is_transit":false},{"i_long":106.951283,"station_name":"Cakung","station_id":"CUK","distance":1385,"transit":false,"is_transit":false,"i_lat":-6.219053,"line":1,"time":8},{"time":3,"transit":false,"i_long":106.977657,"line":1,"is_transit":false,"station_name":"Kranji","distance":3097,"i_lat":-6.224515,"station_id":"KRI"},{"i_long":106.997013,"station_id":"BKS","is_transit":false,"i_lat":-6.236616,"line":1,"distance":2520,"transit":false,"station_name":"Bekasi","time":4},{"i_lat":-6.248029,"station_name":"Bekasi Timur","time":2,"transit":false,"distance":2368,"station_id":"BKST","i_long":107.016735,"line":1,"is_transit":false},{"i_lat":-6.258864,"transit":false,"time":7,"i_long":107.055722,"station_name":"Tambun","is_transit":false,"station_id":"TB","line":1,"distance":4460},{"distance":3420,"station_name":"Cibitung","transit":false,"time":3,"station_id":"CIT","line":1,"is_transit":false,"i_lat":-6.261877,"i_long":107.083084},{"i_lat":-6.262938,"i_long":107.093313,"is_transit":false,"distance":2800,"line":1,"station_id":"TLM","transit":false,"station_name":"Metland Telaga Murni","time":2},{"station_id":"CKR","distance":3689,"station_name":"Cikarang","transit":false,"time":4,"is_transit":false,"i_lat":-6.2553149999999995,"i_long":107.144613,"line":1}],[{"transit":false,"is_transit":false,"i_lat":-6.332307,"station_id":"MJ","i_long":106.394373,"line":6,"time":0,"distance":0,"station_name":"Maja"},{"line":3,"transit":false,"distance":1853,"i_long":106.411216,"is_transit":false,"station_name":"Cikoya","i_lat":-6.33561,"station_id":"CKY","time":4},{"is_transit":false,"line":6,"station_id":"TGS","station_name":"Tigaraksa","transit":false,"i_lat":-6.328533,"time":3,"i_long":106.425991,"distance":2651},{"distance":2974,"i_lat":-6.327251,"transit":false,"line":6,"i_long":106.460812,"time":5,"is_transit":false,"station_name":"Tenjo","station_id":"TEJ"},{"i_long":106.491338,"time":5,"is_transit":false,"station_name":"Daru","distance":3902,"station_id":"DAR","i_lat":-6.338021,"transit":false,"line":0},{"i_long":106.508482,"transit":false,"is_transit":false,"distance":2675,"time":6,"station_name":"Cilejit","i_lat":-6.354349,"station_id":"CJT","line":3},{"line":6,"i_long":106.568863,"transit":false,"station_name":"Parung Panjang","time":9,"station_id":"PRP","is_transit":false,"distance":7025,"i_lat":-6.3441410000000005},{"distance":5968,"is_transit":false,"station_name":"Cicayur","station_id":"CC","line":3,"i_lat":-6.329547,"time":8,"i_long":106.617853,"transit":false},{"transit":false,"time":4,"line":3,"station_name":"Cisauk","distance":2519,"i_lat":-6.32484,"is_transit":false,"i_long":106.640411,"station_id":"CSK"},{"distance":1784,"is_transit":false,"station_name":"Serpong","line":6,"i_lat":-6.319871,"i_long":106.66566,"transit":false,"station_id":"SRP","time":4},{"line":6,"is_transit":false,"station_id":"RU","station_name":"Rawa Buntu","distance":2413,"transit":false,"i_lat":-6.314823,"time":4,"i_long":106.675475},{"is_transit":false,"time":6,"i_long":106.712277,"transit":false,"station_name":"Sudimara","i_lat":-6.296963,"distance":4566,"line":6,"station_id":"SDM"},{"transit":false,"station_id":"JMU","is_transit":false,"station_name":"Jurangmangu","line":6,"i_lat":-6.288927,"i_long":106.728916,"time":4,"distance":1994},{"station_id":"PDJ","is_transit":false,"distance":2179,"i_lat":-6.276362,"station_name":"Pondokranji","line":6,"i_long":106.74273,"transit":false,"time":3},{"distance":6218,"line":6,"is_transit":false,"station_name":"Kebayoran","station_id":"KBY","i_long":106.780334,"time":8,"transit":false,"i_lat":-6.237242},{"station_name":"Palmerah","is_transit":false,"line":6,"distance":3737,"i_lat":-6.207404,"time":7,"station_id":"PLM","i_long":106.79689,"transit":false},{"i_lat":-6.185545,"line":1,"station_id":"THB","time":6,"is_transit":true,"i_long":106.811091,"transit":true,"distance":3191,"station_name":"Tanah Abang"},{"line":1,"distance":2029,"i_long":106.816351,"time":5,"transit":false,"station_name":"Karet","is_transit":false,"station_id":"KAT","i_lat":-6.20132},{"transit":false,"station_id":"SUDB","time":1,"i_lat":-6.201433,"distance":471,"is_transit":false,"i_long":106.819881,"station_name":"Sudirman Baru","line":1},{"is_transit":false,"i_lat":-6.202263,"station_name":"Sudirman","transit":false,"distance":280,"station_id":"SUD","i_long":106.822649,"time":1,"line":1},{"distance":3186,"station_id":"MRI","line":2,"station_name":"Manggarai","time":4,"transit":true,"is_transit":true,"i_lat":-6.209883,"i_long":106.84912},{"is_transit":false,"i_long":106.840169,"i_lat":-6.198556,"distance":1590,"station_id":"CKI","station_name":"Cikini","line":2,"transit":false,"time":4},{"is_transit":false,"i_lat":-6.186295,"line":2,"distance":1750,"i_long":106.832183,"station_name":"Gondangdia","transit":false,"time":3,"station_id":"GDD"},{"i_lat":-6.166716,"transit":false,"is_transit":false,"distance":2015,"station_name":"Juanda","station_id":"JUA","time":4,"line":2,"i_long":106.828284},{"transit":false,"station_name":"Sawah Besar","i_long":106.827103,"distance":1149,"line":2,"station_id":"SW","is_transit":false,"time":2,"i_lat":-6.160725},{"i_lat":-6.149769,"time":2,"distance":906,"station_id":"MGB","line":2,"is_transit":false,"i_long":106.82482,"transit":false,"station_name":"Manggabesar"},{"station_id":"JAY","time":2,"station_name":"Jayakarta","transit":false,"is_transit":false,"i_long":106.820901,"i_lat":-6.141205,"line":2,"distance":1080},{"is_transit":true,"i_long":106.812439,"distance":1264,"transit":true,"i_lat":-6.137569,"station_id":"JAKK","time":4,"line":2,"station_name":"Jakarta Kota"},{"time":3,"station_name":"Kampung Bandan","line":4,"station_id":"KPB","i_lat":-6.132549,"i_long":106.826365,"transit":true,"distance":1364,"is_transit":true},{"distance":1444,"is_transit":false,"station_name":"Rajawali","line":11,"transit":false,"time":3,"i_long":106.836569,"station_id":"RJW","i_lat":-6.14505},{"distance":1901,"station_id":"KMO","i_long":106.839204,"time":5,"transit":false,"is_transit":false,"station_name":"Kemayoran","i_lat":-6.161728,"line":11},{"station_id":"PSE","transit":false,"line":11,"distance":1436,"i_long":106.84368,"is_transit":false,"i_lat":-6.174784,"station_name":"Pasar Senen","time":4},{"is_transit":false,"station_id":"GST","i_lat":-6.185975,"i_long":106.850107,"station_name":"Gang Sentiong","transit":false,"time":8,"distance":1567,"line":11},{"transit":false,"time":1,"line":11,"i_long":106.855437,"distance":973,"station_name":"Kramat","i_lat":-6.193792,"is_transit":false,"station_id":"KMT"},{"is_transit":false,"line":11,"station_id":"POK","i_long":106.861737,"station_name":"Pondok Jati","i_lat":-6.209188,"time":2,"distance":1829,"transit":false},{"is_transit":true,"station_id":"JNG","i_long":106.86807400000001,"transit":true,"line":1,"time":9,"distance":1236,"station_name":"Jatinegara","i_lat":-6.215091},{"distance":3395,"line":1,"is_transit":false,"transit":false,"station_name":"Klender","i_lat":-6.2135,"station_id":"KLD","time":3,"i_long":106.899548},{"i_lat":-6.215568,"transit":false,"i_long":106.922662,"station_id":"BUA","distance":3100,"is_transit":false,"time":2,"station_name":"Buaran","line":1},{"transit":false,"distance":1305,"i_long":106.939679,"station_id":"KLDB","is_transit":false,"i_lat":-6.217455,"station_name":"Klenderbaru","time":1,"line":1},{"station_id":"CUK","is_transit":false,"station_name":"Cakung","distance":1385,"i_lat":-6.219053,"line":1,"i_long":106.951283,"transit":false,"time":8},{"station_id":"KRI","transit":false,"i_long":106.977657,"line":1,"is_transit":false,"time":3,"station_name":"Kranji","i_lat":-6.224515,"distance":3097},{"time":4,"station_name":"Bekasi","i_long":106.997013,"i_lat":-6.236616,"transit":false,"is_transit":false,"distance":2520,"station_id":"BKS","line":1},{"transit":false,"station_id":"BKST","line":1,"distance":2368,"station_name":"Bekasi Timur","time":2,"i_long":107.016735,"is_transit":false,"i_lat":-6.248029},{"station_name":"Tambun","station_id":"TB","distance":4460,"i_lat":-6.258864,"i_long":107.055722,"is_transit":false,"line":1,"transit":false,"time":7},{"time":3,"line":1,"station_id":"CIT","i_long":107.083084,"i_lat":-6.261877,"transit":false,"distance":3420,"is_transit":false,"station_name":"Cibitung"},{"line":1,"transit":false,"distance":2800,"i_long":107.093313,"station_id":"TLM","is_transit":false,"i_lat":-6.262938,"time":2,"station_name":"Metland Telaga Murni"},{"station_name":"Cikarang","time":4,"station_id":"CKR","is_transit":false,"i_lat":-6.2553149999999995,"line":1,"transit":false,"distance":3689,"i_long":107.144613}]]}