{"data":[[{"line":6,"time":0,"i_long":106.394373,"station_id":"MJ","is_transit":false,"distance":0,"transit":false,"station_name":"Maja","i_lat":-6.332307},{"station_id":"CKY","is_transit":false,"station_name":"Cikoya","distance":1853,"i_long":106.411216,"time":4,"i_lat":-6.33561,"transit":false,"line":3},{"station_name":"Tigaraksa","time":3,"i_lat":-6.328533,"i_long":106.425991,"transit":false,"distance":2651,"line":6,"is_transit":false,"station_id":"TGS"},{"i_long":106.460812,"i_lat":-6.327251,"is_transit":false,"station_id":"TEJ","distance":2974,"time":5,"station_name":"Tenjo","line":6,"transit":false},{"i_lat":-6.338021,"station_id":"DAR","is_transit":false,"i_long":106.491338,"time":5,"station_name":"Daru","line":0,"transit":false,"distance":3902},{"station_name":"Cilejit","i_long":106.508482,"i_lat":-6.354349,"transit":false,"is_transit":false,"line":3,"time":6,"distance":2675,"station_id":"CJT"},{"station_id":"PRP","station_name":"Parung Panjang","i_lat":-6.3441410000000005,"i_long":106.568863,"distance":7025,"transit":false,"is_transit":false,"time":9,"line":6},{"time":8,"station_name":"Cicayur","is_transit":false,"station_id":"CC","distance":5968,"i_long":106.617853,"transit":false,"i_lat":-6.329547,"line":3},{"distance":2519,"station_id":"CSK","transit":false,"i_lat":-6.32484,"i_long":106.640411,"line":3,"time":4,"station_name":"Cisauk","is_transit":false},{"distance":1784,"station_name":"Serpong","station_id":"SRP","i_long":106.66566,"i_lat":-6.319871,"is_transit":false,"time":4,"transit":false,"line":6},{"line":6,"station_name":"Rawa Buntu","station_id":"RU","transit":false,"is_transit":false,"time":4,"distance":2413,"i_lat":-6.314823,"i_long":106.675475},{"is_transit":false,"station_id":"SDM","transit":false,"distance":4566,"time":6,"line":6,"i_long":106.712277,"i_lat":-6.296963,"station_name":"Sudimara"},{"time":4,"transit":false,"station_id":"JMU","line":6,"is_transit":false,"station_name":"Jurangmangu","i_lat":-6.288927,"distance":1994,"i_long":106.728916},{"i_lat":-6.276362,"line":6,"transit":false,"station_id":"PDJ","distance":2179,"time":3,"i_long":106.74273,"is_transit":false,"station_name":"Pondokranji"},{"i_long":106.780334,"station_id":"KBY","station_name":"Kebayoran","line":6,"time":8,"transit":false,"distance":6218,"i_lat":-6.237242,"is_transit":false},{"time":7,"station_name":"Palmerah","i_long":106.79689,"is_transit":false,"transit":false,"distance":3737,"i_lat":-6.207404,"station_id":"PLM","line":6},{"line":1,"transit":true,"distance":3191,"station_name":"Tanah Abang","i_lat":-6.185545,"i_long":106.811091,"station_id":"THB","is_transit":true,"time":6},{"station_name":"Karet","line":1,"transit":false,"time":5,"i_lat":-6.20132,"is_transit":false,"station_id":"KAT","distance":2029,"i_long":106.816351},{"transit":false,"time":1,"distance":471,"station_id":"SUDB","i_long":106.819881,"is_transit":false,"line":1,"station_name":"Sudirman Baru","i_lat":-6.201433},{"distance":280,"time":1,"i_lat":-6.202263,"i_long":106.822649,"line":1,"is_transit":false,"station_name":"Sudirman","transit":false,"station_id":"SUD"},{"is_transit":true,"distance":3186,"time":4,"line":2,"station_id":"MRI","station_name":"Manggarai","transit":true,"i_lat":-6.209883,"i_long":106.84912},{"i_lat":-6.198556,"line":2,"distance":1590,"transit":false,"is_transit":false,"time":4,"station_name":"Cikini","i_long":106.840169,"station_id":"CKI"}],[{"station_id":"MJ","transit":false,"is_transit":false,"distance":0,"i_lat":-6.332307,"station_name":"Maja","i_long":106.394373,"line":6,"time":0},{"is_transit":false,"station_id":"CKY","distance":1853,"transit":false,"station_name":"Cikoya","i_long":106.411216,"i_lat":-6.33561,"line":3,"time":4},{"station_id":"TGS","time":3,"i_lat":-6.328533,"transit":false,"station_name":"Tigaraksa","is_transit":false,"distance":2651,"line":6,"i_long":106.425991},{"transit":false,"is_transit":false,"distance":2974,"station_id":"TEJ","station_name":"Tenjo","i_long":106.460812,"i_lat":-6.327251,"line":6,"time":5},{"i_long":106.491338,"station_id":"DAR","line":0,"i_lat":-6.338021,"transit":false,"time":5,"distance":3902,"is_transit":false,"station_name":"Daru"},{"distance":2675,"i_lat":-6.354349,"station_id":"CJT","transit":false,"is_transit":false,"time":6,"i_long":106.508482,"line":3,"station_name":"Cilejit"},{"transit":false,"station_id":"PRP","is_transit":false,"i_long":106.568863,"i_lat":-6.3441410000000005,"distance":7025,"line":6,"time":9,"station_name":"Parung Panjang"},{"distance":5968,"is_transit":false,"station_id":"CC","time":8,"i_lat":-6.329547,"line":3,"station_name":"Cicayur","transit":false,"i_long":106.617853},{"i_long":106.640411,"time":4,"station_name":"Cisauk","line":3,"station_id":"CSK","transit":false,"distance":2519,"is_transit":false,"i_lat":-6.32484},{"i_lat":-6.319871,"is_transit":false,"station_name":"Serpong","i_long":106.66566,"line":6,"station_id":"SRP","transit":false,"distance":1784,"time":4},{"i_long":106.675475,"distance":2413,"transit":false,"i_lat":-6.314823,"line":6,"station_name":"Rawa Buntu","time":4,"is_transit":false,"station_id":"RU"},{"station_name":"Sudimara","station_id":"SDM","time":6,"i_long":106.712277,"transit":false,"line":6,"is_transit":false,"distance":4566,"i_lat":-6.296963},{"is_transit":false,"station_id":"JMU","line":6,"i_lat":-6.288927,"distance":1994,"time":4,"station_name":"Jurangmangu","transit":false,"i_long":106.728916},{"is_transit":false,"distance":2179,"i_long":106.74273,"time":3,"station_name":"Pondokranji","i_lat":-6.276362,"station_id":"PDJ","line":6,"transit":false},{"line":6,"time":8,"station_name":"Kebayoran","i_lat":-6.237242,"is_transit":false,"station_id":"KBY","distance":6218,"i_long":106.780334,"transit":false},{"station_name":"Palmerah","distance":3737,"i_lat":-6.207404,"is_transit":false,"line":6,"transit":false,"station_id":"PLM","i_long":106.79689,"time":7},{"distance":3191,"i_lat":-6.185545,"line":1,"station_name":"Tanah Abang","i_long":106.811091,"station_id":"THB","transit":true,"is_transit":true,"time":6},{"is_transit":false,"distance":3632,"line":1,"station_id":"DU","station_name":"Duri","i_lat":-6.155215,"time":8,"i_long":106.800832,"transit":false},{"is_transit":false,"line":1,"station_name":"Angke","transit":false,"time":4,"distance":1230,"station_id":"AK","i_lat":-6.144674,"i_long":106.79867},{"station_id":"KPB","is_transit":true,"distance":4102,"i_long":106.826365,"line":4,"time":9,"station_name":"Kampung Bandan","transit":true,"i_lat":-6.132549},{"i_long":106.812439,"transit":true,"time":3,"i_lat":-6.137569,"station_id":"JAKK","station_name":"Jakarta Kota","line":2,"distance":1364,"is_transit":true},{"distance":1264,"transit":false,"time":4,"station_id":"JAY","line":2,"station_name":"Jayakarta","i_lat":-6.141205,"i_long":106.820901,"is_transit":false},{"i_lat":-6.149769,"station_id":"MGB","line":2,"transit":false,"time":2,"station_name":"Manggabesar","distance":1080,"i_long":106.82482,"is_transit":false},{"distance":906,"station_name":"Sawah Besar","time":2,"line":2,"i_lat":-6.160725,"is_transit":false,"transit":false,"i_long":106.827103,"station_id":"SW"},{"is_transit":false,"distance":1149,"line":2,"time":2,"i_long":106.828284,"station_name":"Juanda","i_lat":-6.166716,"station_id":"JUA","transit":false},{"station_name":"Gondangdia","i_lat":-6.186295,"distance":2015,"i_long":106.832183,"is_transit":false,"time":4,"line":2,"station_id":"GDD","transit":false},{"station_name":"Cikini","is_transit":false,"time":3,"transit":false,"i_lat":-6.198556,"line":2,"distance":1750,"i_long":106.840169,"station_id":"CKI"}],[{"transit":false,"is_transit":false,"station_name":"Maja","line":6,"time":0,"distance":0,"station_id":"MJ","i_long":106.394373,"i_lat":-6.332307},{"transit":false,"i_lat":-6.33561,"line":3,"time":4,"i_long":106.411216,"distance":1853,"station_id":"CKY","station_name":"Cikoya","is_transit":false},{"station_name":"Tigaraksa","i_lat":-6.328533,"line":6,"i_long":106.425991,"transit":false,"is_transit":false,"distance":2651,"time":3,"station_id":"TGS"},{"is_transit":false,"station_id":"TEJ","distance":2974,"station_name":"Tenjo","i_lat":-6.327251,"line":6,"transit":false,"time":5,"i_long":106.460812},{"i_long":106.491338,"line":0,"station_id":"DAR","is_transit":false,"station_name":"Daru","distance":3902,"transit":false,"i_lat":-6.338021,"time":5},{"line":3,"station_name":"Cilejit","transit":false,"is_transit":false,"distance":2675,"i_lat":-6.354349,"station_id":"CJT","i_long":106.508482,"time":6},{"station_id":"PRP","transit":false,"is_transit":false,"time":9,"station_name":"Parung Panjang","i_lat":-6.3441410000000005,"i_long":106.568863,"distance":7025,"line":6},{"station_name":"Cicayur","distance":5968,"is_transit":false,"line":3,"i_lat":-6.329547,"station_id":"CC","transit":false,"i_long":106.617853,"time":8},{"i_lat":-6.32484,"i_long":106.640411,"is_transit":false,"line":3,"transit":false,"time":4,"station_id":"CSK","station_name":"Cisauk","distance":2519},{"i_long":106.66566,"time":4,"station_id":"SRP","i_lat":-6.319871,"station_name":"Serpong","line":6,"is_transit":false,"transit":false,"distance":1784},{"station_id":"RU","i_long":106.675475,"distance":2413,"transit":false,"time":4,"i_lat":-6.314823,"line":6,"station_name":"Rawa Buntu","is_transit":false},{"transit":false,"distance":4566,"time":6,"is_transit":false,"i_lat":-6.296963,"i_long":106.712277,"station_id":"SDM","station_name":"Sudimara","line":6},{"station_id":"JMU","line":6,"i_lat":-6.288927,"is_transit":false,"distance":1994,"time":4,"station_name":"Jurangmangu","transit":false,"i_long":106.728916},{"time":3,"station_name":"Pondokranji","i_long":106.74273,"station_id":"PDJ","is_transit":false,"distance":2179,"transit":false,"i_lat":-6.276362,"line":6},{"station_name":"Kebayoran","station_id":"KBY","distance":6218,"transit":false,"i_long":106.780334,"is_transit":false,"line":6,"i_lat":-6.237242,"time":8},{"station_id":"PLM","i_long":106.79689,"time":7,"line":6,"distance":3737,"transit":false,"is_transit":false,"station_name":"Palmerah","i_lat":-6.207404},{"distance":3191,"time":6,"i_long":106.811091,"station_name":"Tanah Abang","line":1,"station_id":"THB","transit":true,"i_lat":-6.185545,"is_transit":true},{"transit":false,"distance":3632,"station_id":"DU","time":8,"is_transit":false,"i_lat":-6.155215,"station_name":"Duri","line":1,"i_long":106.800832},{"station_name":"Angke","i_long":106.79867,"distance":1230,"transit":false,"is_transit":false,"station_id":"AK","time":4,"i_lat":-6.144674,"line":1},{"station_name":"Kampung Bandan","i_long":106.826365,"transit":true,"i_lat":-6.132549,"line":4,"distance":4102,"is_transit":true,"station_id":"KPB","time":9},{"i_long":106.836569,"transit":false,"time":3,"is_transit":false,"station_name":"Rajawali","line":11,"distance":1444,"i_lat":-6.14505,"station_id":"RJW"},{"time":5,"i_lat":-6.161728,"line":11,"station_name":"Kemayoran","transit":false,"i_long":106.839204,"station_id":"KMO","is_transit":false,"distance":1901},{"time":4,"i_long":106.84368,"transit":false,"station_id":"PSE","is_transit":false,"distance":1436,"station_name":"Pasar Senen","i_lat":-6.174784,"line":11},{"i_long":106.850107,"line":11,"station_id":"GST","transit":false,"is_transit":false,"time":8,"i_lat":-6.185975,"distance":1567,"station_name":"Gang Sentiong"},{"distance":973,"time":1,"is_transit":false,"line":11,"station_id":"KMT","i_long":106.855437,"transit":false,"i_lat":-6.193792,"station_name":"Kramat"},{"is_transit":false,"station_name":"Pondok Jati","station_id":"POK","i_lat":-6.209188,"line":11,"time":2,"transit":false,"distance":1829,"i_long":106.861737},{"is_transit":true,"i_lat":-6.215091,"station_name":"Jatinegara","transit":true,"time":9,"line":1,"distance":1236,"i_long":106.86807400000001,"station_id":"JNG"},{"transit":false,"is_transit":false,"i_long":106.858896,"distance":1377,"i_lat":-6.212485,"station_id":"MTR","station_name":"Matraman","time":2,"line":1},{"distance":1275,"transit":true,"i_lat":-6.209883,"i_long":106.84912,"time":2,"line":2,"station_id":"MRI","station_name":"Manggarai","is_transit":true},{"line":2,"transit":false,"i_long":106.840169,"is_transit":false,"station_id":"CKI","distance":1590,"time":4,"i_lat":-6.198556,"station_name":"Cikini"}],[{"i_lat":-6.332307,"time":0,"i_long":106.394373,"line":6,"is_transit":false,"transit":false,"distance":0,"station_name":"Maja","station_id":"MJ"},{"distance":1853,"i_lat":-6.33561,"line":3,"station_id":"CKY","time":4,"is_transit":false,"station_name":"Cikoya","transit":false,"i_long":106.411216},{"station_id":"TGS","i_lat":-6.328533,"is_transit":false,"time":3,"distance":2651,"station_name":"Tigaraksa","i_long":106.425991,"line":6,"transit":false},{"distance":2974,"transit":false,"i_lat":-6.327251,"i_long":106.460812,"time":5,"station_name":"Tenjo","line":6,"is_transit":false,"station_id":"TEJ"},{"station_name":"Daru","time":5,"i_lat":-6.338021,"is_transit":false,"i_long":106.491338,"distance":3902,"transit":false,"station_id":"DAR","line":0},{"i_lat":-6.354349,"is_transit":false,"i_long":106.508482,"time":6,"station_id":"CJT","line":3,"transit":false,"station_name":"Cilejit","distance":2675},{"station_id":"PRP","station_name":"Parung Panjang","line":6,"is_transit":false,"distance":7025,"i_long":106.568863,"transit":false,"time":9,"i_lat":-6.3441410000000005},{"station_name":"Cicayur","transit":false,"time":8,"i_lat":-6.329547,"station_id":"CC","line":3,"distance":5968,"i_long":106.617853,"is_transit":false},{"station_name":"Cisauk","i_long":106.640411,"line":3,"time":4,"is_transit":false,"transit":false,"station_id":"CSK","distance":2519,"i_lat":-6.32484},{"station_id":"SRP","i_long":106.66566,"time":4,"transit":false,"station_name":"Serpong","is_transit":false,"distance":1784,"i_lat":-6.319871,"line":6},{"i_long":106.675475,"is_transit":false,"i_lat":-6.314823,"time":4,"line":6,"station_id":"RU","transit":false,"distance":2413,"station_name":"Rawa Buntu"},{"time":6,"i_long":106.712277,"is_transit":false,"station_name":"Sudimara","station_id":"SDM","line":6,"distance":4566,"i_lat":-6.296963,"transit":false},{"i_long":106.728916,"transit":false,"station_name":"Jurangmangu","i_lat":-6.288927,"is_transit":false,"line":6,"distance":1994,"station_id":"JMU","time":4},{"transit":false,"distance":2179,"i_long":106.74273,"station_name":"Pondokranji","i_lat":-6.276362,"is_transit":false,"time":3,"line":6,"station_id":"PDJ"},{"time":8,"station_name":"Kebayoran","i_lat":-6.237242,"transit":false,"is_transit":false,"i_long":106.780334,"line":6,"distance":6218,"station_id":"KBY"},{"i_lat":-6.207404,"station_name":"Palmerah","is_transit":false,"time":7,"i_long":106.79689,"station_id":"PLM","transit":false,"distance":3737,"line":6},{"transit":true,"station_id":"THB","time":6,"station_name":"Tanah Abang","is_transit":true,"i_long":106.811091,"i_lat":-6.185545,"line":1,"distance":3191},{"line":1,"station_id":"KAT","time":5,"i_lat":-6.20132,"station_name":"Karet","distance":2029,"i_long":106.816351,"is_transit":false,"transit":false},{"station_id":"SUDB","time":1,"i_lat":-6.201433,"i_long":106.819881,"transit":false,"is_transit":false,"station_name":"Sudirman Baru","line":1,"distance":471},{"transit":false,"station_name":"Sudirman","i_long":106.822649,"station_id":"SUD","is_transit":false,"time":1,"line":1,"i_lat":-6.202263,"distance":280},{"distance":3186,"time":4,"is_transit":false,"station_id":"MRI","station_name":"Manggarai","i_long":106.84912,"line":2,"i_lat":-6.209883,"transit":false},{"transit":false,"station_id":"MTR","is_transit":false,"distance":1275,"time":2,"station_name":"Matraman","i_lat":-6.212485,"i_long":106.858896,"line":1},{"transit":true,"distance":1377,"station_name":"Jatinegara","i_long":106.86807400000001,"line":1,"time":8,"i_lat":-6.215091,"station_id":"JNG","is_transit":true},{"station_id":"POK","transit":false,"time":2,"is_transit":false,"station_name":"Pondok Jati","i_long":106.861737,"i_lat":-6.209188,"line":11,"distance":1236},{"time":2,"station_id":"KMT","line":11,"distance":1829,"transit":false,"station_name":"Kramat","i_long":106.855437,"is_transit":false,"i_lat":-6.193792},{"station_name":"Gang Sentiong","transit":false,"station_id":"GST","i_long":106.850107,"time":1,"is_transit":false,"line":11,"i_lat":-6.185975,"distance":973},{"line":11,"i_long":106.84368,"station_id":"PSE","time":8,"station_name":"Pasar Senen","i_lat":-6.174784,"transit":false,"is_transit":false,"distance":1567},{"i_lat":-6.161728,"station_id":"KMO","distance":1436,"transit":false,"station_name":"Kemayoran","line":11,"i_long":106.839204,"is_transit":false,"time":4},{"is_transit":false,"transit":false,"station_id":"RJW","station_name":"Rajawali","distance":1901,"line":11,"i_long":106.836569,"time":5,"i_lat":-6.14505},{"transit":true,"i_long":106.826365,"is_transit":true,"station_name":"Kampung Bandan","distance":1444,"i_lat":-6.132549,"time":3,"line":4,"station_id":"KPB"},{"i_long":106.812439,"transit":true,"distance":1364,"station_id":"JAKK","i_lat":-6.137569,"is_transit":true,"time":3,"station_name":"Jakarta Kota","line":2},{"is_transit":false,"time":4,"station_id":"JAY","i_lat":-6.141205,"station_name":"Jayakarta","line":2,"distance":1264,"i_long":106.820901,"transit":false},{"distance":1080,"time":2,"i_lat":-6.149769,"transit":false,"station_name":"Manggabesar","line":2,"i_long":106.82482,"station_id":"MGB","is_transit":false},{"distance":906,"station_name":"Sawah Besar","time":2,"is_transit":false,"i_long":106.827103,"station_id":"SW","i_lat":-6.160725,"line":2,"transit":false},{"distance":1149,"station_name":"Juanda","i_long":106.828284,"is_transit":false,"i_lat":-6.166716,"station_id":"JUA","line":2,"transit":false,"time":2},{"distance":2015,"transit":false,"line":2,"station_id":"GDD","i_lat":-6.186295,"time":4,"is_transit":false,"station_name":"Gondangdia","i_long":106.832183},{"station_name":"Cikini","is_transit":false,"i_lat":-6.198556,"distance":1750,"line":2,"station_id":"CKI","i_long":106.840169,"time":3,"transit":false}]]}