{"data":[[{"station_name":"Maja","time":0,"distance":0,"station_id":"MJ","transit":false,"is_transit":false,"i_long":106.394373,"line":6,"i_lat":-6.332307},{"i_long":106.411216,"line":0,"station_name":"Cikoya","station_id":"CKY","time":4,"transit":false,"i_lat":-6.33561,"is_transit":false,"distance":1853},{"i_lat":-6.328533,"time":3,"station_id":"TGS","line":6,"is_transit":false,"distance":2651,"transit":false,"station_name":"Tigaraksa","i_long":106.425991},{"station_name":"Tenjo","station_id":"TEJ","is_transit":false,"i_long":106.460812,"transit":false,"time":5,"line":6,"i_lat":-6.327251,"distance":2974},{"transit":false,"time":5,"i_lat":-6.338021,"line":0,"station_name":"Daru","i_long":106.491338,"distance":3902,"is_transit":false,"station_id":"DAR"},{"is_transit":false,"station_name":"Cilejit","station_id":"CJT","i_lat":-6.354349,"i_long":106.508482,"line":0,"distance":2675,"time":6,"transit":false},{"station_name":"Parung Panjang","line":6,"distance":7025,"is_transit":false,"transit":false,"i_lat":-6.3441410000000005,"time":9,"i_long":106.568863,"station_id":"PRP"},{"is_transit":false,"i_lat":-6.329547,"line":0,"i_long":106.617853,"station_name":"Cicayur","distance":5968,"transit":false,"station_id":"CC","time":8},{"i_long":106.640411,"station_id":"CSK","distance":2519,"station_name":"Cisauk","line":0,"transit":false,"time":4,"is_transit":false,"i_lat":-6.32484},{"station_name":"Serpong","is_transit":false,"distance":1784,"station_id":"SRP","transit":false,"i_lat":-6.319871,"i_long":106.66566,"line":6,"time":4},{"is_transit":false,"station_name":"Rawa Buntu","time":4,"distance":2413,"station_id":"RU","transit":false,"i_lat":-6.314823,"i_long":106.675475,"line":6},{"line":6,"distance":4566,"time":6,"i_lat":-6.296963,"station_name":"Sudimara","transit":false,"i_long":106.712277,"is_transit":false,"station_id":"SDM"},{"station_id":"JMU","station_name":"Jurangmangu","i_long":106.728916,"transit":false,"distance":1994,"time":4,"is_transit":false,"line":6,"i_lat":-6.288927},{"transit":false,"i_lat":-6.276362,"is_transit":false,"station_id":"PDJ","distance":2179,"i_long":106.74273,"time":3,"line":6,"station_name":"Pondokranji"},{"time":8,"station_id":"KBY","i_long":106.780334,"line":6,"i_lat":-6.237242,"transit":false,"distance":6218,"is_transit":false,"station_name":"Kebayoran"},{"distance":3737,"line":6,"station_name":"Palmerah","is_transit":false,"transit":false,"time":7,"i_long":106.79689,"station_id":"PLM","i_lat":-6.207404},{"distance":3191,"transit":true,"i_long":106.811091,"station_id":"THB","line":1,"station_name":"Tanah Abang","i_lat":-6.185545,"time":6,"is_transit":true},{"time":8,"line":1,"station_name":"Duri","distance":3632,"station_id":"DU","transit":false,"i_long":106.800832,"is_transit":true,"i_lat":-6.155215}],[{"i_long":106.394373,"distance":0,"station_id":"MJ","transit":false,"station_name":"Maja","is_transit":false,"time":0,"line":6,"i_lat":-6.332307},{"transit":false,"i_long":106.411216,"line":0,"station_id":"CKY","station_name":"Cikoya","distance":1853,"time":4,"is_transit":false,"i_lat":-6.33561},{"distance":2651,"station_id":"TGS","is_transit":false,"transit":false,"i_long":106.425991,"line":6,"station_name":"Tigaraksa","time":3,"i_lat":-6.328533},{"time":5,"i_lat":-6.327251,"station_name":"Tenjo","i_long":106.460812,"station_id":"TEJ","is_transit":false,"distance":2974,"line":6,"transit":false},{"station_name":"Daru","time":5,"line":0,"is_transit":false,"transit":false,"i_lat":-6.338021,"station_id":"DAR","distance":3902,"i_long":106.491338},{"i_lat":-6.354349,"is_transit":false,"line":0,"distance":2675,"station_name":"Cilejit","time":6,"i_long":106.508482,"station_id":"CJT","transit":false},{"is_transit":false,"distance":7025,"station_id":"PRP","transit":false,"time":9,"line":6,"i_lat":-6.3441410000000005,"station_name":"Parung Panjang","i_long":106.568863},{"station_name":"Cicayur","time":8,"i_lat":-6.329547,"transit":false,"is_transit":false,"distance":5968,"station_id":"CC","i_long":106.617853,"line":0},{"station_id":"CSK","time":4,"is_transit":false,"distance":2519,"transit":false,"i_lat":-6.32484,"i_long":106.640411,"station_name":"Cisauk","line":0},{"line":6,"i_lat":-6.319871,"distance":1784,"transit":false,"station_name":"Serpong","time":4,"i_long":106.66566,"station_id":"SRP","is_transit":false},{"transit":false,"distance":2413,"is_transit":false,"station_name":"Rawa Buntu","station_id":"RU","time":4,"i_long":106.675475,"line":6,"i_lat":-6.314823},{"station_id":"SDM","station_name":"Sudimara","is_transit":false,"transit":false,"i_long":106.712277,"time":6,"i_lat":-6.296963,"line":6,"distance":4566},{"station_id":"JMU","is_transit":false,"time":4,"line":6,"i_long":106.728916,"transit":false,"i_lat":-6.288927,"station_name":"Jurangmangu","distance":1994},{"station_name":"Pondokranji","line":6,"transit":false,"i_long":106.74273,"i_lat":-6.276362,"station_id":"PDJ","distance":2179,"is_transit":false,"time":3},{"is_transit":false,"distance":6218,"transit":false,"station_name":"Kebayoran","i_long":106.780334,"station_id":"KBY","line":6,"i_lat":-6.237242,"time":8},{"is_transit":false,"line":6,"station_id":"PLM","distance":3737,"station_name":"Palmerah","time":7,"i_lat":-6.207404,"i_long":106.79689,"transit":false},{"station_id":"THB","i_long":106.811091,"transit":true,"station_name":"Tanah Abang","i_lat":-6.185545,"is_transit":true,"time":6,"distance":3191,"line":1},{"i_lat":-6.20132,"station_name":"Karet","station_id":"KAT","distance":2029,"is_transit":false,"transit":false,"i_long":106.816351,"time":5,"line":1},{"distance":471,"transit":false,"is_transit":false,"time":1,"line":1,"station_name":"Sudirman Baru","i_lat":-6.201433,"i_long":106.819881,"station_id":"SUDB"},{"distance":280,"transit":false,"line":1,"station_id":"SUD","i_lat":-6.202263,"is_transit":false,"time":1,"i_long":106.822649,"station_name":"Sudirman"},{"time":4,"line":0,"i_lat":-6.209883,"is_transit":true,"distance":3186,"station_id":"MRI","transit":true,"i_long":106.84912,"station_name":"Manggarai"},{"i_lat":-6.198556,"station_id":"CKI","i_long":106.840169,"distance":1590,"is_transit":false,"time":4,"station_name":"Cikini","transit":false,"line":0},{"i_lat":-6.186295,"line":2,"distance":1750,"transit":false,"time":3,"i_long":106.832183,"station_id":"GDD","station_name":"Gondangdia","is_transit":false},{"i_lat":-6.166716,"station_name":"Juanda","i_long":106.828284,"time":4,"line":2,"station_id":"JUA","transit":false,"distance":2015,"is_transit":false},{"i_long":106.827103,"station_id":"SW","transit":false,"is_transit":false,"i_lat":-6.160725,"distance":1149,"station_name":"Sawah Besar","line":2,"time":2},{"distance":906,"transit":false,"i_lat":-6.149769,"i_long":106.82482,"station_id":"MGB","is_transit":false,"line":2,"station_name":"Manggabesar","time":2},{"station_name":"Jayakarta","time":2,"line":7,"distance":1080,"i_lat":-6.141205,"i_long":106.820901,"station_id":"JAY","transit":false,"is_transit":false},{"is_transit":true,"i_lat":-6.137569,"distance":1264,"station_name":"Jakarta Kota","station_id":"JAKK","line":0,"time":4,"transit":true,"i_long":106.812439},{"is_transit":true,"distance":1364,"station_name":"Kampung Bandan","i_lat":-6.132549,"transit":false,"station_id":"KPB","time":3,"i_long":106.826365,"line":0},{"station_name":"Angke","station_id":"AK","i_long":106.79867,"is_transit":false,"distance":4102,"transit":false,"i_lat":-6.144674,"time":9,"line":0},{"i_lat":-6.155215,"is_transit":true,"station_id":"DU","transit":false,"i_long":106.800832,"station_name":"Duri","line":1,"distance":1230,"time":4}],[{"i_lat":-6.332307,"i_long":106.394373,"station_name":"Maja","station_id":"MJ","time":0,"transit":false,"line":6,"distance":0,"is_transit":false},{"i_long":106.411216,"i_lat":-6.33561,"is_transit":false,"distance":1853,"transit":false,"time":4,"station_name":"Cikoya","station_id":"CKY","line":0},{"i_lat":-6.328533,"distance":2651,"transit":false,"station_id":"TGS","is_transit":false,"i_long":106.425991,"time":3,"line":6,"station_name":"Tigaraksa"},{"time":5,"line":6,"station_name":"Tenjo","i_lat":-6.327251,"is_transit":false,"i_long":106.460812,"distance":2974,"station_id":"TEJ","transit":false},{"i_lat":-6.338021,"i_long":106.491338,"line":0,"transit":false,"distance":3902,"time":5,"station_id":"DAR","station_name":"Daru","is_transit":false},{"distance":2675,"station_name":"Cilejit","station_id":"CJT","i_long":106.508482,"transit":false,"time":6,"line":0,"i_lat":-6.354349,"is_transit":false},{"distance":7025,"station_id":"PRP","transit":false,"is_transit":false,"line":6,"i_long":106.568863,"time":9,"station_name":"Parung Panjang","i_lat":-6.3441410000000005},{"station_name":"Cicayur","station_id":"CC","i_long":106.617853,"distance":5968,"transit":false,"is_transit":false,"i_lat":-6.329547,"line":0,"time":8},{"station_id":"CSK","transit":false,"station_name":"Cisauk","time":4,"is_transit":false,"i_lat":-6.32484,"distance":2519,"i_long":106.640411,"line":0},{"i_lat":-6.319871,"i_long":106.66566,"line":6,"distance":1784,"is_transit":false,"station_name":"Serpong","time":4,"station_id":"SRP","transit":false},{"station_name":"Rawa Buntu","transit":false,"is_transit":false,"time":4,"distance":2413,"station_id":"RU","line":6,"i_lat":-6.314823,"i_long":106.675475},{"time":6,"is_transit":false,"distance":4566,"station_name":"Sudimara","station_id":"SDM","i_lat":-6.296963,"transit":false,"line":6,"i_long":106.712277},{"transit":false,"time":4,"station_name":"Jurangmangu","distance":1994,"station_id":"JMU","line":6,"i_lat":-6.288927,"i_long":106.728916,"is_transit":false},{"line":6,"i_long":106.74273,"is_transit":false,"time":3,"station_name":"Pondokranji","station_id":"PDJ","transit":false,"i_lat":-6.276362,"distance":2179},{"distance":6218,"station_name":"Kebayoran","i_long":106.780334,"station_id":"KBY","transit":false,"is_transit":false,"time":8,"line":6,"i_lat":-6.237242},{"transit":false,"station_name":"Palmerah","distance":3737,"line":6,"i_lat":-6.207404,"time":7,"station_id":"PLM","is_transit":false,"i_long":106.79689},{"station_id":"THB","line":1,"transit":true,"i_lat":-6.185545,"time":6,"is_transit":true,"distance":3191,"i_long":106.811091,"station_name":"Tanah Abang"},{"i_lat":-6.20132,"i_long":106.816351,"distance":2029,"station_name":"Karet","is_transit":false,"time":5,"station_id":"KAT","transit":false,"line":1},{"transit":false,"is_transit":false,"i_lat":-6.201433,"i_long":106.819881,"station_name":"Sudirman Baru","station_id":"SUDB","distance":471,"time":1,"line":1},{"transit":false,"is_transit":false,"station_id":"SUD","i_lat":-6.202263,"station_name":"Sudirman","line":1,"distance":280,"time":1,"i_long":106.822649},{"distance":3186,"station_id":"MRI","is_transit":true,"time":4,"i_long":106.84912,"station_name":"Manggarai","i_lat":-6.209883,"line":0,"transit":false},{"station_id":"MTR","time":2,"line":1,"i_long":106.858896,"i_lat":-6.212485,"distance":1275,"transit":false,"is_transit":false,"station_name":"Matraman"},{"distance":1377,"transit":true,"station_id":"JNG","station_name":"Jatinegara","is_transit":true,"i_long":106.86807400000001,"line":0,"i_lat":-6.215091,"time":8},{"is_transit":false,"line":11,"station_id":"POK","distance":1236,"i_lat":-6.209188,"transit":false,"i_long":106.861737,"time":2,"station_name":"Pondok Jati"},{"line":11,"is_transit":false,"station_name":"Kramat","distance":1829,"transit":false,"station_id":"KMT","time":2,"i_lat":-6.193792,"i_long":106.855437},{"is_transit":false,"transit":false,"line":11,"i_lat":-6.185975,"station_id":"GST","distance":973,"i_long":106.850107,"time":1,"station_name":"Gang Sentiong"},{"distance":1567,"transit":false,"time":8,"i_lat":-6.174784,"line":11,"is_transit":false,"station_name":"Pasar Senen","station_id":"PSE","i_long":106.84368},{"transit":false,"station_id":"KMO","distance":1436,"i_long":106.839204,"line":11,"is_transit":false,"time":4,"i_lat":-6.161728,"station_name":"Kemayoran"},{"line":11,"station_id":"RJW","transit":false,"station_name":"Rajawali","is_transit":false,"i_lat":-6.14505,"i_long":106.836569,"time":5,"distance":1901},{"time":3,"is_transit":true,"i_lat":-6.132549,"i_long":106.826365,"line":0,"distance":1444,"station_id":"KPB","station_name":"Kampung Bandan","transit":true},{"i_lat":-6.144674,"line":0,"transit":false,"i_long":106.79867,"time":9,"station_name":"Angke","station_id":"AK","is_transit":false,"distance":4102},{"station_name":"Duri","is_transit":true,"time":4,"i_long":106.800832,"i_lat":-6.155215,"line":1,"station_id":"DU","distance":1230,"transit":false}]]}