{"data":[[{"time":0,"transit":false,"line":6,"is_transit":false,"station_name":"Maja","station_id":"MJ","distance":0,"i_long":106.394373,"i_lat":-6.332307},{"transit":false,"time":4,"distance":1853,"i_lat":-6.33561,"is_transit":false,"station_id":"CKY","station_name":"Cikoya","line":3,"i_long":106.411216},{"is_transit":false,"transit":false,"time":3,"i_long":106.425991,"distance":2651,"line":6,"station_name":"Tigaraksa","i_lat":-6.328533,"station_id":"TGS"},{"transit":false,"station_id":"TEJ","line":6,"time":5,"is_transit":false,"i_lat":-6.327251,"distance":2974,"i_long":106.460812,"station_name":"Tenjo"},{"station_id":"DAR","is_transit":false,"distance":3902,"station_name":"Daru","time":5,"transit":false,"i_long":106.491338,"line":0,"i_lat":-6.338021},{"time":6,"is_transit":false,"i_long":106.508482,"station_name":"Cilejit","line":3,"station_id":"CJT","transit":false,"distance":2675,"i_lat":-6.354349},{"i_lat":-6.3441410000000005,"station_name":"Parung Panjang","station_id":"PRP","line":6,"i_long":106.568863,"transit":false,"distance":7025,"time":9,"is_transit":false},{"line":3,"transit":false,"i_long":106.617853,"station_id":"CC","i_lat":-6.329547,"time":8,"is_transit":false,"distance":5968,"station_name":"Cicayur"},{"distance":2519,"time":4,"is_transit":false,"station_id":"CSK","line":3,"i_long":106.640411,"transit":false,"i_lat":-6.32484,"station_name":"Cisauk"},{"line":6,"i_lat":-6.319871,"is_transit":false,"transit":false,"distance":1784,"station_id":"SRP","time":4,"station_name":"Serpong","i_long":106.66566},{"station_name":"Rawa Buntu","i_long":106.675475,"distance":2413,"station_id":"RU","i_lat":-6.314823,"is_transit":false,"time":4,"transit":false,"line":6},{"time":6,"is_transit":false,"distance":4566,"station_id":"SDM","i_lat":-6.296963,"station_name":"Sudimara","line":6,"i_long":106.712277,"transit":false},{"distance":1994,"station_name":"Jurangmangu","station_id":"JMU","i_long":106.728916,"line":6,"i_lat":-6.288927,"time":4,"transit":false,"is_transit":false},{"i_lat":-6.276362,"i_long":106.74273,"distance":2179,"line":6,"is_transit":false,"transit":false,"time":3,"station_name":"Pondokranji","station_id":"PDJ"},{"i_lat":-6.237242,"distance":6218,"i_long":106.780334,"time":8,"line":6,"transit":false,"station_id":"KBY","is_transit":false,"station_name":"Kebayoran"},{"time":7,"station_name":"Palmerah","transit":false,"station_id":"PLM","distance":3737,"line":6,"is_transit":false,"i_lat":-6.207404,"i_long":106.79689},{"line":1,"distance":3191,"is_transit":true,"time":6,"station_name":"Tanah Abang","station_id":"THB","i_lat":-6.185545,"i_long":106.811091,"transit":true},{"i_long":106.800832,"line":1,"i_lat":-6.155215,"time":8,"is_transit":false,"station_name":"Duri","transit":false,"distance":3632,"station_id":"DU"}],[{"i_long":106.394373,"i_lat":-6.332307,"transit":false,"station_name":"Maja","station_id":"MJ","line":6,"distance":0,"time":0,"is_transit":false},{"time":4,"distance":1853,"i_long":106.411216,"line":3,"is_transit":false,"station_name":"Cikoya","transit":false,"station_id":"CKY","i_lat":-6.33561},{"is_transit":false,"i_lat":-6.328533,"transit":false,"station_name":"Tigaraksa","i_long":106.425991,"line":6,"distance":2651,"time":3,"station_id":"TGS"},{"line":6,"is_transit":false,"transit":false,"distance":2974,"station_name":"Tenjo","station_id":"TEJ","time":5,"i_lat":-6.327251,"i_long":106.460812},{"transit":false,"distance":3902,"station_id":"DAR","is_transit":false,"line":0,"station_name":"Daru","i_lat":-6.338021,"i_long":106.491338,"time":5},{"distance":2675,"station_id":"CJT","is_transit":false,"time":6,"line":3,"i_lat":-6.354349,"transit":false,"i_long":106.508482,"station_name":"Cilejit"},{"is_transit":false,"i_long":106.568863,"station_id":"PRP","i_lat":-6.3441410000000005,"distance":7025,"station_name":"Parung Panjang","transit":false,"line":6,"time":9},{"station_name":"Cicayur","distance":5968,"i_lat":-6.329547,"time":8,"transit":false,"station_id":"CC","i_long":106.617853,"is_transit":false,"line":3},{"i_lat":-6.32484,"distance":2519,"is_transit":false,"transit":false,"time":4,"station_id":"CSK","i_long":106.640411,"line":3,"station_name":"Cisauk"},{"i_lat":-6.319871,"station_id":"SRP","line":6,"i_long":106.66566,"transit":false,"distance":1784,"station_name":"Serpong","time":4,"is_transit":false},{"i_lat":-6.314823,"station_id":"RU","i_long":106.675475,"transit":false,"station_name":"Rawa Buntu","time":4,"line":6,"is_transit":false,"distance":2413},{"station_id":"SDM","i_long":106.712277,"station_name":"Sudimara","i_lat":-6.296963,"time":6,"transit":false,"distance":4566,"line":6,"is_transit":false},{"distance":1994,"line":6,"transit":false,"i_lat":-6.288927,"station_name":"Jurangmangu","time":4,"is_transit":false,"station_id":"JMU","i_long":106.728916},{"distance":2179,"station_name":"Pondokranji","time":3,"i_lat":-6.276362,"transit":false,"is_transit":false,"line":6,"i_long":106.74273,"station_id":"PDJ"},{"station_name":"Kebayoran","station_id":"KBY","i_lat":-6.237242,"i_long":106.780334,"line":6,"transit":false,"is_transit":false,"distance":6218,"time":8},{"time":7,"station_id":"PLM","i_long":106.79689,"transit":false,"line":6,"is_transit":false,"station_name":"Palmerah","i_lat":-6.207404,"distance":3737},{"is_transit":true,"station_id":"THB","transit":true,"i_long":106.811091,"line":1,"i_lat":-6.185545,"station_name":"Tanah Abang","time":6,"distance":3191},{"time":5,"is_transit":false,"i_long":106.816351,"distance":2029,"station_name":"Karet","i_lat":-6.20132,"transit":false,"station_id":"KAT","line":1},{"station_id":"SUDB","transit":false,"distance":471,"time":1,"station_name":"Sudirman Baru","is_transit":false,"line":1,"i_lat":-6.201433,"i_long":106.819881},{"station_name":"Sudirman","time":1,"i_lat":-6.202263,"is_transit":false,"station_id":"SUD","line":1,"distance":280,"i_long":106.822649,"transit":false},{"station_name":"Manggarai","i_long":106.84912,"line":2,"station_id":"MRI","transit":true,"i_lat":-6.209883,"is_transit":true,"distance":3186,"time":4},{"is_transit":false,"distance":1590,"i_lat":-6.198556,"transit":false,"time":4,"station_id":"CKI","i_long":106.840169,"station_name":"Cikini","line":2},{"is_transit":false,"station_id":"GDD","transit":false,"line":2,"i_long":106.832183,"station_name":"Gondangdia","i_lat":-6.186295,"time":3,"distance":1750},{"line":2,"i_long":106.828284,"transit":false,"i_lat":-6.166716,"station_id":"JUA","distance":2015,"time":4,"station_name":"Juanda","is_transit":false},{"transit":false,"i_long":106.827103,"station_id":"SW","i_lat":-6.160725,"station_name":"Sawah Besar","is_transit":false,"distance":1149,"time":2,"line":2},{"distance":906,"transit":false,"time":2,"i_long":106.82482,"station_id":"MGB","line":2,"is_transit":false,"i_lat":-6.149769,"station_name":"Manggabesar"},{"station_id":"JAY","station_name":"Jayakarta","i_long":106.820901,"transit":false,"is_transit":false,"distance":1080,"i_lat":-6.141205,"time":2,"line":2},{"i_lat":-6.137569,"line":2,"is_transit":true,"station_id":"JAKK","i_long":106.812439,"distance":1264,"transit":true,"station_name":"Jakarta Kota","time":4},{"distance":1364,"time":3,"is_transit":true,"station_id":"KPB","line":4,"i_long":106.826365,"i_lat":-6.132549,"station_name":"Kampung Bandan","transit":true},{"i_long":106.79867,"i_lat":-6.144674,"is_transit":false,"distance":4102,"time":9,"transit":false,"station_name":"Angke","station_id":"AK","line":1},{"distance":1230,"time":4,"station_name":"Duri","i_lat":-6.155215,"is_transit":false,"i_long":106.800832,"line":1,"station_id":"DU","transit":false}],[{"is_transit":false,"i_lat":-6.332307,"i_long":106.394373,"transit":false,"time":0,"station_name":"Maja","station_id":"MJ","line":6,"distance":0},{"distance":1853,"transit":false,"i_long":106.411216,"is_transit":false,"i_lat":-6.33561,"station_id":"CKY","line":3,"time":4,"station_name":"Cikoya"},{"transit":false,"i_lat":-6.328533,"station_name":"Tigaraksa","line":6,"station_id":"TGS","i_long":106.425991,"is_transit":false,"time":3,"distance":2651},{"is_transit":false,"transit":false,"station_id":"TEJ","i_long":106.460812,"distance":2974,"station_name":"Tenjo","time":5,"i_lat":-6.327251,"line":6},{"transit":false,"is_transit":false,"station_name":"Daru","station_id":"DAR","time":5,"i_lat":-6.338021,"i_long":106.491338,"line":0,"distance":3902},{"station_name":"Cilejit","station_id":"CJT","i_lat":-6.354349,"line":3,"i_long":106.508482,"distance":2675,"transit":false,"time":6,"is_transit":false},{"station_id":"PRP","distance":7025,"station_name":"Parung Panjang","i_lat":-6.3441410000000005,"transit":false,"time":9,"i_long":106.568863,"line":6,"is_transit":false},{"i_long":106.617853,"time":8,"is_transit":false,"i_lat":-6.329547,"station_name":"Cicayur","line":3,"transit":false,"distance":5968,"station_id":"CC"},{"distance":2519,"station_name":"Cisauk","time":4,"transit":false,"station_id":"CSK","i_long":106.640411,"is_transit":false,"i_lat":-6.32484,"line":3},{"i_lat":-6.319871,"distance":1784,"station_id":"SRP","line":6,"is_transit":false,"time":4,"i_long":106.66566,"station_name":"Serpong","transit":false},{"transit":false,"time":4,"i_lat":-6.314823,"station_name":"Rawa Buntu","station_id":"RU","distance":2413,"is_transit":false,"i_long":106.675475,"line":6},{"distance":4566,"i_long":106.712277,"line":6,"transit":false,"is_transit":false,"station_name":"Sudimara","time":6,"i_lat":-6.296963,"station_id":"SDM"},{"distance":1994,"i_long":106.728916,"transit":false,"is_transit":false,"station_id":"JMU","line":6,"i_lat":-6.288927,"time":4,"station_name":"Jurangmangu"},{"i_long":106.74273,"is_transit":false,"transit":false,"station_name":"Pondokranji","station_id":"PDJ","distance":2179,"i_lat":-6.276362,"time":3,"line":6},{"distance":6218,"station_id":"KBY","i_long":106.780334,"transit":false,"line":6,"is_transit":false,"station_name":"Kebayoran","time":8,"i_lat":-6.237242},{"station_name":"Palmerah","transit":false,"line":6,"time":7,"is_transit":false,"station_id":"PLM","i_long":106.79689,"i_lat":-6.207404,"distance":3737},{"i_long":106.811091,"transit":true,"line":1,"is_transit":true,"station_name":"Tanah Abang","distance":3191,"station_id":"THB","time":6,"i_lat":-6.185545},{"station_name":"Karet","is_transit":false,"i_long":106.816351,"line":1,"time":5,"transit":false,"distance":2029,"i_lat":-6.20132,"station_id":"KAT"},{"distance":471,"i_long":106.819881,"station_id":"SUDB","transit":false,"station_name":"Sudirman Baru","time":1,"i_lat":-6.201433,"line":1,"is_transit":false},{"station_name":"Sudirman","transit":false,"i_lat":-6.202263,"distance":280,"time":1,"station_id":"SUD","i_long":106.822649,"line":1,"is_transit":false},{"is_transit":false,"line":2,"station_name":"Manggarai","transit":false,"distance":3186,"time":4,"i_long":106.84912,"station_id":"MRI","i_lat":-6.209883},{"station_name":"Matraman","i_long":106.858896,"is_transit":false,"line":1,"time":2,"i_lat":-6.212485,"transit":false,"distance":1275,"station_id":"MTR"},{"is_transit":true,"i_long":106.86807400000001,"distance":1377,"station_id":"JNG","i_lat":-6.215091,"time":8,"transit":true,"line":1,"station_name":"Jatinegara"},{"line":11,"time":2,"station_name":"Pondok Jati","i_long":106.861737,"station_id":"POK","transit":false,"distance":1236,"is_transit":false,"i_lat":-6.209188},{"distance":1829,"time":2,"i_long":106.855437,"transit":false,"station_name":"Kramat","station_id":"KMT","is_transit":false,"line":11,"i_lat":-6.193792},{"station_id":"GST","distance":973,"i_long":106.850107,"time":1,"transit":false,"station_name":"Gang Sentiong","is_transit":false,"i_lat":-6.185975,"line":11},{"i_lat":-6.174784,"distance":1567,"is_transit":false,"station_id":"PSE","line":11,"station_name":"Pasar Senen","i_long":106.84368,"time":8,"transit":false},{"distance":1436,"i_long":106.839204,"station_id":"KMO","transit":false,"time":4,"station_name":"Kemayoran","i_lat":-6.161728,"line":11,"is_transit":false},{"transit":false,"distance":1901,"time":5,"station_id":"RJW","i_long":106.836569,"line":11,"i_lat":-6.14505,"is_transit":false,"station_name":"Rajawali"},{"distance":1444,"station_id":"KPB","station_name":"Kampung Bandan","i_lat":-6.132549,"time":3,"line":4,"is_transit":true,"i_long":106.826365,"transit":true},{"station_name":"Angke","i_lat":-6.144674,"transit":false,"i_long":106.79867,"time":9,"is_transit":false,"station_id":"AK","line":1,"distance":4102},{"distance":1230,"i_long":106.800832,"station_name":"Duri","time":4,"i_lat":-6.155215,"transit":false,"is_transit":false,"line":1,"station_id":"DU"}]]}