{"data":[[{"station_id":"MJ","station_name":"Maja","distance":0,"transit":false,"i_lat":-6.332307,"i_long":106.394373,"time":0,"line":6,"is_transit":false},{"time":4,"station_id":"CKY","station_name":"Cikoya","transit":false,"distance":1853,"line":3,"i_long":106.411216,"is_transit":false,"i_lat":-6.33561},{"i_lat":-6.328533,"distance":2651,"station_id":"TGS","transit":false,"station_name":"Tigaraksa","line":6,"is_transit":false,"i_long":106.425991,"time":3},{"is_transit":false,"transit":false,"time":5,"i_long":106.460812,"line":6,"distance":2974,"i_lat":-6.327251,"station_name":"Tenjo","station_id":"TEJ"},{"is_transit":false,"station_id":"DAR","transit":false,"distance":3902,"i_lat":-6.338021,"time":5,"station_name":"Daru","i_long":106.491338,"line":0},{"i_long":106.508482,"i_lat":-6.354349,"station_id":"CJT","station_name":"Cilejit","line":3,"distance":2675,"is_transit":false,"time":6,"transit":false},{"i_long":106.568863,"station_name":"Parung Panjang","distance":7025,"time":9,"station_id":"PRP","is_transit":false,"line":6,"transit":false,"i_lat":-6.3441410000000005},{"distance":5968,"is_transit":false,"transit":false,"station_name":"Cicayur","i_long":106.617853,"line":3,"station_id":"CC","i_lat":-6.329547,"time":8},{"i_long":106.640411,"station_id":"CSK","distance":2519,"i_lat":-6.32484,"is_transit":false,"line":3,"transit":false,"station_name":"Cisauk","time":4},{"i_long":106.66566,"is_transit":false,"line":6,"station_name":"Serpong","i_lat":-6.319871,"distance":1784,"station_id":"SRP","transit":false,"time":4},{"is_transit":false,"line":6,"distance":2413,"transit":false,"time":4,"station_id":"RU","station_name":"Rawa Buntu","i_long":106.675475,"i_lat":-6.314823},{"distance":4566,"i_lat":-6.296963,"line":6,"i_long":106.712277,"is_transit":false,"transit":false,"station_name":"Sudimara","time":6,"station_id":"SDM"},{"station_id":"JMU","time":4,"i_lat":-6.288927,"transit":false,"i_long":106.728916,"is_transit":false,"line":6,"distance":1994,"station_name":"Jurangmangu"},{"distance":2179,"station_name":"Pondokranji","i_lat":-6.276362,"is_transit":false,"transit":false,"station_id":"PDJ","i_long":106.74273,"line":6,"time":3},{"station_name":"Kebayoran","i_long":106.780334,"transit":false,"line":6,"is_transit":false,"time":8,"i_lat":-6.237242,"distance":6218,"station_id":"KBY"},{"i_long":106.79689,"time":7,"station_id":"PLM","distance":3737,"is_transit":false,"i_lat":-6.207404,"line":6,"transit":false,"station_name":"Palmerah"},{"transit":true,"i_lat":-6.185545,"time":6,"i_long":106.811091,"is_transit":true,"station_id":"THB","distance":3191,"line":1,"station_name":"Tanah Abang"},{"time":8,"station_name":"Duri","is_transit":false,"i_long":106.800832,"line":1,"i_lat":-6.155215,"station_id":"DU","transit":false,"distance":3632}],[{"station_id":"MJ","is_transit":false,"line":6,"station_name":"Maja","i_lat":-6.332307,"distance":0,"time":0,"transit":false,"i_long":106.394373},{"i_long":106.411216,"station_name":"Cikoya","transit":false,"time":4,"is_transit":false,"distance":1853,"i_lat":-6.33561,"station_id":"CKY","line":3},{"transit":false,"distance":2651,"time":3,"line":6,"station_id":"TGS","i_lat":-6.328533,"is_transit":false,"station_name":"Tigaraksa","i_long":106.425991},{"is_transit":false,"line":6,"i_lat":-6.327251,"station_id":"TEJ","transit":false,"distance":2974,"i_long":106.460812,"station_name":"Tenjo","time":5},{"distance":3902,"is_transit":false,"time":5,"station_id":"DAR","i_long":106.491338,"line":0,"station_name":"Daru","i_lat":-6.338021,"transit":false},{"is_transit":false,"time":6,"i_long":106.508482,"station_name":"Cilejit","station_id":"CJT","distance":2675,"transit":false,"i_lat":-6.354349,"line":3},{"line":6,"time":9,"is_transit":false,"i_long":106.568863,"station_id":"PRP","distance":7025,"transit":false,"station_name":"Parung Panjang","i_lat":-6.3441410000000005},{"line":3,"is_transit":false,"station_name":"Cicayur","time":8,"station_id":"CC","transit":false,"distance":5968,"i_long":106.617853,"i_lat":-6.329547},{"station_name":"Cisauk","i_long":106.640411,"time":4,"distance":2519,"line":3,"station_id":"CSK","transit":false,"i_lat":-6.32484,"is_transit":false},{"station_id":"SRP","time":4,"i_long":106.66566,"transit":false,"distance":1784,"i_lat":-6.319871,"station_name":"Serpong","line":6,"is_transit":false},{"line":6,"station_id":"RU","time":4,"i_lat":-6.314823,"station_name":"Rawa Buntu","i_long":106.675475,"transit":false,"is_transit":false,"distance":2413},{"time":6,"station_name":"Sudimara","i_long":106.712277,"i_lat":-6.296963,"station_id":"SDM","transit":false,"is_transit":false,"line":6,"distance":4566},{"station_name":"Jurangmangu","line":6,"i_lat":-6.288927,"transit":false,"distance":1994,"is_transit":false,"time":4,"i_long":106.728916,"station_id":"JMU"},{"is_transit":false,"line":6,"i_lat":-6.276362,"time":3,"transit":false,"station_name":"Pondokranji","i_long":106.74273,"station_id":"PDJ","distance":2179},{"i_long":106.780334,"time":8,"line":6,"station_id":"KBY","i_lat":-6.237242,"is_transit":false,"transit":false,"station_name":"Kebayoran","distance":6218},{"transit":false,"is_transit":false,"station_id":"PLM","distance":3737,"i_long":106.79689,"station_name":"Palmerah","i_lat":-6.207404,"time":7,"line":6},{"is_transit":true,"line":1,"time":6,"distance":3191,"i_long":106.811091,"i_lat":-6.185545,"station_id":"THB","station_name":"Tanah Abang","transit":true},{"i_long":106.816351,"station_id":"KAT","i_lat":-6.20132,"distance":2029,"is_transit":false,"line":1,"station_name":"Karet","transit":false,"time":5},{"transit":false,"station_id":"SUDB","i_lat":-6.201433,"time":1,"station_name":"Sudirman Baru","i_long":106.819881,"distance":471,"is_transit":false,"line":1},{"i_long":106.822649,"time":1,"transit":false,"station_id":"SUD","station_name":"Sudirman","is_transit":false,"i_lat":-6.202263,"distance":280,"line":1},{"transit":true,"is_transit":true,"time":4,"i_long":106.84912,"station_id":"MRI","distance":3186,"i_lat":-6.209883,"station_name":"Manggarai","line":2},{"distance":1590,"station_id":"CKI","i_lat":-6.198556,"line":2,"is_transit":false,"transit":false,"i_long":106.840169,"time":4,"station_name":"Cikini"},{"i_lat":-6.186295,"is_transit":false,"i_long":106.832183,"transit":false,"station_name":"Gondangdia","distance":1750,"line":2,"station_id":"GDD","time":3},{"station_id":"JUA","time":4,"station_name":"Juanda","transit":false,"i_long":106.828284,"is_transit":false,"line":2,"distance":2015,"i_lat":-6.166716},{"time":2,"is_transit":false,"i_long":106.827103,"station_name":"Sawah Besar","station_id":"SW","line":2,"distance":1149,"i_lat":-6.160725,"transit":false},{"time":2,"i_long":106.82482,"station_id":"MGB","transit":false,"is_transit":false,"station_name":"Manggabesar","line":2,"distance":906,"i_lat":-6.149769},{"distance":1080,"time":2,"i_lat":-6.141205,"is_transit":false,"station_id":"JAY","transit":false,"i_long":106.820901,"station_name":"Jayakarta","line":2},{"time":4,"station_id":"JAKK","transit":true,"is_transit":true,"station_name":"Jakarta Kota","i_lat":-6.137569,"distance":1264,"i_long":106.812439,"line":2},{"line":4,"station_id":"KPB","transit":true,"station_name":"Kampung Bandan","distance":1364,"i_lat":-6.132549,"time":3,"i_long":106.826365,"is_transit":true},{"line":1,"distance":4102,"i_lat":-6.144674,"time":9,"i_long":106.79867,"station_name":"Angke","station_id":"AK","transit":false,"is_transit":false},{"i_lat":-6.155215,"time":4,"i_long":106.800832,"line":1,"station_name":"Duri","transit":false,"distance":1230,"is_transit":false,"station_id":"DU"}],[{"is_transit":false,"transit":false,"distance":0,"i_long":106.394373,"station_name":"Maja","time":0,"station_id":"MJ","line":6,"i_lat":-6.332307},{"transit":false,"station_id":"CKY","time":4,"station_name":"Cikoya","i_long":106.411216,"distance":1853,"i_lat":-6.33561,"is_transit":false,"line":3},{"distance":2651,"i_long":106.425991,"station_id":"TGS","line":6,"time":3,"transit":false,"is_transit":false,"i_lat":-6.328533,"station_name":"Tigaraksa"},{"line":6,"transit":false,"station_name":"Tenjo","distance":2974,"is_transit":false,"time":5,"i_lat":-6.327251,"i_long":106.460812,"station_id":"TEJ"},{"station_name":"Daru","time":5,"i_lat":-6.338021,"station_id":"DAR","is_transit":false,"distance":3902,"line":0,"transit":false,"i_long":106.491338},{"station_id":"CJT","transit":false,"i_lat":-6.354349,"distance":2675,"is_transit":false,"line":3,"time":6,"i_long":106.508482,"station_name":"Cilejit"},{"transit":false,"station_id":"PRP","station_name":"Parung Panjang","distance":7025,"line":6,"time":9,"i_lat":-6.3441410000000005,"i_long":106.568863,"is_transit":false},{"is_transit":false,"station_name":"Cicayur","i_lat":-6.329547,"line":3,"time":8,"i_long":106.617853,"station_id":"CC","transit":false,"distance":5968},{"station_id":"CSK","line":3,"is_transit":false,"transit":false,"i_lat":-6.32484,"time":4,"distance":2519,"i_long":106.640411,"station_name":"Cisauk"},{"transit":false,"station_name":"Serpong","is_transit":false,"time":4,"distance":1784,"i_lat":-6.319871,"line":6,"station_id":"SRP","i_long":106.66566},{"station_name":"Rawa Buntu","distance":2413,"transit":false,"station_id":"RU","i_long":106.675475,"is_transit":false,"time":4,"i_lat":-6.314823,"line":6},{"station_name":"Sudimara","i_long":106.712277,"station_id":"SDM","transit":false,"is_transit":false,"time":6,"i_lat":-6.296963,"line":6,"distance":4566},{"i_lat":-6.288927,"station_id":"JMU","distance":1994,"station_name":"Jurangmangu","i_long":106.728916,"transit":false,"time":4,"line":6,"is_transit":false},{"transit":false,"time":3,"i_lat":-6.276362,"station_id":"PDJ","line":6,"station_name":"Pondokranji","distance":2179,"i_long":106.74273,"is_transit":false},{"line":6,"station_id":"KBY","station_name":"Kebayoran","is_transit":false,"time":8,"distance":6218,"transit":false,"i_lat":-6.237242,"i_long":106.780334},{"i_lat":-6.207404,"line":6,"distance":3737,"i_long":106.79689,"is_transit":false,"station_id":"PLM","time":7,"transit":false,"station_name":"Palmerah"},{"distance":3191,"time":6,"i_long":106.811091,"is_transit":true,"station_name":"Tanah Abang","station_id":"THB","transit":true,"i_lat":-6.185545,"line":1},{"line":1,"is_transit":false,"i_lat":-6.20132,"time":5,"i_long":106.816351,"station_id":"KAT","station_name":"Karet","distance":2029,"transit":false},{"distance":471,"i_long":106.819881,"line":1,"i_lat":-6.201433,"station_name":"Sudirman Baru","station_id":"SUDB","transit":false,"is_transit":false,"time":1},{"station_id":"SUD","is_transit":false,"time":1,"transit":false,"station_name":"Sudirman","i_lat":-6.202263,"distance":280,"line":1,"i_long":106.822649},{"line":2,"station_name":"Manggarai","time":4,"i_lat":-6.209883,"transit":false,"is_transit":false,"station_id":"MRI","distance":3186,"i_long":106.84912},{"i_lat":-6.212485,"time":2,"i_long":106.858896,"line":1,"station_name":"Matraman","station_id":"MTR","transit":false,"distance":1275,"is_transit":false},{"station_name":"Jatinegara","station_id":"JNG","transit":true,"distance":1377,"i_lat":-6.215091,"line":1,"i_long":106.86807400000001,"time":8,"is_transit":true},{"station_id":"POK","line":11,"is_transit":false,"station_name":"Pondok Jati","i_lat":-6.209188,"i_long":106.861737,"time":2,"transit":false,"distance":1236},{"time":2,"station_id":"KMT","transit":false,"line":11,"station_name":"Kramat","is_transit":false,"distance":1829,"i_lat":-6.193792,"i_long":106.855437},{"transit":false,"line":11,"station_name":"Gang Sentiong","distance":973,"time":1,"i_lat":-6.185975,"is_transit":false,"i_long":106.850107,"station_id":"GST"},{"line":11,"station_id":"PSE","distance":1567,"time":8,"station_name":"Pasar Senen","i_lat":-6.174784,"transit":false,"is_transit":false,"i_long":106.84368},{"i_long":106.839204,"line":11,"station_id":"KMO","transit":false,"distance":1436,"i_lat":-6.161728,"time":4,"station_name":"Kemayoran","is_transit":false},{"station_id":"RJW","is_transit":false,"transit":false,"i_long":106.836569,"distance":1901,"station_name":"Rajawali","time":5,"line":11,"i_lat":-6.14505},{"distance":1444,"line":4,"i_lat":-6.132549,"time":3,"i_long":106.826365,"station_name":"Kampung Bandan","transit":true,"is_transit":true,"station_id":"KPB"},{"station_name":"Angke","station_id":"AK","transit":false,"i_lat":-6.144674,"i_long":106.79867,"distance":4102,"is_transit":false,"time":9,"line":1},{"distance":1230,"i_long":106.800832,"i_lat":-6.155215,"is_transit":false,"transit":false,"line":1,"station_id":"DU","station_name":"Duri","time":4}]]}