{"data":[[{"transit":false,"time":0,"station_id":"MJ","line":6,"station_name":"Maja","is_transit":false,"i_lat":-6.332307,"distance":0,"i_long":106.394373},{"station_name":"Cikoya","time":4,"i_long":106.411216,"line":3,"i_lat":-6.33561,"station_id":"CKY","transit":false,"distance":1853,"is_transit":false},{"transit":false,"i_long":106.425991,"line":6,"i_lat":-6.328533,"distance":2651,"station_name":"Tigaraksa","time":3,"station_id":"TGS","is_transit":false},{"line":6,"is_transit":false,"station_name":"Tenjo","station_id":"TEJ","time":5,"i_long":106.460812,"i_lat":-6.327251,"transit":false,"distance":2974},{"is_transit":false,"distance":3902,"i_lat":-6.338021,"station_id":"DAR","transit":false,"i_long":106.491338,"line":0,"time":5,"station_name":"Daru"},{"is_transit":false,"time":6,"distance":2675,"i_lat":-6.354349,"station_name":"Cilejit","station_id":"CJT","i_long":106.508482,"line":3,"transit":false},{"is_transit":false,"i_lat":-6.3441410000000005,"transit":false,"station_name":"Parung Panjang","station_id":"PRP","time":9,"i_long":106.568863,"line":6,"distance":7025},{"line":3,"station_name":"Cicayur","time":8,"distance":5968,"is_transit":false,"i_lat":-6.329547,"i_long":106.617853,"transit":false,"station_id":"CC"},{"is_transit":false,"station_id":"CSK","line":3,"time":4,"transit":false,"i_lat":-6.32484,"distance":2519,"station_name":"Cisauk","i_long":106.640411},{"line":6,"i_long":106.66566,"station_id":"SRP","is_transit":false,"transit":false,"i_lat":-6.319871,"distance":1784,"station_name":"Serpong","time":4},{"transit":false,"i_lat":-6.314823,"is_transit":false,"line":6,"station_id":"RU","station_name":"Rawa Buntu","time":4,"distance":2413,"i_long":106.675475},{"distance":4566,"station_name":"Sudimara","station_id":"SDM","time":6,"i_long":106.712277,"line":6,"is_transit":false,"i_lat":-6.296963,"transit":false},{"distance":1994,"i_long":106.728916,"station_name":"Jurangmangu","is_transit":false,"line":6,"transit":false,"i_lat":-6.288927,"station_id":"JMU","time":4},{"distance":2179,"station_name":"Pondokranji","i_long":106.74273,"line":6,"time":3,"i_lat":-6.276362,"transit":false,"station_id":"PDJ","is_transit":false},{"station_id":"KBY","transit":false,"i_lat":-6.237242,"station_name":"Kebayoran","distance":6218,"is_transit":false,"time":8,"i_long":106.780334,"line":6},{"transit":false,"is_transit":false,"station_name":"Palmerah","i_long":106.79689,"station_id":"PLM","i_lat":-6.207404,"line":6,"time":7,"distance":3737},{"line":1,"is_transit":true,"time":6,"transit":true,"station_name":"Tanah Abang","distance":3191,"i_long":106.811091,"i_lat":-6.185545,"station_id":"THB"},{"time":8,"distance":3632,"transit":false,"station_id":"DU","i_long":106.800832,"i_lat":-6.155215,"line":1,"station_name":"Duri","is_transit":false}],[{"i_lat":-6.332307,"transit":false,"station_id":"MJ","is_transit":false,"station_name":"Maja","line":6,"distance":0,"i_long":106.394373,"time":0},{"station_name":"Cikoya","i_lat":-6.33561,"distance":1853,"time":4,"line":3,"is_transit":false,"station_id":"CKY","i_long":106.411216,"transit":false},{"transit":false,"distance":2651,"station_name":"Tigaraksa","is_transit":false,"i_lat":-6.328533,"time":3,"i_long":106.425991,"line":6,"station_id":"TGS"},{"line":6,"is_transit":false,"time":5,"i_long":106.460812,"station_name":"Tenjo","distance":2974,"transit":false,"i_lat":-6.327251,"station_id":"TEJ"},{"i_lat":-6.338021,"transit":false,"i_long":106.491338,"station_id":"DAR","station_name":"Daru","time":5,"line":0,"is_transit":false,"distance":3902},{"distance":2675,"station_id":"CJT","is_transit":false,"transit":false,"station_name":"Cilejit","i_lat":-6.354349,"line":3,"i_long":106.508482,"time":6},{"is_transit":false,"transit":false,"time":9,"distance":7025,"i_lat":-6.3441410000000005,"station_name":"Parung Panjang","station_id":"PRP","i_long":106.568863,"line":6},{"station_name":"Cicayur","distance":5968,"is_transit":false,"i_long":106.617853,"line":3,"transit":false,"i_lat":-6.329547,"time":8,"station_id":"CC"},{"station_id":"CSK","transit":false,"station_name":"Cisauk","is_transit":false,"distance":2519,"line":3,"time":4,"i_lat":-6.32484,"i_long":106.640411},{"station_id":"SRP","distance":1784,"is_transit":false,"i_lat":-6.319871,"transit":false,"i_long":106.66566,"time":4,"station_name":"Serpong","line":6},{"line":6,"time":4,"distance":2413,"transit":false,"is_transit":false,"i_long":106.675475,"i_lat":-6.314823,"station_name":"Rawa Buntu","station_id":"RU"},{"transit":false,"i_lat":-6.296963,"line":6,"is_transit":false,"distance":4566,"station_name":"Sudimara","station_id":"SDM","i_long":106.712277,"time":6},{"i_long":106.728916,"i_lat":-6.288927,"line":6,"transit":false,"is_transit":false,"station_name":"Jurangmangu","station_id":"JMU","time":4,"distance":1994},{"distance":2179,"transit":false,"i_lat":-6.276362,"i_long":106.74273,"line":6,"time":3,"station_id":"PDJ","is_transit":false,"station_name":"Pondokranji"},{"is_transit":false,"station_id":"KBY","distance":6218,"i_lat":-6.237242,"i_long":106.780334,"line":6,"time":8,"transit":false,"station_name":"Kebayoran"},{"station_id":"PLM","i_long":106.79689,"distance":3737,"transit":false,"i_lat":-6.207404,"station_name":"Palmerah","is_transit":false,"line":6,"time":7},{"time":6,"distance":3191,"i_long":106.811091,"line":1,"station_name":"Tanah Abang","is_transit":true,"transit":true,"station_id":"THB","i_lat":-6.185545},{"station_name":"Karet","is_transit":false,"time":5,"transit":false,"distance":2029,"i_lat":-6.20132,"i_long":106.816351,"line":1,"station_id":"KAT"},{"i_lat":-6.201433,"distance":471,"line":1,"is_transit":false,"station_name":"Sudirman Baru","transit":false,"station_id":"SUDB","time":1,"i_long":106.819881},{"i_lat":-6.202263,"line":1,"station_id":"SUD","i_long":106.822649,"transit":false,"is_transit":false,"time":1,"station_name":"Sudirman","distance":280},{"transit":true,"line":2,"station_name":"Manggarai","time":4,"station_id":"MRI","is_transit":true,"i_lat":-6.209883,"i_long":106.84912,"distance":3186},{"station_id":"CKI","distance":1590,"is_transit":false,"i_lat":-6.198556,"line":2,"time":4,"transit":false,"station_name":"Cikini","i_long":106.840169},{"is_transit":false,"transit":false,"i_lat":-6.186295,"station_id":"GDD","i_long":106.832183,"station_name":"Gondangdia","time":3,"distance":1750,"line":2},{"is_transit":false,"time":4,"station_id":"JUA","transit":false,"distance":2015,"i_long":106.828284,"i_lat":-6.166716,"station_name":"Juanda","line":2},{"transit":false,"is_transit":false,"i_lat":-6.160725,"i_long":106.827103,"station_name":"Sawah Besar","station_id":"SW","line":2,"distance":1149,"time":2},{"transit":false,"station_name":"Manggabesar","distance":906,"station_id":"MGB","is_transit":false,"i_lat":-6.149769,"line":2,"i_long":106.82482,"time":2},{"line":2,"transit":false,"distance":1080,"time":2,"is_transit":false,"station_id":"JAY","station_name":"Jayakarta","i_lat":-6.141205,"i_long":106.820901},{"station_id":"JAKK","time":4,"distance":1264,"transit":true,"is_transit":true,"i_long":106.812439,"station_name":"Jakarta Kota","line":2,"i_lat":-6.137569},{"i_lat":-6.132549,"i_long":106.826365,"time":3,"transit":true,"distance":1364,"station_name":"Kampung Bandan","is_transit":true,"line":4,"station_id":"KPB"},{"station_name":"Angke","station_id":"AK","is_transit":false,"i_lat":-6.144674,"i_long":106.79867,"line":1,"distance":4102,"transit":false,"time":9},{"i_long":106.800832,"distance":1230,"is_transit":false,"i_lat":-6.155215,"transit":false,"station_name":"Duri","station_id":"DU","line":1,"time":4}],[{"time":0,"transit":false,"distance":0,"i_long":106.394373,"station_id":"MJ","is_transit":false,"station_name":"Maja","i_lat":-6.332307,"line":6},{"station_id":"CKY","time":4,"i_lat":-6.33561,"transit":false,"distance":1853,"line":3,"is_transit":false,"i_long":106.411216,"station_name":"Cikoya"},{"i_lat":-6.328533,"time":3,"station_id":"TGS","transit":false,"is_transit":false,"distance":2651,"i_long":106.425991,"line":6,"station_name":"Tigaraksa"},{"distance":2974,"transit":false,"time":5,"is_transit":false,"i_lat":-6.327251,"i_long":106.460812,"line":6,"station_name":"Tenjo","station_id":"TEJ"},{"station_id":"DAR","line":0,"i_long":106.491338,"station_name":"Daru","i_lat":-6.338021,"distance":3902,"transit":false,"is_transit":false,"time":5},{"line":3,"transit":false,"i_long":106.508482,"station_name":"Cilejit","is_transit":false,"distance":2675,"station_id":"CJT","i_lat":-6.354349,"time":6},{"distance":7025,"transit":false,"station_id":"PRP","is_transit":false,"time":9,"i_long":106.568863,"i_lat":-6.3441410000000005,"line":6,"station_name":"Parung Panjang"},{"station_name":"Cicayur","line":3,"i_long":106.617853,"distance":5968,"time":8,"transit":false,"is_transit":false,"station_id":"CC","i_lat":-6.329547},{"station_id":"CSK","distance":2519,"station_name":"Cisauk","line":3,"transit":false,"i_lat":-6.32484,"time":4,"is_transit":false,"i_long":106.640411},{"i_long":106.66566,"line":6,"i_lat":-6.319871,"station_name":"Serpong","transit":false,"distance":1784,"is_transit":false,"station_id":"SRP","time":4},{"transit":false,"time":4,"distance":2413,"station_name":"Rawa Buntu","station_id":"RU","i_lat":-6.314823,"i_long":106.675475,"line":6,"is_transit":false},{"transit":false,"i_lat":-6.296963,"is_transit":false,"time":6,"station_name":"Sudimara","distance":4566,"line":6,"station_id":"SDM","i_long":106.712277},{"distance":1994,"i_long":106.728916,"station_name":"Jurangmangu","transit":false,"i_lat":-6.288927,"line":6,"is_transit":false,"time":4,"station_id":"JMU"},{"station_id":"PDJ","time":3,"distance":2179,"transit":false,"i_lat":-6.276362,"station_name":"Pondokranji","i_long":106.74273,"line":6,"is_transit":false},{"is_transit":false,"i_lat":-6.237242,"distance":6218,"transit":false,"station_name":"Kebayoran","station_id":"KBY","i_long":106.780334,"time":8,"line":6},{"is_transit":false,"i_lat":-6.207404,"station_name":"Palmerah","transit":false,"station_id":"PLM","time":7,"distance":3737,"i_long":106.79689,"line":6},{"distance":3191,"station_name":"Tanah Abang","is_transit":true,"i_long":106.811091,"station_id":"THB","time":6,"i_lat":-6.185545,"line":1,"transit":true},{"transit":false,"distance":2029,"station_id":"KAT","i_lat":-6.20132,"line":1,"station_name":"Karet","i_long":106.816351,"is_transit":false,"time":5},{"i_long":106.819881,"line":1,"transit":false,"distance":471,"i_lat":-6.201433,"station_name":"Sudirman Baru","is_transit":false,"time":1,"station_id":"SUDB"},{"transit":false,"time":1,"distance":280,"i_lat":-6.202263,"is_transit":false,"i_long":106.822649,"line":1,"station_id":"SUD","station_name":"Sudirman"},{"station_id":"MRI","station_name":"Manggarai","time":4,"line":2,"i_long":106.84912,"transit":false,"is_transit":false,"distance":3186,"i_lat":-6.209883},{"distance":1275,"time":2,"station_id":"MTR","is_transit":false,"i_long":106.858896,"i_lat":-6.212485,"line":1,"transit":false,"station_name":"Matraman"},{"transit":true,"station_id":"JNG","station_name":"Jatinegara","is_transit":true,"time":8,"i_long":106.86807400000001,"i_lat":-6.215091,"distance":1377,"line":1},{"is_transit":false,"line":11,"station_id":"POK","time":2,"transit":false,"i_long":106.861737,"station_name":"Pondok Jati","i_lat":-6.209188,"distance":1236},{"transit":false,"station_id":"KMT","time":2,"line":11,"i_lat":-6.193792,"i_long":106.855437,"distance":1829,"is_transit":false,"station_name":"Kramat"},{"distance":973,"time":1,"i_lat":-6.185975,"i_long":106.850107,"station_name":"Gang Sentiong","station_id":"GST","line":11,"is_transit":false,"transit":false},{"station_name":"Pasar Senen","line":11,"is_transit":false,"time":8,"station_id":"PSE","i_lat":-6.174784,"transit":false,"distance":1567,"i_long":106.84368},{"is_transit":false,"transit":false,"station_id":"KMO","station_name":"Kemayoran","distance":1436,"i_long":106.839204,"i_lat":-6.161728,"line":11,"time":4},{"time":5,"station_id":"RJW","is_transit":false,"distance":1901,"transit":false,"i_long":106.836569,"station_name":"Rajawali","i_lat":-6.14505,"line":11},{"station_name":"Kampung Bandan","transit":true,"i_lat":-6.132549,"station_id":"KPB","line":4,"distance":1444,"time":3,"i_long":106.826365,"is_transit":true},{"is_transit":false,"time":9,"i_long":106.79867,"transit":false,"line":1,"i_lat":-6.144674,"station_name":"Angke","distance":4102,"station_id":"AK"},{"transit":false,"station_id":"DU","distance":1230,"time":4,"i_long":106.800832,"line":1,"i_lat":-6.155215,"is_transit":false,"station_name":"Duri"}]]}