{"data":[[{"time":0,"distance":0,"is_transit":false,"i_lat":-6.332307,"transit":false,"station_name":"Maja","i_long":106.394373,"line":6,"station_id":"MJ"},{"i_long":106.411216,"i_lat":-6.33561,"station_name":"Cikoya","transit":false,"station_id":"CKY","time":4,"line":3,"is_transit":false,"distance":1853},{"time":3,"distance":2651,"station_name":"Tigaraksa","transit":false,"station_id":"TGS","is_transit":false,"i_long":106.425991,"i_lat":-6.328533,"line":6},{"station_id":"TEJ","line":6,"station_name":"Tenjo","is_transit":false,"i_lat":-6.327251,"transit":false,"distance":2974,"i_long":106.460812,"time":5},{"i_lat":-6.338021,"distance":3902,"station_name":"Daru","station_id":"DAR","time":5,"i_long":106.491338,"line":0,"transit":false,"is_transit":false},{"i_lat":-6.354349,"i_long":106.508482,"is_transit":false,"line":3,"station_name":"Cilejit","time":6,"distance":2675,"transit":false,"station_id":"CJT"},{"is_transit":false,"station_name":"Parung Panjang","station_id":"PRP","i_lat":-6.3441410000000005,"distance":7025,"i_long":106.568863,"transit":false,"time":9,"line":6},{"station_id":"CC","time":8,"station_name":"Cicayur","i_lat":-6.329547,"distance":5968,"is_transit":false,"transit":false,"i_long":106.617853,"line":3},{"distance":2519,"station_id":"CSK","line":3,"i_lat":-6.32484,"transit":false,"station_name":"Cisauk","i_long":106.640411,"time":4,"is_transit":false},{"line":6,"station_id":"SRP","is_transit":false,"station_name":"Serpong","time":4,"distance":1784,"i_long":106.66566,"transit":false,"i_lat":-6.319871},{"transit":false,"i_long":106.675475,"time":4,"station_name":"Rawa Buntu","distance":2413,"i_lat":-6.314823,"line":6,"station_id":"RU","is_transit":false},{"i_long":106.712277,"station_id":"SDM","is_transit":false,"i_lat":-6.296963,"distance":4566,"line":6,"transit":false,"time":6,"station_name":"Sudimara"},{"station_name":"Jurangmangu","station_id":"JMU","distance":1994,"time":4,"transit":false,"i_long":106.728916,"line":6,"is_transit":false,"i_lat":-6.288927},{"distance":2179,"time":3,"station_name":"Pondokranji","is_transit":false,"i_lat":-6.276362,"i_long":106.74273,"line":6,"transit":false,"station_id":"PDJ"},{"i_lat":-6.237242,"station_id":"KBY","transit":false,"distance":6218,"line":6,"time":8,"i_long":106.780334,"station_name":"Kebayoran","is_transit":false},{"distance":3737,"line":6,"is_transit":false,"time":7,"i_lat":-6.207404,"station_id":"PLM","i_long":106.79689,"transit":false,"station_name":"Palmerah"},{"station_name":"Tanah Abang","time":6,"transit":true,"distance":3191,"station_id":"THB","is_transit":true,"i_lat":-6.185545,"line":1,"i_long":106.811091},{"time":8,"i_long":106.800832,"station_name":"Duri","distance":3632,"i_lat":-6.155215,"transit":true,"station_id":"DU","is_transit":true,"line":1},{"distance":1700,"station_id":"GGL","time":3,"i_lat":-6.162021,"transit":false,"station_name":"Grogol","is_transit":false,"i_long":106.788277,"line":5}],[{"time":0,"station_id":"MJ","distance":0,"is_transit":false,"i_lat":-6.332307,"line":6,"transit":false,"station_name":"Maja","i_long":106.394373},{"i_lat":-6.33561,"i_long":106.411216,"station_name":"Cikoya","line":3,"station_id":"CKY","time":4,"distance":1853,"is_transit":false,"transit":false},{"line":6,"station_name":"Tigaraksa","station_id":"TGS","is_transit":false,"distance":2651,"i_lat":-6.328533,"transit":false,"i_long":106.425991,"time":3},{"i_long":106.460812,"is_transit":false,"station_name":"Tenjo","transit":false,"station_id":"TEJ","time":5,"i_lat":-6.327251,"line":6,"distance":2974},{"transit":false,"station_id":"DAR","i_lat":-6.338021,"station_name":"Daru","time":5,"is_transit":false,"line":0,"distance":3902,"i_long":106.491338},{"station_name":"Cilejit","station_id":"CJT","distance":2675,"transit":false,"i_long":106.508482,"time":6,"is_transit":false,"line":3,"i_lat":-6.354349},{"station_name":"Parung Panjang","time":9,"i_long":106.568863,"line":6,"station_id":"PRP","transit":false,"distance":7025,"is_transit":false,"i_lat":-6.3441410000000005},{"station_name":"Cicayur","station_id":"CC","time":8,"i_lat":-6.329547,"i_long":106.617853,"transit":false,"is_transit":false,"line":3,"distance":5968},{"transit":false,"station_id":"CSK","distance":2519,"line":3,"time":4,"is_transit":false,"i_lat":-6.32484,"station_name":"Cisauk","i_long":106.640411},{"station_name":"Serpong","transit":false,"distance":1784,"station_id":"SRP","time":4,"i_long":106.66566,"line":6,"i_lat":-6.319871,"is_transit":false},{"station_name":"Rawa Buntu","i_lat":-6.314823,"distance":2413,"time":4,"is_transit":false,"station_id":"RU","line":6,"i_long":106.675475,"transit":false},{"i_long":106.712277,"time":6,"station_id":"SDM","is_transit":false,"i_lat":-6.296963,"line":6,"transit":false,"station_name":"Sudimara","distance":4566},{"time":4,"distance":1994,"i_long":106.728916,"station_name":"Jurangmangu","station_id":"JMU","line":6,"is_transit":false,"i_lat":-6.288927,"transit":false},{"transit":false,"station_id":"PDJ","distance":2179,"i_lat":-6.276362,"line":6,"i_long":106.74273,"is_transit":false,"station_name":"Pondokranji","time":3},{"station_id":"KBY","distance":6218,"i_lat":-6.237242,"i_long":106.780334,"station_name":"Kebayoran","time":8,"line":6,"transit":false,"is_transit":false},{"station_id":"PLM","i_lat":-6.207404,"time":7,"station_name":"Palmerah","transit":false,"distance":3737,"i_long":106.79689,"line":6,"is_transit":false},{"station_name":"Tanah Abang","station_id":"THB","i_long":106.811091,"is_transit":true,"i_lat":-6.185545,"time":6,"line":1,"transit":true,"distance":3191},{"distance":2029,"is_transit":false,"station_id":"KAT","station_name":"Karet","line":1,"time":5,"i_lat":-6.20132,"i_long":106.816351,"transit":false},{"i_long":106.819881,"station_name":"Sudirman Baru","distance":471,"i_lat":-6.201433,"line":1,"transit":false,"time":1,"station_id":"SUDB","is_transit":false},{"i_lat":-6.202263,"distance":280,"station_id":"SUD","i_long":106.822649,"time":1,"line":1,"is_transit":false,"transit":false,"station_name":"Sudirman"},{"station_id":"MRI","distance":3186,"transit":true,"time":4,"is_transit":true,"station_name":"Manggarai","i_long":106.84912,"line":2,"i_lat":-6.209883},{"station_name":"Cikini","transit":false,"is_transit":false,"time":4,"distance":1590,"i_lat":-6.198556,"station_id":"CKI","i_long":106.840169,"line":2},{"station_name":"Gondangdia","distance":1750,"station_id":"GDD","line":2,"i_lat":-6.186295,"transit":false,"is_transit":false,"time":3,"i_long":106.832183},{"line":2,"is_transit":false,"time":4,"station_name":"Juanda","i_lat":-6.166716,"transit":false,"distance":2015,"station_id":"JUA","i_long":106.828284},{"time":2,"distance":1149,"is_transit":false,"line":2,"i_lat":-6.160725,"transit":false,"station_name":"Sawah Besar","station_id":"SW","i_long":106.827103},{"station_id":"MGB","station_name":"Manggabesar","is_transit":false,"distance":906,"time":2,"i_long":106.82482,"line":2,"transit":false,"i_lat":-6.149769},{"transit":false,"time":2,"station_name":"Jayakarta","is_transit":false,"line":2,"i_long":106.820901,"i_lat":-6.141205,"distance":1080,"station_id":"JAY"},{"line":2,"is_transit":true,"time":4,"station_name":"Jakarta Kota","i_lat":-6.137569,"transit":true,"distance":1264,"i_long":106.812439,"station_id":"JAKK"},{"i_lat":-6.132549,"station_id":"KPB","station_name":"Kampung Bandan","is_transit":true,"distance":1364,"i_long":106.826365,"line":4,"time":3,"transit":true},{"i_long":106.79867,"line":1,"i_lat":-6.144674,"station_id":"AK","is_transit":false,"distance":4102,"transit":false,"station_name":"Angke","time":9},{"i_lat":-6.155215,"transit":true,"i_long":106.800832,"time":4,"distance":1230,"line":1,"station_name":"Duri","is_transit":true,"station_id":"DU"},{"i_lat":-6.162021,"station_name":"Grogol","station_id":"GGL","transit":false,"line":5,"distance":1700,"is_transit":false,"time":3,"i_long":106.788277}],[{"i_lat":-6.332307,"time":0,"transit":false,"line":6,"i_long":106.394373,"distance":0,"station_name":"Maja","station_id":"MJ","is_transit":false},{"transit":false,"distance":1853,"is_transit":false,"station_id":"CKY","time":4,"i_lat":-6.33561,"line":3,"station_name":"Cikoya","i_long":106.411216},{"i_lat":-6.328533,"time":3,"transit":false,"station_id":"TGS","station_name":"Tigaraksa","line":6,"is_transit":false,"distance":2651,"i_long":106.425991},{"time":5,"station_name":"Tenjo","distance":2974,"transit":false,"i_long":106.460812,"station_id":"TEJ","is_transit":false,"i_lat":-6.327251,"line":6},{"line":0,"i_long":106.491338,"is_transit":false,"time":5,"i_lat":-6.338021,"station_name":"Daru","transit":false,"station_id":"DAR","distance":3902},{"is_transit":false,"i_lat":-6.354349,"i_long":106.508482,"line":3,"time":6,"transit":false,"station_id":"CJT","station_name":"Cilejit","distance":2675},{"station_id":"PRP","transit":false,"time":9,"i_lat":-6.3441410000000005,"line":6,"is_transit":false,"station_name":"Parung Panjang","distance":7025,"i_long":106.568863},{"is_transit":false,"line":3,"time":8,"transit":false,"i_long":106.617853,"station_id":"CC","station_name":"Cicayur","i_lat":-6.329547,"distance":5968},{"station_id":"CSK","time":4,"transit":false,"i_lat":-6.32484,"i_long":106.640411,"line":3,"is_transit":false,"station_name":"Cisauk","distance":2519},{"station_id":"SRP","i_long":106.66566,"transit":false,"time":4,"line":6,"station_name":"Serpong","is_transit":false,"distance":1784,"i_lat":-6.319871},{"time":4,"line":6,"distance":2413,"station_name":"Rawa Buntu","i_lat":-6.314823,"is_transit":false,"station_id":"RU","transit":false,"i_long":106.675475},{"is_transit":false,"station_name":"Sudimara","station_id":"SDM","transit":false,"time":6,"i_lat":-6.296963,"line":6,"i_long":106.712277,"distance":4566},{"distance":1994,"transit":false,"station_id":"JMU","is_transit":false,"i_lat":-6.288927,"station_name":"Jurangmangu","time":4,"i_long":106.728916,"line":6},{"station_id":"PDJ","distance":2179,"i_long":106.74273,"is_transit":false,"line":6,"time":3,"station_name":"Pondokranji","i_lat":-6.276362,"transit":false},{"i_long":106.780334,"transit":false,"station_name":"Kebayoran","distance":6218,"station_id":"KBY","time":8,"i_lat":-6.237242,"is_transit":false,"line":6},{"time":7,"i_long":106.79689,"transit":false,"station_id":"PLM","station_name":"Palmerah","is_transit":false,"line":6,"i_lat":-6.207404,"distance":3737},{"distance":3191,"line":1,"i_long":106.811091,"station_id":"THB","i_lat":-6.185545,"time":6,"is_transit":true,"transit":true,"station_name":"Tanah Abang"},{"station_name":"Karet","time":5,"line":1,"station_id":"KAT","is_transit":false,"distance":2029,"i_lat":-6.20132,"i_long":106.816351,"transit":false},{"distance":471,"time":1,"station_name":"Sudirman Baru","station_id":"SUDB","i_lat":-6.201433,"i_long":106.819881,"line":1,"is_transit":false,"transit":false},{"distance":280,"line":1,"i_lat":-6.202263,"is_transit":false,"time":1,"i_long":106.822649,"transit":false,"station_name":"Sudirman","station_id":"SUD"},{"station_id":"MRI","line":2,"distance":3186,"transit":false,"i_long":106.84912,"station_name":"Manggarai","is_transit":false,"time":4,"i_lat":-6.209883},{"station_name":"Matraman","is_transit":false,"distance":1275,"i_lat":-6.212485,"transit":false,"line":1,"station_id":"MTR","i_long":106.858896,"time":2},{"line":1,"transit":true,"station_id":"JNG","i_lat":-6.215091,"distance":1377,"i_long":106.86807400000001,"time":8,"station_name":"Jatinegara","is_transit":true},{"transit":false,"is_transit":false,"distance":1236,"station_name":"Pondok Jati","i_long":106.861737,"line":11,"station_id":"POK","i_lat":-6.209188,"time":2},{"is_transit":false,"transit":false,"station_id":"KMT","i_long":106.855437,"distance":1829,"station_name":"Kramat","i_lat":-6.193792,"time":2,"line":11},{"distance":973,"i_lat":-6.185975,"i_long":106.850107,"line":11,"time":1,"station_id":"GST","transit":false,"is_transit":false,"station_name":"Gang Sentiong"},{"line":11,"transit":false,"station_id":"PSE","is_transit":false,"distance":1567,"i_long":106.84368,"time":8,"i_lat":-6.174784,"station_name":"Pasar Senen"},{"time":4,"is_transit":false,"distance":1436,"station_id":"KMO","station_name":"Kemayoran","i_long":106.839204,"transit":false,"i_lat":-6.161728,"line":11},{"i_lat":-6.14505,"time":5,"line":11,"station_name":"Rajawali","i_long":106.836569,"station_id":"RJW","transit":false,"is_transit":false,"distance":1901},{"i_long":106.826365,"is_transit":true,"station_name":"Kampung Bandan","transit":true,"station_id":"KPB","time":3,"distance":1444,"line":4,"i_lat":-6.132549},{"transit":false,"station_name":"Angke","is_transit":false,"time":9,"station_id":"AK","i_lat":-6.144674,"line":1,"distance":4102,"i_long":106.79867},{"i_long":106.800832,"i_lat":-6.155215,"distance":1230,"time":4,"station_name":"Duri","is_transit":true,"transit":true,"line":1,"station_id":"DU"},{"transit":false,"line":5,"station_name":"Grogol","distance":1700,"time":3,"is_transit":false,"i_lat":-6.162021,"station_id":"GGL","i_long":106.788277}]]}