{"data":[[{"i_lat":-6.332307,"distance":0,"i_long":106.394373,"line":6,"transit":false,"station_id":"MJ","time":0,"is_transit":false,"station_name":"Maja"},{"distance":1853,"is_transit":false,"line":3,"i_long":106.411216,"i_lat":-6.33561,"station_name":"Cikoya","transit":false,"station_id":"CKY","time":4},{"time":3,"distance":2651,"i_lat":-6.328533,"i_long":106.425991,"transit":false,"is_transit":false,"station_id":"TGS","station_name":"Tigaraksa","line":6},{"i_lat":-6.327251,"station_id":"TEJ","transit":false,"is_transit":false,"station_name":"Tenjo","distance":2974,"line":6,"i_long":106.460812,"time":5},{"transit":false,"i_long":106.491338,"station_name":"Daru","distance":3902,"station_id":"DAR","line":0,"is_transit":false,"time":5,"i_lat":-6.338021},{"station_id":"CJT","i_lat":-6.354349,"time":6,"i_long":106.508482,"distance":2675,"station_name":"Cilejit","transit":false,"line":3,"is_transit":false},{"time":9,"transit":false,"station_name":"Parung Panjang","i_lat":-6.3441410000000005,"is_transit":false,"distance":7025,"i_long":106.568863,"line":6,"station_id":"PRP"},{"i_lat":-6.329547,"time":8,"distance":5968,"transit":false,"station_id":"CC","is_transit":false,"station_name":"Cicayur","line":3,"i_long":106.617853},{"line":3,"distance":2519,"time":4,"is_transit":false,"transit":false,"station_id":"CSK","i_long":106.640411,"station_name":"Cisauk","i_lat":-6.32484},{"distance":1784,"transit":false,"station_id":"SRP","station_name":"Serpong","line":6,"is_transit":false,"time":4,"i_lat":-6.319871,"i_long":106.66566},{"distance":2413,"transit":false,"station_id":"RU","i_lat":-6.314823,"station_name":"Rawa Buntu","line":6,"time":4,"i_long":106.675475,"is_transit":false},{"station_name":"Sudimara","transit":false,"station_id":"SDM","time":6,"i_long":106.712277,"distance":4566,"i_lat":-6.296963,"line":6,"is_transit":false},{"is_transit":false,"station_name":"Jurangmangu","distance":1994,"i_long":106.728916,"station_id":"JMU","line":6,"time":4,"transit":false,"i_lat":-6.288927},{"time":3,"i_lat":-6.276362,"station_name":"Pondokranji","distance":2179,"line":6,"station_id":"PDJ","i_long":106.74273,"transit":false,"is_transit":false},{"i_lat":-6.237242,"line":6,"i_long":106.780334,"transit":false,"station_name":"Kebayoran","is_transit":false,"station_id":"KBY","distance":6218,"time":8},{"i_lat":-6.207404,"line":6,"station_id":"PLM","i_long":106.79689,"is_transit":false,"distance":3737,"time":7,"transit":false,"station_name":"Palmerah"},{"is_transit":true,"station_name":"Tanah Abang","line":1,"transit":true,"station_id":"THB","i_long":106.811091,"distance":3191,"i_lat":-6.185545,"time":6},{"station_name":"Duri","distance":3632,"i_long":106.800832,"line":1,"station_id":"DU","is_transit":true,"transit":true,"i_lat":-6.155215,"time":8},{"is_transit":false,"time":3,"i_long":106.788277,"line":5,"transit":false,"station_id":"GGL","i_lat":-6.162021,"station_name":"Grogol","distance":1700}],[{"is_transit":false,"time":0,"transit":false,"station_name":"Maja","i_lat":-6.332307,"station_id":"MJ","i_long":106.394373,"distance":0,"line":6},{"i_lat":-6.33561,"line":3,"station_name":"Cikoya","i_long":106.411216,"transit":false,"time":4,"is_transit":false,"distance":1853,"station_id":"CKY"},{"i_long":106.425991,"distance":2651,"station_id":"TGS","station_name":"Tigaraksa","is_transit":false,"line":6,"i_lat":-6.328533,"transit":false,"time":3},{"i_long":106.460812,"is_transit":false,"i_lat":-6.327251,"line":6,"distance":2974,"station_name":"Tenjo","transit":false,"time":5,"station_id":"TEJ"},{"is_transit":false,"time":5,"station_id":"DAR","line":0,"transit":false,"i_long":106.491338,"distance":3902,"i_lat":-6.338021,"station_name":"Daru"},{"line":3,"i_lat":-6.354349,"distance":2675,"transit":false,"station_name":"Cilejit","is_transit":false,"station_id":"CJT","time":6,"i_long":106.508482},{"i_long":106.568863,"transit":false,"station_name":"Parung Panjang","line":6,"station_id":"PRP","time":9,"is_transit":false,"i_lat":-6.3441410000000005,"distance":7025},{"i_long":106.617853,"is_transit":false,"time":8,"distance":5968,"i_lat":-6.329547,"transit":false,"station_name":"Cicayur","station_id":"CC","line":3},{"time":4,"line":3,"is_transit":false,"station_name":"Cisauk","transit":false,"i_lat":-6.32484,"station_id":"CSK","i_long":106.640411,"distance":2519},{"time":4,"station_id":"SRP","station_name":"Serpong","transit":false,"distance":1784,"line":6,"i_long":106.66566,"i_lat":-6.319871,"is_transit":false},{"i_lat":-6.314823,"is_transit":false,"distance":2413,"line":6,"i_long":106.675475,"station_id":"RU","station_name":"Rawa Buntu","time":4,"transit":false},{"i_long":106.712277,"time":6,"station_name":"Sudimara","line":6,"station_id":"SDM","i_lat":-6.296963,"is_transit":false,"transit":false,"distance":4566},{"is_transit":false,"distance":1994,"station_id":"JMU","time":4,"i_lat":-6.288927,"i_long":106.728916,"transit":false,"station_name":"Jurangmangu","line":6},{"time":3,"distance":2179,"station_id":"PDJ","is_transit":false,"line":6,"station_name":"Pondokranji","i_lat":-6.276362,"i_long":106.74273,"transit":false},{"i_lat":-6.237242,"distance":6218,"time":8,"station_id":"KBY","station_name":"Kebayoran","line":6,"is_transit":false,"transit":false,"i_long":106.780334},{"transit":false,"distance":3737,"is_transit":false,"i_long":106.79689,"station_id":"PLM","line":6,"time":7,"i_lat":-6.207404,"station_name":"Palmerah"},{"is_transit":true,"transit":true,"distance":3191,"time":6,"station_name":"Tanah Abang","i_long":106.811091,"line":1,"i_lat":-6.185545,"station_id":"THB"},{"line":1,"is_transit":false,"i_lat":-6.20132,"transit":false,"station_id":"KAT","station_name":"Karet","distance":2029,"i_long":106.816351,"time":5},{"distance":471,"i_lat":-6.201433,"i_long":106.819881,"line":1,"transit":false,"time":1,"station_name":"Sudirman Baru","station_id":"SUDB","is_transit":false},{"distance":280,"i_long":106.822649,"transit":false,"line":1,"station_name":"Sudirman","station_id":"SUD","i_lat":-6.202263,"is_transit":false,"time":1},{"transit":true,"is_transit":true,"station_name":"Manggarai","i_lat":-6.209883,"distance":3186,"line":2,"i_long":106.84912,"station_id":"MRI","time":4},{"transit":false,"is_transit":false,"station_name":"Cikini","station_id":"CKI","time":4,"line":2,"distance":1590,"i_long":106.840169,"i_lat":-6.198556},{"station_id":"GDD","time":3,"transit":false,"i_lat":-6.186295,"is_transit":false,"distance":1750,"i_long":106.832183,"station_name":"Gondangdia","line":2},{"line":2,"station_name":"Juanda","time":4,"transit":false,"station_id":"JUA","is_transit":false,"i_lat":-6.166716,"i_long":106.828284,"distance":2015},{"station_name":"Sawah Besar","time":2,"line":2,"distance":1149,"station_id":"SW","i_long":106.827103,"i_lat":-6.160725,"transit":false,"is_transit":false},{"is_transit":false,"i_long":106.82482,"station_id":"MGB","line":2,"i_lat":-6.149769,"transit":false,"station_name":"Manggabesar","distance":906,"time":2},{"time":2,"i_lat":-6.141205,"line":2,"distance":1080,"i_long":106.820901,"transit":false,"station_name":"Jayakarta","station_id":"JAY","is_transit":false},{"time":4,"i_long":106.812439,"transit":true,"station_name":"Jakarta Kota","i_lat":-6.137569,"is_transit":true,"distance":1264,"line":2,"station_id":"JAKK"},{"transit":true,"line":4,"is_transit":true,"time":3,"station_name":"Kampung Bandan","distance":1364,"i_long":106.826365,"station_id":"KPB","i_lat":-6.132549},{"i_lat":-6.144674,"transit":false,"time":9,"station_id":"AK","distance":4102,"station_name":"Angke","i_long":106.79867,"is_transit":false,"line":1},{"i_long":106.800832,"is_transit":true,"distance":1230,"i_lat":-6.155215,"transit":true,"line":1,"time":4,"station_id":"DU","station_name":"Duri"},{"is_transit":false,"time":3,"station_name":"Grogol","transit":false,"i_long":106.788277,"distance":1700,"station_id":"GGL","i_lat":-6.162021,"line":5}],[{"is_transit":false,"station_name":"Maja","time":0,"station_id":"MJ","distance":0,"transit":false,"i_lat":-6.332307,"i_long":106.394373,"line":6},{"time":4,"station_name":"Cikoya","i_long":106.411216,"transit":false,"station_id":"CKY","line":3,"i_lat":-6.33561,"distance":1853,"is_transit":false},{"i_long":106.425991,"distance":2651,"time":3,"station_id":"TGS","i_lat":-6.328533,"transit":false,"line":6,"is_transit":false,"station_name":"Tigaraksa"},{"station_id":"TEJ","station_name":"Tenjo","time":5,"i_lat":-6.327251,"distance":2974,"line":6,"transit":false,"is_transit":false,"i_long":106.460812},{"station_name":"Daru","line":0,"station_id":"DAR","i_lat":-6.338021,"is_transit":false,"distance":3902,"time":5,"transit":false,"i_long":106.491338},{"is_transit":false,"time":6,"station_id":"CJT","i_long":106.508482,"line":3,"station_name":"Cilejit","distance":2675,"transit":false,"i_lat":-6.354349},{"station_name":"Parung Panjang","station_id":"PRP","transit":false,"time":9,"is_transit":false,"distance":7025,"i_lat":-6.3441410000000005,"line":6,"i_long":106.568863},{"line":3,"transit":false,"i_long":106.617853,"station_id":"CC","i_lat":-6.329547,"is_transit":false,"station_name":"Cicayur","time":8,"distance":5968},{"distance":2519,"i_lat":-6.32484,"station_name":"Cisauk","i_long":106.640411,"line":3,"transit":false,"station_id":"CSK","is_transit":false,"time":4},{"transit":false,"distance":1784,"i_lat":-6.319871,"time":4,"i_long":106.66566,"station_name":"Serpong","is_transit":false,"station_id":"SRP","line":6},{"i_long":106.675475,"is_transit":false,"time":4,"station_id":"RU","station_name":"Rawa Buntu","transit":false,"i_lat":-6.314823,"distance":2413,"line":6},{"is_transit":false,"line":6,"time":6,"transit":false,"i_lat":-6.296963,"i_long":106.712277,"distance":4566,"station_name":"Sudimara","station_id":"SDM"},{"distance":1994,"i_lat":-6.288927,"time":4,"station_id":"JMU","station_name":"Jurangmangu","transit":false,"i_long":106.728916,"line":6,"is_transit":false},{"time":3,"station_id":"PDJ","is_transit":false,"i_long":106.74273,"line":6,"transit":false,"station_name":"Pondokranji","i_lat":-6.276362,"distance":2179},{"transit":false,"is_transit":false,"i_lat":-6.237242,"time":8,"i_long":106.780334,"station_name":"Kebayoran","line":6,"station_id":"KBY","distance":6218},{"i_lat":-6.207404,"station_id":"PLM","line":6,"station_name":"Palmerah","transit":false,"is_transit":false,"time":7,"distance":3737,"i_long":106.79689},{"station_name":"Tanah Abang","station_id":"THB","distance":3191,"i_long":106.811091,"is_transit":true,"line":1,"time":6,"i_lat":-6.185545,"transit":true},{"time":5,"is_transit":false,"transit":false,"i_long":106.816351,"station_name":"Karet","station_id":"KAT","i_lat":-6.20132,"distance":2029,"line":1},{"is_transit":false,"station_name":"Sudirman Baru","transit":false,"station_id":"SUDB","i_lat":-6.201433,"i_long":106.819881,"line":1,"time":1,"distance":471},{"i_lat":-6.202263,"transit":false,"is_transit":false,"line":1,"station_id":"SUD","station_name":"Sudirman","time":1,"i_long":106.822649,"distance":280},{"distance":3186,"transit":false,"station_name":"Manggarai","is_transit":false,"line":2,"station_id":"MRI","i_lat":-6.209883,"i_long":106.84912,"time":4},{"i_lat":-6.212485,"station_id":"MTR","transit":false,"time":2,"is_transit":false,"station_name":"Matraman","i_long":106.858896,"distance":1275,"line":1},{"is_transit":true,"distance":1377,"time":8,"i_long":106.86807400000001,"line":1,"i_lat":-6.215091,"transit":true,"station_id":"JNG","station_name":"Jatinegara"},{"line":11,"transit":false,"time":2,"distance":1236,"i_long":106.861737,"station_id":"POK","station_name":"Pondok Jati","i_lat":-6.209188,"is_transit":false},{"transit":false,"time":2,"i_lat":-6.193792,"i_long":106.855437,"line":11,"station_id":"KMT","is_transit":false,"station_name":"Kramat","distance":1829},{"station_id":"GST","time":1,"transit":false,"i_lat":-6.185975,"i_long":106.850107,"station_name":"Gang Sentiong","line":11,"distance":973,"is_transit":false},{"line":11,"station_name":"Pasar Senen","distance":1567,"i_long":106.84368,"station_id":"PSE","time":8,"i_lat":-6.174784,"is_transit":false,"transit":false},{"i_long":106.839204,"transit":false,"time":4,"distance":1436,"i_lat":-6.161728,"line":11,"station_id":"KMO","is_transit":false,"station_name":"Kemayoran"},{"line":11,"transit":false,"time":5,"i_lat":-6.14505,"is_transit":false,"station_name":"Rajawali","distance":1901,"station_id":"RJW","i_long":106.836569},{"distance":1444,"station_id":"KPB","i_lat":-6.132549,"i_long":106.826365,"line":4,"is_transit":true,"transit":true,"station_name":"Kampung Bandan","time":3},{"transit":false,"time":9,"i_long":106.79867,"station_id":"AK","i_lat":-6.144674,"distance":4102,"line":1,"station_name":"Angke","is_transit":false},{"is_transit":true,"i_long":106.800832,"line":1,"i_lat":-6.155215,"transit":true,"station_id":"DU","station_name":"Duri","time":4,"distance":1230},{"is_transit":false,"distance":1700,"time":3,"i_lat":-6.162021,"station_name":"Grogol","i_long":106.788277,"station_id":"GGL","line":5,"transit":false}]]}