{"data":[[{"transit":false,"time":0,"i_long":106.394373,"station_id":"MJ","is_transit":false,"distance":0,"station_name":"Maja","line":6,"i_lat":-6.332307},{"is_transit":false,"i_lat":-6.33561,"station_id":"CKY","station_name":"Cikoya","time":4,"transit":false,"line":0,"i_long":106.411216,"distance":1853},{"is_transit":false,"distance":2651,"i_lat":-6.328533,"i_long":106.425991,"transit":false,"time":3,"station_name":"Tigaraksa","line":6,"station_id":"TGS"},{"i_lat":-6.327251,"station_id":"TEJ","line":6,"is_transit":false,"distance":2974,"transit":false,"time":5,"station_name":"Tenjo","i_long":106.460812},{"is_transit":false,"transit":false,"station_name":"Daru","i_lat":-6.338021,"station_id":"DAR","distance":3902,"time":5,"i_long":106.491338,"line":0},{"i_lat":-6.354349,"station_name":"Cilejit","distance":2675,"transit":false,"time":6,"is_transit":false,"i_long":106.508482,"line":0,"station_id":"CJT"},{"transit":false,"time":9,"i_lat":-6.3441410000000005,"i_long":106.568863,"station_name":"Parung Panjang","station_id":"PRP","is_transit":false,"line":6,"distance":7025},{"distance":5968,"i_lat":-6.329547,"i_long":106.617853,"transit":false,"is_transit":false,"station_id":"CC","time":8,"line":0,"station_name":"Cicayur"},{"transit":false,"station_id":"CSK","i_long":106.640411,"line":0,"distance":2519,"time":4,"is_transit":false,"station_name":"Cisauk","i_lat":-6.32484},{"transit":false,"station_name":"Serpong","i_lat":-6.319871,"line":6,"station_id":"SRP","is_transit":false,"time":4,"i_long":106.66566,"distance":1784},{"distance":2413,"time":4,"i_lat":-6.314823,"line":6,"is_transit":false,"station_name":"Rawa Buntu","i_long":106.675475,"station_id":"RU","transit":false},{"time":6,"is_transit":false,"i_long":106.712277,"station_name":"Sudimara","distance":4566,"i_lat":-6.296963,"line":6,"station_id":"SDM","transit":false},{"is_transit":false,"i_long":106.728916,"station_id":"JMU","transit":false,"distance":1994,"time":4,"i_lat":-6.288927,"station_name":"Jurangmangu","line":6},{"line":6,"is_transit":false,"station_id":"PDJ","time":3,"i_long":106.74273,"station_name":"Pondokranji","i_lat":-6.276362,"transit":false,"distance":2179},{"is_transit":false,"transit":false,"i_lat":-6.237242,"i_long":106.780334,"line":6,"station_name":"Kebayoran","station_id":"KBY","distance":6218,"time":8},{"i_long":106.79689,"time":7,"transit":false,"is_transit":false,"i_lat":-6.207404,"station_name":"Palmerah","line":6,"distance":3737,"station_id":"PLM"},{"is_transit":true,"time":6,"transit":true,"line":1,"distance":3191,"station_name":"Tanah Abang","i_lat":-6.185545,"i_long":106.811091,"station_id":"THB"},{"time":8,"is_transit":true,"station_name":"Duri","i_lat":-6.155215,"transit":true,"line":1,"station_id":"DU","i_long":106.800832,"distance":3632},{"i_long":106.788277,"station_id":"GGL","is_transit":false,"i_lat":-6.162021,"distance":1700,"transit":false,"time":3,"station_name":"Grogol","line":5}],[{"transit":false,"i_lat":-6.332307,"line":6,"station_id":"MJ","station_name":"Maja","time":0,"i_long":106.394373,"is_transit":false,"distance":0},{"station_name":"Cikoya","line":0,"station_id":"CKY","is_transit":false,"i_lat":-6.33561,"transit":false,"i_long":106.411216,"time":4,"distance":1853},{"i_long":106.425991,"station_id":"TGS","time":3,"transit":false,"line":6,"station_name":"Tigaraksa","i_lat":-6.328533,"distance":2651,"is_transit":false},{"time":5,"is_transit":false,"station_name":"Tenjo","transit":false,"i_lat":-6.327251,"station_id":"TEJ","i_long":106.460812,"line":6,"distance":2974},{"i_long":106.491338,"line":0,"transit":false,"time":5,"station_id":"DAR","distance":3902,"station_name":"Daru","is_transit":false,"i_lat":-6.338021},{"line":0,"station_id":"CJT","distance":2675,"time":6,"transit":false,"i_long":106.508482,"station_name":"Cilejit","is_transit":false,"i_lat":-6.354349},{"i_lat":-6.3441410000000005,"i_long":106.568863,"station_name":"Parung Panjang","line":6,"time":9,"station_id":"PRP","transit":false,"is_transit":false,"distance":7025},{"i_lat":-6.329547,"station_name":"Cicayur","station_id":"CC","line":0,"transit":false,"time":8,"is_transit":false,"i_long":106.617853,"distance":5968},{"station_id":"CSK","is_transit":false,"distance":2519,"time":4,"i_long":106.640411,"station_name":"Cisauk","line":0,"transit":false,"i_lat":-6.32484},{"transit":false,"is_transit":false,"time":4,"line":6,"station_id":"SRP","station_name":"Serpong","i_long":106.66566,"i_lat":-6.319871,"distance":1784},{"distance":2413,"station_name":"Rawa Buntu","transit":false,"line":6,"time":4,"i_lat":-6.314823,"i_long":106.675475,"station_id":"RU","is_transit":false},{"time":6,"line":6,"station_id":"SDM","is_transit":false,"station_name":"Sudimara","i_long":106.712277,"distance":4566,"transit":false,"i_lat":-6.296963},{"station_name":"Jurangmangu","i_long":106.728916,"is_transit":false,"station_id":"JMU","transit":false,"i_lat":-6.288927,"line":6,"time":4,"distance":1994},{"i_lat":-6.276362,"station_id":"PDJ","station_name":"Pondokranji","distance":2179,"time":3,"line":6,"is_transit":false,"transit":false,"i_long":106.74273},{"i_lat":-6.237242,"transit":false,"time":8,"is_transit":false,"distance":6218,"station_name":"Kebayoran","line":6,"station_id":"KBY","i_long":106.780334},{"line":6,"i_lat":-6.207404,"distance":3737,"station_id":"PLM","station_name":"Palmerah","transit":false,"time":7,"i_long":106.79689,"is_transit":false},{"station_name":"Tanah Abang","line":1,"i_lat":-6.185545,"i_long":106.811091,"time":6,"transit":true,"station_id":"THB","is_transit":true,"distance":3191},{"is_transit":false,"distance":2029,"station_id":"KAT","i_lat":-6.20132,"i_long":106.816351,"time":5,"station_name":"Karet","transit":false,"line":1},{"is_transit":false,"station_name":"Sudirman Baru","transit":false,"distance":471,"i_long":106.819881,"station_id":"SUDB","line":1,"time":1,"i_lat":-6.201433},{"time":1,"i_lat":-6.202263,"is_transit":false,"i_long":106.822649,"line":1,"distance":280,"station_name":"Sudirman","station_id":"SUD","transit":false},{"i_long":106.84912,"time":4,"distance":3186,"line":0,"is_transit":true,"station_id":"MRI","transit":true,"i_lat":-6.209883,"station_name":"Manggarai"},{"time":4,"i_long":106.840169,"station_name":"Cikini","is_transit":false,"i_lat":-6.198556,"line":0,"station_id":"CKI","distance":1590,"transit":false},{"time":3,"i_lat":-6.186295,"line":2,"distance":1750,"is_transit":false,"station_name":"Gondangdia","i_long":106.832183,"station_id":"GDD","transit":false},{"transit":false,"is_transit":false,"time":4,"station_name":"Juanda","station_id":"JUA","distance":2015,"i_lat":-6.166716,"i_long":106.828284,"line":2},{"station_id":"SW","line":2,"is_transit":false,"station_name":"Sawah Besar","i_long":106.827103,"time":2,"transit":false,"i_lat":-6.160725,"distance":1149},{"station_id":"MGB","time":2,"i_lat":-6.149769,"is_transit":false,"i_long":106.82482,"line":2,"distance":906,"transit":false,"station_name":"Manggabesar"},{"is_transit":false,"station_id":"JAY","i_lat":-6.141205,"line":7,"transit":false,"distance":1080,"station_name":"Jayakarta","i_long":106.820901,"time":2},{"station_id":"JAKK","transit":true,"i_long":106.812439,"is_transit":true,"time":4,"i_lat":-6.137569,"distance":1264,"station_name":"Jakarta Kota","line":0},{"i_lat":-6.132549,"distance":1364,"station_id":"KPB","station_name":"Kampung Bandan","i_long":106.826365,"line":0,"is_transit":true,"transit":false,"time":3},{"line":0,"transit":false,"station_name":"Angke","station_id":"AK","is_transit":false,"distance":4102,"i_long":106.79867,"time":9,"i_lat":-6.144674},{"is_transit":true,"i_lat":-6.155215,"station_id":"DU","time":4,"line":1,"distance":1230,"i_long":106.800832,"transit":true,"station_name":"Duri"},{"is_transit":false,"station_name":"Grogol","line":5,"i_long":106.788277,"distance":1700,"time":3,"transit":false,"i_lat":-6.162021,"station_id":"GGL"}],[{"i_lat":-6.332307,"station_id":"MJ","distance":0,"transit":false,"is_transit":false,"station_name":"Maja","i_long":106.394373,"line":6,"time":0},{"transit":false,"distance":1853,"station_id":"CKY","i_lat":-6.33561,"line":0,"i_long":106.411216,"time":4,"station_name":"Cikoya","is_transit":false},{"transit":false,"distance":2651,"station_id":"TGS","is_transit":false,"time":3,"i_lat":-6.328533,"station_name":"Tigaraksa","line":6,"i_long":106.425991},{"station_id":"TEJ","time":5,"station_name":"Tenjo","distance":2974,"is_transit":false,"transit":false,"i_lat":-6.327251,"i_long":106.460812,"line":6},{"time":5,"line":0,"transit":false,"is_transit":false,"i_lat":-6.338021,"station_id":"DAR","distance":3902,"station_name":"Daru","i_long":106.491338},{"i_lat":-6.354349,"is_transit":false,"time":6,"station_name":"Cilejit","i_long":106.508482,"line":0,"transit":false,"station_id":"CJT","distance":2675},{"is_transit":false,"station_name":"Parung Panjang","transit":false,"i_lat":-6.3441410000000005,"i_long":106.568863,"station_id":"PRP","line":6,"distance":7025,"time":9},{"station_id":"CC","i_lat":-6.329547,"line":0,"transit":false,"is_transit":false,"i_long":106.617853,"distance":5968,"time":8,"station_name":"Cicayur"},{"station_id":"CSK","line":0,"distance":2519,"i_long":106.640411,"i_lat":-6.32484,"transit":false,"time":4,"is_transit":false,"station_name":"Cisauk"},{"station_name":"Serpong","i_long":106.66566,"is_transit":false,"time":4,"transit":false,"i_lat":-6.319871,"line":6,"station_id":"SRP","distance":1784},{"time":4,"transit":false,"is_transit":false,"station_id":"RU","i_long":106.675475,"distance":2413,"line":6,"station_name":"Rawa Buntu","i_lat":-6.314823},{"line":6,"is_transit":false,"station_name":"Sudimara","time":6,"i_long":106.712277,"station_id":"SDM","transit":false,"distance":4566,"i_lat":-6.296963},{"station_id":"JMU","i_lat":-6.288927,"distance":1994,"time":4,"transit":false,"station_name":"Jurangmangu","i_long":106.728916,"line":6,"is_transit":false},{"station_name":"Pondokranji","is_transit":false,"station_id":"PDJ","transit":false,"distance":2179,"time":3,"line":6,"i_long":106.74273,"i_lat":-6.276362},{"station_id":"KBY","i_long":106.780334,"station_name":"Kebayoran","distance":6218,"is_transit":false,"time":8,"i_lat":-6.237242,"line":6,"transit":false},{"is_transit":false,"time":7,"i_lat":-6.207404,"i_long":106.79689,"line":6,"station_id":"PLM","distance":3737,"transit":false,"station_name":"Palmerah"},{"is_transit":true,"distance":3191,"time":6,"i_lat":-6.185545,"transit":true,"i_long":106.811091,"line":1,"station_name":"Tanah Abang","station_id":"THB"},{"station_name":"Karet","time":5,"line":1,"station_id":"KAT","is_transit":false,"transit":false,"distance":2029,"i_long":106.816351,"i_lat":-6.20132},{"station_id":"SUDB","transit":false,"station_name":"Sudirman Baru","distance":471,"i_lat":-6.201433,"i_long":106.819881,"line":1,"time":1,"is_transit":false},{"i_lat":-6.202263,"time":1,"is_transit":false,"station_name":"Sudirman","transit":false,"i_long":106.822649,"line":1,"station_id":"SUD","distance":280},{"distance":3186,"transit":false,"station_name":"Manggarai","time":4,"line":0,"i_lat":-6.209883,"is_transit":true,"i_long":106.84912,"station_id":"MRI"},{"is_transit":false,"time":2,"transit":false,"distance":1275,"i_lat":-6.212485,"line":1,"station_name":"Matraman","i_long":106.858896,"station_id":"MTR"},{"transit":true,"i_long":106.86807400000001,"time":8,"i_lat":-6.215091,"line":0,"station_id":"JNG","is_transit":true,"station_name":"Jatinegara","distance":1377},{"transit":false,"is_transit":false,"line":11,"station_id":"POK","i_long":106.861737,"i_lat":-6.209188,"time":2,"distance":1236,"station_name":"Pondok Jati"},{"station_name":"Kramat","is_transit":false,"i_long":106.855437,"station_id":"KMT","transit":false,"distance":1829,"time":2,"i_lat":-6.193792,"line":11},{"is_transit":false,"time":1,"station_id":"GST","station_name":"Gang Sentiong","transit":false,"i_lat":-6.185975,"line":11,"i_long":106.850107,"distance":973},{"transit":false,"time":8,"is_transit":false,"i_long":106.84368,"station_id":"PSE","station_name":"Pasar Senen","distance":1567,"line":11,"i_lat":-6.174784},{"distance":1436,"is_transit":false,"time":4,"station_name":"Kemayoran","transit":false,"i_lat":-6.161728,"i_long":106.839204,"station_id":"KMO","line":11},{"station_id":"RJW","i_long":106.836569,"station_name":"Rajawali","is_transit":false,"i_lat":-6.14505,"line":11,"transit":false,"distance":1901,"time":5},{"i_long":106.826365,"line":0,"time":3,"i_lat":-6.132549,"is_transit":true,"transit":true,"station_id":"KPB","distance":1444,"station_name":"Kampung Bandan"},{"line":0,"station_name":"Angke","i_long":106.79867,"is_transit":false,"i_lat":-6.144674,"station_id":"AK","distance":4102,"transit":false,"time":9},{"distance":1230,"i_long":106.800832,"i_lat":-6.155215,"line":1,"time":4,"transit":true,"is_transit":true,"station_id":"DU","station_name":"Duri"},{"transit":false,"distance":1700,"station_name":"Grogol","is_transit":false,"time":3,"station_id":"GGL","line":5,"i_lat":-6.162021,"i_long":106.788277}]]}