{"data":[[{"line":6,"station_name":"Maja","is_transit":false,"i_lat":-6.332307,"i_long":106.394373,"time":0,"transit":false,"station_id":"MJ","distance":0},{"transit":false,"station_name":"Cikoya","line":0,"station_id":"CKY","i_lat":-6.33561,"i_long":106.411216,"time":4,"is_transit":false,"distance":1853},{"station_name":"Tigaraksa","i_lat":-6.328533,"distance":2651,"station_id":"TGS","is_transit":false,"line":6,"transit":false,"i_long":106.425991,"time":3},{"time":5,"i_long":106.460812,"distance":2974,"station_name":"Tenjo","transit":false,"is_transit":false,"station_id":"TEJ","line":6,"i_lat":-6.327251},{"transit":false,"station_id":"DAR","line":0,"is_transit":false,"distance":3902,"time":5,"station_name":"Daru","i_long":106.491338,"i_lat":-6.338021},{"is_transit":false,"line":0,"time":6,"transit":false,"i_long":106.508482,"station_name":"Cilejit","distance":2675,"i_lat":-6.354349,"station_id":"CJT"},{"station_name":"Parung Panjang","transit":false,"is_transit":false,"i_lat":-6.3441410000000005,"station_id":"PRP","distance":7025,"i_long":106.568863,"time":9,"line":6},{"i_long":106.617853,"i_lat":-6.329547,"line":0,"distance":5968,"station_id":"CC","transit":false,"is_transit":false,"time":8,"station_name":"Cicayur"},{"transit":false,"is_transit":false,"station_id":"CSK","line":0,"distance":2519,"i_lat":-6.32484,"station_name":"Cisauk","i_long":106.640411,"time":4},{"i_lat":-6.319871,"station_id":"SRP","distance":1784,"is_transit":false,"i_long":106.66566,"time":4,"line":6,"station_name":"Serpong","transit":false},{"time":4,"line":6,"station_id":"RU","distance":2413,"transit":false,"is_transit":false,"i_lat":-6.314823,"i_long":106.675475,"station_name":"Rawa Buntu"},{"i_lat":-6.296963,"is_transit":false,"i_long":106.712277,"station_id":"SDM","time":6,"line":6,"station_name":"Sudimara","transit":false,"distance":4566},{"is_transit":false,"transit":false,"i_long":106.728916,"i_lat":-6.288927,"station_id":"JMU","distance":1994,"station_name":"Jurangmangu","line":6,"time":4},{"distance":2179,"is_transit":false,"station_name":"Pondokranji","transit":false,"line":6,"station_id":"PDJ","i_lat":-6.276362,"time":3,"i_long":106.74273},{"transit":false,"station_name":"Kebayoran","distance":6218,"station_id":"KBY","is_transit":false,"i_lat":-6.237242,"line":6,"time":8,"i_long":106.780334},{"transit":false,"station_name":"Palmerah","i_long":106.79689,"station_id":"PLM","line":6,"distance":3737,"i_lat":-6.207404,"time":7,"is_transit":false},{"station_name":"Tanah Abang","station_id":"THB","transit":true,"distance":3191,"i_lat":-6.185545,"i_long":106.811091,"is_transit":true,"line":1,"time":6},{"transit":false,"i_long":106.816351,"distance":2029,"line":1,"station_name":"Karet","i_lat":-6.20132,"time":5,"is_transit":false,"station_id":"KAT"},{"i_long":106.819881,"station_name":"Sudirman Baru","i_lat":-6.201433,"transit":false,"station_id":"SUDB","time":1,"line":1,"distance":471,"is_transit":false},{"i_long":106.822649,"time":1,"is_transit":false,"station_name":"Sudirman","station_id":"SUD","transit":false,"distance":280,"line":1,"i_lat":-6.202263},{"i_lat":-6.209883,"is_transit":true,"distance":3186,"station_id":"MRI","time":4,"transit":false,"i_long":106.84912,"station_name":"Manggarai","line":0},{"time":2,"i_long":106.858896,"line":1,"station_name":"Matraman","station_id":"MTR","transit":false,"is_transit":false,"i_lat":-6.212485,"distance":1275},{"station_id":"JNG","station_name":"Jatinegara","time":8,"i_lat":-6.215091,"i_long":106.86807400000001,"line":0,"transit":false,"is_transit":true,"distance":1377}],[{"distance":0,"station_name":"Maja","time":0,"i_long":106.394373,"line":6,"transit":false,"i_lat":-6.332307,"station_id":"MJ","is_transit":false},{"station_name":"Cikoya","i_lat":-6.33561,"line":0,"is_transit":false,"distance":1853,"time":4,"i_long":106.411216,"station_id":"CKY","transit":false},{"i_long":106.425991,"station_name":"Tigaraksa","distance":2651,"line":6,"station_id":"TGS","time":3,"i_lat":-6.328533,"transit":false,"is_transit":false},{"is_transit":false,"i_lat":-6.327251,"time":5,"distance":2974,"station_name":"Tenjo","station_id":"TEJ","transit":false,"line":6,"i_long":106.460812},{"station_name":"Daru","distance":3902,"station_id":"DAR","i_lat":-6.338021,"time":5,"i_long":106.491338,"line":0,"transit":false,"is_transit":false},{"i_long":106.508482,"line":0,"distance":2675,"is_transit":false,"station_name":"Cilejit","transit":false,"i_lat":-6.354349,"station_id":"CJT","time":6},{"line":6,"i_long":106.568863,"transit":false,"station_id":"PRP","station_name":"Parung Panjang","is_transit":false,"time":9,"i_lat":-6.3441410000000005,"distance":7025},{"transit":false,"i_long":106.617853,"line":0,"distance":5968,"station_id":"CC","is_transit":false,"time":8,"station_name":"Cicayur","i_lat":-6.329547},{"i_long":106.640411,"station_id":"CSK","transit":false,"is_transit":false,"time":4,"line":0,"distance":2519,"i_lat":-6.32484,"station_name":"Cisauk"},{"i_long":106.66566,"station_name":"Serpong","i_lat":-6.319871,"is_transit":false,"line":6,"station_id":"SRP","distance":1784,"transit":false,"time":4},{"station_id":"RU","line":6,"is_transit":false,"i_lat":-6.314823,"distance":2413,"station_name":"Rawa Buntu","i_long":106.675475,"time":4,"transit":false},{"i_lat":-6.296963,"line":6,"time":6,"distance":4566,"is_transit":false,"i_long":106.712277,"station_id":"SDM","transit":false,"station_name":"Sudimara"},{"i_long":106.728916,"is_transit":false,"transit":false,"line":6,"distance":1994,"time":4,"i_lat":-6.288927,"station_name":"Jurangmangu","station_id":"JMU"},{"transit":false,"time":3,"is_transit":false,"station_name":"Pondokranji","station_id":"PDJ","line":6,"distance":2179,"i_long":106.74273,"i_lat":-6.276362},{"distance":6218,"station_name":"Kebayoran","line":6,"station_id":"KBY","time":8,"i_lat":-6.237242,"i_long":106.780334,"is_transit":false,"transit":false},{"station_id":"PLM","i_lat":-6.207404,"is_transit":false,"station_name":"Palmerah","transit":false,"line":6,"i_long":106.79689,"distance":3737,"time":7},{"i_long":106.811091,"station_name":"Tanah Abang","i_lat":-6.185545,"is_transit":true,"distance":3191,"station_id":"THB","time":6,"transit":true,"line":1},{"i_long":106.800832,"station_id":"DU","is_transit":true,"distance":3632,"time":8,"station_name":"Duri","line":1,"i_lat":-6.155215,"transit":true},{"station_name":"Angke","line":0,"distance":1230,"time":4,"station_id":"AK","is_transit":false,"i_long":106.79867,"i_lat":-6.144674,"transit":false},{"station_name":"Kampung Bandan","i_lat":-6.132549,"transit":true,"line":0,"station_id":"KPB","i_long":106.826365,"time":9,"distance":4102,"is_transit":true},{"transit":false,"i_long":106.836569,"station_id":"RJW","distance":1444,"i_lat":-6.14505,"line":11,"is_transit":false,"time":3,"station_name":"Rajawali"},{"i_lat":-6.161728,"i_long":106.839204,"line":11,"station_id":"KMO","time":5,"distance":1901,"transit":false,"is_transit":false,"station_name":"Kemayoran"},{"line":11,"distance":1436,"transit":false,"station_id":"PSE","station_name":"Pasar Senen","is_transit":false,"time":4,"i_lat":-6.174784,"i_long":106.84368},{"distance":1567,"time":8,"station_id":"GST","is_transit":false,"i_lat":-6.185975,"station_name":"Gang Sentiong","transit":false,"i_long":106.850107,"line":11},{"time":1,"station_id":"KMT","distance":973,"station_name":"Kramat","i_long":106.855437,"transit":false,"i_lat":-6.193792,"is_transit":false,"line":11},{"transit":false,"i_lat":-6.209188,"station_id":"POK","is_transit":false,"line":11,"i_long":106.861737,"time":2,"station_name":"Pondok Jati","distance":1829},{"line":0,"time":9,"is_transit":true,"distance":1236,"transit":false,"station_name":"Jatinegara","i_long":106.86807400000001,"station_id":"JNG","i_lat":-6.215091}],[{"i_lat":-6.332307,"is_transit":false,"line":6,"distance":0,"station_name":"Maja","transit":false,"station_id":"MJ","time":0,"i_long":106.394373},{"station_id":"CKY","is_transit":false,"transit":false,"i_lat":-6.33561,"i_long":106.411216,"distance":1853,"station_name":"Cikoya","line":0,"time":4},{"i_lat":-6.328533,"time":3,"distance":2651,"is_transit":false,"station_name":"Tigaraksa","line":6,"transit":false,"station_id":"TGS","i_long":106.425991},{"i_long":106.460812,"distance":2974,"transit":false,"line":6,"station_id":"TEJ","time":5,"station_name":"Tenjo","is_transit":false,"i_lat":-6.327251},{"distance":3902,"station_name":"Daru","transit":false,"time":5,"is_transit":false,"i_lat":-6.338021,"station_id":"DAR","i_long":106.491338,"line":0},{"station_name":"Cilejit","station_id":"CJT","distance":2675,"transit":false,"i_lat":-6.354349,"i_long":106.508482,"time":6,"line":0,"is_transit":false},{"i_lat":-6.3441410000000005,"i_long":106.568863,"time":9,"line":6,"station_name":"Parung Panjang","distance":7025,"is_transit":false,"station_id":"PRP","transit":false},{"i_lat":-6.329547,"distance":5968,"is_transit":false,"line":0,"time":8,"station_name":"Cicayur","i_long":106.617853,"station_id":"CC","transit":false},{"transit":false,"time":4,"i_lat":-6.32484,"line":0,"station_name":"Cisauk","is_transit":false,"distance":2519,"i_long":106.640411,"station_id":"CSK"},{"is_transit":false,"station_name":"Serpong","station_id":"SRP","line":6,"i_lat":-6.319871,"transit":false,"i_long":106.66566,"time":4,"distance":1784},{"station_name":"Rawa Buntu","i_lat":-6.314823,"time":4,"station_id":"RU","line":6,"transit":false,"distance":2413,"is_transit":false,"i_long":106.675475},{"transit":false,"station_id":"SDM","i_lat":-6.296963,"distance":4566,"time":6,"is_transit":false,"i_long":106.712277,"line":6,"station_name":"Sudimara"},{"i_lat":-6.288927,"transit":false,"time":4,"station_id":"JMU","i_long":106.728916,"distance":1994,"line":6,"is_transit":false,"station_name":"Jurangmangu"},{"is_transit":false,"line":6,"time":3,"i_long":106.74273,"station_name":"Pondokranji","transit":false,"i_lat":-6.276362,"station_id":"PDJ","distance":2179},{"distance":6218,"station_name":"Kebayoran","i_lat":-6.237242,"i_long":106.780334,"transit":false,"station_id":"KBY","time":8,"is_transit":false,"line":6},{"transit":false,"station_name":"Palmerah","i_long":106.79689,"station_id":"PLM","time":7,"line":6,"i_lat":-6.207404,"is_transit":false,"distance":3737},{"line":1,"time":6,"is_transit":true,"distance":3191,"station_name":"Tanah Abang","transit":true,"i_long":106.811091,"station_id":"THB","i_lat":-6.185545},{"time":8,"distance":3632,"i_lat":-6.155215,"line":1,"i_long":106.800832,"station_id":"DU","station_name":"Duri","transit":true,"is_transit":true},{"station_id":"AK","station_name":"Angke","i_long":106.79867,"line":0,"time":4,"is_transit":false,"distance":1230,"transit":false,"i_lat":-6.144674},{"station_id":"KPB","time":9,"is_transit":true,"i_lat":-6.132549,"distance":4102,"line":0,"i_long":106.826365,"transit":false,"station_name":"Kampung Bandan"},{"i_long":106.812439,"line":0,"distance":1364,"i_lat":-6.137569,"transit":true,"station_id":"JAKK","is_transit":true,"time":3,"station_name":"Jakarta Kota"},{"time":4,"station_name":"Jayakarta","station_id":"JAY","transit":false,"i_lat":-6.141205,"line":7,"i_long":106.820901,"distance":1264,"is_transit":false},{"is_transit":false,"station_name":"Manggabesar","time":2,"distance":1080,"transit":false,"i_lat":-6.149769,"i_long":106.82482,"line":2,"station_id":"MGB"},{"transit":false,"station_id":"SW","line":2,"distance":906,"time":2,"is_transit":false,"i_long":106.827103,"i_lat":-6.160725,"station_name":"Sawah Besar"},{"time":2,"transit":false,"i_lat":-6.166716,"distance":1149,"station_id":"JUA","i_long":106.828284,"line":2,"is_transit":false,"station_name":"Juanda"},{"time":4,"distance":2015,"line":2,"is_transit":false,"i_long":106.832183,"station_name":"Gondangdia","transit":false,"station_id":"GDD","i_lat":-6.186295},{"i_long":106.840169,"i_lat":-6.198556,"distance":1750,"transit":false,"station_id":"CKI","line":0,"time":3,"is_transit":false,"station_name":"Cikini"},{"station_id":"MRI","i_long":106.84912,"i_lat":-6.209883,"station_name":"Manggarai","distance":1590,"time":4,"transit":true,"line":0,"is_transit":true},{"station_id":"MTR","transit":false,"i_lat":-6.212485,"station_name":"Matraman","distance":1275,"line":1,"is_transit":false,"i_long":106.858896,"time":2},{"transit":false,"is_transit":true,"station_name":"Jatinegara","i_lat":-6.215091,"distance":1377,"line":0,"time":8,"i_long":106.86807400000001,"station_id":"JNG"}],[{"station_id":"MJ","distance":0,"is_transit":false,"transit":false,"i_long":106.394373,"time":0,"station_name":"Maja","line":6,"i_lat":-6.332307},{"is_transit":false,"i_long":106.411216,"line":0,"distance":1853,"transit":false,"i_lat":-6.33561,"station_name":"Cikoya","time":4,"station_id":"CKY"},{"station_name":"Tigaraksa","time":3,"distance":2651,"transit":false,"is_transit":false,"station_id":"TGS","i_lat":-6.328533,"i_long":106.425991,"line":6},{"distance":2974,"station_name":"Tenjo","transit":false,"i_long":106.460812,"line":6,"time":5,"is_transit":false,"i_lat":-6.327251,"station_id":"TEJ"},{"line":0,"distance":3902,"time":5,"is_transit":false,"transit":false,"i_long":106.491338,"station_id":"DAR","i_lat":-6.338021,"station_name":"Daru"},{"time":6,"is_transit":false,"i_lat":-6.354349,"station_id":"CJT","distance":2675,"i_long":106.508482,"station_name":"Cilejit","line":0,"transit":false},{"time":9,"distance":7025,"is_transit":false,"i_lat":-6.3441410000000005,"transit":false,"i_long":106.568863,"station_name":"Parung Panjang","station_id":"PRP","line":6},{"i_lat":-6.329547,"line":0,"time":8,"i_long":106.617853,"distance":5968,"transit":false,"is_transit":false,"station_id":"CC","station_name":"Cicayur"},{"i_lat":-6.32484,"station_id":"CSK","distance":2519,"transit":false,"time":4,"station_name":"Cisauk","line":0,"is_transit":false,"i_long":106.640411},{"distance":1784,"station_id":"SRP","station_name":"Serpong","time":4,"i_long":106.66566,"line":6,"transit":false,"i_lat":-6.319871,"is_transit":false},{"i_long":106.675475,"transit":false,"station_name":"Rawa Buntu","station_id":"RU","time":4,"line":6,"is_transit":false,"distance":2413,"i_lat":-6.314823},{"station_id":"SDM","station_name":"Sudimara","i_long":106.712277,"distance":4566,"is_transit":false,"time":6,"transit":false,"i_lat":-6.296963,"line":6},{"is_transit":false,"distance":1994,"station_name":"Jurangmangu","line":6,"i_long":106.728916,"i_lat":-6.288927,"time":4,"transit":false,"station_id":"JMU"},{"station_name":"Pondokranji","transit":false,"is_transit":false,"time":3,"line":6,"i_lat":-6.276362,"i_long":106.74273,"distance":2179,"station_id":"PDJ"},{"time":8,"distance":6218,"is_transit":false,"transit":false,"i_lat":-6.237242,"station_id":"KBY","line":6,"i_long":106.780334,"station_name":"Kebayoran"},{"i_long":106.79689,"i_lat":-6.207404,"transit":false,"station_id":"PLM","station_name":"Palmerah","distance":3737,"is_transit":false,"line":6,"time":7},{"station_id":"THB","i_lat":-6.185545,"transit":true,"distance":3191,"i_long":106.811091,"line":1,"station_name":"Tanah Abang","time":6,"is_transit":true},{"station_id":"KAT","time":5,"i_lat":-6.20132,"station_name":"Karet","line":1,"distance":2029,"is_transit":false,"transit":false,"i_long":106.816351},{"station_id":"SUDB","i_lat":-6.201433,"distance":471,"is_transit":false,"time":1,"station_name":"Sudirman Baru","i_long":106.819881,"transit":false,"line":1},{"transit":false,"i_lat":-6.202263,"station_id":"SUD","i_long":106.822649,"is_transit":false,"station_name":"Sudirman","time":1,"line":1,"distance":280},{"i_long":106.84912,"line":0,"distance":3186,"time":4,"i_lat":-6.209883,"station_id":"MRI","is_transit":true,"transit":true,"station_name":"Manggarai"},{"i_lat":-6.198556,"distance":1590,"i_long":106.840169,"time":4,"line":0,"station_id":"CKI","is_transit":false,"transit":false,"station_name":"Cikini"},{"station_name":"Gondangdia","i_long":106.832183,"i_lat":-6.186295,"line":2,"is_transit":false,"transit":false,"station_id":"GDD","distance":1750,"time":3},{"station_id":"JUA","line":2,"time":4,"is_transit":false,"station_name":"Juanda","transit":false,"distance":2015,"i_lat":-6.166716,"i_long":106.828284},{"station_name":"Sawah Besar","transit":false,"line":2,"station_id":"SW","i_lat":-6.160725,"time":2,"i_long":106.827103,"distance":1149,"is_transit":false},{"line":2,"distance":906,"station_id":"MGB","is_transit":false,"time":2,"i_lat":-6.149769,"transit":false,"station_name":"Manggabesar","i_long":106.82482},{"is_transit":false,"i_long":106.820901,"transit":false,"station_id":"JAY","station_name":"Jayakarta","line":7,"i_lat":-6.141205,"time":2,"distance":1080},{"time":4,"transit":true,"is_transit":true,"station_id":"JAKK","station_name":"Jakarta Kota","i_long":106.812439,"line":0,"distance":1264,"i_lat":-6.137569},{"time":3,"i_long":106.826365,"station_name":"Kampung Bandan","station_id":"KPB","is_transit":true,"distance":1364,"transit":true,"i_lat":-6.132549,"line":0},{"station_id":"RJW","is_transit":false,"station_name":"Rajawali","i_lat":-6.14505,"line":11,"i_long":106.836569,"distance":1444,"transit":false,"time":3},{"transit":false,"i_long":106.839204,"station_name":"Kemayoran","distance":1901,"is_transit":false,"line":11,"time":5,"station_id":"KMO","i_lat":-6.161728},{"is_transit":false,"i_long":106.84368,"i_lat":-6.174784,"time":4,"station_id":"PSE","distance":1436,"line":11,"transit":false,"station_name":"Pasar Senen"},{"i_long":106.850107,"station_id":"GST","time":8,"station_name":"Gang Sentiong","line":11,"transit":false,"distance":1567,"is_transit":false,"i_lat":-6.185975},{"i_long":106.855437,"station_id":"KMT","distance":973,"line":11,"is_transit":false,"time":1,"station_name":"Kramat","transit":false,"i_lat":-6.193792},{"station_name":"Pondok Jati","i_long":106.861737,"time":2,"is_transit":false,"transit":false,"i_lat":-6.209188,"distance":1829,"line":11,"station_id":"POK"},{"line":0,"time":9,"station_id":"JNG","i_long":106.86807400000001,"is_transit":true,"distance":1236,"station_name":"Jatinegara","transit":false,"i_lat":-6.215091}]]}