{"data":[[{"station_name":"Maja","transit":false,"is_transit":false,"i_lat":-6.332307,"line":6,"station_id":"MJ","time":0,"distance":0,"i_long":106.394373},{"distance":1853,"station_name":"Cikoya","line":3,"i_lat":-6.33561,"station_id":"CKY","time":4,"i_long":106.411216,"is_transit":false,"transit":false},{"i_long":106.425991,"distance":2651,"line":6,"station_id":"TGS","transit":false,"time":3,"station_name":"Tigaraksa","i_lat":-6.328533,"is_transit":false},{"station_id":"TEJ","i_lat":-6.327251,"line":6,"is_transit":false,"time":5,"station_name":"Tenjo","transit":false,"i_long":106.460812,"distance":2974},{"is_transit":false,"time":5,"i_lat":-6.338021,"station_id":"DAR","line":0,"i_long":106.491338,"transit":false,"station_name":"Daru","distance":3902},{"station_id":"CJT","is_transit":false,"transit":false,"distance":2675,"station_name":"Cilejit","i_long":106.508482,"line":3,"time":6,"i_lat":-6.354349},{"transit":false,"station_name":"Parung Panjang","i_long":106.568863,"station_id":"PRP","distance":7025,"is_transit":false,"i_lat":-6.3441410000000005,"time":9,"line":6},{"line":3,"distance":5968,"i_lat":-6.329547,"time":8,"is_transit":false,"transit":false,"station_id":"CC","station_name":"Cicayur","i_long":106.617853},{"transit":false,"i_long":106.640411,"line":3,"distance":2519,"station_id":"CSK","is_transit":false,"station_name":"Cisauk","i_lat":-6.32484,"time":4},{"time":4,"i_long":106.66566,"transit":false,"station_id":"SRP","distance":1784,"station_name":"Serpong","is_transit":false,"i_lat":-6.319871,"line":6},{"distance":2413,"line":6,"time":4,"i_lat":-6.314823,"transit":false,"i_long":106.675475,"station_name":"Rawa Buntu","station_id":"RU","is_transit":false},{"distance":4566,"i_lat":-6.296963,"i_long":106.712277,"line":6,"station_name":"Sudimara","time":6,"is_transit":false,"transit":false,"station_id":"SDM"},{"station_name":"Jurangmangu","time":4,"distance":1994,"i_long":106.728916,"line":6,"is_transit":false,"i_lat":-6.288927,"transit":false,"station_id":"JMU"},{"line":6,"distance":2179,"station_name":"Pondokranji","i_long":106.74273,"station_id":"PDJ","transit":false,"is_transit":false,"time":3,"i_lat":-6.276362},{"station_id":"KBY","i_long":106.780334,"station_name":"Kebayoran","distance":6218,"is_transit":false,"i_lat":-6.237242,"line":6,"transit":false,"time":8},{"line":6,"i_long":106.79689,"i_lat":-6.207404,"station_name":"Palmerah","distance":3737,"time":7,"is_transit":false,"transit":false,"station_id":"PLM"},{"i_lat":-6.185545,"line":1,"transit":true,"is_transit":true,"station_name":"Tanah Abang","time":6,"i_long":106.811091,"station_id":"THB","distance":3191},{"time":5,"i_long":106.816351,"station_name":"Karet","is_transit":false,"i_lat":-6.20132,"line":1,"transit":false,"station_id":"KAT","distance":2029},{"station_name":"Sudirman Baru","station_id":"SUDB","i_long":106.819881,"line":1,"transit":false,"i_lat":-6.201433,"distance":471,"time":1,"is_transit":false},{"i_long":106.822649,"station_id":"SUD","time":1,"station_name":"Sudirman","i_lat":-6.202263,"line":1,"is_transit":false,"distance":280,"transit":false},{"distance":3186,"i_long":106.84912,"line":2,"transit":false,"time":4,"station_id":"MRI","station_name":"Manggarai","is_transit":false,"i_lat":-6.209883},{"i_lat":-6.212485,"is_transit":false,"i_long":106.858896,"station_id":"MTR","station_name":"Matraman","time":2,"transit":false,"distance":1275,"line":1},{"transit":false,"distance":1377,"i_lat":-6.215091,"line":1,"station_id":"JNG","i_long":106.86807400000001,"is_transit":false,"station_name":"Jatinegara","time":8}],[{"i_lat":-6.332307,"i_long":106.394373,"station_name":"Maja","time":0,"distance":0,"transit":false,"line":6,"station_id":"MJ","is_transit":false},{"i_lat":-6.33561,"transit":false,"station_id":"CKY","distance":1853,"line":3,"station_name":"Cikoya","is_transit":false,"time":4,"i_long":106.411216},{"transit":false,"i_lat":-6.328533,"time":3,"station_name":"Tigaraksa","station_id":"TGS","distance":2651,"is_transit":false,"i_long":106.425991,"line":6},{"station_id":"TEJ","station_name":"Tenjo","i_long":106.460812,"line":6,"distance":2974,"transit":false,"is_transit":false,"time":5,"i_lat":-6.327251},{"station_name":"Daru","station_id":"DAR","is_transit":false,"time":5,"i_lat":-6.338021,"line":0,"i_long":106.491338,"transit":false,"distance":3902},{"distance":2675,"transit":false,"i_long":106.508482,"time":6,"line":3,"station_id":"CJT","station_name":"Cilejit","is_transit":false,"i_lat":-6.354349},{"transit":false,"line":6,"station_name":"Parung Panjang","time":9,"is_transit":false,"i_long":106.568863,"i_lat":-6.3441410000000005,"station_id":"PRP","distance":7025},{"i_lat":-6.329547,"i_long":106.617853,"transit":false,"station_id":"CC","time":8,"station_name":"Cicayur","is_transit":false,"distance":5968,"line":3},{"is_transit":false,"transit":false,"station_name":"Cisauk","i_lat":-6.32484,"i_long":106.640411,"line":3,"station_id":"CSK","distance":2519,"time":4},{"distance":1784,"i_lat":-6.319871,"time":4,"line":6,"i_long":106.66566,"transit":false,"station_name":"Serpong","station_id":"SRP","is_transit":false},{"i_lat":-6.314823,"line":6,"station_name":"Rawa Buntu","transit":false,"time":4,"station_id":"RU","distance":2413,"i_long":106.675475,"is_transit":false},{"station_id":"SDM","station_name":"Sudimara","is_transit":false,"i_long":106.712277,"i_lat":-6.296963,"transit":false,"time":6,"line":6,"distance":4566},{"transit":false,"station_name":"Jurangmangu","station_id":"JMU","time":4,"distance":1994,"line":6,"is_transit":false,"i_long":106.728916,"i_lat":-6.288927},{"is_transit":false,"i_long":106.74273,"station_name":"Pondokranji","line":6,"station_id":"PDJ","transit":false,"time":3,"distance":2179,"i_lat":-6.276362},{"time":8,"line":6,"i_long":106.780334,"station_id":"KBY","transit":false,"distance":6218,"is_transit":false,"station_name":"Kebayoran","i_lat":-6.237242},{"i_long":106.79689,"station_id":"PLM","is_transit":false,"distance":3737,"transit":false,"i_lat":-6.207404,"station_name":"Palmerah","line":6,"time":7},{"is_transit":true,"line":1,"station_name":"Tanah Abang","distance":3191,"i_long":106.811091,"station_id":"THB","transit":true,"time":6,"i_lat":-6.185545},{"station_id":"DU","transit":false,"line":1,"i_lat":-6.155215,"time":8,"distance":3632,"station_name":"Duri","is_transit":false,"i_long":106.800832},{"i_lat":-6.144674,"distance":1230,"station_name":"Angke","station_id":"AK","transit":false,"time":4,"i_long":106.79867,"line":1,"is_transit":false},{"line":4,"station_name":"Kampung Bandan","transit":true,"i_long":106.826365,"is_transit":true,"time":9,"station_id":"KPB","distance":4102,"i_lat":-6.132549},{"transit":false,"is_transit":false,"line":11,"time":3,"i_long":106.836569,"distance":1444,"station_id":"RJW","station_name":"Rajawali","i_lat":-6.14505},{"distance":1901,"station_id":"KMO","time":5,"i_long":106.839204,"line":11,"transit":false,"i_lat":-6.161728,"station_name":"Kemayoran","is_transit":false},{"station_name":"Pasar Senen","station_id":"PSE","is_transit":false,"time":4,"i_lat":-6.174784,"i_long":106.84368,"distance":1436,"transit":false,"line":11},{"transit":false,"line":11,"station_id":"GST","i_long":106.850107,"distance":1567,"time":8,"station_name":"Gang Sentiong","is_transit":false,"i_lat":-6.185975},{"is_transit":false,"station_id":"KMT","line":11,"i_long":106.855437,"time":1,"distance":973,"transit":false,"station_name":"Kramat","i_lat":-6.193792},{"transit":false,"line":11,"distance":1829,"station_name":"Pondok Jati","station_id":"POK","is_transit":false,"time":2,"i_lat":-6.209188,"i_long":106.861737},{"i_lat":-6.215091,"time":9,"i_long":106.86807400000001,"is_transit":false,"transit":false,"station_name":"Jatinegara","distance":1236,"line":1,"station_id":"JNG"}],[{"station_name":"Maja","transit":false,"line":6,"is_transit":false,"station_id":"MJ","distance":0,"i_long":106.394373,"time":0,"i_lat":-6.332307},{"station_id":"CKY","i_lat":-6.33561,"i_long":106.411216,"station_name":"Cikoya","line":3,"transit":false,"is_transit":false,"time":4,"distance":1853},{"station_id":"TGS","i_long":106.425991,"time":3,"distance":2651,"station_name":"Tigaraksa","transit":false,"i_lat":-6.328533,"line":6,"is_transit":false},{"is_transit":false,"i_lat":-6.327251,"station_name":"Tenjo","station_id":"TEJ","transit":false,"i_long":106.460812,"distance":2974,"time":5,"line":6},{"transit":false,"station_name":"Daru","distance":3902,"i_lat":-6.338021,"i_long":106.491338,"line":0,"station_id":"DAR","is_transit":false,"time":5},{"distance":2675,"i_lat":-6.354349,"station_id":"CJT","i_long":106.508482,"transit":false,"station_name":"Cilejit","line":3,"is_transit":false,"time":6},{"transit":false,"station_name":"Parung Panjang","time":9,"i_lat":-6.3441410000000005,"i_long":106.568863,"station_id":"PRP","line":6,"is_transit":false,"distance":7025},{"is_transit":false,"distance":5968,"i_long":106.617853,"i_lat":-6.329547,"line":3,"station_name":"Cicayur","time":8,"transit":false,"station_id":"CC"},{"i_long":106.640411,"time":4,"station_id":"CSK","i_lat":-6.32484,"is_transit":false,"transit":false,"distance":2519,"line":3,"station_name":"Cisauk"},{"time":4,"transit":false,"is_transit":false,"i_long":106.66566,"line":6,"i_lat":-6.319871,"distance":1784,"station_name":"Serpong","station_id":"SRP"},{"transit":false,"station_name":"Rawa Buntu","time":4,"station_id":"RU","is_transit":false,"distance":2413,"i_lat":-6.314823,"i_long":106.675475,"line":6},{"is_transit":false,"distance":4566,"station_name":"Sudimara","transit":false,"line":6,"time":6,"i_long":106.712277,"i_lat":-6.296963,"station_id":"SDM"},{"i_long":106.728916,"transit":false,"distance":1994,"time":4,"station_name":"Jurangmangu","line":6,"is_transit":false,"station_id":"JMU","i_lat":-6.288927},{"i_lat":-6.276362,"i_long":106.74273,"station_id":"PDJ","distance":2179,"is_transit":false,"transit":false,"station_name":"Pondokranji","time":3,"line":6},{"time":8,"station_id":"KBY","distance":6218,"transit":false,"station_name":"Kebayoran","line":6,"i_lat":-6.237242,"is_transit":false,"i_long":106.780334},{"transit":false,"station_id":"PLM","i_lat":-6.207404,"i_long":106.79689,"station_name":"Palmerah","is_transit":false,"distance":3737,"line":6,"time":7},{"time":6,"station_name":"Tanah Abang","i_long":106.811091,"line":1,"i_lat":-6.185545,"distance":3191,"transit":true,"is_transit":true,"station_id":"THB"},{"i_lat":-6.155215,"line":1,"station_id":"DU","time":8,"is_transit":false,"distance":3632,"i_long":106.800832,"transit":false,"station_name":"Duri"},{"distance":1230,"line":1,"station_name":"Angke","i_long":106.79867,"station_id":"AK","is_transit":false,"i_lat":-6.144674,"time":4,"transit":false},{"i_long":106.826365,"line":4,"transit":true,"is_transit":true,"station_name":"Kampung Bandan","distance":4102,"i_lat":-6.132549,"station_id":"KPB","time":9},{"is_transit":true,"time":3,"station_id":"JAKK","station_name":"Jakarta Kota","transit":true,"i_lat":-6.137569,"i_long":106.812439,"line":2,"distance":1364},{"station_id":"JAY","line":2,"station_name":"Jayakarta","time":4,"i_long":106.820901,"i_lat":-6.141205,"is_transit":false,"distance":1264,"transit":false},{"i_long":106.82482,"station_id":"MGB","time":2,"station_name":"Manggabesar","i_lat":-6.149769,"is_transit":false,"transit":false,"line":2,"distance":1080},{"is_transit":false,"time":2,"transit":false,"i_long":106.827103,"line":2,"station_name":"Sawah Besar","distance":906,"i_lat":-6.160725,"station_id":"SW"},{"station_name":"Juanda","i_lat":-6.166716,"line":2,"transit":false,"time":2,"is_transit":false,"station_id":"JUA","i_long":106.828284,"distance":1149},{"i_lat":-6.186295,"is_transit":false,"transit":false,"i_long":106.832183,"time":4,"station_id":"GDD","distance":2015,"line":2,"station_name":"Gondangdia"},{"distance":1750,"transit":false,"time":3,"is_transit":false,"station_id":"CKI","station_name":"Cikini","i_lat":-6.198556,"line":2,"i_long":106.840169},{"station_id":"MRI","line":2,"transit":true,"time":4,"station_name":"Manggarai","i_long":106.84912,"i_lat":-6.209883,"is_transit":true,"distance":1590},{"distance":1275,"station_id":"MTR","i_lat":-6.212485,"transit":false,"i_long":106.858896,"is_transit":false,"line":1,"time":2,"station_name":"Matraman"},{"i_long":106.86807400000001,"i_lat":-6.215091,"distance":1377,"station_name":"Jatinegara","line":1,"station_id":"JNG","is_transit":false,"transit":false,"time":8}],[{"time":0,"i_long":106.394373,"station_name":"Maja","line":6,"distance":0,"station_id":"MJ","i_lat":-6.332307,"is_transit":false,"transit":false},{"time":4,"i_long":106.411216,"i_lat":-6.33561,"is_transit":false,"transit":false,"station_name":"Cikoya","station_id":"CKY","line":3,"distance":1853},{"line":6,"transit":false,"station_id":"TGS","i_long":106.425991,"i_lat":-6.328533,"is_transit":false,"station_name":"Tigaraksa","distance":2651,"time":3},{"i_lat":-6.327251,"station_name":"Tenjo","transit":false,"time":5,"distance":2974,"i_long":106.460812,"is_transit":false,"station_id":"TEJ","line":6},{"time":5,"station_name":"Daru","transit":false,"distance":3902,"i_long":106.491338,"station_id":"DAR","is_transit":false,"i_lat":-6.338021,"line":0},{"i_lat":-6.354349,"distance":2675,"i_long":106.508482,"line":3,"transit":false,"station_name":"Cilejit","station_id":"CJT","is_transit":false,"time":6},{"distance":7025,"station_id":"PRP","time":9,"i_long":106.568863,"line":6,"is_transit":false,"station_name":"Parung Panjang","transit":false,"i_lat":-6.3441410000000005},{"i_long":106.617853,"distance":5968,"station_id":"CC","time":8,"transit":false,"is_transit":false,"i_lat":-6.329547,"line":3,"station_name":"Cicayur"},{"line":3,"is_transit":false,"station_name":"Cisauk","station_id":"CSK","distance":2519,"transit":false,"i_long":106.640411,"i_lat":-6.32484,"time":4},{"station_id":"SRP","transit":false,"i_lat":-6.319871,"line":6,"i_long":106.66566,"distance":1784,"is_transit":false,"time":4,"station_name":"Serpong"},{"i_lat":-6.314823,"distance":2413,"transit":false,"station_id":"RU","line":6,"station_name":"Rawa Buntu","is_transit":false,"i_long":106.675475,"time":4},{"station_name":"Sudimara","distance":4566,"is_transit":false,"transit":false,"i_long":106.712277,"line":6,"station_id":"SDM","time":6,"i_lat":-6.296963},{"i_long":106.728916,"time":4,"line":6,"is_transit":false,"station_id":"JMU","transit":false,"distance":1994,"station_name":"Jurangmangu","i_lat":-6.288927},{"station_name":"Pondokranji","time":3,"line":6,"transit":false,"is_transit":false,"distance":2179,"i_long":106.74273,"station_id":"PDJ","i_lat":-6.276362},{"station_id":"KBY","time":8,"transit":false,"i_long":106.780334,"is_transit":false,"i_lat":-6.237242,"station_name":"Kebayoran","line":6,"distance":6218},{"station_name":"Palmerah","transit":false,"is_transit":false,"time":7,"distance":3737,"station_id":"PLM","i_lat":-6.207404,"line":6,"i_long":106.79689},{"distance":3191,"station_name":"Tanah Abang","i_lat":-6.185545,"line":1,"i_long":106.811091,"station_id":"THB","transit":true,"time":6,"is_transit":true},{"distance":2029,"time":5,"i_long":106.816351,"is_transit":false,"station_name":"Karet","i_lat":-6.20132,"transit":false,"station_id":"KAT","line":1},{"is_transit":false,"i_long":106.819881,"station_name":"Sudirman Baru","transit":false,"i_lat":-6.201433,"station_id":"SUDB","line":1,"time":1,"distance":471},{"station_id":"SUD","station_name":"Sudirman","is_transit":false,"i_lat":-6.202263,"i_long":106.822649,"time":1,"line":1,"transit":false,"distance":280},{"transit":true,"is_transit":true,"i_lat":-6.209883,"station_name":"Manggarai","time":4,"distance":3186,"i_long":106.84912,"station_id":"MRI","line":2},{"i_long":106.840169,"line":2,"is_transit":false,"i_lat":-6.198556,"transit":false,"station_id":"CKI","time":4,"station_name":"Cikini","distance":1590},{"i_long":106.832183,"line":2,"station_name":"Gondangdia","transit":false,"station_id":"GDD","time":3,"i_lat":-6.186295,"is_transit":false,"distance":1750},{"distance":2015,"is_transit":false,"time":4,"line":2,"station_id":"JUA","transit":false,"i_long":106.828284,"station_name":"Juanda","i_lat":-6.166716},{"is_transit":false,"line":2,"i_lat":-6.160725,"distance":1149,"station_id":"SW","transit":false,"station_name":"Sawah Besar","time":2,"i_long":106.827103},{"i_long":106.82482,"is_transit":false,"transit":false,"station_name":"Manggabesar","station_id":"MGB","line":2,"time":2,"distance":906,"i_lat":-6.149769},{"station_name":"Jayakarta","line":2,"time":2,"distance":1080,"station_id":"JAY","i_lat":-6.141205,"i_long":106.820901,"is_transit":false,"transit":false},{"transit":true,"distance":1264,"station_id":"JAKK","station_name":"Jakarta Kota","i_long":106.812439,"is_transit":true,"time":4,"i_lat":-6.137569,"line":2},{"i_long":106.826365,"transit":true,"is_transit":true,"station_name":"Kampung Bandan","distance":1364,"i_lat":-6.132549,"line":4,"station_id":"KPB","time":3},{"i_long":106.836569,"station_id":"RJW","i_lat":-6.14505,"time":3,"station_name":"Rajawali","is_transit":false,"line":11,"transit":false,"distance":1444},{"station_id":"KMO","time":5,"i_long":106.839204,"transit":false,"line":11,"station_name":"Kemayoran","distance":1901,"is_transit":false,"i_lat":-6.161728},{"distance":1436,"time":4,"line":11,"is_transit":false,"transit":false,"i_long":106.84368,"i_lat":-6.174784,"station_name":"Pasar Senen","station_id":"PSE"},{"station_name":"Gang Sentiong","station_id":"GST","time":8,"i_lat":-6.185975,"transit":false,"distance":1567,"i_long":106.850107,"line":11,"is_transit":false},{"transit":false,"is_transit":false,"distance":973,"i_lat":-6.193792,"station_id":"KMT","time":1,"i_long":106.855437,"line":11,"station_name":"Kramat"},{"distance":1829,"i_lat":-6.209188,"i_long":106.861737,"is_transit":false,"station_name":"Pondok Jati","line":11,"transit":false,"station_id":"POK","time":2},{"station_name":"Jatinegara","is_transit":false,"i_lat":-6.215091,"line":1,"transit":false,"station_id":"JNG","time":9,"distance":1236,"i_long":106.86807400000001}]]}