{"data":[[{"transit":false,"is_transit":false,"i_long":106.394373,"station_name":"Maja","line":6,"i_lat":-6.332307,"distance":0,"time":0,"station_id":"MJ"},{"time":4,"station_name":"Cikoya","i_lat":-6.33561,"distance":1853,"i_long":106.411216,"is_transit":false,"line":3,"station_id":"CKY","transit":false},{"transit":false,"line":6,"time":3,"i_lat":-6.328533,"station_name":"Tigaraksa","is_transit":false,"i_long":106.425991,"station_id":"TGS","distance":2651},{"distance":2974,"i_lat":-6.327251,"station_name":"Tenjo","is_transit":false,"time":5,"i_long":106.460812,"station_id":"TEJ","transit":false,"line":6},{"i_long":106.491338,"time":5,"is_transit":false,"station_id":"DAR","transit":false,"distance":3902,"station_name":"Daru","i_lat":-6.338021,"line":0},{"station_id":"CJT","is_transit":false,"time":6,"station_name":"Cilejit","transit":false,"distance":2675,"i_lat":-6.354349,"line":3,"i_long":106.508482},{"station_id":"PRP","distance":7025,"station_name":"Parung Panjang","time":9,"transit":false,"is_transit":false,"i_long":106.568863,"line":6,"i_lat":-6.3441410000000005},{"i_long":106.617853,"is_transit":false,"i_lat":-6.329547,"distance":5968,"station_name":"Cicayur","transit":false,"time":8,"line":3,"station_id":"CC"},{"is_transit":false,"time":4,"distance":2519,"i_lat":-6.32484,"transit":false,"i_long":106.640411,"line":3,"station_id":"CSK","station_name":"Cisauk"},{"i_lat":-6.319871,"i_long":106.66566,"is_transit":false,"time":4,"station_name":"Serpong","transit":false,"line":6,"distance":1784,"station_id":"SRP"},{"distance":2413,"station_name":"Rawa Buntu","i_long":106.675475,"station_id":"RU","i_lat":-6.314823,"time":4,"line":6,"transit":false,"is_transit":false},{"i_long":106.712277,"line":6,"station_name":"Sudimara","i_lat":-6.296963,"station_id":"SDM","is_transit":false,"transit":false,"time":6,"distance":4566},{"is_transit":false,"time":4,"station_id":"JMU","distance":1994,"line":6,"station_name":"Jurangmangu","i_lat":-6.288927,"transit":false,"i_long":106.728916}]]}