{"data":[[{"station_id":"MJ","time":0,"transit":false,"station_name":"Maja","is_transit":false,"distance":0,"i_lat":-6.332307,"i_long":106.394373,"line":6},{"distance":1853,"line":0,"time":4,"transit":false,"station_id":"CKY","i_lat":-6.33561,"is_transit":false,"station_name":"Cikoya","i_long":106.411216},{"i_long":106.425991,"line":6,"is_transit":false,"station_name":"Tigaraksa","time":3,"transit":false,"station_id":"TGS","distance":2651,"i_lat":-6.328533},{"distance":2974,"i_lat":-6.327251,"station_id":"TEJ","station_name":"Tenjo","transit":false,"line":6,"time":5,"is_transit":false,"i_long":106.460812},{"i_lat":-6.338021,"distance":3902,"station_id":"DAR","is_transit":false,"time":5,"i_long":106.491338,"line":0,"station_name":"Daru","transit":false},{"i_lat":-6.354349,"line":0,"is_transit":false,"distance":2675,"transit":false,"i_long":106.508482,"time":6,"station_name":"Cilejit","station_id":"CJT"},{"is_transit":false,"distance":7025,"station_name":"Parung Panjang","station_id":"PRP","i_long":106.568863,"line":6,"time":9,"transit":false,"i_lat":-6.3441410000000005},{"is_transit":false,"i_lat":-6.329547,"line":0,"time":8,"distance":5968,"i_long":106.617853,"transit":false,"station_id":"CC","station_name":"Cicayur"},{"transit":false,"distance":2519,"is_transit":false,"i_lat":-6.32484,"time":4,"station_id":"CSK","station_name":"Cisauk","i_long":106.640411,"line":0},{"is_transit":false,"i_long":106.66566,"line":6,"station_id":"SRP","time":4,"transit":false,"i_lat":-6.319871,"distance":1784,"station_name":"Serpong"},{"time":4,"i_lat":-6.314823,"station_name":"Rawa Buntu","station_id":"RU","is_transit":false,"line":6,"transit":false,"i_long":106.675475,"distance":2413},{"transit":false,"station_id":"SDM","time":6,"station_name":"Sudimara","line":6,"i_long":106.712277,"is_transit":false,"distance":4566,"i_lat":-6.296963},{"is_transit":false,"station_name":"Jurangmangu","i_long":106.728916,"transit":false,"distance":1994,"line":6,"time":4,"i_lat":-6.288927,"station_id":"JMU"}]]}