{"data":[[{"is_transit":false,"transit":false,"station_id":"MJ","line":6,"i_long":106.394373,"time":0,"station_name":"Maja","distance":0,"i_lat":-6.332307},{"transit":false,"station_name":"Cikoya","i_lat":-6.33561,"distance":1853,"line":3,"i_long":106.411216,"is_transit":false,"time":4,"station_id":"CKY"},{"i_long":106.425991,"station_id":"TGS","transit":false,"station_name":"Tigaraksa","is_transit":false,"time":3,"i_lat":-6.328533,"distance":2651,"line":6},{"transit":false,"station_name":"Tenjo","station_id":"TEJ","time":5,"i_long":106.460812,"is_transit":false,"line":6,"distance":2974,"i_lat":-6.327251},{"station_id":"DAR","is_transit":false,"transit":false,"station_name":"Daru","time":5,"i_lat":-6.338021,"line":0,"distance":3902,"i_long":106.491338},{"transit":false,"is_transit":false,"i_lat":-6.354349,"time":6,"station_name":"Cilejit","i_long":106.508482,"line":3,"station_id":"CJT","distance":2675},{"distance":7025,"time":9,"station_name":"Parung Panjang","station_id":"PRP","is_transit":false,"i_long":106.568863,"line":6,"i_lat":-6.3441410000000005,"transit":false},{"i_long":106.617853,"distance":5968,"transit":false,"station_name":"Cicayur","station_id":"CC","time":8,"i_lat":-6.329547,"is_transit":false,"line":3},{"time":4,"transit":false,"distance":2519,"station_name":"Cisauk","is_transit":false,"station_id":"CSK","line":3,"i_lat":-6.32484,"i_long":106.640411},{"transit":false,"station_name":"Serpong","station_id":"SRP","time":4,"is_transit":false,"i_long":106.66566,"distance":1784,"line":6,"i_lat":-6.319871},{"i_lat":-6.314823,"line":6,"station_name":"Rawa Buntu","transit":false,"i_long":106.675475,"distance":2413,"is_transit":false,"time":4,"station_id":"RU"},{"i_long":106.712277,"time":6,"distance":4566,"station_name":"Sudimara","line":6,"station_id":"SDM","transit":false,"is_transit":false,"i_lat":-6.296963},{"i_long":106.728916,"station_name":"Jurangmangu","i_lat":-6.288927,"transit":false,"line":6,"is_transit":false,"station_id":"JMU","distance":1994,"time":4}]]}