{"data":[[{"i_lat":-6.332307,"distance":0,"is_transit":false,"transit":false,"time":0,"line":6,"i_long":106.394373,"station_id":"MJ","station_name":"Maja"},{"transit":false,"line":3,"time":4,"i_lat":-6.33561,"is_transit":false,"station_id":"CKY","i_long":106.411216,"station_name":"Cikoya","distance":1853},{"transit":false,"time":3,"distance":2651,"i_lat":-6.328533,"station_id":"TGS","is_transit":false,"i_long":106.425991,"line":6,"station_name":"Tigaraksa"},{"transit":false,"distance":2974,"station_id":"TEJ","i_lat":-6.327251,"time":5,"i_long":106.460812,"line":6,"is_transit":false,"station_name":"Tenjo"},{"time":5,"transit":false,"is_transit":false,"distance":3902,"station_name":"Daru","station_id":"DAR","i_lat":-6.338021,"line":0,"i_long":106.491338},{"station_name":"Cilejit","distance":2675,"i_long":106.508482,"is_transit":false,"line":3,"transit":false,"i_lat":-6.354349,"station_id":"CJT","time":6},{"station_name":"Parung Panjang","station_id":"PRP","distance":7025,"i_lat":-6.3441410000000005,"is_transit":false,"time":9,"transit":false,"line":6,"i_long":106.568863},{"transit":false,"i_long":106.617853,"line":3,"i_lat":-6.329547,"is_transit":false,"station_id":"CC","distance":5968,"station_name":"Cicayur","time":8},{"transit":false,"distance":2519,"i_long":106.640411,"line":3,"time":4,"i_lat":-6.32484,"is_transit":false,"station_id":"CSK","station_name":"Cisauk"},{"transit":false,"i_lat":-6.319871,"is_transit":false,"station_id":"SRP","distance":1784,"line":6,"time":4,"station_name":"Serpong","i_long":106.66566},{"station_name":"Rawa Buntu","transit":false,"time":4,"i_lat":-6.314823,"line":6,"is_transit":false,"i_long":106.675475,"distance":2413,"station_id":"RU"},{"transit":false,"i_lat":-6.296963,"i_long":106.712277,"distance":4566,"station_name":"Sudimara","is_transit":false,"time":6,"line":6,"station_id":"SDM"},{"transit":false,"i_lat":-6.288927,"distance":1994,"station_id":"JMU","station_name":"Jurangmangu","is_transit":false,"time":4,"line":6,"i_long":106.728916}]]}