{"data":[[{"i_lat":-6.332307,"is_transit":false,"station_name":"Maja","transit":false,"i_long":106.394373,"line":6,"station_id":"MJ","time":0,"distance":0},{"station_id":"CKY","line":3,"i_long":106.411216,"transit":false,"is_transit":false,"i_lat":-6.33561,"distance":1853,"station_name":"Cikoya","time":4},{"transit":false,"station_id":"TGS","line":6,"station_name":"Tigaraksa","i_lat":-6.328533,"i_long":106.425991,"is_transit":false,"distance":2651,"time":3},{"is_transit":false,"distance":2974,"line":6,"station_name":"Tenjo","i_lat":-6.327251,"station_id":"TEJ","time":5,"transit":false,"i_long":106.460812},{"station_id":"DAR","transit":false,"station_name":"Daru","i_lat":-6.338021,"is_transit":false,"time":5,"distance":3902,"i_long":106.491338,"line":0},{"station_id":"CJT","transit":false,"time":6,"line":3,"i_lat":-6.354349,"i_long":106.508482,"is_transit":false,"distance":2675,"station_name":"Cilejit"},{"station_id":"PRP","station_name":"Parung Panjang","is_transit":false,"distance":7025,"transit":false,"i_lat":-6.3441410000000005,"line":6,"time":9,"i_long":106.568863},{"i_lat":-6.329547,"transit":false,"station_id":"CC","station_name":"Cicayur","is_transit":false,"i_long":106.617853,"line":3,"time":8,"distance":5968},{"i_long":106.640411,"time":4,"station_name":"Cisauk","transit":false,"line":3,"station_id":"CSK","distance":2519,"is_transit":false,"i_lat":-6.32484},{"distance":1784,"i_long":106.66566,"line":6,"is_transit":false,"i_lat":-6.319871,"station_id":"SRP","transit":false,"station_name":"Serpong","time":4},{"is_transit":false,"transit":false,"i_long":106.675475,"line":6,"station_name":"Rawa Buntu","i_lat":-6.314823,"distance":2413,"station_id":"RU","time":4},{"line":6,"station_name":"Sudimara","station_id":"SDM","distance":4566,"is_transit":false,"time":6,"i_lat":-6.296963,"transit":false,"i_long":106.712277},{"line":6,"i_lat":-6.288927,"i_long":106.728916,"time":4,"transit":false,"is_transit":false,"station_id":"JMU","station_name":"Jurangmangu","distance":1994},{"station_id":"PDJ","station_name":"Pondokranji","transit":false,"time":3,"i_long":106.74273,"is_transit":false,"line":6,"i_lat":-6.276362,"distance":2179},{"i_long":106.780334,"transit":false,"time":8,"station_id":"KBY","distance":6218,"station_name":"Kebayoran","is_transit":false,"i_lat":-6.237242,"line":6},{"distance":3737,"transit":false,"is_transit":false,"station_name":"Palmerah","i_long":106.79689,"time":7,"station_id":"PLM","i_lat":-6.207404,"line":6},{"i_lat":-6.185545,"i_long":106.811091,"distance":3191,"line":1,"station_id":"THB","transit":true,"station_name":"Tanah Abang","is_transit":true,"time":6},{"line":1,"is_transit":false,"time":5,"station_name":"Karet","distance":2029,"i_long":106.816351,"i_lat":-6.20132,"transit":false,"station_id":"KAT"},{"is_transit":false,"station_name":"Sudirman Baru","time":1,"line":1,"distance":471,"transit":false,"i_lat":-6.201433,"station_id":"SUDB","i_long":106.819881},{"station_name":"Sudirman","distance":280,"is_transit":false,"transit":false,"station_id":"SUD","time":1,"i_long":106.822649,"line":1,"i_lat":-6.202263},{"line":2,"distance":3186,"station_name":"Manggarai","station_id":"MRI","is_transit":false,"transit":false,"i_lat":-6.209883,"time":4,"i_long":106.84912},{"is_transit":false,"station_id":"MTR","distance":1275,"time":2,"i_lat":-6.212485,"i_long":106.858896,"transit":false,"station_name":"Matraman","line":1},{"distance":1377,"transit":false,"i_lat":-6.215091,"station_name":"Jatinegara","station_id":"JNG","i_long":106.86807400000001,"line":1,"time":8,"is_transit":false}],[{"time":0,"is_transit":false,"station_id":"MJ","station_name":"Maja","transit":false,"distance":0,"i_lat":-6.332307,"i_long":106.394373,"line":6},{"i_long":106.411216,"is_transit":false,"line":3,"transit":false,"station_name":"Cikoya","distance":1853,"station_id":"CKY","time":4,"i_lat":-6.33561},{"i_lat":-6.328533,"is_transit":false,"transit":false,"station_name":"Tigaraksa","station_id":"TGS","distance":2651,"i_long":106.425991,"time":3,"line":6},{"i_long":106.460812,"line":6,"transit":false,"time":5,"station_name":"Tenjo","station_id":"TEJ","is_transit":false,"distance":2974,"i_lat":-6.327251},{"station_name":"Daru","transit":false,"distance":3902,"station_id":"DAR","i_lat":-6.338021,"is_transit":false,"i_long":106.491338,"line":0,"time":5},{"i_lat":-6.354349,"station_id":"CJT","distance":2675,"station_name":"Cilejit","i_long":106.508482,"line":3,"time":6,"transit":false,"is_transit":false},{"i_long":106.568863,"is_transit":false,"i_lat":-6.3441410000000005,"transit":false,"station_name":"Parung Panjang","station_id":"PRP","distance":7025,"line":6,"time":9},{"station_id":"CC","time":8,"distance":5968,"transit":false,"is_transit":false,"i_lat":-6.329547,"i_long":106.617853,"line":3,"station_name":"Cicayur"},{"distance":2519,"station_id":"CSK","i_lat":-6.32484,"i_long":106.640411,"line":3,"station_name":"Cisauk","is_transit":false,"transit":false,"time":4},{"transit":false,"i_long":106.66566,"line":6,"i_lat":-6.319871,"time":4,"station_id":"SRP","distance":1784,"is_transit":false,"station_name":"Serpong"},{"is_transit":false,"distance":2413,"i_long":106.675475,"line":6,"time":4,"transit":false,"station_name":"Rawa Buntu","i_lat":-6.314823,"station_id":"RU"},{"station_id":"SDM","time":6,"transit":false,"is_transit":false,"i_long":106.712277,"station_name":"Sudimara","i_lat":-6.296963,"line":6,"distance":4566},{"i_long":106.728916,"transit":false,"distance":1994,"station_name":"Jurangmangu","is_transit":false,"i_lat":-6.288927,"line":6,"station_id":"JMU","time":4},{"distance":2179,"time":3,"transit":false,"is_transit":false,"i_long":106.74273,"line":6,"i_lat":-6.276362,"station_name":"Pondokranji","station_id":"PDJ"},{"time":8,"i_long":106.780334,"distance":6218,"station_id":"KBY","i_lat":-6.237242,"station_name":"Kebayoran","transit":false,"line":6,"is_transit":false},{"time":7,"station_id":"PLM","is_transit":false,"station_name":"Palmerah","transit":false,"distance":3737,"i_lat":-6.207404,"line":6,"i_long":106.79689},{"station_id":"THB","time":6,"i_lat":-6.185545,"i_long":106.811091,"distance":3191,"is_transit":true,"transit":true,"line":1,"station_name":"Tanah Abang"},{"station_name":"Duri","distance":3632,"station_id":"DU","transit":false,"i_lat":-6.155215,"i_long":106.800832,"is_transit":false,"time":8,"line":1},{"line":1,"transit":false,"time":4,"station_name":"Angke","distance":1230,"is_transit":false,"i_long":106.79867,"i_lat":-6.144674,"station_id":"AK"},{"is_transit":true,"station_name":"Kampung Bandan","i_lat":-6.132549,"transit":true,"distance":4102,"time":9,"i_long":106.826365,"station_id":"KPB","line":4},{"station_id":"RJW","transit":false,"time":3,"i_lat":-6.14505,"i_long":106.836569,"station_name":"Rajawali","distance":1444,"line":11,"is_transit":false},{"i_long":106.839204,"station_name":"Kemayoran","station_id":"KMO","i_lat":-6.161728,"transit":false,"is_transit":false,"distance":1901,"time":5,"line":11},{"i_long":106.84368,"line":11,"station_id":"PSE","time":4,"distance":1436,"i_lat":-6.174784,"transit":false,"is_transit":false,"station_name":"Pasar Senen"},{"is_transit":false,"line":11,"transit":false,"station_name":"Gang Sentiong","station_id":"GST","i_lat":-6.185975,"time":8,"i_long":106.850107,"distance":1567},{"distance":973,"line":11,"station_id":"KMT","transit":false,"station_name":"Kramat","time":1,"i_lat":-6.193792,"i_long":106.855437,"is_transit":false},{"time":2,"station_name":"Pondok Jati","distance":1829,"line":11,"is_transit":false,"i_lat":-6.209188,"i_long":106.861737,"transit":false,"station_id":"POK"},{"is_transit":false,"station_name":"Jatinegara","distance":1236,"i_lat":-6.215091,"time":9,"station_id":"JNG","transit":false,"line":1,"i_long":106.86807400000001}],[{"is_transit":false,"i_lat":-6.332307,"time":0,"station_id":"MJ","distance":0,"i_long":106.394373,"transit":false,"line":6,"station_name":"Maja"},{"i_lat":-6.33561,"transit":false,"i_long":106.411216,"line":3,"station_name":"Cikoya","distance":1853,"is_transit":false,"time":4,"station_id":"CKY"},{"station_name":"Tigaraksa","station_id":"TGS","distance":2651,"i_lat":-6.328533,"time":3,"transit":false,"is_transit":false,"i_long":106.425991,"line":6},{"transit":false,"line":6,"station_name":"Tenjo","time":5,"distance":2974,"i_lat":-6.327251,"station_id":"TEJ","is_transit":false,"i_long":106.460812},{"transit":false,"station_name":"Daru","i_long":106.491338,"line":0,"is_transit":false,"time":5,"i_lat":-6.338021,"station_id":"DAR","distance":3902},{"transit":false,"distance":2675,"station_id":"CJT","time":6,"i_lat":-6.354349,"station_name":"Cilejit","is_transit":false,"i_long":106.508482,"line":3},{"transit":false,"i_lat":-6.3441410000000005,"i_long":106.568863,"distance":7025,"station_id":"PRP","is_transit":false,"time":9,"line":6,"station_name":"Parung Panjang"},{"i_long":106.617853,"station_id":"CC","line":3,"transit":false,"time":8,"i_lat":-6.329547,"distance":5968,"is_transit":false,"station_name":"Cicayur"},{"i_long":106.640411,"transit":false,"station_id":"CSK","time":4,"i_lat":-6.32484,"station_name":"Cisauk","line":3,"is_transit":false,"distance":2519},{"transit":false,"distance":1784,"line":6,"i_long":106.66566,"i_lat":-6.319871,"station_name":"Serpong","time":4,"station_id":"SRP","is_transit":false},{"line":6,"transit":false,"is_transit":false,"time":4,"station_name":"Rawa Buntu","i_lat":-6.314823,"distance":2413,"i_long":106.675475,"station_id":"RU"},{"i_lat":-6.296963,"transit":false,"station_name":"Sudimara","distance":4566,"time":6,"is_transit":false,"line":6,"station_id":"SDM","i_long":106.712277},{"line":6,"transit":false,"i_lat":-6.288927,"station_id":"JMU","i_long":106.728916,"time":4,"is_transit":false,"station_name":"Jurangmangu","distance":1994},{"is_transit":false,"station_id":"PDJ","time":3,"transit":false,"i_long":106.74273,"i_lat":-6.276362,"station_name":"Pondokranji","distance":2179,"line":6},{"transit":false,"distance":6218,"station_name":"Kebayoran","i_lat":-6.237242,"is_transit":false,"i_long":106.780334,"line":6,"station_id":"KBY","time":8},{"station_id":"PLM","is_transit":false,"i_lat":-6.207404,"station_name":"Palmerah","distance":3737,"line":6,"i_long":106.79689,"time":7,"transit":false},{"station_id":"THB","time":6,"i_long":106.811091,"distance":3191,"i_lat":-6.185545,"transit":true,"line":1,"is_transit":true,"station_name":"Tanah Abang"},{"station_id":"DU","i_lat":-6.155215,"transit":false,"time":8,"i_long":106.800832,"is_transit":false,"station_name":"Duri","distance":3632,"line":1},{"distance":1230,"is_transit":false,"time":4,"line":1,"i_long":106.79867,"station_id":"AK","i_lat":-6.144674,"station_name":"Angke","transit":false},{"i_long":106.826365,"line":4,"distance":4102,"station_name":"Kampung Bandan","station_id":"KPB","i_lat":-6.132549,"is_transit":true,"time":9,"transit":true},{"station_name":"Jakarta Kota","station_id":"JAKK","is_transit":true,"line":2,"time":3,"i_long":106.812439,"transit":true,"distance":1364,"i_lat":-6.137569},{"time":4,"i_lat":-6.141205,"line":2,"distance":1264,"station_name":"Jayakarta","is_transit":false,"transit":false,"station_id":"JAY","i_long":106.820901},{"is_transit":false,"station_name":"Manggabesar","line":2,"transit":false,"distance":1080,"time":2,"i_lat":-6.149769,"station_id":"MGB","i_long":106.82482},{"time":2,"i_long":106.827103,"is_transit":false,"i_lat":-6.160725,"station_name":"Sawah Besar","station_id":"SW","line":2,"transit":false,"distance":906},{"station_name":"Juanda","station_id":"JUA","distance":1149,"time":2,"transit":false,"is_transit":false,"i_lat":-6.166716,"i_long":106.828284,"line":2},{"station_id":"GDD","station_name":"Gondangdia","is_transit":false,"time":4,"i_long":106.832183,"transit":false,"line":2,"distance":2015,"i_lat":-6.186295},{"time":3,"line":2,"station_id":"CKI","transit":false,"i_lat":-6.198556,"station_name":"Cikini","distance":1750,"i_long":106.840169,"is_transit":false},{"distance":1590,"i_lat":-6.209883,"time":4,"i_long":106.84912,"is_transit":true,"line":2,"transit":true,"station_id":"MRI","station_name":"Manggarai"},{"station_id":"MTR","i_long":106.858896,"distance":1275,"line":1,"transit":false,"time":2,"i_lat":-6.212485,"station_name":"Matraman","is_transit":false},{"is_transit":false,"transit":false,"station_name":"Jatinegara","distance":1377,"i_lat":-6.215091,"line":1,"time":8,"i_long":106.86807400000001,"station_id":"JNG"}],[{"i_lat":-6.332307,"is_transit":false,"i_long":106.394373,"station_name":"Maja","transit":false,"line":6,"station_id":"MJ","distance":0,"time":0},{"is_transit":false,"line":3,"station_id":"CKY","distance":1853,"i_long":106.411216,"time":4,"i_lat":-6.33561,"station_name":"Cikoya","transit":false},{"i_lat":-6.328533,"i_long":106.425991,"line":6,"transit":false,"is_transit":false,"station_name":"Tigaraksa","station_id":"TGS","distance":2651,"time":3},{"station_name":"Tenjo","transit":false,"station_id":"TEJ","line":6,"time":5,"distance":2974,"is_transit":false,"i_long":106.460812,"i_lat":-6.327251},{"is_transit":false,"station_name":"Daru","line":0,"distance":3902,"time":5,"i_long":106.491338,"i_lat":-6.338021,"transit":false,"station_id":"DAR"},{"is_transit":false,"line":3,"transit":false,"station_id":"CJT","i_lat":-6.354349,"distance":2675,"time":6,"i_long":106.508482,"station_name":"Cilejit"},{"line":6,"i_lat":-6.3441410000000005,"time":9,"transit":false,"station_id":"PRP","i_long":106.568863,"is_transit":false,"station_name":"Parung Panjang","distance":7025},{"distance":5968,"station_name":"Cicayur","i_long":106.617853,"station_id":"CC","transit":false,"line":3,"is_transit":false,"time":8,"i_lat":-6.329547},{"station_id":"CSK","line":3,"transit":false,"time":4,"station_name":"Cisauk","i_lat":-6.32484,"distance":2519,"i_long":106.640411,"is_transit":false},{"time":4,"transit":false,"station_id":"SRP","distance":1784,"is_transit":false,"line":6,"station_name":"Serpong","i_lat":-6.319871,"i_long":106.66566},{"is_transit":false,"station_id":"RU","i_long":106.675475,"time":4,"station_name":"Rawa Buntu","distance":2413,"transit":false,"line":6,"i_lat":-6.314823},{"distance":4566,"transit":false,"time":6,"i_lat":-6.296963,"i_long":106.712277,"is_transit":false,"station_name":"Sudimara","station_id":"SDM","line":6},{"station_id":"JMU","distance":1994,"time":4,"i_lat":-6.288927,"station_name":"Jurangmangu","line":6,"is_transit":false,"i_long":106.728916,"transit":false},{"distance":2179,"time":3,"station_id":"PDJ","i_long":106.74273,"line":6,"i_lat":-6.276362,"station_name":"Pondokranji","transit":false,"is_transit":false},{"i_lat":-6.237242,"time":8,"station_id":"KBY","transit":false,"is_transit":false,"distance":6218,"i_long":106.780334,"line":6,"station_name":"Kebayoran"},{"time":7,"i_long":106.79689,"is_transit":false,"line":6,"station_id":"PLM","i_lat":-6.207404,"distance":3737,"transit":false,"station_name":"Palmerah"},{"distance":3191,"is_transit":true,"line":1,"station_name":"Tanah Abang","station_id":"THB","i_lat":-6.185545,"time":6,"transit":true,"i_long":106.811091},{"is_transit":false,"i_lat":-6.20132,"i_long":106.816351,"transit":false,"station_id":"KAT","distance":2029,"time":5,"station_name":"Karet","line":1},{"i_long":106.819881,"distance":471,"line":1,"i_lat":-6.201433,"station_name":"Sudirman Baru","station_id":"SUDB","transit":false,"time":1,"is_transit":false},{"distance":280,"transit":false,"i_long":106.822649,"station_name":"Sudirman","line":1,"i_lat":-6.202263,"is_transit":false,"station_id":"SUD","time":1},{"i_long":106.84912,"station_id":"MRI","station_name":"Manggarai","distance":3186,"time":4,"i_lat":-6.209883,"line":2,"transit":true,"is_transit":true},{"line":2,"is_transit":false,"station_name":"Cikini","station_id":"CKI","i_lat":-6.198556,"i_long":106.840169,"time":4,"transit":false,"distance":1590},{"transit":false,"is_transit":false,"line":2,"i_lat":-6.186295,"i_long":106.832183,"station_name":"Gondangdia","distance":1750,"time":3,"station_id":"GDD"},{"time":4,"i_long":106.828284,"station_id":"JUA","line":2,"i_lat":-6.166716,"distance":2015,"transit":false,"is_transit":false,"station_name":"Juanda"},{"station_id":"SW","transit":false,"time":2,"station_name":"Sawah Besar","i_lat":-6.160725,"distance":1149,"is_transit":false,"line":2,"i_long":106.827103},{"i_long":106.82482,"is_transit":false,"station_id":"MGB","transit":false,"time":2,"station_name":"Manggabesar","i_lat":-6.149769,"distance":906,"line":2},{"distance":1080,"time":2,"i_long":106.820901,"station_name":"Jayakarta","line":2,"is_transit":false,"station_id":"JAY","i_lat":-6.141205,"transit":false},{"transit":true,"station_name":"Jakarta Kota","time":4,"distance":1264,"i_lat":-6.137569,"i_long":106.812439,"station_id":"JAKK","line":2,"is_transit":true},{"transit":true,"i_long":106.826365,"line":4,"time":3,"distance":1364,"station_id":"KPB","i_lat":-6.132549,"station_name":"Kampung Bandan","is_transit":true},{"station_id":"RJW","i_long":106.836569,"distance":1444,"time":3,"is_transit":false,"line":11,"station_name":"Rajawali","i_lat":-6.14505,"transit":false},{"station_name":"Kemayoran","i_lat":-6.161728,"i_long":106.839204,"station_id":"KMO","distance":1901,"line":11,"time":5,"transit":false,"is_transit":false},{"station_name":"Pasar Senen","transit":false,"time":4,"i_lat":-6.174784,"distance":1436,"is_transit":false,"i_long":106.84368,"line":11,"station_id":"PSE"},{"station_name":"Gang Sentiong","distance":1567,"line":11,"i_lat":-6.185975,"transit":false,"station_id":"GST","i_long":106.850107,"is_transit":false,"time":8},{"station_name":"Kramat","i_lat":-6.193792,"line":11,"is_transit":false,"time":1,"station_id":"KMT","transit":false,"i_long":106.855437,"distance":973},{"i_long":106.861737,"station_id":"POK","distance":1829,"i_lat":-6.209188,"line":11,"transit":false,"is_transit":false,"station_name":"Pondok Jati","time":2},{"i_lat":-6.215091,"station_id":"JNG","station_name":"Jatinegara","time":9,"line":1,"distance":1236,"is_transit":false,"transit":false,"i_long":106.86807400000001}]]}