{"data":[[{"station_id":"MJ","transit":false,"i_lat":-6.332307,"distance":0,"is_transit":false,"station_name":"Maja","time":0,"line":6,"i_long":106.394373},{"i_lat":-6.33561,"line":3,"distance":1853,"station_id":"CKY","i_long":106.411216,"time":4,"is_transit":false,"station_name":"Cikoya","transit":false},{"station_id":"TGS","line":6,"transit":false,"is_transit":false,"i_long":106.425991,"time":3,"station_name":"Tigaraksa","distance":2651,"i_lat":-6.328533},{"line":6,"station_id":"TEJ","transit":false,"time":5,"station_name":"Tenjo","is_transit":false,"distance":2974,"i_lat":-6.327251,"i_long":106.460812},{"distance":3902,"i_long":106.491338,"station_name":"Daru","station_id":"DAR","transit":false,"i_lat":-6.338021,"is_transit":false,"time":5,"line":0},{"is_transit":false,"distance":2675,"station_name":"Cilejit","i_lat":-6.354349,"transit":false,"station_id":"CJT","line":3,"i_long":106.508482,"time":6},{"is_transit":false,"i_long":106.568863,"time":9,"distance":7025,"station_name":"Parung Panjang","transit":false,"line":6,"station_id":"PRP","i_lat":-6.3441410000000005},{"line":3,"i_lat":-6.329547,"station_name":"Cicayur","is_transit":false,"i_long":106.617853,"station_id":"CC","distance":5968,"time":8,"transit":false},{"is_transit":false,"line":3,"i_long":106.640411,"i_lat":-6.32484,"station_name":"Cisauk","station_id":"CSK","time":4,"distance":2519,"transit":false},{"i_lat":-6.319871,"time":4,"station_id":"SRP","transit":false,"i_long":106.66566,"line":6,"distance":1784,"is_transit":false,"station_name":"Serpong"},{"station_id":"RU","time":4,"distance":2413,"station_name":"Rawa Buntu","i_long":106.675475,"is_transit":false,"line":6,"transit":false,"i_lat":-6.314823},{"line":6,"transit":false,"station_name":"Sudimara","is_transit":false,"i_lat":-6.296963,"station_id":"SDM","distance":4566,"i_long":106.712277,"time":6},{"distance":1994,"is_transit":false,"line":6,"i_lat":-6.288927,"station_id":"JMU","transit":false,"station_name":"Jurangmangu","i_long":106.728916,"time":4},{"is_transit":false,"transit":false,"distance":2179,"line":6,"station_id":"PDJ","i_long":106.74273,"i_lat":-6.276362,"station_name":"Pondokranji","time":3},{"i_lat":-6.237242,"is_transit":false,"transit":false,"distance":6218,"line":6,"station_name":"Kebayoran","station_id":"KBY","time":8,"i_long":106.780334},{"station_id":"PLM","distance":3737,"transit":false,"line":6,"time":7,"is_transit":false,"station_name":"Palmerah","i_long":106.79689,"i_lat":-6.207404},{"transit":true,"i_long":106.811091,"is_transit":true,"i_lat":-6.185545,"time":6,"line":1,"station_id":"THB","distance":3191,"station_name":"Tanah Abang"},{"is_transit":false,"transit":false,"i_lat":-6.20132,"line":1,"time":5,"distance":2029,"station_name":"Karet","station_id":"KAT","i_long":106.816351},{"time":1,"i_lat":-6.201433,"station_id":"SUDB","i_long":106.819881,"is_transit":false,"transit":false,"station_name":"Sudirman Baru","distance":471,"line":1},{"transit":false,"i_long":106.822649,"line":1,"station_id":"SUD","station_name":"Sudirman","time":1,"is_transit":false,"distance":280,"i_lat":-6.202263},{"station_id":"MRI","line":2,"time":4,"i_lat":-6.209883,"is_transit":false,"transit":false,"distance":3186,"station_name":"Manggarai","i_long":106.84912},{"distance":1275,"station_name":"Matraman","i_long":106.858896,"line":1,"time":2,"transit":false,"station_id":"MTR","i_lat":-6.212485,"is_transit":false},{"i_lat":-6.215091,"station_id":"JNG","line":1,"time":8,"distance":1377,"transit":false,"is_transit":false,"station_name":"Jatinegara","i_long":106.86807400000001},{"i_long":106.899548,"line":1,"is_transit":false,"distance":3395,"transit":false,"i_lat":-6.2135,"time":3,"station_name":"Klender","station_id":"KLD"}],[{"distance":0,"is_transit":false,"station_name":"Maja","time":0,"i_long":106.394373,"transit":false,"line":6,"station_id":"MJ","i_lat":-6.332307},{"i_lat":-6.33561,"line":3,"i_long":106.411216,"is_transit":false,"station_id":"CKY","distance":1853,"time":4,"transit":false,"station_name":"Cikoya"},{"station_name":"Tigaraksa","transit":false,"is_transit":false,"time":3,"station_id":"TGS","i_long":106.425991,"distance":2651,"i_lat":-6.328533,"line":6},{"station_name":"Tenjo","line":6,"i_long":106.460812,"transit":false,"time":5,"distance":2974,"is_transit":false,"station_id":"TEJ","i_lat":-6.327251},{"is_transit":false,"transit":false,"station_id":"DAR","i_lat":-6.338021,"i_long":106.491338,"line":0,"distance":3902,"station_name":"Daru","time":5},{"line":3,"distance":2675,"station_name":"Cilejit","is_transit":false,"station_id":"CJT","transit":false,"i_long":106.508482,"time":6,"i_lat":-6.354349},{"is_transit":false,"i_long":106.568863,"station_id":"PRP","i_lat":-6.3441410000000005,"distance":7025,"transit":false,"line":6,"station_name":"Parung Panjang","time":9},{"station_id":"CC","i_long":106.617853,"line":3,"is_transit":false,"station_name":"Cicayur","time":8,"distance":5968,"transit":false,"i_lat":-6.329547},{"time":4,"line":3,"i_long":106.640411,"distance":2519,"station_name":"Cisauk","is_transit":false,"transit":false,"i_lat":-6.32484,"station_id":"CSK"},{"transit":false,"distance":1784,"i_long":106.66566,"is_transit":false,"i_lat":-6.319871,"time":4,"line":6,"station_name":"Serpong","station_id":"SRP"},{"distance":2413,"transit":false,"is_transit":false,"line":6,"i_long":106.675475,"station_id":"RU","i_lat":-6.314823,"station_name":"Rawa Buntu","time":4},{"station_id":"SDM","time":6,"is_transit":false,"distance":4566,"i_long":106.712277,"transit":false,"station_name":"Sudimara","i_lat":-6.296963,"line":6},{"i_long":106.728916,"line":6,"is_transit":false,"transit":false,"station_name":"Jurangmangu","station_id":"JMU","time":4,"i_lat":-6.288927,"distance":1994},{"distance":2179,"transit":false,"i_lat":-6.276362,"time":3,"line":6,"station_name":"Pondokranji","i_long":106.74273,"is_transit":false,"station_id":"PDJ"},{"distance":6218,"i_lat":-6.237242,"i_long":106.780334,"is_transit":false,"line":6,"time":8,"transit":false,"station_id":"KBY","station_name":"Kebayoran"},{"is_transit":false,"distance":3737,"i_lat":-6.207404,"line":6,"transit":false,"i_long":106.79689,"station_id":"PLM","time":7,"station_name":"Palmerah"},{"i_long":106.811091,"distance":3191,"station_name":"Tanah Abang","transit":true,"i_lat":-6.185545,"station_id":"THB","time":6,"is_transit":true,"line":1},{"time":8,"i_lat":-6.155215,"i_long":106.800832,"is_transit":false,"station_id":"DU","transit":false,"station_name":"Duri","line":1,"distance":3632},{"station_id":"AK","time":4,"distance":1230,"transit":false,"station_name":"Angke","i_long":106.79867,"line":1,"is_transit":false,"i_lat":-6.144674},{"distance":4102,"i_lat":-6.132549,"station_id":"KPB","station_name":"Kampung Bandan","line":4,"is_transit":true,"transit":true,"i_long":106.826365,"time":9},{"time":3,"distance":1444,"i_long":106.836569,"station_id":"RJW","line":11,"is_transit":false,"transit":false,"station_name":"Rajawali","i_lat":-6.14505},{"i_lat":-6.161728,"i_long":106.839204,"line":11,"time":5,"distance":1901,"station_name":"Kemayoran","transit":false,"is_transit":false,"station_id":"KMO"},{"station_name":"Pasar Senen","station_id":"PSE","is_transit":false,"distance":1436,"transit":false,"line":11,"time":4,"i_lat":-6.174784,"i_long":106.84368},{"line":11,"station_name":"Gang Sentiong","is_transit":false,"time":8,"distance":1567,"i_lat":-6.185975,"i_long":106.850107,"station_id":"GST","transit":false},{"is_transit":false,"time":1,"distance":973,"station_name":"Kramat","i_long":106.855437,"line":11,"transit":false,"station_id":"KMT","i_lat":-6.193792},{"i_long":106.861737,"station_id":"POK","line":11,"transit":false,"time":2,"distance":1829,"station_name":"Pondok Jati","is_transit":false,"i_lat":-6.209188},{"is_transit":true,"station_name":"Jatinegara","i_lat":-6.215091,"transit":true,"i_long":106.86807400000001,"line":1,"distance":1236,"time":9,"station_id":"JNG"},{"i_long":106.899548,"line":1,"i_lat":-6.2135,"time":3,"distance":3395,"transit":false,"station_id":"KLD","station_name":"Klender","is_transit":false}],[{"i_long":106.394373,"transit":false,"station_name":"Maja","distance":0,"is_transit":false,"line":6,"time":0,"station_id":"MJ","i_lat":-6.332307},{"station_name":"Cikoya","is_transit":false,"time":4,"distance":1853,"transit":false,"i_lat":-6.33561,"i_long":106.411216,"station_id":"CKY","line":3},{"distance":2651,"time":3,"i_lat":-6.328533,"is_transit":false,"i_long":106.425991,"transit":false,"station_id":"TGS","station_name":"Tigaraksa","line":6},{"is_transit":false,"line":6,"time":5,"distance":2974,"transit":false,"station_name":"Tenjo","i_lat":-6.327251,"i_long":106.460812,"station_id":"TEJ"},{"line":0,"station_name":"Daru","transit":false,"i_lat":-6.338021,"i_long":106.491338,"is_transit":false,"distance":3902,"time":5,"station_id":"DAR"},{"time":6,"station_id":"CJT","transit":false,"distance":2675,"line":3,"i_long":106.508482,"i_lat":-6.354349,"is_transit":false,"station_name":"Cilejit"},{"station_id":"PRP","is_transit":false,"time":9,"distance":7025,"transit":false,"i_long":106.568863,"line":6,"i_lat":-6.3441410000000005,"station_name":"Parung Panjang"},{"time":8,"i_lat":-6.329547,"i_long":106.617853,"transit":false,"line":3,"distance":5968,"is_transit":false,"station_name":"Cicayur","station_id":"CC"},{"station_id":"CSK","time":4,"i_lat":-6.32484,"line":3,"is_transit":false,"distance":2519,"i_long":106.640411,"transit":false,"station_name":"Cisauk"},{"i_lat":-6.319871,"transit":false,"time":4,"distance":1784,"i_long":106.66566,"station_name":"Serpong","station_id":"SRP","is_transit":false,"line":6},{"line":6,"station_name":"Rawa Buntu","i_lat":-6.314823,"station_id":"RU","i_long":106.675475,"time":4,"is_transit":false,"transit":false,"distance":2413},{"distance":4566,"station_name":"Sudimara","i_lat":-6.296963,"transit":false,"line":6,"i_long":106.712277,"time":6,"is_transit":false,"station_id":"SDM"},{"line":6,"distance":1994,"i_lat":-6.288927,"transit":false,"station_id":"JMU","time":4,"station_name":"Jurangmangu","is_transit":false,"i_long":106.728916},{"station_id":"PDJ","i_lat":-6.276362,"time":3,"line":6,"is_transit":false,"distance":2179,"transit":false,"i_long":106.74273,"station_name":"Pondokranji"},{"i_long":106.780334,"time":8,"is_transit":false,"station_id":"KBY","distance":6218,"station_name":"Kebayoran","transit":false,"i_lat":-6.237242,"line":6},{"distance":3737,"line":6,"time":7,"i_lat":-6.207404,"is_transit":false,"i_long":106.79689,"station_name":"Palmerah","transit":false,"station_id":"PLM"},{"line":1,"station_id":"THB","i_long":106.811091,"transit":true,"is_transit":true,"time":6,"station_name":"Tanah Abang","distance":3191,"i_lat":-6.185545},{"i_long":106.800832,"time":8,"distance":3632,"transit":false,"line":1,"is_transit":false,"station_name":"Duri","station_id":"DU","i_lat":-6.155215},{"i_lat":-6.144674,"transit":false,"station_id":"AK","is_transit":false,"line":1,"station_name":"Angke","i_long":106.79867,"time":4,"distance":1230},{"i_long":106.826365,"line":4,"distance":4102,"time":9,"is_transit":true,"station_name":"Kampung Bandan","i_lat":-6.132549,"transit":true,"station_id":"KPB"},{"i_long":106.812439,"time":3,"distance":1364,"transit":true,"station_name":"Jakarta Kota","i_lat":-6.137569,"station_id":"JAKK","line":2,"is_transit":true},{"line":2,"is_transit":false,"time":4,"i_lat":-6.141205,"distance":1264,"transit":false,"i_long":106.820901,"station_name":"Jayakarta","station_id":"JAY"},{"transit":false,"is_transit":false,"distance":1080,"i_long":106.82482,"i_lat":-6.149769,"station_id":"MGB","station_name":"Manggabesar","line":2,"time":2},{"is_transit":false,"distance":906,"line":2,"station_id":"SW","i_lat":-6.160725,"i_long":106.827103,"time":2,"transit":false,"station_name":"Sawah Besar"},{"i_lat":-6.166716,"i_long":106.828284,"distance":1149,"time":2,"transit":false,"is_transit":false,"station_id":"JUA","line":2,"station_name":"Juanda"},{"station_name":"Gondangdia","i_lat":-6.186295,"i_long":106.832183,"line":2,"is_transit":false,"time":4,"transit":false,"distance":2015,"station_id":"GDD"},{"i_long":106.840169,"is_transit":false,"i_lat":-6.198556,"line":2,"transit":false,"station_id":"CKI","time":3,"station_name":"Cikini","distance":1750},{"line":2,"station_name":"Manggarai","transit":true,"i_lat":-6.209883,"station_id":"MRI","distance":1590,"is_transit":true,"time":4,"i_long":106.84912},{"transit":false,"time":2,"station_id":"MTR","i_lat":-6.212485,"i_long":106.858896,"distance":1275,"is_transit":false,"line":1,"station_name":"Matraman"},{"i_lat":-6.215091,"i_long":106.86807400000001,"distance":1377,"is_transit":false,"transit":false,"time":8,"station_id":"JNG","station_name":"Jatinegara","line":1},{"is_transit":false,"time":3,"i_lat":-6.2135,"i_long":106.899548,"line":1,"station_id":"KLD","station_name":"Klender","distance":3395,"transit":false}],[{"station_id":"MJ","line":6,"time":0,"transit":false,"is_transit":false,"i_long":106.394373,"i_lat":-6.332307,"distance":0,"station_name":"Maja"},{"station_id":"CKY","station_name":"Cikoya","i_lat":-6.33561,"transit":false,"i_long":106.411216,"is_transit":false,"line":3,"time":4,"distance":1853},{"transit":false,"distance":2651,"time":3,"i_lat":-6.328533,"i_long":106.425991,"station_id":"TGS","station_name":"Tigaraksa","line":6,"is_transit":false},{"is_transit":false,"time":5,"station_name":"Tenjo","line":6,"distance":2974,"i_long":106.460812,"transit":false,"station_id":"TEJ","i_lat":-6.327251},{"is_transit":false,"distance":3902,"time":5,"transit":false,"i_long":106.491338,"station_id":"DAR","station_name":"Daru","i_lat":-6.338021,"line":0},{"time":6,"station_id":"CJT","station_name":"Cilejit","distance":2675,"transit":false,"i_lat":-6.354349,"i_long":106.508482,"line":3,"is_transit":false},{"line":6,"i_long":106.568863,"transit":false,"time":9,"distance":7025,"station_id":"PRP","station_name":"Parung Panjang","i_lat":-6.3441410000000005,"is_transit":false},{"transit":false,"i_lat":-6.329547,"i_long":106.617853,"line":3,"distance":5968,"station_name":"Cicayur","is_transit":false,"time":8,"station_id":"CC"},{"line":3,"i_long":106.640411,"station_id":"CSK","is_transit":false,"time":4,"station_name":"Cisauk","i_lat":-6.32484,"distance":2519,"transit":false},{"station_id":"SRP","station_name":"Serpong","is_transit":false,"line":6,"i_long":106.66566,"i_lat":-6.319871,"time":4,"distance":1784,"transit":false},{"i_long":106.675475,"is_transit":false,"time":4,"transit":false,"distance":2413,"line":6,"station_id":"RU","i_lat":-6.314823,"station_name":"Rawa Buntu"},{"is_transit":false,"distance":4566,"station_name":"Sudimara","i_long":106.712277,"line":6,"station_id":"SDM","transit":false,"i_lat":-6.296963,"time":6},{"time":4,"line":6,"i_lat":-6.288927,"i_long":106.728916,"is_transit":false,"distance":1994,"station_name":"Jurangmangu","station_id":"JMU","transit":false},{"station_id":"PDJ","i_long":106.74273,"i_lat":-6.276362,"is_transit":false,"time":3,"line":6,"distance":2179,"station_name":"Pondokranji","transit":false},{"is_transit":false,"i_lat":-6.237242,"line":6,"i_long":106.780334,"transit":false,"station_id":"KBY","time":8,"distance":6218,"station_name":"Kebayoran"},{"i_long":106.79689,"transit":false,"station_id":"PLM","is_transit":false,"station_name":"Palmerah","line":6,"time":7,"i_lat":-6.207404,"distance":3737},{"station_name":"Tanah Abang","time":6,"i_lat":-6.185545,"station_id":"THB","i_long":106.811091,"distance":3191,"line":1,"is_transit":true,"transit":true},{"distance":2029,"transit":false,"station_id":"KAT","line":1,"time":5,"station_name":"Karet","i_long":106.816351,"i_lat":-6.20132,"is_transit":false},{"i_lat":-6.201433,"is_transit":false,"distance":471,"time":1,"transit":false,"i_long":106.819881,"station_id":"SUDB","station_name":"Sudirman Baru","line":1},{"i_long":106.822649,"line":1,"time":1,"is_transit":false,"transit":false,"station_id":"SUD","i_lat":-6.202263,"distance":280,"station_name":"Sudirman"},{"i_long":106.84912,"station_id":"MRI","line":2,"i_lat":-6.209883,"distance":3186,"transit":true,"is_transit":true,"time":4,"station_name":"Manggarai"},{"transit":false,"line":2,"station_name":"Cikini","station_id":"CKI","i_long":106.840169,"time":4,"distance":1590,"i_lat":-6.198556,"is_transit":false},{"station_id":"GDD","line":2,"time":3,"station_name":"Gondangdia","i_long":106.832183,"transit":false,"is_transit":false,"i_lat":-6.186295,"distance":1750},{"distance":2015,"i_long":106.828284,"i_lat":-6.166716,"line":2,"is_transit":false,"transit":false,"time":4,"station_id":"JUA","station_name":"Juanda"},{"distance":1149,"transit":false,"station_name":"Sawah Besar","is_transit":false,"time":2,"i_long":106.827103,"i_lat":-6.160725,"line":2,"station_id":"SW"},{"station_id":"MGB","time":2,"distance":906,"i_long":106.82482,"is_transit":false,"station_name":"Manggabesar","i_lat":-6.149769,"transit":false,"line":2},{"station_name":"Jayakarta","station_id":"JAY","is_transit":false,"i_lat":-6.141205,"distance":1080,"transit":false,"time":2,"i_long":106.820901,"line":2},{"station_id":"JAKK","i_long":106.812439,"line":2,"distance":1264,"time":4,"station_name":"Jakarta Kota","i_lat":-6.137569,"is_transit":true,"transit":true},{"transit":true,"station_name":"Kampung Bandan","i_long":106.826365,"time":3,"line":4,"station_id":"KPB","distance":1364,"is_transit":true,"i_lat":-6.132549},{"transit":false,"i_lat":-6.14505,"line":11,"is_transit":false,"i_long":106.836569,"distance":1444,"station_id":"RJW","time":3,"station_name":"Rajawali"},{"line":11,"is_transit":false,"time":5,"distance":1901,"i_long":106.839204,"i_lat":-6.161728,"station_id":"KMO","transit":false,"station_name":"Kemayoran"},{"is_transit":false,"station_name":"Pasar Senen","time":4,"distance":1436,"transit":false,"i_lat":-6.174784,"station_id":"PSE","line":11,"i_long":106.84368},{"line":11,"is_transit":false,"distance":1567,"transit":false,"i_lat":-6.185975,"time":8,"station_id":"GST","i_long":106.850107,"station_name":"Gang Sentiong"},{"i_lat":-6.193792,"is_transit":false,"station_id":"KMT","station_name":"Kramat","i_long":106.855437,"line":11,"time":1,"distance":973,"transit":false},{"station_name":"Pondok Jati","i_long":106.861737,"is_transit":false,"line":11,"distance":1829,"time":2,"i_lat":-6.209188,"station_id":"POK","transit":false},{"is_transit":true,"time":9,"station_id":"JNG","i_lat":-6.215091,"transit":true,"line":1,"station_name":"Jatinegara","distance":1236,"i_long":106.86807400000001},{"station_name":"Klender","i_lat":-6.2135,"station_id":"KLD","is_transit":false,"line":1,"distance":3395,"time":3,"i_long":106.899548,"transit":false}]]}