{"data":[[{"is_transit":false,"transit":false,"line":6,"i_lat":-6.332307,"distance":0,"station_name":"Maja","i_long":106.394373,"station_id":"MJ","time":0},{"distance":1853,"time":4,"i_long":106.411216,"is_transit":false,"station_name":"Cikoya","line":3,"i_lat":-6.33561,"transit":false,"station_id":"CKY"},{"line":6,"station_name":"Tigaraksa","distance":2651,"time":3,"is_transit":false,"transit":false,"i_lat":-6.328533,"station_id":"TGS","i_long":106.425991},{"line":6,"distance":2974,"transit":false,"station_name":"Tenjo","is_transit":false,"i_long":106.460812,"station_id":"TEJ","i_lat":-6.327251,"time":5},{"transit":false,"i_long":106.491338,"is_transit":false,"i_lat":-6.338021,"line":0,"station_id":"DAR","distance":3902,"station_name":"Daru","time":5},{"transit":false,"time":6,"line":3,"i_long":106.508482,"station_name":"Cilejit","distance":2675,"station_id":"CJT","is_transit":false,"i_lat":-6.354349},{"time":9,"station_id":"PRP","transit":false,"i_lat":-6.3441410000000005,"i_long":106.568863,"station_name":"Parung Panjang","distance":7025,"line":6,"is_transit":false},{"i_long":106.617853,"station_id":"CC","station_name":"Cicayur","line":3,"is_transit":false,"distance":5968,"transit":false,"i_lat":-6.329547,"time":8},{"distance":2519,"line":3,"i_long":106.640411,"transit":false,"is_transit":false,"station_name":"Cisauk","station_id":"CSK","i_lat":-6.32484,"time":4},{"station_name":"Serpong","is_transit":false,"i_lat":-6.319871,"line":6,"time":4,"i_long":106.66566,"station_id":"SRP","transit":false,"distance":1784},{"station_name":"Rawa Buntu","is_transit":false,"station_id":"RU","i_lat":-6.314823,"line":6,"distance":2413,"transit":false,"i_long":106.675475,"time":4},{"distance":4566,"transit":false,"time":6,"station_name":"Sudimara","i_long":106.712277,"station_id":"SDM","is_transit":false,"line":6,"i_lat":-6.296963},{"line":6,"is_transit":false,"distance":1994,"station_id":"JMU","transit":false,"station_name":"Jurangmangu","time":4,"i_lat":-6.288927,"i_long":106.728916},{"i_lat":-6.276362,"is_transit":false,"station_id":"PDJ","station_name":"Pondokranji","i_long":106.74273,"time":3,"line":6,"transit":false,"distance":2179},{"transit":false,"i_lat":-6.237242,"line":6,"distance":6218,"i_long":106.780334,"station_id":"KBY","station_name":"Kebayoran","time":8,"is_transit":false},{"station_name":"Palmerah","distance":3737,"transit":false,"line":6,"is_transit":false,"station_id":"PLM","i_long":106.79689,"time":7,"i_lat":-6.207404},{"time":6,"i_long":106.811091,"station_name":"Tanah Abang","line":1,"transit":true,"i_lat":-6.185545,"distance":3191,"station_id":"THB","is_transit":true},{"station_id":"DU","i_long":106.800832,"is_transit":false,"transit":false,"station_name":"Duri","i_lat":-6.155215,"line":1,"time":8,"distance":3632},{"i_long":106.79867,"is_transit":false,"distance":1230,"station_name":"Angke","line":1,"i_lat":-6.144674,"transit":false,"time":4,"station_id":"AK"},{"transit":false,"line":4,"is_transit":false,"distance":4102,"time":9,"station_name":"Kampung Bandan","i_long":106.826365,"i_lat":-6.132549,"station_id":"KPB"}],[{"i_lat":-6.332307,"station_id":"MJ","is_transit":false,"time":0,"line":6,"distance":0,"transit":false,"station_name":"Maja","i_long":106.394373},{"is_transit":false,"transit":false,"distance":1853,"i_long":106.411216,"station_name":"Cikoya","i_lat":-6.33561,"line":3,"time":4,"station_id":"CKY"},{"i_lat":-6.328533,"line":6,"is_transit":false,"station_id":"TGS","i_long":106.425991,"transit":false,"time":3,"station_name":"Tigaraksa","distance":2651},{"station_name":"Tenjo","distance":2974,"i_long":106.460812,"line":6,"i_lat":-6.327251,"is_transit":false,"station_id":"TEJ","transit":false,"time":5},{"i_long":106.491338,"line":0,"station_id":"DAR","i_lat":-6.338021,"station_name":"Daru","is_transit":false,"time":5,"distance":3902,"transit":false},{"distance":2675,"station_id":"CJT","transit":false,"station_name":"Cilejit","i_long":106.508482,"is_transit":false,"time":6,"i_lat":-6.354349,"line":3},{"transit":false,"distance":7025,"station_id":"PRP","time":9,"is_transit":false,"station_name":"Parung Panjang","i_lat":-6.3441410000000005,"line":6,"i_long":106.568863},{"i_long":106.617853,"station_id":"CC","time":8,"is_transit":false,"i_lat":-6.329547,"station_name":"Cicayur","line":3,"transit":false,"distance":5968},{"i_lat":-6.32484,"station_name":"Cisauk","distance":2519,"transit":false,"station_id":"CSK","line":3,"time":4,"is_transit":false,"i_long":106.640411},{"time":4,"distance":1784,"transit":false,"station_name":"Serpong","station_id":"SRP","i_lat":-6.319871,"is_transit":false,"i_long":106.66566,"line":6},{"is_transit":false,"line":6,"distance":2413,"station_id":"RU","i_long":106.675475,"time":4,"station_name":"Rawa Buntu","i_lat":-6.314823,"transit":false},{"line":6,"i_long":106.712277,"station_name":"Sudimara","station_id":"SDM","transit":false,"distance":4566,"i_lat":-6.296963,"time":6,"is_transit":false},{"transit":false,"station_name":"Jurangmangu","station_id":"JMU","i_lat":-6.288927,"distance":1994,"line":6,"is_transit":false,"i_long":106.728916,"time":4},{"line":6,"time":3,"i_lat":-6.276362,"is_transit":false,"transit":false,"station_name":"Pondokranji","station_id":"PDJ","i_long":106.74273,"distance":2179},{"time":8,"station_id":"KBY","station_name":"Kebayoran","line":6,"distance":6218,"transit":false,"i_lat":-6.237242,"i_long":106.780334,"is_transit":false},{"i_long":106.79689,"time":7,"station_name":"Palmerah","distance":3737,"transit":false,"i_lat":-6.207404,"station_id":"PLM","line":6,"is_transit":false},{"i_lat":-6.185545,"transit":true,"time":6,"line":1,"distance":3191,"is_transit":true,"station_id":"THB","station_name":"Tanah Abang","i_long":106.811091},{"i_lat":-6.20132,"transit":false,"station_id":"KAT","distance":2029,"is_transit":false,"time":5,"i_long":106.816351,"station_name":"Karet","line":1},{"transit":false,"station_id":"SUDB","distance":471,"line":1,"station_name":"Sudirman Baru","is_transit":false,"i_long":106.819881,"i_lat":-6.201433,"time":1},{"line":1,"is_transit":false,"i_long":106.822649,"station_id":"SUD","transit":false,"time":1,"distance":280,"i_lat":-6.202263,"station_name":"Sudirman"},{"transit":true,"is_transit":true,"i_long":106.84912,"i_lat":-6.209883,"time":4,"line":2,"station_id":"MRI","station_name":"Manggarai","distance":3186},{"line":2,"distance":1590,"i_lat":-6.198556,"i_long":106.840169,"station_name":"Cikini","transit":false,"is_transit":false,"station_id":"CKI","time":4},{"station_id":"GDD","transit":false,"i_lat":-6.186295,"distance":1750,"is_transit":false,"station_name":"Gondangdia","i_long":106.832183,"line":2,"time":3},{"i_long":106.828284,"station_id":"JUA","is_transit":false,"line":2,"transit":false,"station_name":"Juanda","time":4,"i_lat":-6.166716,"distance":2015},{"transit":false,"station_id":"SW","time":2,"distance":1149,"i_long":106.827103,"station_name":"Sawah Besar","is_transit":false,"i_lat":-6.160725,"line":2},{"station_name":"Manggabesar","i_lat":-6.149769,"transit":false,"station_id":"MGB","is_transit":false,"distance":906,"line":2,"time":2,"i_long":106.82482},{"i_long":106.820901,"transit":false,"is_transit":false,"station_id":"JAY","station_name":"Jayakarta","distance":1080,"time":2,"i_lat":-6.141205,"line":2},{"station_name":"Jakarta Kota","time":4,"transit":true,"i_lat":-6.137569,"i_long":106.812439,"line":2,"is_transit":true,"distance":1264,"station_id":"JAKK"},{"transit":false,"time":3,"is_transit":false,"distance":1364,"station_name":"Kampung Bandan","line":4,"i_lat":-6.132549,"station_id":"KPB","i_long":106.826365}],[{"station_name":"Maja","is_transit":false,"transit":false,"time":0,"i_lat":-6.332307,"i_long":106.394373,"station_id":"MJ","line":6,"distance":0},{"i_lat":-6.33561,"distance":1853,"station_id":"CKY","i_long":106.411216,"is_transit":false,"station_name":"Cikoya","time":4,"line":3,"transit":false},{"distance":2651,"transit":false,"time":3,"i_long":106.425991,"station_id":"TGS","line":6,"is_transit":false,"station_name":"Tigaraksa","i_lat":-6.328533},{"i_lat":-6.327251,"station_id":"TEJ","i_long":106.460812,"transit":false,"time":5,"is_transit":false,"station_name":"Tenjo","line":6,"distance":2974},{"i_lat":-6.338021,"is_transit":false,"transit":false,"station_id":"DAR","i_long":106.491338,"line":0,"time":5,"station_name":"Daru","distance":3902},{"is_transit":false,"i_long":106.508482,"i_lat":-6.354349,"line":3,"station_id":"CJT","time":6,"distance":2675,"transit":false,"station_name":"Cilejit"},{"time":9,"i_long":106.568863,"station_name":"Parung Panjang","i_lat":-6.3441410000000005,"is_transit":false,"line":6,"distance":7025,"station_id":"PRP","transit":false},{"time":8,"station_name":"Cicayur","is_transit":false,"station_id":"CC","transit":false,"distance":5968,"i_long":106.617853,"line":3,"i_lat":-6.329547},{"is_transit":false,"i_long":106.640411,"station_id":"CSK","line":3,"transit":false,"i_lat":-6.32484,"time":4,"station_name":"Cisauk","distance":2519},{"distance":1784,"i_long":106.66566,"station_id":"SRP","line":6,"is_transit":false,"time":4,"station_name":"Serpong","i_lat":-6.319871,"transit":false},{"i_lat":-6.314823,"transit":false,"station_name":"Rawa Buntu","is_transit":false,"i_long":106.675475,"distance":2413,"time":4,"line":6,"station_id":"RU"},{"station_name":"Sudimara","station_id":"SDM","distance":4566,"line":6,"i_lat":-6.296963,"transit":false,"time":6,"is_transit":false,"i_long":106.712277},{"station_id":"JMU","transit":false,"is_transit":false,"time":4,"distance":1994,"line":6,"station_name":"Jurangmangu","i_lat":-6.288927,"i_long":106.728916},{"is_transit":false,"time":3,"distance":2179,"i_lat":-6.276362,"line":6,"i_long":106.74273,"transit":false,"station_id":"PDJ","station_name":"Pondokranji"},{"station_name":"Kebayoran","is_transit":false,"i_long":106.780334,"transit":false,"i_lat":-6.237242,"station_id":"KBY","line":6,"time":8,"distance":6218},{"station_name":"Palmerah","distance":3737,"transit":false,"line":6,"is_transit":false,"i_long":106.79689,"time":7,"i_lat":-6.207404,"station_id":"PLM"},{"line":1,"i_lat":-6.185545,"distance":3191,"station_name":"Tanah Abang","station_id":"THB","i_long":106.811091,"time":6,"is_transit":true,"transit":true},{"line":1,"distance":2029,"station_id":"KAT","station_name":"Karet","transit":false,"is_transit":false,"i_lat":-6.20132,"time":5,"i_long":106.816351},{"is_transit":false,"transit":false,"i_long":106.819881,"station_id":"SUDB","distance":471,"i_lat":-6.201433,"line":1,"station_name":"Sudirman Baru","time":1},{"distance":280,"i_long":106.822649,"i_lat":-6.202263,"station_id":"SUD","is_transit":false,"time":1,"line":1,"transit":false,"station_name":"Sudirman"},{"line":2,"transit":false,"distance":3186,"is_transit":false,"time":4,"station_name":"Manggarai","station_id":"MRI","i_lat":-6.209883,"i_long":106.84912},{"station_id":"MTR","line":1,"transit":false,"is_transit":false,"time":2,"station_name":"Matraman","distance":1275,"i_long":106.858896,"i_lat":-6.212485},{"i_long":106.86807400000001,"line":1,"i_lat":-6.215091,"is_transit":true,"transit":true,"station_id":"JNG","station_name":"Jatinegara","distance":1377,"time":8},{"time":2,"transit":false,"distance":1236,"line":11,"is_transit":false,"station_name":"Pondok Jati","station_id":"POK","i_lat":-6.209188,"i_long":106.861737},{"station_name":"Kramat","distance":1829,"line":11,"time":2,"is_transit":false,"station_id":"KMT","i_long":106.855437,"transit":false,"i_lat":-6.193792},{"is_transit":false,"distance":973,"station_id":"GST","transit":false,"line":11,"i_lat":-6.185975,"time":1,"i_long":106.850107,"station_name":"Gang Sentiong"},{"time":8,"i_lat":-6.174784,"distance":1567,"is_transit":false,"i_long":106.84368,"line":11,"transit":false,"station_id":"PSE","station_name":"Pasar Senen"},{"station_name":"Kemayoran","i_long":106.839204,"line":11,"distance":1436,"transit":false,"i_lat":-6.161728,"time":4,"station_id":"KMO","is_transit":false},{"transit":false,"distance":1901,"station_id":"RJW","i_long":106.836569,"is_transit":false,"i_lat":-6.14505,"line":11,"time":5,"station_name":"Rajawali"},{"transit":false,"station_name":"Kampung Bandan","time":3,"line":4,"is_transit":false,"distance":1444,"i_lat":-6.132549,"i_long":106.826365,"station_id":"KPB"}]]}