{"data":[[{"station_name":"Maja","transit":false,"is_transit":false,"station_id":"MJ","i_lat":-6.332307,"i_long":106.394373,"time":0,"line":6,"distance":0},{"distance":1853,"i_long":106.411216,"transit":false,"is_transit":false,"station_id":"CKY","line":0,"station_name":"Cikoya","i_lat":-6.33561,"time":4},{"line":6,"station_name":"Tigaraksa","time":3,"distance":2651,"transit":false,"station_id":"TGS","i_long":106.425991,"is_transit":false,"i_lat":-6.328533},{"line":6,"i_long":106.460812,"i_lat":-6.327251,"station_name":"Tenjo","time":5,"station_id":"TEJ","distance":2974,"transit":false,"is_transit":false},{"time":5,"is_transit":false,"station_name":"Daru","transit":false,"station_id":"DAR","i_lat":-6.338021,"i_long":106.491338,"distance":3902,"line":0},{"station_id":"CJT","i_long":106.508482,"line":0,"transit":false,"time":6,"station_name":"Cilejit","is_transit":false,"distance":2675,"i_lat":-6.354349},{"i_long":106.568863,"distance":7025,"line":6,"station_name":"Parung Panjang","is_transit":false,"transit":false,"i_lat":-6.3441410000000005,"time":9,"station_id":"PRP"},{"i_lat":-6.329547,"transit":false,"line":0,"station_id":"CC","distance":5968,"station_name":"Cicayur","is_transit":false,"i_long":106.617853,"time":8},{"i_lat":-6.32484,"is_transit":false,"line":0,"i_long":106.640411,"station_name":"Cisauk","distance":2519,"station_id":"CSK","time":4,"transit":false},{"station_name":"Serpong","time":4,"transit":false,"i_long":106.66566,"i_lat":-6.319871,"is_transit":false,"line":6,"distance":1784,"station_id":"SRP"},{"i_long":106.675475,"i_lat":-6.314823,"is_transit":false,"time":4,"distance":2413,"station_id":"RU","line":6,"transit":false,"station_name":"Rawa Buntu"},{"transit":false,"distance":4566,"i_lat":-6.296963,"line":6,"i_long":106.712277,"station_name":"Sudimara","is_transit":false,"time":6,"station_id":"SDM"},{"time":4,"station_name":"Jurangmangu","line":6,"is_transit":false,"i_long":106.728916,"station_id":"JMU","transit":false,"distance":1994,"i_lat":-6.288927},{"distance":2179,"transit":false,"station_id":"PDJ","i_long":106.74273,"line":6,"station_name":"Pondokranji","i_lat":-6.276362,"time":3,"is_transit":false},{"distance":6218,"transit":false,"is_transit":false,"line":6,"time":8,"station_name":"Kebayoran","station_id":"KBY","i_lat":-6.237242,"i_long":106.780334},{"transit":false,"i_long":106.79689,"is_transit":false,"station_id":"PLM","line":6,"station_name":"Palmerah","time":7,"i_lat":-6.207404,"distance":3737},{"transit":true,"distance":3191,"is_transit":true,"i_lat":-6.185545,"station_id":"THB","station_name":"Tanah Abang","line":1,"i_long":106.811091,"time":6},{"i_long":106.800832,"line":1,"distance":3632,"time":8,"is_transit":true,"station_name":"Duri","station_id":"DU","i_lat":-6.155215,"transit":true},{"distance":1230,"is_transit":false,"station_name":"Angke","time":4,"transit":false,"line":0,"i_long":106.79867,"i_lat":-6.144674,"station_id":"AK"},{"transit":false,"station_id":"KPB","is_transit":true,"time":9,"i_long":106.826365,"i_lat":-6.132549,"distance":4102,"station_name":"Kampung Bandan","line":0}],[{"transit":false,"station_name":"Maja","distance":0,"i_long":106.394373,"is_transit":false,"line":6,"station_id":"MJ","time":0,"i_lat":-6.332307},{"station_id":"CKY","station_name":"Cikoya","i_lat":-6.33561,"distance":1853,"time":4,"transit":false,"is_transit":false,"i_long":106.411216,"line":0},{"time":3,"i_lat":-6.328533,"distance":2651,"line":6,"transit":false,"station_id":"TGS","is_transit":false,"i_long":106.425991,"station_name":"Tigaraksa"},{"i_lat":-6.327251,"transit":false,"station_id":"TEJ","i_long":106.460812,"distance":2974,"time":5,"line":6,"station_name":"Tenjo","is_transit":false},{"i_long":106.491338,"distance":3902,"is_transit":false,"station_name":"Daru","transit":false,"time":5,"station_id":"DAR","i_lat":-6.338021,"line":0},{"station_name":"Cilejit","time":6,"transit":false,"i_lat":-6.354349,"i_long":106.508482,"line":0,"distance":2675,"is_transit":false,"station_id":"CJT"},{"time":9,"transit":false,"is_transit":false,"i_lat":-6.3441410000000005,"i_long":106.568863,"line":6,"distance":7025,"station_id":"PRP","station_name":"Parung Panjang"},{"station_id":"CC","distance":5968,"is_transit":false,"time":8,"i_lat":-6.329547,"line":0,"i_long":106.617853,"station_name":"Cicayur","transit":false},{"line":0,"station_id":"CSK","i_lat":-6.32484,"station_name":"Cisauk","time":4,"i_long":106.640411,"distance":2519,"transit":false,"is_transit":false},{"i_lat":-6.319871,"i_long":106.66566,"transit":false,"time":4,"line":6,"station_name":"Serpong","distance":1784,"is_transit":false,"station_id":"SRP"},{"is_transit":false,"line":6,"i_lat":-6.314823,"station_name":"Rawa Buntu","i_long":106.675475,"transit":false,"station_id":"RU","distance":2413,"time":4},{"transit":false,"i_long":106.712277,"line":6,"time":6,"station_id":"SDM","i_lat":-6.296963,"station_name":"Sudimara","is_transit":false,"distance":4566},{"time":4,"i_long":106.728916,"distance":1994,"station_name":"Jurangmangu","line":6,"station_id":"JMU","i_lat":-6.288927,"transit":false,"is_transit":false},{"station_name":"Pondokranji","i_lat":-6.276362,"station_id":"PDJ","is_transit":false,"i_long":106.74273,"time":3,"distance":2179,"transit":false,"line":6},{"distance":6218,"i_lat":-6.237242,"i_long":106.780334,"station_id":"KBY","station_name":"Kebayoran","transit":false,"line":6,"is_transit":false,"time":8},{"i_lat":-6.207404,"time":7,"station_name":"Palmerah","i_long":106.79689,"distance":3737,"transit":false,"station_id":"PLM","line":6,"is_transit":false},{"i_lat":-6.185545,"transit":true,"i_long":106.811091,"time":6,"line":1,"distance":3191,"station_id":"THB","is_transit":true,"station_name":"Tanah Abang"},{"distance":2029,"time":5,"transit":false,"is_transit":false,"station_id":"KAT","i_long":106.816351,"line":1,"i_lat":-6.20132,"station_name":"Karet"},{"i_long":106.819881,"time":1,"station_name":"Sudirman Baru","line":1,"station_id":"SUDB","is_transit":false,"distance":471,"transit":false,"i_lat":-6.201433},{"station_name":"Sudirman","transit":false,"i_long":106.822649,"line":1,"distance":280,"is_transit":false,"time":1,"i_lat":-6.202263,"station_id":"SUD"},{"station_id":"MRI","line":0,"transit":true,"i_lat":-6.209883,"station_name":"Manggarai","is_transit":true,"time":4,"i_long":106.84912,"distance":3186},{"transit":false,"i_lat":-6.198556,"distance":1590,"station_name":"Cikini","i_long":106.840169,"line":0,"station_id":"CKI","is_transit":false,"time":4},{"is_transit":false,"line":2,"distance":1750,"station_name":"Gondangdia","i_lat":-6.186295,"time":3,"transit":false,"i_long":106.832183,"station_id":"GDD"},{"i_long":106.828284,"line":2,"time":4,"is_transit":false,"i_lat":-6.166716,"station_name":"Juanda","station_id":"JUA","distance":2015,"transit":false},{"time":2,"station_name":"Sawah Besar","transit":false,"line":2,"is_transit":false,"i_long":106.827103,"i_lat":-6.160725,"distance":1149,"station_id":"SW"},{"i_long":106.82482,"time":2,"distance":906,"station_id":"MGB","transit":false,"is_transit":false,"station_name":"Manggabesar","i_lat":-6.149769,"line":2},{"time":2,"line":7,"i_long":106.820901,"distance":1080,"i_lat":-6.141205,"transit":false,"station_name":"Jayakarta","is_transit":false,"station_id":"JAY"},{"time":4,"distance":1264,"line":0,"station_name":"Jakarta Kota","transit":true,"station_id":"JAKK","i_lat":-6.137569,"is_transit":true,"i_long":106.812439},{"distance":1364,"i_lat":-6.132549,"station_name":"Kampung Bandan","line":0,"i_long":106.826365,"transit":false,"station_id":"KPB","is_transit":true,"time":3}],[{"is_transit":false,"i_long":106.394373,"transit":false,"line":6,"station_id":"MJ","time":0,"station_name":"Maja","distance":0,"i_lat":-6.332307},{"line":0,"distance":1853,"station_name":"Cikoya","transit":false,"is_transit":false,"i_long":106.411216,"station_id":"CKY","time":4,"i_lat":-6.33561},{"i_long":106.425991,"station_name":"Tigaraksa","i_lat":-6.328533,"distance":2651,"time":3,"line":6,"transit":false,"is_transit":false,"station_id":"TGS"},{"is_transit":false,"distance":2974,"transit":false,"i_lat":-6.327251,"i_long":106.460812,"station_name":"Tenjo","station_id":"TEJ","time":5,"line":6},{"time":5,"line":0,"i_lat":-6.338021,"i_long":106.491338,"station_id":"DAR","transit":false,"is_transit":false,"distance":3902,"station_name":"Daru"},{"is_transit":false,"i_lat":-6.354349,"station_id":"CJT","transit":false,"i_long":106.508482,"distance":2675,"time":6,"station_name":"Cilejit","line":0},{"i_lat":-6.3441410000000005,"station_id":"PRP","station_name":"Parung Panjang","line":6,"is_transit":false,"transit":false,"distance":7025,"time":9,"i_long":106.568863},{"line":0,"station_id":"CC","i_lat":-6.329547,"distance":5968,"i_long":106.617853,"time":8,"transit":false,"is_transit":false,"station_name":"Cicayur"},{"transit":false,"i_lat":-6.32484,"distance":2519,"i_long":106.640411,"station_id":"CSK","line":0,"time":4,"station_name":"Cisauk","is_transit":false},{"station_id":"SRP","is_transit":false,"i_lat":-6.319871,"i_long":106.66566,"distance":1784,"time":4,"station_name":"Serpong","transit":false,"line":6},{"station_id":"RU","distance":2413,"line":6,"i_long":106.675475,"time":4,"i_lat":-6.314823,"transit":false,"station_name":"Rawa Buntu","is_transit":false},{"distance":4566,"station_id":"SDM","time":6,"station_name":"Sudimara","line":6,"i_long":106.712277,"i_lat":-6.296963,"transit":false,"is_transit":false},{"is_transit":false,"i_long":106.728916,"line":6,"transit":false,"i_lat":-6.288927,"station_id":"JMU","time":4,"distance":1994,"station_name":"Jurangmangu"},{"i_lat":-6.276362,"line":6,"i_long":106.74273,"station_name":"Pondokranji","is_transit":false,"time":3,"distance":2179,"transit":false,"station_id":"PDJ"},{"transit":false,"station_id":"KBY","time":8,"i_long":106.780334,"line":6,"distance":6218,"i_lat":-6.237242,"is_transit":false,"station_name":"Kebayoran"},{"i_lat":-6.207404,"station_id":"PLM","i_long":106.79689,"transit":false,"time":7,"distance":3737,"station_name":"Palmerah","line":6,"is_transit":false},{"transit":true,"i_lat":-6.185545,"is_transit":true,"station_id":"THB","time":6,"station_name":"Tanah Abang","i_long":106.811091,"distance":3191,"line":1},{"station_id":"KAT","is_transit":false,"transit":false,"distance":2029,"station_name":"Karet","time":5,"i_lat":-6.20132,"i_long":106.816351,"line":1},{"time":1,"line":1,"distance":471,"i_long":106.819881,"transit":false,"i_lat":-6.201433,"station_name":"Sudirman Baru","is_transit":false,"station_id":"SUDB"},{"transit":false,"is_transit":false,"station_id":"SUD","i_lat":-6.202263,"i_long":106.822649,"distance":280,"line":1,"station_name":"Sudirman","time":1},{"distance":3186,"transit":false,"i_lat":-6.209883,"line":0,"is_transit":true,"station_id":"MRI","i_long":106.84912,"station_name":"Manggarai","time":4},{"station_id":"MTR","line":1,"distance":1275,"i_long":106.858896,"is_transit":false,"i_lat":-6.212485,"transit":false,"time":2,"station_name":"Matraman"},{"time":8,"distance":1377,"line":0,"i_lat":-6.215091,"i_long":106.86807400000001,"station_name":"Jatinegara","is_transit":true,"transit":true,"station_id":"JNG"},{"is_transit":false,"distance":1236,"transit":false,"i_lat":-6.209188,"i_long":106.861737,"line":11,"station_id":"POK","station_name":"Pondok Jati","time":2},{"i_lat":-6.193792,"station_id":"KMT","station_name":"Kramat","line":11,"i_long":106.855437,"distance":1829,"time":2,"is_transit":false,"transit":false},{"i_lat":-6.185975,"transit":false,"line":11,"distance":973,"i_long":106.850107,"station_id":"GST","station_name":"Gang Sentiong","is_transit":false,"time":1},{"station_id":"PSE","i_long":106.84368,"distance":1567,"station_name":"Pasar Senen","is_transit":false,"line":11,"time":8,"i_lat":-6.174784,"transit":false},{"i_lat":-6.161728,"distance":1436,"station_name":"Kemayoran","is_transit":false,"station_id":"KMO","transit":false,"line":11,"i_long":106.839204,"time":4},{"line":11,"i_long":106.836569,"i_lat":-6.14505,"station_name":"Rajawali","transit":false,"is_transit":false,"station_id":"RJW","distance":1901,"time":5},{"i_long":106.826365,"line":0,"station_name":"Kampung Bandan","i_lat":-6.132549,"distance":1444,"transit":false,"is_transit":true,"station_id":"KPB","time":3}]]}