{"data":[[{"is_transit":false,"station_id":"MJ","time":0,"line":6,"distance":0,"station_name":"Maja","transit":false,"i_lat":-6.332307,"i_long":106.394373},{"station_name":"Cikoya","station_id":"CKY","distance":1853,"is_transit":false,"time":4,"i_lat":-6.33561,"i_long":106.411216,"line":3,"transit":false},{"distance":2651,"is_transit":false,"time":3,"i_lat":-6.328533,"i_long":106.425991,"line":6,"station_id":"TGS","transit":false,"station_name":"Tigaraksa"},{"is_transit":false,"i_long":106.460812,"transit":false,"station_id":"TEJ","time":5,"station_name":"Tenjo","i_lat":-6.327251,"line":6,"distance":2974},{"transit":false,"is_transit":false,"line":0,"station_name":"Daru","time":5,"i_long":106.491338,"distance":3902,"station_id":"DAR","i_lat":-6.338021},{"is_transit":false,"station_id":"CJT","distance":2675,"time":6,"i_long":106.508482,"transit":false,"line":3,"station_name":"Cilejit","i_lat":-6.354349},{"time":9,"i_lat":-6.3441410000000005,"station_id":"PRP","i_long":106.568863,"station_name":"Parung Panjang","transit":false,"line":6,"is_transit":false,"distance":7025},{"station_id":"CC","is_transit":false,"station_name":"Cicayur","i_lat":-6.329547,"distance":5968,"time":8,"i_long":106.617853,"transit":false,"line":3},{"transit":false,"distance":2519,"time":4,"is_transit":false,"line":3,"i_lat":-6.32484,"station_name":"Cisauk","i_long":106.640411,"station_id":"CSK"},{"time":4,"i_lat":-6.319871,"line":6,"station_name":"Serpong","transit":false,"is_transit":false,"station_id":"SRP","i_long":106.66566,"distance":1784},{"transit":false,"line":6,"time":4,"i_lat":-6.314823,"i_long":106.675475,"station_id":"RU","station_name":"Rawa Buntu","distance":2413,"is_transit":false},{"station_id":"SDM","station_name":"Sudimara","i_lat":-6.296963,"i_long":106.712277,"line":6,"is_transit":false,"transit":false,"distance":4566,"time":6},{"transit":false,"station_name":"Jurangmangu","distance":1994,"is_transit":false,"time":4,"i_lat":-6.288927,"i_long":106.728916,"line":6,"station_id":"JMU"},{"i_long":106.74273,"station_id":"PDJ","distance":2179,"station_name":"Pondokranji","is_transit":false,"i_lat":-6.276362,"line":6,"transit":false,"time":3},{"time":8,"transit":false,"is_transit":false,"station_name":"Kebayoran","i_long":106.780334,"line":6,"station_id":"KBY","i_lat":-6.237242,"distance":6218},{"is_transit":false,"i_lat":-6.207404,"i_long":106.79689,"transit":false,"line":6,"station_name":"Palmerah","station_id":"PLM","time":7,"distance":3737},{"distance":3191,"i_long":106.811091,"line":1,"station_id":"THB","station_name":"Tanah Abang","is_transit":true,"time":6,"transit":true,"i_lat":-6.185545},{"i_long":106.816351,"transit":false,"line":1,"station_id":"KAT","distance":2029,"time":5,"is_transit":false,"station_name":"Karet","i_lat":-6.20132},{"is_transit":false,"transit":false,"i_lat":-6.201433,"line":1,"station_name":"Sudirman Baru","distance":471,"time":1,"station_id":"SUDB","i_long":106.819881},{"is_transit":false,"distance":280,"station_id":"SUD","i_lat":-6.202263,"transit":false,"i_long":106.822649,"line":1,"station_name":"Sudirman","time":1},{"i_lat":-6.209883,"station_name":"Manggarai","transit":false,"i_long":106.84912,"is_transit":false,"line":2,"distance":3186,"station_id":"MRI","time":4},{"is_transit":false,"line":1,"time":2,"station_id":"MTR","station_name":"Matraman","distance":1275,"transit":false,"i_lat":-6.212485,"i_long":106.858896},{"line":1,"transit":false,"i_long":106.86807400000001,"distance":1377,"i_lat":-6.215091,"is_transit":false,"station_name":"Jatinegara","time":8,"station_id":"JNG"},{"i_lat":-6.2135,"line":1,"station_id":"KLD","is_transit":false,"transit":false,"distance":3395,"time":3,"i_long":106.899548,"station_name":"Klender"}],[{"transit":false,"line":6,"station_id":"MJ","time":0,"i_long":106.394373,"is_transit":false,"i_lat":-6.332307,"distance":0,"station_name":"Maja"},{"is_transit":false,"i_lat":-6.33561,"station_id":"CKY","line":3,"distance":1853,"time":4,"station_name":"Cikoya","transit":false,"i_long":106.411216},{"transit":false,"i_lat":-6.328533,"time":3,"station_id":"TGS","station_name":"Tigaraksa","is_transit":false,"line":6,"i_long":106.425991,"distance":2651},{"is_transit":false,"i_lat":-6.327251,"station_name":"Tenjo","i_long":106.460812,"line":6,"time":5,"transit":false,"station_id":"TEJ","distance":2974},{"distance":3902,"station_name":"Daru","line":0,"time":5,"station_id":"DAR","i_lat":-6.338021,"i_long":106.491338,"transit":false,"is_transit":false},{"transit":false,"distance":2675,"time":6,"station_name":"Cilejit","i_lat":-6.354349,"is_transit":false,"i_long":106.508482,"line":3,"station_id":"CJT"},{"i_lat":-6.3441410000000005,"station_name":"Parung Panjang","station_id":"PRP","transit":false,"is_transit":false,"i_long":106.568863,"time":9,"distance":7025,"line":6},{"distance":5968,"i_lat":-6.329547,"transit":false,"time":8,"station_id":"CC","station_name":"Cicayur","i_long":106.617853,"is_transit":false,"line":3},{"i_lat":-6.32484,"station_name":"Cisauk","is_transit":false,"station_id":"CSK","transit":false,"i_long":106.640411,"time":4,"line":3,"distance":2519},{"station_name":"Serpong","station_id":"SRP","i_lat":-6.319871,"i_long":106.66566,"time":4,"line":6,"is_transit":false,"distance":1784,"transit":false},{"distance":2413,"station_name":"Rawa Buntu","transit":false,"line":6,"time":4,"station_id":"RU","i_lat":-6.314823,"i_long":106.675475,"is_transit":false},{"i_lat":-6.296963,"station_name":"Sudimara","time":6,"station_id":"SDM","transit":false,"is_transit":false,"distance":4566,"i_long":106.712277,"line":6},{"i_lat":-6.288927,"line":6,"station_name":"Jurangmangu","station_id":"JMU","distance":1994,"is_transit":false,"transit":false,"time":4,"i_long":106.728916},{"line":6,"i_long":106.74273,"transit":false,"distance":2179,"station_id":"PDJ","station_name":"Pondokranji","time":3,"is_transit":false,"i_lat":-6.276362},{"i_long":106.780334,"i_lat":-6.237242,"line":6,"is_transit":false,"time":8,"station_id":"KBY","distance":6218,"station_name":"Kebayoran","transit":false},{"station_id":"PLM","i_long":106.79689,"transit":false,"distance":3737,"time":7,"line":6,"station_name":"Palmerah","is_transit":false,"i_lat":-6.207404},{"station_name":"Tanah Abang","line":1,"station_id":"THB","distance":3191,"is_transit":true,"transit":true,"time":6,"i_lat":-6.185545,"i_long":106.811091},{"time":8,"i_lat":-6.155215,"distance":3632,"transit":false,"station_name":"Duri","i_long":106.800832,"line":1,"station_id":"DU","is_transit":false},{"is_transit":false,"i_lat":-6.144674,"station_id":"AK","transit":false,"station_name":"Angke","distance":1230,"i_long":106.79867,"line":1,"time":4},{"time":9,"station_id":"KPB","i_lat":-6.132549,"is_transit":true,"line":4,"i_long":106.826365,"distance":4102,"transit":true,"station_name":"Kampung Bandan"},{"is_transit":false,"i_lat":-6.14505,"i_long":106.836569,"distance":1444,"station_name":"Rajawali","transit":false,"time":3,"station_id":"RJW","line":11},{"time":5,"i_long":106.839204,"line":11,"is_transit":false,"distance":1901,"transit":false,"i_lat":-6.161728,"station_id":"KMO","station_name":"Kemayoran"},{"station_id":"PSE","station_name":"Pasar Senen","time":4,"is_transit":false,"i_lat":-6.174784,"line":11,"i_long":106.84368,"transit":false,"distance":1436},{"line":11,"i_lat":-6.185975,"time":8,"transit":false,"distance":1567,"station_name":"Gang Sentiong","is_transit":false,"i_long":106.850107,"station_id":"GST"},{"i_long":106.855437,"station_name":"Kramat","transit":false,"line":11,"time":1,"distance":973,"station_id":"KMT","is_transit":false,"i_lat":-6.193792},{"transit":false,"is_transit":false,"distance":1829,"station_id":"POK","i_lat":-6.209188,"time":2,"i_long":106.861737,"line":11,"station_name":"Pondok Jati"},{"i_lat":-6.215091,"distance":1236,"time":9,"i_long":106.86807400000001,"line":1,"station_id":"JNG","is_transit":true,"station_name":"Jatinegara","transit":true},{"line":1,"distance":3395,"station_name":"Klender","station_id":"KLD","time":3,"transit":false,"i_long":106.899548,"is_transit":false,"i_lat":-6.2135}],[{"distance":0,"is_transit":false,"transit":false,"i_long":106.394373,"station_name":"Maja","time":0,"line":6,"i_lat":-6.332307,"station_id":"MJ"},{"station_name":"Cikoya","station_id":"CKY","distance":1853,"i_long":106.411216,"i_lat":-6.33561,"time":4,"transit":false,"is_transit":false,"line":3},{"is_transit":false,"time":3,"line":6,"distance":2651,"i_long":106.425991,"station_name":"Tigaraksa","i_lat":-6.328533,"transit":false,"station_id":"TGS"},{"transit":false,"station_name":"Tenjo","time":5,"station_id":"TEJ","i_lat":-6.327251,"i_long":106.460812,"is_transit":false,"line":6,"distance":2974},{"line":0,"station_id":"DAR","time":5,"distance":3902,"i_lat":-6.338021,"transit":false,"i_long":106.491338,"is_transit":false,"station_name":"Daru"},{"station_name":"Cilejit","station_id":"CJT","line":3,"time":6,"i_long":106.508482,"distance":2675,"transit":false,"is_transit":false,"i_lat":-6.354349},{"i_long":106.568863,"station_name":"Parung Panjang","line":6,"is_transit":false,"transit":false,"i_lat":-6.3441410000000005,"station_id":"PRP","time":9,"distance":7025},{"i_long":106.617853,"transit":false,"distance":5968,"time":8,"station_name":"Cicayur","is_transit":false,"i_lat":-6.329547,"station_id":"CC","line":3},{"line":3,"time":4,"i_lat":-6.32484,"i_long":106.640411,"station_name":"Cisauk","station_id":"CSK","transit":false,"distance":2519,"is_transit":false},{"i_long":106.66566,"station_id":"SRP","time":4,"distance":1784,"station_name":"Serpong","transit":false,"i_lat":-6.319871,"line":6,"is_transit":false},{"time":4,"station_id":"RU","i_long":106.675475,"line":6,"i_lat":-6.314823,"is_transit":false,"station_name":"Rawa Buntu","transit":false,"distance":2413},{"station_name":"Sudimara","i_lat":-6.296963,"i_long":106.712277,"time":6,"is_transit":false,"line":6,"transit":false,"distance":4566,"station_id":"SDM"},{"time":4,"station_name":"Jurangmangu","is_transit":false,"i_lat":-6.288927,"line":6,"i_long":106.728916,"transit":false,"distance":1994,"station_id":"JMU"},{"i_long":106.74273,"transit":false,"line":6,"time":3,"distance":2179,"is_transit":false,"station_name":"Pondokranji","i_lat":-6.276362,"station_id":"PDJ"},{"distance":6218,"i_long":106.780334,"is_transit":false,"line":6,"station_name":"Kebayoran","transit":false,"station_id":"KBY","time":8,"i_lat":-6.237242},{"time":7,"distance":3737,"is_transit":false,"station_id":"PLM","station_name":"Palmerah","i_lat":-6.207404,"line":6,"transit":false,"i_long":106.79689},{"time":6,"i_lat":-6.185545,"distance":3191,"transit":true,"is_transit":true,"line":1,"station_name":"Tanah Abang","station_id":"THB","i_long":106.811091},{"station_name":"Duri","is_transit":false,"distance":3632,"time":8,"i_lat":-6.155215,"i_long":106.800832,"line":1,"transit":false,"station_id":"DU"},{"i_long":106.79867,"station_name":"Angke","transit":false,"distance":1230,"i_lat":-6.144674,"station_id":"AK","line":1,"is_transit":false,"time":4},{"is_transit":true,"i_long":106.826365,"line":4,"time":9,"distance":4102,"transit":true,"i_lat":-6.132549,"station_id":"KPB","station_name":"Kampung Bandan"},{"distance":1364,"station_id":"JAKK","time":3,"i_lat":-6.137569,"station_name":"Jakarta Kota","i_long":106.812439,"is_transit":true,"line":2,"transit":true},{"is_transit":false,"line":2,"transit":false,"distance":1264,"station_name":"Jayakarta","i_lat":-6.141205,"i_long":106.820901,"time":4,"station_id":"JAY"},{"i_lat":-6.149769,"i_long":106.82482,"station_id":"MGB","time":2,"distance":1080,"line":2,"station_name":"Manggabesar","transit":false,"is_transit":false},{"is_transit":false,"station_name":"Sawah Besar","transit":false,"line":2,"i_lat":-6.160725,"distance":906,"i_long":106.827103,"station_id":"SW","time":2},{"line":2,"station_id":"JUA","station_name":"Juanda","is_transit":false,"transit":false,"distance":1149,"i_lat":-6.166716,"time":2,"i_long":106.828284},{"i_lat":-6.186295,"distance":2015,"time":4,"station_id":"GDD","i_long":106.832183,"line":2,"station_name":"Gondangdia","is_transit":false,"transit":false},{"i_long":106.840169,"station_name":"Cikini","transit":false,"line":2,"station_id":"CKI","is_transit":false,"i_lat":-6.198556,"distance":1750,"time":3},{"station_name":"Manggarai","is_transit":true,"station_id":"MRI","distance":1590,"time":4,"i_lat":-6.209883,"line":2,"transit":true,"i_long":106.84912},{"station_id":"MTR","line":1,"distance":1275,"time":2,"is_transit":false,"station_name":"Matraman","i_lat":-6.212485,"transit":false,"i_long":106.858896},{"distance":1377,"line":1,"time":8,"transit":false,"station_id":"JNG","i_lat":-6.215091,"i_long":106.86807400000001,"station_name":"Jatinegara","is_transit":false},{"i_long":106.899548,"station_id":"KLD","time":3,"station_name":"Klender","distance":3395,"transit":false,"line":1,"is_transit":false,"i_lat":-6.2135}],[{"transit":false,"station_id":"MJ","distance":0,"is_transit":false,"i_long":106.394373,"line":6,"station_name":"Maja","i_lat":-6.332307,"time":0},{"i_long":106.411216,"station_name":"Cikoya","line":3,"is_transit":false,"distance":1853,"transit":false,"station_id":"CKY","i_lat":-6.33561,"time":4},{"station_id":"TGS","station_name":"Tigaraksa","distance":2651,"transit":false,"i_long":106.425991,"time":3,"line":6,"is_transit":false,"i_lat":-6.328533},{"time":5,"distance":2974,"station_id":"TEJ","i_lat":-6.327251,"i_long":106.460812,"is_transit":false,"line":6,"station_name":"Tenjo","transit":false},{"station_id":"DAR","station_name":"Daru","transit":false,"time":5,"distance":3902,"i_lat":-6.338021,"i_long":106.491338,"line":0,"is_transit":false},{"line":3,"station_id":"CJT","station_name":"Cilejit","transit":false,"time":6,"distance":2675,"is_transit":false,"i_long":106.508482,"i_lat":-6.354349},{"time":9,"station_name":"Parung Panjang","line":6,"i_lat":-6.3441410000000005,"station_id":"PRP","transit":false,"i_long":106.568863,"is_transit":false,"distance":7025},{"is_transit":false,"time":8,"i_lat":-6.329547,"i_long":106.617853,"distance":5968,"line":3,"station_name":"Cicayur","transit":false,"station_id":"CC"},{"i_lat":-6.32484,"i_long":106.640411,"transit":false,"time":4,"distance":2519,"is_transit":false,"station_id":"CSK","line":3,"station_name":"Cisauk"},{"station_name":"Serpong","i_long":106.66566,"station_id":"SRP","is_transit":false,"i_lat":-6.319871,"distance":1784,"time":4,"line":6,"transit":false},{"is_transit":false,"station_id":"RU","time":4,"i_long":106.675475,"line":6,"station_name":"Rawa Buntu","transit":false,"i_lat":-6.314823,"distance":2413},{"is_transit":false,"station_id":"SDM","i_lat":-6.296963,"i_long":106.712277,"time":6,"distance":4566,"station_name":"Sudimara","transit":false,"line":6},{"station_name":"Jurangmangu","transit":false,"distance":1994,"i_long":106.728916,"time":4,"i_lat":-6.288927,"is_transit":false,"line":6,"station_id":"JMU"},{"line":6,"i_long":106.74273,"station_name":"Pondokranji","station_id":"PDJ","i_lat":-6.276362,"transit":false,"is_transit":false,"time":3,"distance":2179},{"i_long":106.780334,"is_transit":false,"i_lat":-6.237242,"line":6,"transit":false,"time":8,"station_name":"Kebayoran","distance":6218,"station_id":"KBY"},{"i_long":106.79689,"station_id":"PLM","transit":false,"distance":3737,"time":7,"line":6,"i_lat":-6.207404,"is_transit":false,"station_name":"Palmerah"},{"is_transit":true,"station_name":"Tanah Abang","time":6,"i_lat":-6.185545,"i_long":106.811091,"station_id":"THB","transit":true,"distance":3191,"line":1},{"i_long":106.816351,"is_transit":false,"station_id":"KAT","i_lat":-6.20132,"distance":2029,"time":5,"station_name":"Karet","transit":false,"line":1},{"station_name":"Sudirman Baru","distance":471,"transit":false,"time":1,"is_transit":false,"i_lat":-6.201433,"i_long":106.819881,"station_id":"SUDB","line":1},{"is_transit":false,"distance":280,"transit":false,"station_name":"Sudirman","i_long":106.822649,"i_lat":-6.202263,"line":1,"time":1,"station_id":"SUD"},{"i_lat":-6.209883,"station_id":"MRI","i_long":106.84912,"transit":true,"is_transit":true,"time":4,"distance":3186,"line":2,"station_name":"Manggarai"},{"i_long":106.840169,"station_name":"Cikini","is_transit":false,"distance":1590,"station_id":"CKI","i_lat":-6.198556,"transit":false,"time":4,"line":2},{"i_lat":-6.186295,"is_transit":false,"i_long":106.832183,"station_id":"GDD","distance":1750,"line":2,"time":3,"transit":false,"station_name":"Gondangdia"},{"distance":2015,"is_transit":false,"time":4,"line":2,"transit":false,"i_long":106.828284,"station_name":"Juanda","i_lat":-6.166716,"station_id":"JUA"},{"station_id":"SW","time":2,"station_name":"Sawah Besar","distance":1149,"i_lat":-6.160725,"is_transit":false,"transit":false,"i_long":106.827103,"line":2},{"i_lat":-6.149769,"transit":false,"line":2,"station_name":"Manggabesar","distance":906,"station_id":"MGB","is_transit":false,"time":2,"i_long":106.82482},{"is_transit":false,"station_id":"JAY","time":2,"station_name":"Jayakarta","i_long":106.820901,"distance":1080,"i_lat":-6.141205,"line":2,"transit":false},{"distance":1264,"time":4,"is_transit":true,"station_name":"Jakarta Kota","i_long":106.812439,"transit":true,"station_id":"JAKK","i_lat":-6.137569,"line":2},{"line":4,"station_name":"Kampung Bandan","distance":1364,"i_lat":-6.132549,"is_transit":true,"time":3,"i_long":106.826365,"station_id":"KPB","transit":true},{"i_long":106.836569,"transit":false,"line":11,"i_lat":-6.14505,"time":3,"is_transit":false,"station_name":"Rajawali","station_id":"RJW","distance":1444},{"i_long":106.839204,"is_transit":false,"time":5,"transit":false,"i_lat":-6.161728,"line":11,"station_id":"KMO","station_name":"Kemayoran","distance":1901},{"distance":1436,"i_long":106.84368,"line":11,"station_id":"PSE","station_name":"Pasar Senen","transit":false,"i_lat":-6.174784,"time":4,"is_transit":false},{"i_lat":-6.185975,"line":11,"station_id":"GST","time":8,"is_transit":false,"station_name":"Gang Sentiong","distance":1567,"i_long":106.850107,"transit":false},{"is_transit":false,"transit":false,"i_long":106.855437,"line":11,"time":1,"i_lat":-6.193792,"station_name":"Kramat","distance":973,"station_id":"KMT"},{"distance":1829,"station_id":"POK","time":2,"line":11,"is_transit":false,"i_lat":-6.209188,"i_long":106.861737,"transit":false,"station_name":"Pondok Jati"},{"station_id":"JNG","i_long":106.86807400000001,"is_transit":true,"time":9,"i_lat":-6.215091,"distance":1236,"transit":true,"station_name":"Jatinegara","line":1},{"i_lat":-6.2135,"line":1,"station_id":"KLD","is_transit":false,"station_name":"Klender","i_long":106.899548,"distance":3395,"time":3,"transit":false}]]}