{"data":[[{"i_lat":-6.332307,"i_long":106.394373,"time":0,"station_name":"Maja","transit":false,"is_transit":false,"line":6,"distance":0,"station_id":"MJ"},{"i_long":106.411216,"line":3,"time":4,"station_name":"Cikoya","transit":false,"distance":1853,"station_id":"CKY","is_transit":false,"i_lat":-6.33561},{"transit":false,"i_long":106.425991,"line":6,"time":3,"i_lat":-6.328533,"is_transit":false,"distance":2651,"station_id":"TGS","station_name":"Tigaraksa"},{"time":5,"transit":false,"distance":2974,"station_id":"TEJ","is_transit":false,"i_long":106.460812,"station_name":"Tenjo","line":6,"i_lat":-6.327251},{"station_name":"Daru","station_id":"DAR","is_transit":false,"i_long":106.491338,"i_lat":-6.338021,"distance":3902,"transit":false,"line":0,"time":5},{"station_name":"Cilejit","distance":2675,"time":6,"transit":false,"is_transit":false,"i_long":106.508482,"line":3,"station_id":"CJT","i_lat":-6.354349},{"i_lat":-6.3441410000000005,"station_id":"PRP","i_long":106.568863,"is_transit":false,"line":6,"transit":false,"distance":7025,"time":9,"station_name":"Parung Panjang"},{"i_long":106.617853,"is_transit":false,"station_id":"CC","station_name":"Cicayur","distance":5968,"time":8,"transit":false,"line":3,"i_lat":-6.329547},{"line":3,"transit":false,"is_transit":false,"i_lat":-6.32484,"i_long":106.640411,"station_name":"Cisauk","distance":2519,"time":4,"station_id":"CSK"},{"transit":false,"station_name":"Serpong","i_long":106.66566,"is_transit":false,"line":6,"distance":1784,"station_id":"SRP","time":4,"i_lat":-6.319871},{"i_long":106.675475,"station_name":"Rawa Buntu","station_id":"RU","time":4,"distance":2413,"transit":false,"line":6,"i_lat":-6.314823,"is_transit":false},{"time":6,"i_lat":-6.296963,"distance":4566,"station_id":"SDM","station_name":"Sudimara","is_transit":false,"i_long":106.712277,"transit":false,"line":6},{"time":4,"line":6,"transit":false,"distance":1994,"i_long":106.728916,"station_id":"JMU","i_lat":-6.288927,"is_transit":false,"station_name":"Jurangmangu"},{"time":3,"station_name":"Pondokranji","transit":false,"distance":2179,"i_lat":-6.276362,"line":6,"station_id":"PDJ","is_transit":false,"i_long":106.74273},{"i_lat":-6.237242,"station_id":"KBY","line":6,"transit":false,"time":8,"is_transit":false,"i_long":106.780334,"station_name":"Kebayoran","distance":6218},{"station_id":"PLM","station_name":"Palmerah","i_lat":-6.207404,"line":6,"i_long":106.79689,"transit":false,"time":7,"is_transit":false,"distance":3737},{"station_id":"THB","transit":true,"line":1,"is_transit":true,"distance":3191,"time":6,"i_lat":-6.185545,"i_long":106.811091,"station_name":"Tanah Abang"},{"station_name":"Duri","is_transit":false,"i_lat":-6.155215,"time":8,"transit":false,"distance":3632,"line":1,"station_id":"DU","i_long":106.800832},{"line":1,"is_transit":false,"station_name":"Angke","distance":1230,"station_id":"AK","i_long":106.79867,"transit":false,"time":4,"i_lat":-6.144674},{"is_transit":false,"station_id":"KPB","distance":4102,"transit":false,"station_name":"Kampung Bandan","i_long":106.826365,"time":9,"line":4,"i_lat":-6.132549}],[{"is_transit":false,"line":6,"transit":false,"station_id":"MJ","i_lat":-6.332307,"i_long":106.394373,"distance":0,"time":0,"station_name":"Maja"},{"distance":1853,"line":3,"station_name":"Cikoya","station_id":"CKY","time":4,"i_long":106.411216,"transit":false,"is_transit":false,"i_lat":-6.33561},{"station_id":"TGS","line":6,"i_lat":-6.328533,"station_name":"Tigaraksa","is_transit":false,"transit":false,"i_long":106.425991,"time":3,"distance":2651},{"transit":false,"distance":2974,"i_long":106.460812,"is_transit":false,"i_lat":-6.327251,"station_name":"Tenjo","time":5,"station_id":"TEJ","line":6},{"station_name":"Daru","is_transit":false,"transit":false,"i_long":106.491338,"i_lat":-6.338021,"line":0,"distance":3902,"station_id":"DAR","time":5},{"line":3,"station_id":"CJT","station_name":"Cilejit","time":6,"is_transit":false,"i_lat":-6.354349,"i_long":106.508482,"transit":false,"distance":2675},{"distance":7025,"station_id":"PRP","i_long":106.568863,"transit":false,"time":9,"i_lat":-6.3441410000000005,"is_transit":false,"station_name":"Parung Panjang","line":6},{"distance":5968,"line":3,"station_id":"CC","i_long":106.617853,"i_lat":-6.329547,"transit":false,"station_name":"Cicayur","time":8,"is_transit":false},{"line":3,"station_id":"CSK","i_long":106.640411,"i_lat":-6.32484,"station_name":"Cisauk","is_transit":false,"distance":2519,"time":4,"transit":false},{"is_transit":false,"transit":false,"line":6,"distance":1784,"time":4,"station_id":"SRP","i_lat":-6.319871,"station_name":"Serpong","i_long":106.66566},{"is_transit":false,"i_long":106.675475,"station_name":"Rawa Buntu","line":6,"distance":2413,"station_id":"RU","time":4,"transit":false,"i_lat":-6.314823},{"is_transit":false,"transit":false,"line":6,"time":6,"i_long":106.712277,"station_name":"Sudimara","distance":4566,"station_id":"SDM","i_lat":-6.296963},{"time":4,"is_transit":false,"station_name":"Jurangmangu","i_lat":-6.288927,"i_long":106.728916,"transit":false,"distance":1994,"station_id":"JMU","line":6},{"station_id":"PDJ","is_transit":false,"line":6,"i_lat":-6.276362,"time":3,"transit":false,"i_long":106.74273,"station_name":"Pondokranji","distance":2179},{"transit":false,"station_name":"Kebayoran","line":6,"distance":6218,"i_lat":-6.237242,"time":8,"is_transit":false,"i_long":106.780334,"station_id":"KBY"},{"time":7,"is_transit":false,"i_long":106.79689,"transit":false,"line":6,"distance":3737,"station_id":"PLM","i_lat":-6.207404,"station_name":"Palmerah"},{"distance":3191,"i_long":106.811091,"station_id":"THB","i_lat":-6.185545,"line":1,"transit":true,"is_transit":true,"station_name":"Tanah Abang","time":6},{"transit":false,"station_id":"KAT","line":1,"is_transit":false,"station_name":"Karet","distance":2029,"i_long":106.816351,"i_lat":-6.20132,"time":5},{"i_lat":-6.201433,"line":1,"station_name":"Sudirman Baru","distance":471,"i_long":106.819881,"transit":false,"station_id":"SUDB","is_transit":false,"time":1},{"station_id":"SUD","i_lat":-6.202263,"distance":280,"transit":false,"time":1,"is_transit":false,"station_name":"Sudirman","i_long":106.822649,"line":1},{"time":4,"distance":3186,"station_name":"Manggarai","transit":true,"is_transit":true,"i_lat":-6.209883,"station_id":"MRI","i_long":106.84912,"line":2},{"transit":false,"is_transit":false,"i_lat":-6.198556,"line":2,"time":4,"station_id":"CKI","distance":1590,"i_long":106.840169,"station_name":"Cikini"},{"line":2,"transit":false,"time":3,"is_transit":false,"station_name":"Gondangdia","station_id":"GDD","distance":1750,"i_lat":-6.186295,"i_long":106.832183},{"distance":2015,"time":4,"is_transit":false,"station_id":"JUA","i_lat":-6.166716,"station_name":"Juanda","transit":false,"line":2,"i_long":106.828284},{"line":2,"i_long":106.827103,"transit":false,"is_transit":false,"distance":1149,"i_lat":-6.160725,"station_name":"Sawah Besar","time":2,"station_id":"SW"},{"line":2,"is_transit":false,"i_lat":-6.149769,"i_long":106.82482,"time":2,"transit":false,"station_name":"Manggabesar","distance":906,"station_id":"MGB"},{"is_transit":false,"distance":1080,"station_id":"JAY","transit":false,"i_lat":-6.141205,"station_name":"Jayakarta","time":2,"line":2,"i_long":106.820901},{"distance":1264,"station_name":"Jakarta Kota","transit":true,"is_transit":true,"line":2,"i_long":106.812439,"i_lat":-6.137569,"time":4,"station_id":"JAKK"},{"time":3,"i_long":106.826365,"station_id":"KPB","i_lat":-6.132549,"is_transit":false,"station_name":"Kampung Bandan","line":4,"transit":false,"distance":1364}],[{"distance":0,"station_name":"Maja","is_transit":false,"line":6,"time":0,"transit":false,"station_id":"MJ","i_long":106.394373,"i_lat":-6.332307},{"line":3,"time":4,"i_lat":-6.33561,"station_name":"Cikoya","is_transit":false,"station_id":"CKY","i_long":106.411216,"distance":1853,"transit":false},{"line":6,"transit":false,"is_transit":false,"station_name":"Tigaraksa","i_lat":-6.328533,"i_long":106.425991,"time":3,"distance":2651,"station_id":"TGS"},{"station_name":"Tenjo","i_long":106.460812,"i_lat":-6.327251,"line":6,"station_id":"TEJ","transit":false,"time":5,"distance":2974,"is_transit":false},{"station_id":"DAR","i_long":106.491338,"i_lat":-6.338021,"station_name":"Daru","distance":3902,"line":0,"is_transit":false,"time":5,"transit":false},{"line":3,"station_id":"CJT","time":6,"is_transit":false,"i_long":106.508482,"distance":2675,"transit":false,"station_name":"Cilejit","i_lat":-6.354349},{"i_long":106.568863,"station_name":"Parung Panjang","distance":7025,"station_id":"PRP","line":6,"time":9,"is_transit":false,"transit":false,"i_lat":-6.3441410000000005},{"transit":false,"station_name":"Cicayur","is_transit":false,"distance":5968,"station_id":"CC","i_lat":-6.329547,"line":3,"time":8,"i_long":106.617853},{"time":4,"station_id":"CSK","transit":false,"distance":2519,"line":3,"i_long":106.640411,"is_transit":false,"i_lat":-6.32484,"station_name":"Cisauk"},{"station_name":"Serpong","i_lat":-6.319871,"transit":false,"station_id":"SRP","i_long":106.66566,"distance":1784,"line":6,"time":4,"is_transit":false},{"transit":false,"i_long":106.675475,"is_transit":false,"i_lat":-6.314823,"line":6,"time":4,"station_id":"RU","station_name":"Rawa Buntu","distance":2413},{"i_lat":-6.296963,"is_transit":false,"station_id":"SDM","transit":false,"distance":4566,"time":6,"i_long":106.712277,"line":6,"station_name":"Sudimara"},{"i_lat":-6.288927,"distance":1994,"transit":false,"station_name":"Jurangmangu","station_id":"JMU","i_long":106.728916,"time":4,"line":6,"is_transit":false},{"is_transit":false,"time":3,"transit":false,"i_long":106.74273,"station_name":"Pondokranji","line":6,"station_id":"PDJ","i_lat":-6.276362,"distance":2179},{"transit":false,"station_id":"KBY","i_long":106.780334,"is_transit":false,"time":8,"distance":6218,"station_name":"Kebayoran","i_lat":-6.237242,"line":6},{"is_transit":false,"transit":false,"time":7,"distance":3737,"i_long":106.79689,"station_name":"Palmerah","station_id":"PLM","line":6,"i_lat":-6.207404},{"time":6,"i_lat":-6.185545,"line":1,"transit":true,"station_name":"Tanah Abang","i_long":106.811091,"station_id":"THB","is_transit":true,"distance":3191},{"i_lat":-6.20132,"line":1,"station_name":"Karet","i_long":106.816351,"time":5,"distance":2029,"station_id":"KAT","transit":false,"is_transit":false},{"time":1,"station_id":"SUDB","transit":false,"station_name":"Sudirman Baru","is_transit":false,"i_lat":-6.201433,"line":1,"distance":471,"i_long":106.819881},{"station_id":"SUD","i_lat":-6.202263,"station_name":"Sudirman","i_long":106.822649,"transit":false,"line":1,"is_transit":false,"distance":280,"time":1},{"transit":false,"i_lat":-6.209883,"i_long":106.84912,"is_transit":false,"time":4,"station_name":"Manggarai","station_id":"MRI","line":2,"distance":3186},{"line":1,"time":2,"distance":1275,"i_lat":-6.212485,"is_transit":false,"transit":false,"station_name":"Matraman","station_id":"MTR","i_long":106.858896},{"i_lat":-6.215091,"line":1,"station_name":"Jatinegara","is_transit":true,"transit":true,"time":8,"i_long":106.86807400000001,"station_id":"JNG","distance":1377},{"i_long":106.861737,"is_transit":false,"station_name":"Pondok Jati","line":11,"station_id":"POK","distance":1236,"transit":false,"time":2,"i_lat":-6.209188},{"transit":false,"station_name":"Kramat","i_long":106.855437,"line":11,"i_lat":-6.193792,"distance":1829,"is_transit":false,"time":2,"station_id":"KMT"},{"time":1,"i_lat":-6.185975,"line":11,"is_transit":false,"station_id":"GST","station_name":"Gang Sentiong","i_long":106.850107,"transit":false,"distance":973},{"i_lat":-6.174784,"transit":false,"station_id":"PSE","time":8,"distance":1567,"is_transit":false,"line":11,"i_long":106.84368,"station_name":"Pasar Senen"},{"station_name":"Kemayoran","is_transit":false,"distance":1436,"line":11,"station_id":"KMO","i_lat":-6.161728,"i_long":106.839204,"time":4,"transit":false},{"line":11,"station_id":"RJW","i_long":106.836569,"i_lat":-6.14505,"time":5,"station_name":"Rajawali","distance":1901,"is_transit":false,"transit":false},{"distance":1444,"time":3,"transit":false,"station_name":"Kampung Bandan","is_transit":false,"i_lat":-6.132549,"i_long":106.826365,"line":4,"station_id":"KPB"}]]}