{"data":[[{"transit":false,"station_name":"Maja","i_long":106.394373,"distance":0,"is_transit":false,"line":6,"time":0,"i_lat":-6.332307,"station_id":"MJ"},{"i_lat":-6.33561,"line":0,"distance":1853,"station_name":"Cikoya","transit":false,"is_transit":false,"time":4,"station_id":"CKY","i_long":106.411216},{"i_lat":-6.328533,"distance":2651,"station_id":"TGS","is_transit":false,"time":3,"i_long":106.425991,"line":6,"station_name":"Tigaraksa","transit":false},{"time":5,"i_lat":-6.327251,"transit":false,"distance":2974,"is_transit":false,"line":6,"i_long":106.460812,"station_id":"TEJ","station_name":"Tenjo"},{"line":0,"distance":3902,"station_id":"DAR","i_lat":-6.338021,"i_long":106.491338,"transit":false,"is_transit":false,"station_name":"Daru","time":5},{"transit":false,"station_id":"CJT","distance":2675,"is_transit":false,"station_name":"Cilejit","i_lat":-6.354349,"line":0,"i_long":106.508482,"time":6},{"distance":7025,"station_name":"Parung Panjang","time":9,"transit":false,"station_id":"PRP","i_long":106.568863,"line":6,"i_lat":-6.3441410000000005,"is_transit":false},{"i_long":106.617853,"distance":5968,"station_id":"CC","is_transit":false,"line":0,"time":8,"transit":false,"station_name":"Cicayur","i_lat":-6.329547},{"line":0,"is_transit":false,"transit":false,"station_id":"CSK","time":4,"i_long":106.640411,"distance":2519,"station_name":"Cisauk","i_lat":-6.32484},{"line":6,"distance":1784,"is_transit":false,"transit":false,"station_id":"SRP","i_lat":-6.319871,"station_name":"Serpong","time":4,"i_long":106.66566},{"time":4,"i_lat":-6.314823,"station_name":"Rawa Buntu","station_id":"RU","i_long":106.675475,"distance":2413,"line":6,"is_transit":false,"transit":false},{"is_transit":false,"time":6,"distance":4566,"i_lat":-6.296963,"i_long":106.712277,"station_name":"Sudimara","station_id":"SDM","line":6,"transit":false},{"line":6,"transit":false,"distance":1994,"is_transit":false,"station_id":"JMU","i_lat":-6.288927,"i_long":106.728916,"station_name":"Jurangmangu","time":4},{"distance":2179,"station_name":"Pondokranji","transit":false,"i_long":106.74273,"is_transit":false,"time":3,"i_lat":-6.276362,"line":6,"station_id":"PDJ"},{"i_long":106.780334,"transit":false,"line":6,"distance":6218,"i_lat":-6.237242,"station_id":"KBY","is_transit":false,"station_name":"Kebayoran","time":8},{"station_name":"Palmerah","line":6,"distance":3737,"station_id":"PLM","time":7,"is_transit":false,"i_long":106.79689,"transit":false,"i_lat":-6.207404},{"is_transit":true,"distance":3191,"i_long":106.811091,"station_id":"THB","station_name":"Tanah Abang","time":6,"transit":true,"i_lat":-6.185545,"line":1},{"station_name":"Karet","line":1,"distance":2029,"transit":false,"is_transit":false,"i_lat":-6.20132,"i_long":106.816351,"station_id":"KAT","time":5},{"station_id":"SUDB","line":1,"i_long":106.819881,"distance":471,"is_transit":false,"station_name":"Sudirman Baru","transit":false,"time":1,"i_lat":-6.201433},{"is_transit":false,"i_long":106.822649,"line":1,"i_lat":-6.202263,"transit":false,"station_name":"Sudirman","distance":280,"station_id":"SUD","time":1},{"distance":3186,"line":0,"i_long":106.84912,"transit":false,"i_lat":-6.209883,"station_name":"Manggarai","is_transit":true,"station_id":"MRI","time":4},{"distance":1275,"transit":false,"i_lat":-6.212485,"time":2,"is_transit":false,"i_long":106.858896,"station_id":"MTR","line":1,"station_name":"Matraman"},{"i_long":106.86807400000001,"station_id":"JNG","is_transit":true,"distance":1377,"station_name":"Jatinegara","time":8,"line":0,"i_lat":-6.215091,"transit":false},{"distance":3395,"line":1,"time":3,"transit":false,"station_id":"KLD","i_long":106.899548,"station_name":"Klender","is_transit":false,"i_lat":-6.2135}],[{"transit":false,"i_lat":-6.332307,"i_long":106.394373,"line":6,"time":0,"is_transit":false,"station_name":"Maja","station_id":"MJ","distance":0},{"station_id":"CKY","i_lat":-6.33561,"distance":1853,"transit":false,"i_long":106.411216,"time":4,"station_name":"Cikoya","is_transit":false,"line":0},{"time":3,"station_name":"Tigaraksa","i_long":106.425991,"transit":false,"i_lat":-6.328533,"is_transit":false,"station_id":"TGS","distance":2651,"line":6},{"i_long":106.460812,"line":6,"station_name":"Tenjo","is_transit":false,"i_lat":-6.327251,"station_id":"TEJ","time":5,"transit":false,"distance":2974},{"is_transit":false,"distance":3902,"station_name":"Daru","station_id":"DAR","transit":false,"time":5,"i_long":106.491338,"line":0,"i_lat":-6.338021},{"i_lat":-6.354349,"i_long":106.508482,"line":0,"distance":2675,"station_id":"CJT","is_transit":false,"station_name":"Cilejit","transit":false,"time":6},{"station_name":"Parung Panjang","time":9,"station_id":"PRP","transit":false,"is_transit":false,"i_long":106.568863,"line":6,"i_lat":-6.3441410000000005,"distance":7025},{"distance":5968,"is_transit":false,"i_lat":-6.329547,"i_long":106.617853,"station_name":"Cicayur","station_id":"CC","transit":false,"time":8,"line":0},{"transit":false,"i_long":106.640411,"station_id":"CSK","time":4,"distance":2519,"i_lat":-6.32484,"line":0,"station_name":"Cisauk","is_transit":false},{"i_lat":-6.319871,"distance":1784,"transit":false,"station_name":"Serpong","time":4,"station_id":"SRP","i_long":106.66566,"line":6,"is_transit":false},{"time":4,"station_name":"Rawa Buntu","line":6,"distance":2413,"is_transit":false,"station_id":"RU","transit":false,"i_lat":-6.314823,"i_long":106.675475},{"station_name":"Sudimara","i_long":106.712277,"distance":4566,"i_lat":-6.296963,"station_id":"SDM","line":6,"time":6,"is_transit":false,"transit":false},{"line":6,"distance":1994,"station_name":"Jurangmangu","station_id":"JMU","i_lat":-6.288927,"i_long":106.728916,"is_transit":false,"time":4,"transit":false},{"line":6,"distance":2179,"i_long":106.74273,"i_lat":-6.276362,"time":3,"station_id":"PDJ","is_transit":false,"station_name":"Pondokranji","transit":false},{"i_long":106.780334,"station_id":"KBY","is_transit":false,"station_name":"Kebayoran","transit":false,"line":6,"time":8,"i_lat":-6.237242,"distance":6218},{"station_id":"PLM","is_transit":false,"line":6,"i_long":106.79689,"station_name":"Palmerah","distance":3737,"transit":false,"time":7,"i_lat":-6.207404},{"line":1,"distance":3191,"i_long":106.811091,"i_lat":-6.185545,"station_name":"Tanah Abang","transit":true,"is_transit":true,"time":6,"station_id":"THB"},{"is_transit":true,"time":8,"station_name":"Duri","i_lat":-6.155215,"transit":true,"i_long":106.800832,"line":1,"distance":3632,"station_id":"DU"},{"transit":false,"time":4,"station_name":"Angke","i_lat":-6.144674,"i_long":106.79867,"station_id":"AK","line":0,"distance":1230,"is_transit":false},{"i_lat":-6.132549,"line":0,"i_long":106.826365,"time":9,"is_transit":true,"station_name":"Kampung Bandan","distance":4102,"station_id":"KPB","transit":true},{"station_name":"Rajawali","time":3,"transit":false,"is_transit":false,"station_id":"RJW","i_lat":-6.14505,"line":11,"distance":1444,"i_long":106.836569},{"time":5,"is_transit":false,"i_lat":-6.161728,"line":11,"i_long":106.839204,"station_name":"Kemayoran","station_id":"KMO","transit":false,"distance":1901},{"i_long":106.84368,"is_transit":false,"station_name":"Pasar Senen","transit":false,"line":11,"time":4,"station_id":"PSE","distance":1436,"i_lat":-6.174784},{"time":8,"line":11,"station_name":"Gang Sentiong","station_id":"GST","transit":false,"distance":1567,"is_transit":false,"i_long":106.850107,"i_lat":-6.185975},{"i_lat":-6.193792,"distance":973,"time":1,"is_transit":false,"line":11,"transit":false,"i_long":106.855437,"station_name":"Kramat","station_id":"KMT"},{"i_long":106.861737,"station_id":"POK","is_transit":false,"transit":false,"distance":1829,"time":2,"station_name":"Pondok Jati","i_lat":-6.209188,"line":11},{"line":0,"transit":true,"station_name":"Jatinegara","distance":1236,"is_transit":true,"i_long":106.86807400000001,"i_lat":-6.215091,"station_id":"JNG","time":9},{"station_name":"Klender","line":1,"i_long":106.899548,"time":3,"i_lat":-6.2135,"is_transit":false,"station_id":"KLD","distance":3395,"transit":false}],[{"station_id":"MJ","is_transit":false,"transit":false,"distance":0,"i_long":106.394373,"time":0,"station_name":"Maja","i_lat":-6.332307,"line":6},{"line":0,"i_lat":-6.33561,"time":4,"distance":1853,"station_id":"CKY","station_name":"Cikoya","is_transit":false,"transit":false,"i_long":106.411216},{"distance":2651,"transit":false,"time":3,"i_lat":-6.328533,"is_transit":false,"line":6,"i_long":106.425991,"station_id":"TGS","station_name":"Tigaraksa"},{"station_id":"TEJ","distance":2974,"line":6,"transit":false,"is_transit":false,"time":5,"i_lat":-6.327251,"i_long":106.460812,"station_name":"Tenjo"},{"is_transit":false,"i_lat":-6.338021,"station_id":"DAR","time":5,"distance":3902,"transit":false,"i_long":106.491338,"station_name":"Daru","line":0},{"transit":false,"i_lat":-6.354349,"is_transit":false,"i_long":106.508482,"time":6,"station_name":"Cilejit","distance":2675,"line":0,"station_id":"CJT"},{"station_id":"PRP","transit":false,"i_lat":-6.3441410000000005,"station_name":"Parung Panjang","i_long":106.568863,"distance":7025,"is_transit":false,"time":9,"line":6},{"line":0,"distance":5968,"i_long":106.617853,"is_transit":false,"time":8,"transit":false,"i_lat":-6.329547,"station_name":"Cicayur","station_id":"CC"},{"distance":2519,"transit":false,"station_id":"CSK","i_lat":-6.32484,"i_long":106.640411,"line":0,"time":4,"is_transit":false,"station_name":"Cisauk"},{"is_transit":false,"i_lat":-6.319871,"transit":false,"station_name":"Serpong","i_long":106.66566,"time":4,"station_id":"SRP","line":6,"distance":1784},{"station_id":"RU","distance":2413,"station_name":"Rawa Buntu","transit":false,"i_long":106.675475,"i_lat":-6.314823,"time":4,"is_transit":false,"line":6},{"transit":false,"time":6,"line":6,"distance":4566,"i_long":106.712277,"station_id":"SDM","i_lat":-6.296963,"is_transit":false,"station_name":"Sudimara"},{"transit":false,"i_long":106.728916,"line":6,"station_id":"JMU","time":4,"distance":1994,"i_lat":-6.288927,"station_name":"Jurangmangu","is_transit":false},{"transit":false,"i_lat":-6.276362,"station_id":"PDJ","station_name":"Pondokranji","time":3,"i_long":106.74273,"line":6,"is_transit":false,"distance":2179},{"time":8,"station_name":"Kebayoran","station_id":"KBY","distance":6218,"is_transit":false,"line":6,"i_lat":-6.237242,"transit":false,"i_long":106.780334},{"transit":false,"station_name":"Palmerah","distance":3737,"i_long":106.79689,"time":7,"is_transit":false,"station_id":"PLM","i_lat":-6.207404,"line":6},{"station_id":"THB","i_lat":-6.185545,"time":6,"i_long":106.811091,"is_transit":true,"line":1,"transit":true,"distance":3191,"station_name":"Tanah Abang"},{"time":8,"station_name":"Duri","transit":true,"is_transit":true,"i_lat":-6.155215,"distance":3632,"i_long":106.800832,"station_id":"DU","line":1},{"station_name":"Angke","line":0,"is_transit":false,"transit":false,"distance":1230,"i_lat":-6.144674,"station_id":"AK","time":4,"i_long":106.79867},{"i_long":106.826365,"station_name":"Kampung Bandan","i_lat":-6.132549,"line":0,"is_transit":true,"distance":4102,"transit":false,"time":9,"station_id":"KPB"},{"transit":true,"i_lat":-6.137569,"i_long":106.812439,"station_name":"Jakarta Kota","line":0,"station_id":"JAKK","is_transit":true,"distance":1364,"time":3},{"time":4,"i_lat":-6.141205,"station_name":"Jayakarta","line":7,"distance":1264,"transit":false,"is_transit":false,"station_id":"JAY","i_long":106.820901},{"time":2,"is_transit":false,"i_long":106.82482,"station_name":"Manggabesar","transit":false,"distance":1080,"i_lat":-6.149769,"line":2,"station_id":"MGB"},{"line":2,"i_long":106.827103,"is_transit":false,"time":2,"station_id":"SW","i_lat":-6.160725,"distance":906,"station_name":"Sawah Besar","transit":false},{"transit":false,"station_id":"JUA","station_name":"Juanda","is_transit":false,"time":2,"distance":1149,"i_long":106.828284,"line":2,"i_lat":-6.166716},{"is_transit":false,"station_id":"GDD","distance":2015,"line":2,"i_lat":-6.186295,"i_long":106.832183,"station_name":"Gondangdia","transit":false,"time":4},{"i_lat":-6.198556,"station_name":"Cikini","station_id":"CKI","transit":false,"is_transit":false,"line":0,"time":3,"distance":1750,"i_long":106.840169},{"station_name":"Manggarai","i_long":106.84912,"i_lat":-6.209883,"station_id":"MRI","time":4,"line":0,"is_transit":true,"distance":1590,"transit":true},{"station_name":"Matraman","transit":false,"time":2,"i_long":106.858896,"is_transit":false,"station_id":"MTR","line":1,"i_lat":-6.212485,"distance":1275},{"is_transit":true,"i_lat":-6.215091,"transit":false,"station_id":"JNG","time":8,"i_long":106.86807400000001,"line":0,"station_name":"Jatinegara","distance":1377},{"station_id":"KLD","transit":false,"i_lat":-6.2135,"time":3,"is_transit":false,"distance":3395,"line":1,"i_long":106.899548,"station_name":"Klender"}],[{"line":6,"i_long":106.394373,"station_name":"Maja","distance":0,"is_transit":false,"station_id":"MJ","i_lat":-6.332307,"transit":false,"time":0},{"distance":1853,"station_name":"Cikoya","i_long":106.411216,"is_transit":false,"transit":false,"station_id":"CKY","time":4,"i_lat":-6.33561,"line":0},{"station_id":"TGS","line":6,"distance":2651,"time":3,"i_long":106.425991,"station_name":"Tigaraksa","transit":false,"is_transit":false,"i_lat":-6.328533},{"distance":2974,"station_name":"Tenjo","station_id":"TEJ","line":6,"i_lat":-6.327251,"is_transit":false,"time":5,"i_long":106.460812,"transit":false},{"station_name":"Daru","line":0,"distance":3902,"transit":false,"i_lat":-6.338021,"is_transit":false,"i_long":106.491338,"station_id":"DAR","time":5},{"station_id":"CJT","time":6,"transit":false,"distance":2675,"station_name":"Cilejit","is_transit":false,"i_long":106.508482,"i_lat":-6.354349,"line":0},{"line":6,"station_name":"Parung Panjang","distance":7025,"station_id":"PRP","time":9,"is_transit":false,"i_long":106.568863,"i_lat":-6.3441410000000005,"transit":false},{"is_transit":false,"i_long":106.617853,"time":8,"station_id":"CC","i_lat":-6.329547,"station_name":"Cicayur","transit":false,"line":0,"distance":5968},{"station_id":"CSK","time":4,"transit":false,"station_name":"Cisauk","i_lat":-6.32484,"i_long":106.640411,"line":0,"is_transit":false,"distance":2519},{"i_lat":-6.319871,"is_transit":false,"line":6,"distance":1784,"transit":false,"station_id":"SRP","time":4,"i_long":106.66566,"station_name":"Serpong"},{"i_lat":-6.314823,"station_id":"RU","i_long":106.675475,"transit":false,"distance":2413,"is_transit":false,"line":6,"station_name":"Rawa Buntu","time":4},{"distance":4566,"is_transit":false,"i_long":106.712277,"time":6,"transit":false,"i_lat":-6.296963,"station_id":"SDM","line":6,"station_name":"Sudimara"},{"station_id":"JMU","transit":false,"time":4,"line":6,"i_long":106.728916,"station_name":"Jurangmangu","distance":1994,"i_lat":-6.288927,"is_transit":false},{"is_transit":false,"line":6,"distance":2179,"station_name":"Pondokranji","time":3,"station_id":"PDJ","i_lat":-6.276362,"i_long":106.74273,"transit":false},{"line":6,"transit":false,"station_id":"KBY","time":8,"is_transit":false,"i_long":106.780334,"distance":6218,"i_lat":-6.237242,"station_name":"Kebayoran"},{"is_transit":false,"i_lat":-6.207404,"i_long":106.79689,"distance":3737,"time":7,"line":6,"station_id":"PLM","transit":false,"station_name":"Palmerah"},{"is_transit":true,"distance":3191,"time":6,"i_long":106.811091,"station_name":"Tanah Abang","transit":true,"i_lat":-6.185545,"line":1,"station_id":"THB"},{"is_transit":false,"line":1,"i_lat":-6.20132,"transit":false,"i_long":106.816351,"distance":2029,"station_name":"Karet","station_id":"KAT","time":5},{"line":1,"station_id":"SUDB","i_long":106.819881,"station_name":"Sudirman Baru","is_transit":false,"transit":false,"time":1,"distance":471,"i_lat":-6.201433},{"line":1,"station_name":"Sudirman","is_transit":false,"distance":280,"station_id":"SUD","transit":false,"time":1,"i_lat":-6.202263,"i_long":106.822649},{"time":4,"i_lat":-6.209883,"distance":3186,"station_id":"MRI","transit":true,"is_transit":true,"station_name":"Manggarai","i_long":106.84912,"line":0},{"transit":false,"i_lat":-6.198556,"i_long":106.840169,"line":0,"distance":1590,"station_name":"Cikini","is_transit":false,"time":4,"station_id":"CKI"},{"i_long":106.832183,"station_id":"GDD","distance":1750,"time":3,"line":2,"transit":false,"i_lat":-6.186295,"is_transit":false,"station_name":"Gondangdia"},{"transit":false,"station_name":"Juanda","station_id":"JUA","i_lat":-6.166716,"time":4,"distance":2015,"i_long":106.828284,"is_transit":false,"line":2},{"is_transit":false,"station_id":"SW","distance":1149,"transit":false,"station_name":"Sawah Besar","time":2,"i_long":106.827103,"i_lat":-6.160725,"line":2},{"i_long":106.82482,"station_id":"MGB","transit":false,"time":2,"is_transit":false,"line":2,"station_name":"Manggabesar","distance":906,"i_lat":-6.149769},{"time":2,"i_lat":-6.141205,"is_transit":false,"station_name":"Jayakarta","station_id":"JAY","line":7,"i_long":106.820901,"distance":1080,"transit":false},{"is_transit":true,"station_id":"JAKK","time":4,"transit":true,"line":0,"i_lat":-6.137569,"distance":1264,"i_long":106.812439,"station_name":"Jakarta Kota"},{"i_long":106.826365,"distance":1364,"time":3,"line":0,"is_transit":true,"station_id":"KPB","transit":true,"station_name":"Kampung Bandan","i_lat":-6.132549},{"i_long":106.836569,"time":3,"i_lat":-6.14505,"distance":1444,"station_id":"RJW","station_name":"Rajawali","is_transit":false,"transit":false,"line":11},{"line":11,"station_name":"Kemayoran","station_id":"KMO","is_transit":false,"time":5,"distance":1901,"transit":false,"i_long":106.839204,"i_lat":-6.161728},{"i_lat":-6.174784,"line":11,"distance":1436,"is_transit":false,"i_long":106.84368,"station_id":"PSE","transit":false,"station_name":"Pasar Senen","time":4},{"time":8,"is_transit":false,"station_name":"Gang Sentiong","station_id":"GST","transit":false,"distance":1567,"i_lat":-6.185975,"i_long":106.850107,"line":11},{"station_name":"Kramat","i_long":106.855437,"distance":973,"station_id":"KMT","time":1,"transit":false,"line":11,"is_transit":false,"i_lat":-6.193792},{"station_id":"POK","time":2,"transit":false,"distance":1829,"i_long":106.861737,"i_lat":-6.209188,"line":11,"is_transit":false,"station_name":"Pondok Jati"},{"time":9,"distance":1236,"is_transit":true,"line":0,"i_long":106.86807400000001,"station_name":"Jatinegara","station_id":"JNG","transit":true,"i_lat":-6.215091},{"station_id":"KLD","station_name":"Klender","time":3,"line":1,"distance":3395,"is_transit":false,"i_long":106.899548,"transit":false,"i_lat":-6.2135}]]}