{"data":[[{"time":0,"distance":0,"is_transit":false,"station_name":"Maja","i_lat":-6.332307,"i_long":106.394373,"line":6,"station_id":"MJ","transit":false},{"time":4,"distance":1853,"station_name":"Cikoya","is_transit":false,"i_lat":-6.33561,"line":3,"transit":false,"station_id":"CKY","i_long":106.411216},{"transit":false,"station_id":"TGS","i_lat":-6.328533,"station_name":"Tigaraksa","i_long":106.425991,"is_transit":false,"time":3,"distance":2651,"line":6},{"station_name":"Tenjo","is_transit":false,"station_id":"TEJ","line":6,"transit":false,"distance":2974,"i_lat":-6.327251,"i_long":106.460812,"time":5},{"time":5,"transit":false,"distance":3902,"line":0,"i_lat":-6.338021,"station_name":"Daru","station_id":"DAR","is_transit":false,"i_long":106.491338},{"i_long":106.508482,"time":6,"station_id":"CJT","distance":2675,"transit":false,"is_transit":false,"station_name":"Cilejit","i_lat":-6.354349,"line":3},{"transit":false,"station_id":"PRP","i_long":106.568863,"i_lat":-6.3441410000000005,"is_transit":false,"line":6,"distance":7025,"time":9,"station_name":"Parung Panjang"},{"is_transit":false,"station_name":"Cicayur","distance":5968,"line":3,"station_id":"CC","i_long":106.617853,"i_lat":-6.329547,"time":8,"transit":false},{"time":4,"transit":false,"line":3,"distance":2519,"station_id":"CSK","i_lat":-6.32484,"is_transit":false,"i_long":106.640411,"station_name":"Cisauk"},{"line":6,"station_id":"SRP","transit":false,"i_long":106.66566,"is_transit":false,"station_name":"Serpong","time":4,"distance":1784,"i_lat":-6.319871},{"station_name":"Rawa Buntu","is_transit":false,"distance":2413,"transit":false,"i_long":106.675475,"line":6,"station_id":"RU","i_lat":-6.314823,"time":4},{"transit":false,"i_lat":-6.296963,"line":6,"is_transit":false,"time":6,"station_name":"Sudimara","distance":4566,"station_id":"SDM","i_long":106.712277},{"station_name":"Jurangmangu","i_long":106.728916,"distance":1994,"transit":false,"is_transit":false,"line":6,"time":4,"station_id":"JMU","i_lat":-6.288927},{"line":6,"station_name":"Pondokranji","transit":false,"is_transit":false,"i_long":106.74273,"time":3,"distance":2179,"station_id":"PDJ","i_lat":-6.276362},{"station_id":"KBY","distance":6218,"i_long":106.780334,"i_lat":-6.237242,"station_name":"Kebayoran","is_transit":false,"line":6,"transit":false,"time":8},{"station_name":"Palmerah","distance":3737,"line":6,"i_long":106.79689,"transit":false,"i_lat":-6.207404,"time":7,"station_id":"PLM","is_transit":false},{"i_long":106.811091,"station_id":"THB","i_lat":-6.185545,"station_name":"Tanah Abang","is_transit":true,"time":6,"line":1,"distance":3191,"transit":true},{"station_name":"Duri","station_id":"DU","i_long":106.800832,"distance":3632,"is_transit":false,"time":8,"transit":false,"i_lat":-6.155215,"line":1},{"distance":1230,"time":4,"is_transit":false,"i_long":106.79867,"station_name":"Angke","line":1,"station_id":"AK","transit":false,"i_lat":-6.144674},{"i_lat":-6.132549,"time":9,"i_long":106.826365,"station_id":"KPB","transit":false,"station_name":"Kampung Bandan","is_transit":false,"distance":4102,"line":4}],[{"station_name":"Maja","transit":false,"station_id":"MJ","is_transit":false,"distance":0,"i_lat":-6.332307,"i_long":106.394373,"line":6,"time":0},{"i_lat":-6.33561,"station_name":"Cikoya","line":3,"i_long":106.411216,"is_transit":false,"transit":false,"time":4,"station_id":"CKY","distance":1853},{"transit":false,"station_id":"TGS","i_lat":-6.328533,"time":3,"distance":2651,"i_long":106.425991,"station_name":"Tigaraksa","line":6,"is_transit":false},{"i_long":106.460812,"transit":false,"is_transit":false,"line":6,"i_lat":-6.327251,"time":5,"station_name":"Tenjo","distance":2974,"station_id":"TEJ"},{"distance":3902,"is_transit":false,"i_lat":-6.338021,"i_long":106.491338,"transit":false,"station_id":"DAR","station_name":"Daru","time":5,"line":0},{"transit":false,"line":3,"is_transit":false,"time":6,"station_id":"CJT","i_lat":-6.354349,"i_long":106.508482,"station_name":"Cilejit","distance":2675},{"transit":false,"station_id":"PRP","distance":7025,"i_lat":-6.3441410000000005,"station_name":"Parung Panjang","i_long":106.568863,"time":9,"line":6,"is_transit":false},{"station_name":"Cicayur","i_lat":-6.329547,"station_id":"CC","distance":5968,"i_long":106.617853,"line":3,"transit":false,"is_transit":false,"time":8},{"transit":false,"station_name":"Cisauk","distance":2519,"is_transit":false,"i_long":106.640411,"line":3,"station_id":"CSK","time":4,"i_lat":-6.32484},{"distance":1784,"i_long":106.66566,"transit":false,"station_name":"Serpong","line":6,"i_lat":-6.319871,"is_transit":false,"station_id":"SRP","time":4},{"i_lat":-6.314823,"i_long":106.675475,"is_transit":false,"transit":false,"station_id":"RU","station_name":"Rawa Buntu","time":4,"line":6,"distance":2413},{"station_name":"Sudimara","transit":false,"station_id":"SDM","is_transit":false,"time":6,"distance":4566,"line":6,"i_lat":-6.296963,"i_long":106.712277},{"line":6,"time":4,"station_name":"Jurangmangu","is_transit":false,"transit":false,"distance":1994,"i_long":106.728916,"station_id":"JMU","i_lat":-6.288927},{"transit":false,"station_id":"PDJ","time":3,"i_lat":-6.276362,"i_long":106.74273,"line":6,"station_name":"Pondokranji","distance":2179,"is_transit":false},{"transit":false,"is_transit":false,"time":8,"i_long":106.780334,"station_name":"Kebayoran","station_id":"KBY","line":6,"distance":6218,"i_lat":-6.237242},{"transit":false,"distance":3737,"station_id":"PLM","station_name":"Palmerah","i_long":106.79689,"line":6,"i_lat":-6.207404,"time":7,"is_transit":false},{"station_id":"THB","i_lat":-6.185545,"distance":3191,"line":1,"is_transit":true,"transit":true,"station_name":"Tanah Abang","time":6,"i_long":106.811091},{"distance":2029,"line":1,"is_transit":false,"station_name":"Karet","time":5,"station_id":"KAT","i_lat":-6.20132,"transit":false,"i_long":106.816351},{"station_id":"SUDB","time":1,"i_lat":-6.201433,"i_long":106.819881,"line":1,"station_name":"Sudirman Baru","transit":false,"is_transit":false,"distance":471},{"i_long":106.822649,"line":1,"is_transit":false,"station_id":"SUD","time":1,"distance":280,"i_lat":-6.202263,"transit":false,"station_name":"Sudirman"},{"i_lat":-6.209883,"distance":3186,"station_name":"Manggarai","time":4,"i_long":106.84912,"station_id":"MRI","transit":true,"line":2,"is_transit":true},{"station_name":"Cikini","transit":false,"is_transit":false,"i_lat":-6.198556,"i_long":106.840169,"line":2,"station_id":"CKI","time":4,"distance":1590},{"line":2,"is_transit":false,"distance":1750,"i_lat":-6.186295,"time":3,"station_id":"GDD","station_name":"Gondangdia","i_long":106.832183,"transit":false},{"station_name":"Juanda","distance":2015,"i_lat":-6.166716,"i_long":106.828284,"transit":false,"is_transit":false,"time":4,"station_id":"JUA","line":2},{"is_transit":false,"station_name":"Sawah Besar","i_lat":-6.160725,"station_id":"SW","time":2,"line":2,"i_long":106.827103,"transit":false,"distance":1149},{"transit":false,"station_id":"MGB","line":2,"i_lat":-6.149769,"is_transit":false,"time":2,"station_name":"Manggabesar","distance":906,"i_long":106.82482},{"transit":false,"i_long":106.820901,"is_transit":false,"station_id":"JAY","station_name":"Jayakarta","time":2,"distance":1080,"line":2,"i_lat":-6.141205},{"i_long":106.812439,"line":2,"time":4,"station_id":"JAKK","i_lat":-6.137569,"station_name":"Jakarta Kota","is_transit":true,"distance":1264,"transit":true},{"station_name":"Kampung Bandan","distance":1364,"i_lat":-6.132549,"transit":false,"time":3,"is_transit":false,"station_id":"KPB","i_long":106.826365,"line":4}],[{"distance":0,"transit":false,"is_transit":false,"time":0,"i_lat":-6.332307,"station_name":"Maja","i_long":106.394373,"line":6,"station_id":"MJ"},{"transit":false,"station_id":"CKY","distance":1853,"is_transit":false,"time":4,"i_lat":-6.33561,"i_long":106.411216,"line":3,"station_name":"Cikoya"},{"station_id":"TGS","time":3,"i_long":106.425991,"is_transit":false,"distance":2651,"line":6,"station_name":"Tigaraksa","i_lat":-6.328533,"transit":false},{"distance":2974,"i_long":106.460812,"station_id":"TEJ","transit":false,"i_lat":-6.327251,"is_transit":false,"line":6,"station_name":"Tenjo","time":5},{"distance":3902,"i_lat":-6.338021,"transit":false,"is_transit":false,"station_id":"DAR","i_long":106.491338,"line":0,"station_name":"Daru","time":5},{"is_transit":false,"transit":false,"station_name":"Cilejit","distance":2675,"station_id":"CJT","i_long":106.508482,"line":3,"time":6,"i_lat":-6.354349},{"time":9,"station_name":"Parung Panjang","is_transit":false,"distance":7025,"i_lat":-6.3441410000000005,"transit":false,"i_long":106.568863,"line":6,"station_id":"PRP"},{"station_name":"Cicayur","station_id":"CC","i_long":106.617853,"i_lat":-6.329547,"is_transit":false,"time":8,"distance":5968,"line":3,"transit":false},{"is_transit":false,"time":4,"station_id":"CSK","i_lat":-6.32484,"transit":false,"line":3,"distance":2519,"i_long":106.640411,"station_name":"Cisauk"},{"i_lat":-6.319871,"transit":false,"line":6,"station_id":"SRP","is_transit":false,"time":4,"station_name":"Serpong","distance":1784,"i_long":106.66566},{"i_lat":-6.314823,"station_name":"Rawa Buntu","station_id":"RU","line":6,"time":4,"is_transit":false,"i_long":106.675475,"transit":false,"distance":2413},{"distance":4566,"i_long":106.712277,"transit":false,"line":6,"station_name":"Sudimara","is_transit":false,"i_lat":-6.296963,"time":6,"station_id":"SDM"},{"station_id":"JMU","i_lat":-6.288927,"station_name":"Jurangmangu","distance":1994,"line":6,"is_transit":false,"time":4,"i_long":106.728916,"transit":false},{"i_long":106.74273,"station_id":"PDJ","is_transit":false,"line":6,"i_lat":-6.276362,"distance":2179,"time":3,"transit":false,"station_name":"Pondokranji"},{"i_lat":-6.237242,"transit":false,"is_transit":false,"i_long":106.780334,"distance":6218,"station_name":"Kebayoran","line":6,"time":8,"station_id":"KBY"},{"station_name":"Palmerah","line":6,"distance":3737,"time":7,"i_long":106.79689,"is_transit":false,"i_lat":-6.207404,"transit":false,"station_id":"PLM"},{"is_transit":true,"i_lat":-6.185545,"line":1,"station_id":"THB","time":6,"distance":3191,"i_long":106.811091,"station_name":"Tanah Abang","transit":true},{"transit":false,"is_transit":false,"i_lat":-6.20132,"station_name":"Karet","time":5,"distance":2029,"i_long":106.816351,"line":1,"station_id":"KAT"},{"transit":false,"is_transit":false,"station_name":"Sudirman Baru","distance":471,"i_long":106.819881,"i_lat":-6.201433,"station_id":"SUDB","line":1,"time":1},{"station_id":"SUD","is_transit":false,"distance":280,"line":1,"station_name":"Sudirman","time":1,"i_lat":-6.202263,"transit":false,"i_long":106.822649},{"i_lat":-6.209883,"i_long":106.84912,"station_name":"Manggarai","transit":false,"time":4,"line":2,"is_transit":false,"station_id":"MRI","distance":3186},{"station_name":"Matraman","transit":false,"time":2,"station_id":"MTR","is_transit":false,"i_long":106.858896,"distance":1275,"i_lat":-6.212485,"line":1},{"station_id":"JNG","i_lat":-6.215091,"line":1,"distance":1377,"i_long":106.86807400000001,"is_transit":true,"time":8,"station_name":"Jatinegara","transit":true},{"is_transit":false,"i_lat":-6.209188,"time":2,"distance":1236,"station_id":"POK","transit":false,"i_long":106.861737,"line":11,"station_name":"Pondok Jati"},{"station_id":"KMT","distance":1829,"i_long":106.855437,"i_lat":-6.193792,"line":11,"station_name":"Kramat","is_transit":false,"transit":false,"time":2},{"i_lat":-6.185975,"station_name":"Gang Sentiong","distance":973,"transit":false,"i_long":106.850107,"station_id":"GST","line":11,"is_transit":false,"time":1},{"i_lat":-6.174784,"distance":1567,"transit":false,"time":8,"is_transit":false,"station_name":"Pasar Senen","i_long":106.84368,"line":11,"station_id":"PSE"},{"i_long":106.839204,"station_id":"KMO","transit":false,"time":4,"line":11,"distance":1436,"i_lat":-6.161728,"station_name":"Kemayoran","is_transit":false},{"i_long":106.836569,"station_name":"Rajawali","station_id":"RJW","is_transit":false,"time":5,"transit":false,"distance":1901,"line":11,"i_lat":-6.14505},{"time":3,"is_transit":false,"distance":1444,"transit":false,"i_long":106.826365,"line":4,"i_lat":-6.132549,"station_id":"KPB","station_name":"Kampung Bandan"}]]}