{"data":[[{"station_name":"Maja","is_transit":false,"line":6,"station_id":"MJ","i_long":106.394373,"i_lat":-6.332307,"transit":false,"time":0,"distance":0},{"i_lat":-6.33561,"line":3,"distance":1853,"transit":false,"i_long":106.411216,"station_id":"CKY","station_name":"Cikoya","is_transit":false,"time":4},{"i_long":106.425991,"time":3,"line":6,"distance":2651,"is_transit":false,"transit":false,"station_id":"TGS","i_lat":-6.328533,"station_name":"Tigaraksa"},{"i_lat":-6.327251,"line":6,"distance":2974,"is_transit":false,"station_id":"TEJ","transit":false,"station_name":"Tenjo","i_long":106.460812,"time":5},{"is_transit":false,"station_id":"DAR","time":5,"distance":3902,"line":0,"transit":false,"station_name":"Daru","i_lat":-6.338021,"i_long":106.491338},{"distance":2675,"i_long":106.508482,"line":3,"time":6,"transit":false,"station_name":"Cilejit","station_id":"CJT","i_lat":-6.354349,"is_transit":false},{"transit":false,"time":9,"i_lat":-6.3441410000000005,"i_long":106.568863,"distance":7025,"is_transit":false,"station_name":"Parung Panjang","line":6,"station_id":"PRP"},{"i_lat":-6.329547,"distance":5968,"is_transit":false,"line":3,"transit":false,"i_long":106.617853,"station_name":"Cicayur","station_id":"CC","time":8},{"station_id":"CSK","is_transit":false,"distance":2519,"line":3,"transit":false,"time":4,"station_name":"Cisauk","i_lat":-6.32484,"i_long":106.640411},{"line":6,"is_transit":false,"i_long":106.66566,"station_name":"Serpong","time":4,"distance":1784,"transit":false,"station_id":"SRP","i_lat":-6.319871},{"i_lat":-6.314823,"distance":2413,"transit":false,"is_transit":false,"i_long":106.675475,"line":6,"time":4,"station_id":"RU","station_name":"Rawa Buntu"},{"station_id":"SDM","transit":false,"time":6,"i_lat":-6.296963,"is_transit":false,"i_long":106.712277,"distance":4566,"line":6,"station_name":"Sudimara"},{"is_transit":false,"station_name":"Jurangmangu","time":4,"line":6,"distance":1994,"i_long":106.728916,"i_lat":-6.288927,"station_id":"JMU","transit":false},{"station_name":"Pondokranji","i_lat":-6.276362,"line":6,"i_long":106.74273,"station_id":"PDJ","transit":false,"time":3,"distance":2179,"is_transit":false},{"distance":6218,"line":6,"station_id":"KBY","i_long":106.780334,"time":8,"station_name":"Kebayoran","is_transit":false,"i_lat":-6.237242,"transit":false},{"i_long":106.79689,"time":7,"distance":3737,"station_id":"PLM","line":6,"is_transit":false,"transit":false,"i_lat":-6.207404,"station_name":"Palmerah"},{"is_transit":true,"i_lat":-6.185545,"station_name":"Tanah Abang","i_long":106.811091,"station_id":"THB","distance":3191,"time":6,"transit":true,"line":1},{"time":5,"station_name":"Karet","i_lat":-6.20132,"transit":false,"is_transit":false,"station_id":"KAT","distance":2029,"line":1,"i_long":106.816351}],[{"station_id":"MJ","distance":0,"is_transit":false,"station_name":"Maja","i_long":106.394373,"line":6,"i_lat":-6.332307,"time":0,"transit":false},{"line":3,"time":4,"distance":1853,"station_name":"Cikoya","i_lat":-6.33561,"station_id":"CKY","is_transit":false,"transit":false,"i_long":106.411216},{"distance":2651,"line":6,"i_lat":-6.328533,"time":3,"i_long":106.425991,"transit":false,"station_name":"Tigaraksa","is_transit":false,"station_id":"TGS"},{"station_id":"TEJ","distance":2974,"is_transit":false,"line":6,"time":5,"i_long":106.460812,"transit":false,"i_lat":-6.327251,"station_name":"Tenjo"},{"station_name":"Daru","distance":3902,"transit":false,"i_long":106.491338,"time":5,"i_lat":-6.338021,"station_id":"DAR","line":0,"is_transit":false},{"station_id":"CJT","is_transit":false,"distance":2675,"i_lat":-6.354349,"transit":false,"i_long":106.508482,"time":6,"station_name":"Cilejit","line":3},{"i_long":106.568863,"line":6,"station_name":"Parung Panjang","station_id":"PRP","distance":7025,"is_transit":false,"transit":false,"i_lat":-6.3441410000000005,"time":9},{"line":3,"station_id":"CC","distance":5968,"is_transit":false,"transit":false,"i_lat":-6.329547,"station_name":"Cicayur","i_long":106.617853,"time":8},{"transit":false,"time":4,"is_transit":false,"i_long":106.640411,"line":3,"station_id":"CSK","i_lat":-6.32484,"station_name":"Cisauk","distance":2519},{"transit":false,"i_long":106.66566,"distance":1784,"station_name":"Serpong","is_transit":false,"line":6,"time":4,"i_lat":-6.319871,"station_id":"SRP"},{"time":4,"station_name":"Rawa Buntu","i_long":106.675475,"station_id":"RU","transit":false,"distance":2413,"is_transit":false,"line":6,"i_lat":-6.314823},{"line":6,"i_long":106.712277,"time":6,"distance":4566,"transit":false,"is_transit":false,"i_lat":-6.296963,"station_name":"Sudimara","station_id":"SDM"},{"station_id":"JMU","distance":1994,"time":4,"station_name":"Jurangmangu","transit":false,"is_transit":false,"i_lat":-6.288927,"line":6,"i_long":106.728916},{"line":6,"time":3,"station_name":"Pondokranji","station_id":"PDJ","transit":false,"i_lat":-6.276362,"distance":2179,"is_transit":false,"i_long":106.74273},{"line":6,"i_long":106.780334,"is_transit":false,"distance":6218,"i_lat":-6.237242,"station_id":"KBY","station_name":"Kebayoran","transit":false,"time":8},{"line":6,"i_long":106.79689,"transit":false,"station_name":"Palmerah","distance":3737,"station_id":"PLM","time":7,"i_lat":-6.207404,"is_transit":false},{"time":6,"station_id":"THB","is_transit":true,"distance":3191,"i_long":106.811091,"station_name":"Tanah Abang","transit":true,"line":1,"i_lat":-6.185545},{"time":8,"is_transit":false,"distance":3632,"station_name":"Duri","i_long":106.800832,"line":1,"i_lat":-6.155215,"station_id":"DU","transit":false},{"station_id":"AK","time":4,"i_lat":-6.144674,"transit":false,"is_transit":false,"station_name":"Angke","line":1,"distance":1230,"i_long":106.79867},{"station_id":"KPB","distance":4102,"is_transit":true,"line":4,"i_long":106.826365,"transit":true,"time":9,"i_lat":-6.132549,"station_name":"Kampung Bandan"},{"time":3,"station_name":"Jakarta Kota","i_lat":-6.137569,"line":2,"station_id":"JAKK","is_transit":true,"i_long":106.812439,"distance":1364,"transit":true},{"transit":false,"i_lat":-6.141205,"i_long":106.820901,"time":4,"distance":1264,"is_transit":false,"station_id":"JAY","station_name":"Jayakarta","line":2},{"is_transit":false,"line":2,"distance":1080,"transit":false,"time":2,"i_long":106.82482,"station_name":"Manggabesar","i_lat":-6.149769,"station_id":"MGB"},{"station_name":"Sawah Besar","i_lat":-6.160725,"line":2,"time":2,"distance":906,"i_long":106.827103,"station_id":"SW","transit":false,"is_transit":false},{"i_lat":-6.166716,"station_id":"JUA","line":2,"transit":false,"time":2,"is_transit":false,"i_long":106.828284,"station_name":"Juanda","distance":1149},{"line":2,"i_lat":-6.186295,"station_name":"Gondangdia","station_id":"GDD","is_transit":false,"i_long":106.832183,"transit":false,"time":4,"distance":2015},{"distance":1750,"station_name":"Cikini","time":3,"station_id":"CKI","i_lat":-6.198556,"i_long":106.840169,"is_transit":false,"line":2,"transit":false},{"transit":true,"distance":1590,"line":2,"station_name":"Manggarai","is_transit":true,"station_id":"MRI","time":4,"i_lat":-6.209883,"i_long":106.84912},{"is_transit":false,"station_id":"SUD","station_name":"Sudirman","i_long":106.822649,"i_lat":-6.202263,"line":1,"transit":false,"distance":3186,"time":4},{"line":1,"is_transit":false,"distance":280,"i_lat":-6.201433,"station_name":"Sudirman Baru","station_id":"SUDB","time":1,"i_long":106.819881,"transit":false},{"i_lat":-6.20132,"transit":false,"station_id":"KAT","i_long":106.816351,"station_name":"Karet","time":1,"is_transit":false,"line":1,"distance":471}],[{"transit":false,"time":0,"line":6,"i_long":106.394373,"station_name":"Maja","i_lat":-6.332307,"distance":0,"station_id":"MJ","is_transit":false},{"i_lat":-6.33561,"station_id":"CKY","transit":false,"is_transit":false,"i_long":106.411216,"distance":1853,"station_name":"Cikoya","line":3,"time":4},{"transit":false,"distance":2651,"i_lat":-6.328533,"line":6,"station_name":"Tigaraksa","station_id":"TGS","time":3,"is_transit":false,"i_long":106.425991},{"time":5,"line":6,"distance":2974,"i_lat":-6.327251,"i_long":106.460812,"transit":false,"station_id":"TEJ","station_name":"Tenjo","is_transit":false},{"station_id":"DAR","i_long":106.491338,"transit":false,"station_name":"Daru","line":0,"time":5,"i_lat":-6.338021,"distance":3902,"is_transit":false},{"distance":2675,"transit":false,"i_long":106.508482,"line":3,"station_name":"Cilejit","is_transit":false,"i_lat":-6.354349,"station_id":"CJT","time":6},{"time":9,"station_id":"PRP","transit":false,"i_lat":-6.3441410000000005,"is_transit":false,"distance":7025,"station_name":"Parung Panjang","line":6,"i_long":106.568863},{"station_id":"CC","i_long":106.617853,"distance":5968,"transit":false,"is_transit":false,"time":8,"line":3,"i_lat":-6.329547,"station_name":"Cicayur"},{"line":3,"time":4,"station_name":"Cisauk","i_long":106.640411,"station_id":"CSK","i_lat":-6.32484,"transit":false,"distance":2519,"is_transit":false},{"transit":false,"station_id":"SRP","i_lat":-6.319871,"i_long":106.66566,"line":6,"station_name":"Serpong","is_transit":false,"time":4,"distance":1784},{"time":4,"is_transit":false,"distance":2413,"station_id":"RU","i_lat":-6.314823,"i_long":106.675475,"line":6,"station_name":"Rawa Buntu","transit":false},{"distance":4566,"line":6,"transit":false,"i_long":106.712277,"is_transit":false,"station_id":"SDM","i_lat":-6.296963,"time":6,"station_name":"Sudimara"},{"station_name":"Jurangmangu","i_lat":-6.288927,"is_transit":false,"line":6,"time":4,"i_long":106.728916,"transit":false,"distance":1994,"station_id":"JMU"},{"station_name":"Pondokranji","station_id":"PDJ","i_long":106.74273,"time":3,"transit":false,"distance":2179,"line":6,"i_lat":-6.276362,"is_transit":false},{"transit":false,"station_id":"KBY","time":8,"is_transit":false,"i_lat":-6.237242,"distance":6218,"line":6,"station_name":"Kebayoran","i_long":106.780334},{"i_long":106.79689,"transit":false,"is_transit":false,"time":7,"distance":3737,"line":6,"station_id":"PLM","station_name":"Palmerah","i_lat":-6.207404},{"time":6,"line":1,"i_long":106.811091,"distance":3191,"is_transit":true,"station_id":"THB","i_lat":-6.185545,"transit":true,"station_name":"Tanah Abang"},{"is_transit":false,"station_id":"DU","i_lat":-6.155215,"time":8,"i_long":106.800832,"line":1,"distance":3632,"transit":false,"station_name":"Duri"},{"is_transit":false,"i_long":106.79867,"line":1,"i_lat":-6.144674,"station_id":"AK","time":4,"transit":false,"distance":1230,"station_name":"Angke"},{"i_long":106.826365,"i_lat":-6.132549,"time":9,"is_transit":true,"station_name":"Kampung Bandan","transit":true,"station_id":"KPB","line":4,"distance":4102},{"is_transit":false,"distance":1444,"i_lat":-6.14505,"station_id":"RJW","station_name":"Rajawali","transit":false,"i_long":106.836569,"line":11,"time":3},{"line":11,"station_id":"KMO","i_lat":-6.161728,"time":5,"is_transit":false,"i_long":106.839204,"transit":false,"station_name":"Kemayoran","distance":1901},{"time":4,"distance":1436,"is_transit":false,"i_lat":-6.174784,"line":11,"station_id":"PSE","i_long":106.84368,"transit":false,"station_name":"Pasar Senen"},{"time":8,"station_id":"GST","distance":1567,"transit":false,"line":11,"i_lat":-6.185975,"station_name":"Gang Sentiong","is_transit":false,"i_long":106.850107},{"is_transit":false,"i_long":106.855437,"distance":973,"i_lat":-6.193792,"line":11,"station_id":"KMT","transit":false,"time":1,"station_name":"Kramat"},{"station_name":"Pondok Jati","station_id":"POK","transit":false,"is_transit":false,"i_lat":-6.209188,"distance":1829,"time":2,"i_long":106.861737,"line":11},{"transit":true,"i_lat":-6.215091,"station_id":"JNG","line":1,"is_transit":true,"i_long":106.86807400000001,"time":9,"station_name":"Jatinegara","distance":1236},{"station_id":"MTR","i_long":106.858896,"is_transit":false,"i_lat":-6.212485,"line":1,"time":2,"station_name":"Matraman","distance":1377,"transit":false},{"station_id":"MRI","is_transit":false,"transit":false,"i_long":106.84912,"i_lat":-6.209883,"time":2,"distance":1275,"line":2,"station_name":"Manggarai"},{"i_lat":-6.202263,"distance":3186,"line":1,"station_id":"SUD","time":4,"transit":false,"station_name":"Sudirman","i_long":106.822649,"is_transit":false},{"time":1,"station_name":"Sudirman Baru","is_transit":false,"distance":280,"station_id":"SUDB","transit":false,"i_long":106.819881,"line":1,"i_lat":-6.201433},{"station_name":"Karet","is_transit":false,"line":1,"time":1,"distance":471,"transit":false,"station_id":"KAT","i_lat":-6.20132,"i_long":106.816351}]]}