{"data":[[{"transit":false,"i_long":106.394373,"i_lat":-6.332307,"station_name":"Maja","station_id":"MJ","line":6,"is_transit":false,"time":0,"distance":0},{"time":4,"station_id":"CKY","distance":1853,"station_name":"Cikoya","is_transit":false,"transit":false,"i_long":106.411216,"i_lat":-6.33561,"line":3},{"station_id":"TGS","transit":false,"station_name":"Tigaraksa","i_lat":-6.328533,"line":6,"is_transit":false,"i_long":106.425991,"time":3,"distance":2651},{"line":6,"i_long":106.460812,"i_lat":-6.327251,"is_transit":false,"station_name":"Tenjo","station_id":"TEJ","distance":2974,"transit":false,"time":5},{"station_id":"DAR","is_transit":false,"time":5,"i_long":106.491338,"station_name":"Daru","distance":3902,"line":0,"transit":false,"i_lat":-6.338021},{"i_long":106.508482,"i_lat":-6.354349,"is_transit":false,"station_name":"Cilejit","transit":false,"time":6,"distance":2675,"line":3,"station_id":"CJT"},{"distance":7025,"i_lat":-6.3441410000000005,"time":9,"transit":false,"line":6,"is_transit":false,"station_name":"Parung Panjang","station_id":"PRP","i_long":106.568863},{"time":8,"transit":false,"station_name":"Cicayur","i_long":106.617853,"line":3,"distance":5968,"is_transit":false,"station_id":"CC","i_lat":-6.329547},{"station_name":"Cisauk","i_lat":-6.32484,"time":4,"i_long":106.640411,"is_transit":false,"transit":false,"station_id":"CSK","line":3,"distance":2519},{"transit":false,"is_transit":false,"i_lat":-6.319871,"station_name":"Serpong","station_id":"SRP","distance":1784,"i_long":106.66566,"time":4,"line":6},{"is_transit":false,"station_id":"RU","i_long":106.675475,"time":4,"distance":2413,"i_lat":-6.314823,"transit":false,"line":6,"station_name":"Rawa Buntu"},{"station_id":"SDM","station_name":"Sudimara","distance":4566,"i_lat":-6.296963,"line":6,"is_transit":false,"i_long":106.712277,"time":6,"transit":false},{"is_transit":false,"station_id":"JMU","station_name":"Jurangmangu","i_long":106.728916,"line":6,"time":4,"distance":1994,"transit":false,"i_lat":-6.288927},{"line":6,"station_id":"PDJ","distance":2179,"time":3,"i_lat":-6.276362,"i_long":106.74273,"station_name":"Pondokranji","transit":false,"is_transit":false},{"time":8,"distance":6218,"transit":false,"station_id":"KBY","i_long":106.780334,"is_transit":false,"line":6,"station_name":"Kebayoran","i_lat":-6.237242},{"is_transit":false,"i_long":106.79689,"station_name":"Palmerah","transit":false,"time":7,"line":6,"station_id":"PLM","i_lat":-6.207404,"distance":3737},{"station_name":"Tanah Abang","transit":true,"time":6,"line":1,"distance":3191,"station_id":"THB","i_lat":-6.185545,"i_long":106.811091,"is_transit":true},{"distance":2029,"is_transit":false,"line":1,"i_long":106.816351,"time":5,"station_name":"Karet","station_id":"KAT","i_lat":-6.20132,"transit":false}],[{"is_transit":false,"i_long":106.394373,"line":6,"station_name":"Maja","transit":false,"distance":0,"time":0,"station_id":"MJ","i_lat":-6.332307},{"station_name":"Cikoya","distance":1853,"time":4,"is_transit":false,"station_id":"CKY","i_long":106.411216,"line":3,"transit":false,"i_lat":-6.33561},{"is_transit":false,"time":3,"distance":2651,"transit":false,"station_name":"Tigaraksa","i_lat":-6.328533,"i_long":106.425991,"line":6,"station_id":"TGS"},{"i_long":106.460812,"transit":false,"is_transit":false,"distance":2974,"station_id":"TEJ","time":5,"line":6,"station_name":"Tenjo","i_lat":-6.327251},{"distance":3902,"station_name":"Daru","station_id":"DAR","i_long":106.491338,"line":0,"time":5,"i_lat":-6.338021,"is_transit":false,"transit":false},{"transit":false,"i_long":106.508482,"time":6,"distance":2675,"line":3,"station_id":"CJT","station_name":"Cilejit","i_lat":-6.354349,"is_transit":false},{"station_id":"PRP","i_long":106.568863,"i_lat":-6.3441410000000005,"station_name":"Parung Panjang","is_transit":false,"transit":false,"distance":7025,"line":6,"time":9},{"station_name":"Cicayur","is_transit":false,"line":3,"i_lat":-6.329547,"station_id":"CC","time":8,"transit":false,"distance":5968,"i_long":106.617853},{"time":4,"station_id":"CSK","station_name":"Cisauk","transit":false,"line":3,"distance":2519,"is_transit":false,"i_lat":-6.32484,"i_long":106.640411},{"station_id":"SRP","station_name":"Serpong","time":4,"transit":false,"is_transit":false,"i_lat":-6.319871,"i_long":106.66566,"distance":1784,"line":6},{"is_transit":false,"station_id":"RU","i_long":106.675475,"line":6,"station_name":"Rawa Buntu","distance":2413,"i_lat":-6.314823,"transit":false,"time":4},{"line":6,"transit":false,"is_transit":false,"station_id":"SDM","i_long":106.712277,"time":6,"station_name":"Sudimara","distance":4566,"i_lat":-6.296963},{"distance":1994,"station_id":"JMU","line":6,"station_name":"Jurangmangu","transit":false,"time":4,"is_transit":false,"i_lat":-6.288927,"i_long":106.728916},{"station_id":"PDJ","i_lat":-6.276362,"line":6,"i_long":106.74273,"time":3,"is_transit":false,"station_name":"Pondokranji","transit":false,"distance":2179},{"i_lat":-6.237242,"line":6,"is_transit":false,"i_long":106.780334,"station_name":"Kebayoran","distance":6218,"station_id":"KBY","time":8,"transit":false},{"station_id":"PLM","i_long":106.79689,"time":7,"transit":false,"distance":3737,"line":6,"station_name":"Palmerah","is_transit":false,"i_lat":-6.207404},{"i_lat":-6.185545,"station_name":"Tanah Abang","line":1,"distance":3191,"is_transit":true,"transit":true,"i_long":106.811091,"time":6,"station_id":"THB"},{"transit":false,"i_lat":-6.155215,"line":1,"distance":3632,"time":8,"station_name":"Duri","is_transit":false,"station_id":"DU","i_long":106.800832},{"is_transit":false,"line":1,"station_name":"Angke","i_long":106.79867,"station_id":"AK","i_lat":-6.144674,"transit":false,"time":4,"distance":1230},{"line":4,"distance":4102,"i_long":106.826365,"station_id":"KPB","transit":true,"station_name":"Kampung Bandan","time":9,"is_transit":true,"i_lat":-6.132549},{"distance":1364,"i_lat":-6.137569,"i_long":106.812439,"station_name":"Jakarta Kota","transit":true,"time":3,"is_transit":true,"line":2,"station_id":"JAKK"},{"i_long":106.820901,"distance":1264,"line":2,"i_lat":-6.141205,"time":4,"station_id":"JAY","station_name":"Jayakarta","transit":false,"is_transit":false},{"station_name":"Manggabesar","transit":false,"is_transit":false,"line":2,"i_lat":-6.149769,"i_long":106.82482,"time":2,"distance":1080,"station_id":"MGB"},{"is_transit":false,"station_id":"SW","line":2,"i_long":106.827103,"station_name":"Sawah Besar","i_lat":-6.160725,"time":2,"distance":906,"transit":false},{"i_lat":-6.166716,"line":2,"i_long":106.828284,"time":2,"transit":false,"station_id":"JUA","is_transit":false,"distance":1149,"station_name":"Juanda"},{"transit":false,"station_name":"Gondangdia","line":2,"time":4,"i_long":106.832183,"distance":2015,"station_id":"GDD","i_lat":-6.186295,"is_transit":false},{"is_transit":false,"i_long":106.840169,"transit":false,"station_id":"CKI","station_name":"Cikini","i_lat":-6.198556,"line":2,"time":3,"distance":1750},{"station_id":"MRI","station_name":"Manggarai","is_transit":true,"line":2,"i_lat":-6.209883,"transit":true,"time":4,"distance":1590,"i_long":106.84912},{"is_transit":false,"time":4,"line":1,"i_lat":-6.202263,"i_long":106.822649,"transit":false,"station_name":"Sudirman","station_id":"SUD","distance":3186},{"station_name":"Sudirman Baru","transit":false,"is_transit":false,"station_id":"SUDB","distance":280,"time":1,"line":1,"i_long":106.819881,"i_lat":-6.201433},{"is_transit":false,"station_name":"Karet","line":1,"time":1,"i_long":106.816351,"distance":471,"i_lat":-6.20132,"station_id":"KAT","transit":false}],[{"time":0,"transit":false,"line":6,"distance":0,"i_lat":-6.332307,"i_long":106.394373,"station_name":"Maja","is_transit":false,"station_id":"MJ"},{"is_transit":false,"time":4,"distance":1853,"station_name":"Cikoya","i_lat":-6.33561,"i_long":106.411216,"station_id":"CKY","line":3,"transit":false},{"station_name":"Tigaraksa","transit":false,"time":3,"distance":2651,"station_id":"TGS","i_lat":-6.328533,"i_long":106.425991,"line":6,"is_transit":false},{"line":6,"transit":false,"i_lat":-6.327251,"i_long":106.460812,"distance":2974,"station_name":"Tenjo","station_id":"TEJ","time":5,"is_transit":false},{"i_lat":-6.338021,"transit":false,"distance":3902,"i_long":106.491338,"station_id":"DAR","time":5,"is_transit":false,"line":0,"station_name":"Daru"},{"time":6,"distance":2675,"station_name":"Cilejit","i_lat":-6.354349,"i_long":106.508482,"is_transit":false,"transit":false,"station_id":"CJT","line":3},{"transit":false,"distance":7025,"time":9,"station_id":"PRP","station_name":"Parung Panjang","is_transit":false,"i_long":106.568863,"line":6,"i_lat":-6.3441410000000005},{"i_long":106.617853,"transit":false,"i_lat":-6.329547,"line":3,"station_name":"Cicayur","is_transit":false,"distance":5968,"station_id":"CC","time":8},{"line":3,"time":4,"distance":2519,"i_long":106.640411,"transit":false,"is_transit":false,"station_name":"Cisauk","station_id":"CSK","i_lat":-6.32484},{"distance":1784,"station_id":"SRP","i_lat":-6.319871,"i_long":106.66566,"station_name":"Serpong","transit":false,"is_transit":false,"line":6,"time":4},{"i_long":106.675475,"is_transit":false,"distance":2413,"station_name":"Rawa Buntu","i_lat":-6.314823,"time":4,"line":6,"station_id":"RU","transit":false},{"i_long":106.712277,"line":6,"i_lat":-6.296963,"transit":false,"is_transit":false,"distance":4566,"station_name":"Sudimara","time":6,"station_id":"SDM"},{"transit":false,"time":4,"distance":1994,"line":6,"station_id":"JMU","i_long":106.728916,"station_name":"Jurangmangu","is_transit":false,"i_lat":-6.288927},{"time":3,"line":6,"is_transit":false,"station_name":"Pondokranji","transit":false,"distance":2179,"station_id":"PDJ","i_lat":-6.276362,"i_long":106.74273},{"i_long":106.780334,"time":8,"i_lat":-6.237242,"station_name":"Kebayoran","station_id":"KBY","is_transit":false,"line":6,"transit":false,"distance":6218},{"time":7,"is_transit":false,"station_name":"Palmerah","i_lat":-6.207404,"transit":false,"station_id":"PLM","line":6,"distance":3737,"i_long":106.79689},{"station_name":"Tanah Abang","distance":3191,"station_id":"THB","transit":true,"is_transit":true,"time":6,"i_long":106.811091,"line":1,"i_lat":-6.185545},{"station_id":"DU","transit":false,"i_lat":-6.155215,"is_transit":false,"station_name":"Duri","distance":3632,"line":1,"i_long":106.800832,"time":8},{"time":4,"distance":1230,"i_long":106.79867,"transit":false,"i_lat":-6.144674,"station_name":"Angke","line":1,"is_transit":false,"station_id":"AK"},{"i_long":106.826365,"line":4,"distance":4102,"station_id":"KPB","i_lat":-6.132549,"station_name":"Kampung Bandan","transit":true,"is_transit":true,"time":9},{"station_id":"RJW","time":3,"i_long":106.836569,"line":11,"distance":1444,"transit":false,"station_name":"Rajawali","is_transit":false,"i_lat":-6.14505},{"i_lat":-6.161728,"is_transit":false,"distance":1901,"time":5,"transit":false,"station_name":"Kemayoran","line":11,"station_id":"KMO","i_long":106.839204},{"distance":1436,"line":11,"station_id":"PSE","time":4,"transit":false,"is_transit":false,"i_long":106.84368,"station_name":"Pasar Senen","i_lat":-6.174784},{"i_long":106.850107,"distance":1567,"is_transit":false,"line":11,"station_id":"GST","transit":false,"station_name":"Gang Sentiong","time":8,"i_lat":-6.185975},{"i_long":106.855437,"station_id":"KMT","station_name":"Kramat","is_transit":false,"line":11,"transit":false,"i_lat":-6.193792,"time":1,"distance":973},{"i_lat":-6.209188,"is_transit":false,"station_id":"POK","station_name":"Pondok Jati","transit":false,"line":11,"i_long":106.861737,"distance":1829,"time":2},{"time":9,"station_name":"Jatinegara","line":1,"i_lat":-6.215091,"transit":true,"distance":1236,"station_id":"JNG","i_long":106.86807400000001,"is_transit":true},{"is_transit":false,"i_lat":-6.212485,"station_id":"MTR","transit":false,"time":2,"i_long":106.858896,"line":1,"station_name":"Matraman","distance":1377},{"i_lat":-6.209883,"transit":false,"time":2,"station_name":"Manggarai","is_transit":false,"distance":1275,"station_id":"MRI","i_long":106.84912,"line":2},{"transit":false,"line":1,"station_name":"Sudirman","time":4,"distance":3186,"is_transit":false,"i_lat":-6.202263,"i_long":106.822649,"station_id":"SUD"},{"station_name":"Sudirman Baru","time":1,"line":1,"transit":false,"station_id":"SUDB","i_long":106.819881,"i_lat":-6.201433,"is_transit":false,"distance":280},{"line":1,"i_lat":-6.20132,"time":1,"distance":471,"transit":false,"is_transit":false,"i_long":106.816351,"station_id":"KAT","station_name":"Karet"}]]}