{"data":[[{"time":0,"is_transit":false,"transit":false,"i_long":106.394373,"station_name":"Maja","i_lat":-6.332307,"line":6,"station_id":"MJ","distance":0},{"station_name":"Cikoya","time":4,"station_id":"CKY","distance":1853,"line":0,"transit":false,"is_transit":false,"i_lat":-6.33561,"i_long":106.411216},{"time":3,"transit":false,"i_long":106.425991,"line":6,"station_name":"Tigaraksa","station_id":"TGS","is_transit":false,"distance":2651,"i_lat":-6.328533},{"i_lat":-6.327251,"station_name":"Tenjo","transit":false,"station_id":"TEJ","time":5,"is_transit":false,"i_long":106.460812,"line":6,"distance":2974},{"time":5,"station_id":"DAR","i_long":106.491338,"line":0,"transit":false,"is_transit":false,"i_lat":-6.338021,"station_name":"Daru","distance":3902},{"i_lat":-6.354349,"station_name":"Cilejit","is_transit":false,"station_id":"CJT","time":6,"line":0,"transit":false,"distance":2675,"i_long":106.508482},{"distance":7025,"is_transit":false,"i_long":106.568863,"time":9,"i_lat":-6.3441410000000005,"line":6,"station_name":"Parung Panjang","transit":false,"station_id":"PRP"},{"transit":false,"station_name":"Cicayur","distance":5968,"i_long":106.617853,"station_id":"CC","time":8,"i_lat":-6.329547,"line":0,"is_transit":false},{"i_lat":-6.32484,"station_id":"CSK","i_long":106.640411,"station_name":"Cisauk","line":0,"time":4,"distance":2519,"transit":false,"is_transit":false},{"is_transit":false,"distance":1784,"i_lat":-6.319871,"i_long":106.66566,"line":6,"transit":false,"time":4,"station_name":"Serpong","station_id":"SRP"},{"distance":2413,"station_name":"Rawa Buntu","i_long":106.675475,"i_lat":-6.314823,"station_id":"RU","transit":false,"is_transit":false,"line":6,"time":4},{"i_lat":-6.296963,"line":6,"transit":false,"station_name":"Sudimara","time":6,"i_long":106.712277,"station_id":"SDM","is_transit":false,"distance":4566},{"is_transit":false,"transit":false,"line":6,"station_id":"JMU","time":4,"station_name":"Jurangmangu","i_lat":-6.288927,"distance":1994,"i_long":106.728916},{"time":3,"distance":2179,"i_lat":-6.276362,"line":6,"station_name":"Pondokranji","is_transit":false,"transit":false,"i_long":106.74273,"station_id":"PDJ"},{"i_long":106.780334,"is_transit":false,"distance":6218,"i_lat":-6.237242,"station_name":"Kebayoran","station_id":"KBY","time":8,"line":6,"transit":false},{"i_long":106.79689,"i_lat":-6.207404,"time":7,"station_name":"Palmerah","station_id":"PLM","is_transit":false,"distance":3737,"transit":false,"line":6},{"i_lat":-6.185545,"station_id":"THB","distance":3191,"station_name":"Tanah Abang","line":1,"i_long":106.811091,"is_transit":true,"transit":true,"time":6},{"transit":false,"station_name":"Karet","i_long":106.816351,"i_lat":-6.20132,"distance":2029,"line":1,"station_id":"KAT","is_transit":false,"time":5}],[{"distance":0,"station_id":"MJ","is_transit":false,"transit":false,"line":6,"time":0,"i_long":106.394373,"station_name":"Maja","i_lat":-6.332307},{"time":4,"distance":1853,"i_lat":-6.33561,"is_transit":false,"i_long":106.411216,"line":0,"station_name":"Cikoya","station_id":"CKY","transit":false},{"i_long":106.425991,"line":6,"station_name":"Tigaraksa","is_transit":false,"transit":false,"distance":2651,"i_lat":-6.328533,"station_id":"TGS","time":3},{"station_id":"TEJ","line":6,"station_name":"Tenjo","is_transit":false,"distance":2974,"i_long":106.460812,"time":5,"transit":false,"i_lat":-6.327251},{"station_name":"Daru","i_lat":-6.338021,"i_long":106.491338,"transit":false,"line":0,"distance":3902,"is_transit":false,"station_id":"DAR","time":5},{"distance":2675,"station_id":"CJT","time":6,"i_lat":-6.354349,"station_name":"Cilejit","line":0,"is_transit":false,"i_long":106.508482,"transit":false},{"station_name":"Parung Panjang","station_id":"PRP","time":9,"i_lat":-6.3441410000000005,"i_long":106.568863,"is_transit":false,"line":6,"transit":false,"distance":7025},{"is_transit":false,"distance":5968,"transit":false,"time":8,"station_id":"CC","line":0,"i_lat":-6.329547,"i_long":106.617853,"station_name":"Cicayur"},{"is_transit":false,"distance":2519,"time":4,"i_long":106.640411,"transit":false,"station_id":"CSK","i_lat":-6.32484,"line":0,"station_name":"Cisauk"},{"i_lat":-6.319871,"station_name":"Serpong","station_id":"SRP","distance":1784,"i_long":106.66566,"line":6,"transit":false,"time":4,"is_transit":false},{"i_long":106.675475,"station_name":"Rawa Buntu","distance":2413,"transit":false,"time":4,"i_lat":-6.314823,"station_id":"RU","line":6,"is_transit":false},{"station_name":"Sudimara","line":6,"station_id":"SDM","time":6,"i_lat":-6.296963,"is_transit":false,"transit":false,"i_long":106.712277,"distance":4566},{"line":6,"station_name":"Jurangmangu","station_id":"JMU","i_lat":-6.288927,"i_long":106.728916,"transit":false,"is_transit":false,"time":4,"distance":1994},{"time":3,"is_transit":false,"transit":false,"distance":2179,"station_id":"PDJ","line":6,"i_long":106.74273,"i_lat":-6.276362,"station_name":"Pondokranji"},{"station_id":"KBY","transit":false,"is_transit":false,"time":8,"distance":6218,"i_lat":-6.237242,"line":6,"i_long":106.780334,"station_name":"Kebayoran"},{"time":7,"transit":false,"is_transit":false,"i_long":106.79689,"line":6,"distance":3737,"station_name":"Palmerah","i_lat":-6.207404,"station_id":"PLM"},{"distance":3191,"line":1,"station_id":"THB","is_transit":true,"transit":true,"i_long":106.811091,"time":6,"i_lat":-6.185545,"station_name":"Tanah Abang"},{"station_id":"DU","transit":true,"distance":3632,"i_lat":-6.155215,"i_long":106.800832,"line":1,"time":8,"is_transit":true,"station_name":"Duri"},{"distance":1230,"i_lat":-6.144674,"station_id":"AK","i_long":106.79867,"is_transit":false,"station_name":"Angke","time":4,"line":0,"transit":false},{"i_lat":-6.132549,"line":0,"distance":4102,"station_id":"KPB","station_name":"Kampung Bandan","is_transit":true,"transit":false,"time":9,"i_long":106.826365},{"is_transit":true,"station_id":"JAKK","i_long":106.812439,"distance":1364,"transit":true,"time":3,"line":0,"i_lat":-6.137569,"station_name":"Jakarta Kota"},{"line":7,"station_name":"Jayakarta","is_transit":false,"i_long":106.820901,"transit":false,"i_lat":-6.141205,"distance":1264,"station_id":"JAY","time":4},{"i_long":106.82482,"i_lat":-6.149769,"station_name":"Manggabesar","line":2,"transit":false,"station_id":"MGB","is_transit":false,"distance":1080,"time":2},{"time":2,"distance":906,"station_name":"Sawah Besar","line":2,"i_long":106.827103,"i_lat":-6.160725,"transit":false,"station_id":"SW","is_transit":false},{"transit":false,"i_lat":-6.166716,"is_transit":false,"i_long":106.828284,"time":2,"line":2,"station_name":"Juanda","distance":1149,"station_id":"JUA"},{"station_id":"GDD","time":4,"transit":false,"distance":2015,"i_lat":-6.186295,"station_name":"Gondangdia","is_transit":false,"i_long":106.832183,"line":2},{"time":3,"i_lat":-6.198556,"station_id":"CKI","is_transit":false,"line":0,"station_name":"Cikini","transit":false,"i_long":106.840169,"distance":1750},{"station_id":"MRI","transit":true,"i_lat":-6.209883,"station_name":"Manggarai","is_transit":true,"time":4,"i_long":106.84912,"line":0,"distance":1590},{"station_id":"SUD","transit":false,"station_name":"Sudirman","is_transit":false,"distance":3186,"i_lat":-6.202263,"time":4,"i_long":106.822649,"line":1},{"line":1,"station_name":"Sudirman Baru","transit":false,"station_id":"SUDB","is_transit":false,"distance":280,"time":1,"i_lat":-6.201433,"i_long":106.819881},{"time":1,"transit":false,"i_lat":-6.20132,"station_id":"KAT","station_name":"Karet","i_long":106.816351,"line":1,"is_transit":false,"distance":471}],[{"line":6,"time":0,"i_long":106.394373,"station_name":"Maja","transit":false,"station_id":"MJ","is_transit":false,"i_lat":-6.332307,"distance":0},{"line":0,"i_long":106.411216,"station_name":"Cikoya","distance":1853,"i_lat":-6.33561,"transit":false,"station_id":"CKY","is_transit":false,"time":4},{"is_transit":false,"station_name":"Tigaraksa","distance":2651,"i_long":106.425991,"transit":false,"time":3,"station_id":"TGS","i_lat":-6.328533,"line":6},{"is_transit":false,"distance":2974,"transit":false,"station_id":"TEJ","i_long":106.460812,"line":6,"time":5,"i_lat":-6.327251,"station_name":"Tenjo"},{"station_name":"Daru","transit":false,"station_id":"DAR","distance":3902,"time":5,"is_transit":false,"i_lat":-6.338021,"i_long":106.491338,"line":0},{"distance":2675,"station_name":"Cilejit","transit":false,"line":0,"i_long":106.508482,"station_id":"CJT","is_transit":false,"time":6,"i_lat":-6.354349},{"station_name":"Parung Panjang","is_transit":false,"line":6,"transit":false,"i_lat":-6.3441410000000005,"i_long":106.568863,"station_id":"PRP","time":9,"distance":7025},{"is_transit":false,"line":0,"time":8,"distance":5968,"i_lat":-6.329547,"transit":false,"station_name":"Cicayur","i_long":106.617853,"station_id":"CC"},{"i_long":106.640411,"transit":false,"line":0,"is_transit":false,"station_name":"Cisauk","i_lat":-6.32484,"time":4,"distance":2519,"station_id":"CSK"},{"station_id":"SRP","transit":false,"time":4,"is_transit":false,"distance":1784,"i_long":106.66566,"line":6,"station_name":"Serpong","i_lat":-6.319871},{"transit":false,"i_lat":-6.314823,"is_transit":false,"distance":2413,"line":6,"station_name":"Rawa Buntu","i_long":106.675475,"station_id":"RU","time":4},{"is_transit":false,"time":6,"i_lat":-6.296963,"station_id":"SDM","i_long":106.712277,"line":6,"station_name":"Sudimara","transit":false,"distance":4566},{"distance":1994,"station_id":"JMU","i_long":106.728916,"transit":false,"is_transit":false,"station_name":"Jurangmangu","i_lat":-6.288927,"line":6,"time":4},{"i_long":106.74273,"transit":false,"station_id":"PDJ","time":3,"i_lat":-6.276362,"line":6,"is_transit":false,"distance":2179,"station_name":"Pondokranji"},{"line":6,"station_id":"KBY","is_transit":false,"distance":6218,"station_name":"Kebayoran","transit":false,"time":8,"i_long":106.780334,"i_lat":-6.237242},{"i_lat":-6.207404,"transit":false,"station_id":"PLM","is_transit":false,"distance":3737,"station_name":"Palmerah","time":7,"line":6,"i_long":106.79689},{"line":1,"transit":true,"is_transit":true,"time":6,"i_long":106.811091,"i_lat":-6.185545,"station_name":"Tanah Abang","station_id":"THB","distance":3191},{"transit":true,"i_lat":-6.155215,"i_long":106.800832,"distance":3632,"is_transit":true,"station_name":"Duri","time":8,"station_id":"DU","line":1},{"station_id":"AK","i_lat":-6.144674,"distance":1230,"is_transit":false,"i_long":106.79867,"line":0,"transit":false,"station_name":"Angke","time":4},{"i_lat":-6.132549,"time":9,"transit":true,"distance":4102,"is_transit":true,"line":0,"station_id":"KPB","i_long":106.826365,"station_name":"Kampung Bandan"},{"line":11,"station_name":"Rajawali","transit":false,"is_transit":false,"i_long":106.836569,"station_id":"RJW","time":3,"i_lat":-6.14505,"distance":1444},{"station_name":"Kemayoran","transit":false,"distance":1901,"time":5,"is_transit":false,"i_long":106.839204,"station_id":"KMO","line":11,"i_lat":-6.161728},{"line":11,"transit":false,"station_id":"PSE","time":4,"is_transit":false,"distance":1436,"station_name":"Pasar Senen","i_lat":-6.174784,"i_long":106.84368},{"line":11,"station_id":"GST","distance":1567,"i_long":106.850107,"time":8,"transit":false,"i_lat":-6.185975,"station_name":"Gang Sentiong","is_transit":false},{"i_lat":-6.193792,"station_id":"KMT","is_transit":false,"line":11,"transit":false,"distance":973,"time":1,"station_name":"Kramat","i_long":106.855437},{"line":11,"station_name":"Pondok Jati","station_id":"POK","transit":false,"i_lat":-6.209188,"is_transit":false,"distance":1829,"i_long":106.861737,"time":2},{"is_transit":true,"i_lat":-6.215091,"distance":1236,"station_id":"JNG","station_name":"Jatinegara","line":0,"transit":true,"time":9,"i_long":106.86807400000001},{"i_long":106.858896,"transit":false,"is_transit":false,"station_name":"Matraman","station_id":"MTR","i_lat":-6.212485,"line":1,"time":2,"distance":1377},{"line":0,"i_lat":-6.209883,"transit":false,"distance":1275,"time":2,"station_id":"MRI","is_transit":true,"i_long":106.84912,"station_name":"Manggarai"},{"i_long":106.822649,"line":1,"transit":false,"time":4,"station_name":"Sudirman","station_id":"SUD","distance":3186,"i_lat":-6.202263,"is_transit":false},{"station_name":"Sudirman Baru","station_id":"SUDB","time":1,"distance":280,"is_transit":false,"line":1,"transit":false,"i_long":106.819881,"i_lat":-6.201433},{"is_transit":false,"distance":471,"i_lat":-6.20132,"time":1,"station_id":"KAT","station_name":"Karet","line":1,"transit":false,"i_long":106.816351}]]}