{"data":[[{"is_transit":false,"station_id":"MJ","i_long":106.394373,"line":6,"station_name":"Maja","time":0,"transit":false,"i_lat":-6.332307,"distance":0},{"is_transit":false,"transit":false,"i_long":106.411216,"station_id":"CKY","i_lat":-6.33561,"line":3,"station_name":"Cikoya","distance":1853,"time":4},{"line":6,"time":3,"i_lat":-6.328533,"transit":false,"station_id":"TGS","is_transit":false,"station_name":"Tigaraksa","distance":2651,"i_long":106.425991},{"transit":false,"station_id":"TEJ","i_long":106.460812,"distance":2974,"line":6,"is_transit":false,"station_name":"Tenjo","time":5,"i_lat":-6.327251},{"i_long":106.491338,"station_id":"DAR","transit":false,"distance":3902,"is_transit":false,"i_lat":-6.338021,"time":5,"line":0,"station_name":"Daru"},{"station_id":"CJT","line":3,"station_name":"Cilejit","transit":false,"time":6,"distance":2675,"i_long":106.508482,"is_transit":false,"i_lat":-6.354349},{"i_lat":-6.3441410000000005,"station_id":"PRP","i_long":106.568863,"is_transit":false,"time":9,"transit":false,"distance":7025,"line":6,"station_name":"Parung Panjang"},{"distance":5968,"station_id":"CC","transit":false,"i_lat":-6.329547,"i_long":106.617853,"is_transit":false,"station_name":"Cicayur","line":3,"time":8},{"distance":2519,"i_long":106.640411,"line":3,"is_transit":false,"i_lat":-6.32484,"station_id":"CSK","time":4,"station_name":"Cisauk","transit":false},{"distance":1784,"station_name":"Serpong","transit":false,"line":6,"i_lat":-6.319871,"station_id":"SRP","time":4,"i_long":106.66566,"is_transit":false},{"i_long":106.675475,"line":6,"distance":2413,"is_transit":false,"station_id":"RU","i_lat":-6.314823,"time":4,"transit":false,"station_name":"Rawa Buntu"},{"station_name":"Sudimara","i_lat":-6.296963,"time":6,"line":6,"i_long":106.712277,"station_id":"SDM","distance":4566,"is_transit":false,"transit":false},{"distance":1994,"station_name":"Jurangmangu","station_id":"JMU","transit":false,"line":6,"i_long":106.728916,"i_lat":-6.288927,"time":4,"is_transit":false},{"is_transit":false,"station_name":"Pondokranji","time":3,"i_long":106.74273,"transit":false,"distance":2179,"i_lat":-6.276362,"line":6,"station_id":"PDJ"},{"is_transit":false,"i_lat":-6.237242,"time":8,"line":6,"transit":false,"station_id":"KBY","station_name":"Kebayoran","distance":6218,"i_long":106.780334},{"is_transit":false,"station_id":"PLM","station_name":"Palmerah","distance":3737,"transit":false,"i_long":106.79689,"line":6,"i_lat":-6.207404,"time":7},{"transit":true,"station_name":"Tanah Abang","time":6,"station_id":"THB","i_lat":-6.185545,"distance":3191,"i_long":106.811091,"line":1,"is_transit":true},{"i_lat":-6.20132,"is_transit":false,"i_long":106.816351,"station_id":"KAT","time":5,"station_name":"Karet","line":1,"distance":2029,"transit":false},{"i_lat":-6.201433,"distance":471,"station_id":"SUDB","line":1,"station_name":"Sudirman Baru","transit":false,"i_long":106.819881,"is_transit":false,"time":1},{"time":1,"i_long":106.822649,"transit":false,"i_lat":-6.202263,"is_transit":false,"line":1,"station_name":"Sudirman","distance":280,"station_id":"SUD"},{"transit":true,"i_lat":-6.209883,"time":4,"distance":3186,"line":2,"is_transit":true,"i_long":106.84912,"station_id":"MRI","station_name":"Manggarai"},{"time":4,"distance":2610,"i_lat":-6.226659,"station_id":"TEB","transit":false,"is_transit":false,"station_name":"Tebet","i_long":106.857948,"line":2},{"transit":false,"is_transit":false,"station_id":"CW","distance":1230,"time":2,"i_lat":-6.242512,"station_name":"Cawang","line":2,"i_long":106.856607},{"i_lat":-6.255332,"distance":1546,"is_transit":false,"station_name":"Duren Kalibata","transit":false,"time":3,"i_long":106.85449,"line":2,"station_id":"DRN"},{"station_name":"Pasar Minggu Baru","distance":824,"station_id":"PSMB","i_lat":-6.263214,"is_transit":false,"time":2,"transit":false,"i_long":106.851577,"line":2},{"transit":false,"i_long":106.843999,"distance":2380,"station_id":"PSM","time":2,"is_transit":false,"i_lat":-6.2842400000000005,"line":2,"station_name":"Pasar Minggu"},{"transit":false,"time":4,"distance":2820,"is_transit":false,"station_name":"Tanjung Barat","i_lat":-6.3080680000000005,"line":2,"i_long":106.838896,"station_id":"TNT"},{"line":2,"is_transit":false,"station_name":"Lenteng Agung","time":3,"i_lat":-6.330363,"station_id":"LNA","i_long":106.832616,"transit":false,"distance":2671},{"station_name":"Univ. Pancasila","is_transit":false,"station_id":"UP","i_long":106.834175,"time":2,"i_lat":-6.339291,"line":2,"transit":false,"distance":1029},{"i_long":106.831474,"i_lat":-6.360749,"line":2,"time":3,"station_id":"UI","transit":false,"is_transit":false,"distance":2264,"station_name":"Univ. Indonesia"},{"transit":false,"distance":1109,"line":2,"i_long":106.831114,"station_id":"POC","station_name":"Pondok Cina","is_transit":false,"time":2,"i_lat":-6.369073},{"line":2,"station_id":"DPB","distance":2727,"is_transit":false,"i_long":106.819451,"time":4,"transit":false,"i_lat":-6.391065,"station_name":"Depokbaru"},{"line":2,"time":3,"transit":false,"is_transit":false,"station_name":"Depok","station_id":"DP","i_lat":-6.405256,"i_long":106.816926,"distance":1584},{"distance":5084,"transit":true,"time":6,"is_transit":true,"station_name":"Citayam","line":2,"i_long":106.800298,"i_lat":-6.448811,"station_id":"CTA"},{"line":21,"is_transit":false,"station_name":"Pondok Rajeg","transit":false,"i_long":106.824374,"time":0,"station_id":"PDRG","distance":0,"i_lat":-6.460735},{"i_lat":-6.46424,"distance":0,"transit":false,"line":21,"is_transit":false,"time":0,"station_id":"CBN","station_name":"Cibinong","i_long":106.851978},{"is_transit":false,"transit":false,"distance":6527,"i_long":106.905196,"line":21,"i_lat":-6.466285,"station_id":"NMO","station_name":"Nambo","time":10}],[{"time":0,"station_id":"MJ","distance":0,"i_long":106.394373,"line":6,"station_name":"Maja","transit":false,"is_transit":false,"i_lat":-6.332307},{"line":3,"station_id":"CKY","i_long":106.411216,"time":4,"distance":1853,"is_transit":false,"station_name":"Cikoya","transit":false,"i_lat":-6.33561},{"time":3,"station_id":"TGS","is_transit":false,"station_name":"Tigaraksa","line":6,"distance":2651,"i_lat":-6.328533,"i_long":106.425991,"transit":false},{"transit":false,"i_lat":-6.327251,"station_id":"TEJ","time":5,"line":6,"i_long":106.460812,"distance":2974,"is_transit":false,"station_name":"Tenjo"},{"distance":3902,"i_long":106.491338,"transit":false,"is_transit":false,"station_id":"DAR","station_name":"Daru","time":5,"i_lat":-6.338021,"line":0},{"line":3,"distance":2675,"time":6,"is_transit":false,"i_lat":-6.354349,"i_long":106.508482,"station_id":"CJT","station_name":"Cilejit","transit":false},{"line":6,"distance":7025,"i_lat":-6.3441410000000005,"station_name":"Parung Panjang","i_long":106.568863,"is_transit":false,"transit":false,"time":9,"station_id":"PRP"},{"is_transit":false,"transit":false,"distance":5968,"station_name":"Cicayur","i_lat":-6.329547,"i_long":106.617853,"line":3,"time":8,"station_id":"CC"},{"station_id":"CSK","line":3,"transit":false,"time":4,"distance":2519,"station_name":"Cisauk","i_lat":-6.32484,"is_transit":false,"i_long":106.640411},{"distance":1784,"i_lat":-6.319871,"is_transit":false,"line":6,"time":4,"station_id":"SRP","station_name":"Serpong","transit":false,"i_long":106.66566},{"transit":false,"time":4,"distance":2413,"station_id":"RU","station_name":"Rawa Buntu","i_lat":-6.314823,"i_long":106.675475,"is_transit":false,"line":6},{"i_lat":-6.296963,"distance":4566,"station_id":"SDM","time":6,"i_long":106.712277,"line":6,"is_transit":false,"station_name":"Sudimara","transit":false},{"line":6,"distance":1994,"is_transit":false,"station_name":"Jurangmangu","i_long":106.728916,"i_lat":-6.288927,"time":4,"station_id":"JMU","transit":false},{"distance":2179,"transit":false,"line":6,"i_long":106.74273,"i_lat":-6.276362,"is_transit":false,"station_id":"PDJ","station_name":"Pondokranji","time":3},{"station_id":"KBY","transit":false,"i_long":106.780334,"i_lat":-6.237242,"line":6,"distance":6218,"time":8,"is_transit":false,"station_name":"Kebayoran"},{"distance":3737,"station_id":"PLM","station_name":"Palmerah","transit":false,"time":7,"i_long":106.79689,"i_lat":-6.207404,"line":6,"is_transit":false},{"time":6,"transit":true,"station_name":"Tanah Abang","i_long":106.811091,"station_id":"THB","distance":3191,"is_transit":true,"line":1,"i_lat":-6.185545},{"time":8,"distance":3632,"station_name":"Duri","is_transit":false,"station_id":"DU","i_long":106.800832,"i_lat":-6.155215,"line":1,"transit":false},{"i_long":106.79867,"transit":false,"time":4,"station_name":"Angke","distance":1230,"is_transit":false,"line":1,"i_lat":-6.144674,"station_id":"AK"},{"station_id":"KPB","is_transit":true,"transit":true,"time":9,"i_long":106.826365,"i_lat":-6.132549,"station_name":"Kampung Bandan","line":4,"distance":4102},{"i_lat":-6.137569,"line":2,"distance":1364,"station_name":"Jakarta Kota","transit":true,"i_long":106.812439,"is_transit":true,"time":3,"station_id":"JAKK"},{"i_lat":-6.141205,"station_id":"JAY","i_long":106.820901,"distance":1264,"is_transit":false,"transit":false,"time":4,"line":2,"station_name":"Jayakarta"},{"line":2,"distance":1080,"transit":false,"i_long":106.82482,"time":2,"station_id":"MGB","is_transit":false,"i_lat":-6.149769,"station_name":"Manggabesar"},{"is_transit":false,"station_id":"SW","distance":906,"station_name":"Sawah Besar","i_long":106.827103,"line":2,"time":2,"transit":false,"i_lat":-6.160725},{"time":2,"distance":1149,"station_name":"Juanda","i_long":106.828284,"is_transit":false,"station_id":"JUA","i_lat":-6.166716,"transit":false,"line":2},{"i_long":106.832183,"line":2,"transit":false,"station_name":"Gondangdia","is_transit":false,"distance":2015,"station_id":"GDD","i_lat":-6.186295,"time":4},{"i_long":106.840169,"i_lat":-6.198556,"transit":false,"distance":1750,"station_name":"Cikini","is_transit":false,"line":2,"time":3,"station_id":"CKI"},{"transit":false,"i_long":106.84912,"line":2,"i_lat":-6.209883,"distance":1590,"station_name":"Manggarai","time":4,"station_id":"MRI","is_transit":false},{"distance":2610,"station_name":"Tebet","is_transit":false,"transit":false,"time":4,"i_lat":-6.226659,"station_id":"TEB","i_long":106.857948,"line":2},{"transit":false,"line":2,"distance":1230,"i_long":106.856607,"is_transit":false,"station_name":"Cawang","i_lat":-6.242512,"time":2,"station_id":"CW"},{"i_long":106.85449,"distance":1546,"time":3,"station_name":"Duren Kalibata","i_lat":-6.255332,"station_id":"DRN","line":2,"is_transit":false,"transit":false},{"line":2,"time":2,"station_id":"PSMB","i_lat":-6.263214,"i_long":106.851577,"distance":824,"station_name":"Pasar Minggu Baru","is_transit":false,"transit":false},{"station_name":"Pasar Minggu","i_lat":-6.2842400000000005,"i_long":106.843999,"station_id":"PSM","line":2,"time":2,"is_transit":false,"transit":false,"distance":2380},{"i_lat":-6.3080680000000005,"station_id":"TNT","transit":false,"distance":2820,"i_long":106.838896,"time":4,"is_transit":false,"station_name":"Tanjung Barat","line":2},{"line":2,"distance":2671,"is_transit":false,"i_lat":-6.330363,"time":3,"transit":false,"station_name":"Lenteng Agung","station_id":"LNA","i_long":106.832616},{"is_transit":false,"time":2,"distance":1029,"station_name":"Univ. Pancasila","i_long":106.834175,"line":2,"station_id":"UP","transit":false,"i_lat":-6.339291},{"i_long":106.831474,"time":3,"transit":false,"i_lat":-6.360749,"station_name":"Univ. Indonesia","is_transit":false,"line":2,"distance":2264,"station_id":"UI"},{"station_name":"Pondok Cina","i_lat":-6.369073,"distance":1109,"is_transit":false,"time":2,"station_id":"POC","i_long":106.831114,"line":2,"transit":false},{"time":4,"station_id":"DPB","is_transit":false,"distance":2727,"transit":false,"i_lat":-6.391065,"station_name":"Depokbaru","i_long":106.819451,"line":2},{"i_long":106.816926,"station_id":"DP","time":3,"distance":1584,"transit":false,"line":2,"i_lat":-6.405256,"is_transit":false,"station_name":"Depok"},{"i_lat":-6.448811,"station_id":"CTA","time":6,"line":2,"distance":5084,"is_transit":true,"station_name":"Citayam","transit":true,"i_long":106.800298},{"distance":0,"i_lat":-6.460735,"line":21,"time":0,"i_long":106.824374,"is_transit":false,"station_id":"PDRG","station_name":"Pondok Rajeg","transit":false},{"time":0,"station_id":"CBN","is_transit":false,"line":21,"distance":0,"i_long":106.851978,"i_lat":-6.46424,"station_name":"Cibinong","transit":false},{"station_name":"Nambo","line":21,"station_id":"NMO","distance":6527,"i_lat":-6.466285,"is_transit":false,"i_long":106.905196,"transit":false,"time":10}],[{"i_lat":-6.332307,"is_transit":false,"station_name":"Maja","distance":0,"time":0,"transit":false,"i_long":106.394373,"line":6,"station_id":"MJ"},{"station_name":"Cikoya","transit":false,"i_lat":-6.33561,"station_id":"CKY","distance":1853,"is_transit":false,"time":4,"i_long":106.411216,"line":3},{"line":6,"distance":2651,"is_transit":false,"i_long":106.425991,"i_lat":-6.328533,"station_id":"TGS","station_name":"Tigaraksa","time":3,"transit":false},{"line":6,"transit":false,"time":5,"i_long":106.460812,"i_lat":-6.327251,"distance":2974,"is_transit":false,"station_name":"Tenjo","station_id":"TEJ"},{"distance":3902,"station_name":"Daru","i_long":106.491338,"i_lat":-6.338021,"transit":false,"station_id":"DAR","time":5,"is_transit":false,"line":0},{"is_transit":false,"transit":false,"i_long":106.508482,"time":6,"distance":2675,"station_name":"Cilejit","i_lat":-6.354349,"line":3,"station_id":"CJT"},{"i_long":106.568863,"line":6,"time":9,"transit":false,"i_lat":-6.3441410000000005,"distance":7025,"station_name":"Parung Panjang","is_transit":false,"station_id":"PRP"},{"line":3,"time":8,"i_long":106.617853,"station_id":"CC","distance":5968,"is_transit":false,"station_name":"Cicayur","transit":false,"i_lat":-6.329547},{"is_transit":false,"station_id":"CSK","station_name":"Cisauk","i_long":106.640411,"line":3,"transit":false,"time":4,"i_lat":-6.32484,"distance":2519},{"is_transit":false,"line":6,"i_lat":-6.319871,"distance":1784,"station_id":"SRP","station_name":"Serpong","i_long":106.66566,"transit":false,"time":4},{"time":4,"station_name":"Rawa Buntu","station_id":"RU","i_long":106.675475,"i_lat":-6.314823,"line":6,"distance":2413,"is_transit":false,"transit":false},{"time":6,"is_transit":false,"station_id":"SDM","i_long":106.712277,"line":6,"i_lat":-6.296963,"distance":4566,"transit":false,"station_name":"Sudimara"},{"distance":1994,"i_long":106.728916,"i_lat":-6.288927,"station_name":"Jurangmangu","transit":false,"line":6,"is_transit":false,"time":4,"station_id":"JMU"},{"line":6,"station_name":"Pondokranji","transit":false,"i_long":106.74273,"i_lat":-6.276362,"station_id":"PDJ","time":3,"distance":2179,"is_transit":false},{"station_id":"KBY","transit":false,"i_long":106.780334,"time":8,"is_transit":false,"distance":6218,"station_name":"Kebayoran","i_lat":-6.237242,"line":6},{"station_name":"Palmerah","transit":false,"i_lat":-6.207404,"is_transit":false,"time":7,"station_id":"PLM","i_long":106.79689,"distance":3737,"line":6},{"line":1,"distance":3191,"station_id":"THB","i_lat":-6.185545,"time":6,"is_transit":true,"i_long":106.811091,"transit":true,"station_name":"Tanah Abang"},{"transit":false,"i_long":106.800832,"station_name":"Duri","line":1,"time":8,"is_transit":false,"distance":3632,"i_lat":-6.155215,"station_id":"DU"},{"i_lat":-6.144674,"transit":false,"i_long":106.79867,"line":1,"station_name":"Angke","is_transit":false,"distance":1230,"time":4,"station_id":"AK"},{"time":9,"is_transit":true,"station_id":"KPB","station_name":"Kampung Bandan","distance":4102,"line":4,"i_long":106.826365,"i_lat":-6.132549,"transit":true},{"distance":1444,"time":3,"station_name":"Rajawali","line":11,"i_long":106.836569,"station_id":"RJW","is_transit":false,"transit":false,"i_lat":-6.14505},{"station_name":"Kemayoran","transit":false,"line":11,"time":5,"distance":1901,"i_lat":-6.161728,"station_id":"KMO","is_transit":false,"i_long":106.839204},{"transit":false,"is_transit":false,"line":11,"station_name":"Pasar Senen","i_lat":-6.174784,"i_long":106.84368,"station_id":"PSE","distance":1436,"time":4},{"is_transit":false,"station_id":"GST","line":11,"time":8,"station_name":"Gang Sentiong","i_lat":-6.185975,"transit":false,"i_long":106.850107,"distance":1567},{"distance":973,"i_long":106.855437,"line":11,"time":1,"station_name":"Kramat","is_transit":false,"transit":false,"station_id":"KMT","i_lat":-6.193792},{"is_transit":false,"transit":false,"distance":1829,"station_id":"POK","station_name":"Pondok Jati","i_lat":-6.209188,"line":11,"time":2,"i_long":106.861737},{"i_lat":-6.215091,"time":9,"i_long":106.86807400000001,"distance":1236,"is_transit":true,"transit":true,"station_id":"JNG","station_name":"Jatinegara","line":1},{"time":2,"is_transit":false,"transit":false,"station_name":"Matraman","line":1,"station_id":"MTR","i_lat":-6.212485,"i_long":106.858896,"distance":1377},{"transit":true,"is_transit":true,"station_id":"MRI","station_name":"Manggarai","i_long":106.84912,"line":2,"i_lat":-6.209883,"distance":1275,"time":2},{"station_id":"TEB","distance":2610,"i_lat":-6.226659,"transit":false,"i_long":106.857948,"time":4,"is_transit":false,"line":2,"station_name":"Tebet"},{"distance":1230,"i_lat":-6.242512,"transit":false,"time":2,"line":2,"station_name":"Cawang","i_long":106.856607,"is_transit":false,"station_id":"CW"},{"line":2,"i_long":106.85449,"distance":1546,"is_transit":false,"station_id":"DRN","station_name":"Duren Kalibata","time":3,"transit":false,"i_lat":-6.255332},{"station_name":"Pasar Minggu Baru","transit":false,"distance":824,"is_transit":false,"station_id":"PSMB","i_lat":-6.263214,"time":2,"i_long":106.851577,"line":2},{"is_transit":false,"station_id":"PSM","transit":false,"time":2,"distance":2380,"line":2,"i_long":106.843999,"station_name":"Pasar Minggu","i_lat":-6.2842400000000005},{"i_lat":-6.3080680000000005,"line":2,"station_name":"Tanjung Barat","is_transit":false,"i_long":106.838896,"time":4,"station_id":"TNT","distance":2820,"transit":false},{"line":2,"distance":2671,"time":3,"is_transit":false,"station_id":"LNA","i_lat":-6.330363,"transit":false,"station_name":"Lenteng Agung","i_long":106.832616},{"is_transit":false,"station_id":"UP","time":2,"distance":1029,"station_name":"Univ. Pancasila","i_lat":-6.339291,"i_long":106.834175,"transit":false,"line":2},{"i_long":106.831474,"station_name":"Univ. Indonesia","transit":false,"time":3,"distance":2264,"line":2,"is_transit":false,"station_id":"UI","i_lat":-6.360749},{"time":2,"station_id":"POC","i_lat":-6.369073,"station_name":"Pondok Cina","line":2,"i_long":106.831114,"is_transit":false,"distance":1109,"transit":false},{"distance":2727,"time":4,"transit":false,"i_lat":-6.391065,"line":2,"station_name":"Depokbaru","station_id":"DPB","is_transit":false,"i_long":106.819451},{"i_long":106.816926,"distance":1584,"is_transit":false,"time":3,"station_id":"DP","station_name":"Depok","line":2,"i_lat":-6.405256,"transit":false},{"distance":5084,"is_transit":true,"station_id":"CTA","line":2,"i_long":106.800298,"i_lat":-6.448811,"time":6,"station_name":"Citayam","transit":true},{"station_id":"PDRG","i_lat":-6.460735,"transit":false,"i_long":106.824374,"distance":0,"is_transit":false,"station_name":"Pondok Rajeg","line":21,"time":0},{"station_id":"CBN","is_transit":false,"station_name":"Cibinong","transit":false,"i_long":106.851978,"time":0,"i_lat":-6.46424,"line":21,"distance":0},{"transit":false,"i_long":106.905196,"time":10,"distance":6527,"i_lat":-6.466285,"line":21,"station_name":"Nambo","is_transit":false,"station_id":"NMO"}]]}