{"data":[[{"station_id":"MJ","transit":false,"i_lat":-6.332307,"i_long":106.394373,"line":6,"station_name":"Maja","is_transit":false,"distance":0,"time":0},{"is_transit":false,"line":3,"station_id":"CKY","time":4,"transit":false,"distance":1853,"i_lat":-6.33561,"i_long":106.411216,"station_name":"Cikoya"},{"i_lat":-6.328533,"time":3,"station_id":"TGS","distance":2651,"i_long":106.425991,"station_name":"Tigaraksa","transit":false,"line":6,"is_transit":false},{"time":5,"transit":false,"line":6,"i_lat":-6.327251,"station_id":"TEJ","distance":2974,"is_transit":false,"i_long":106.460812,"station_name":"Tenjo"},{"transit":false,"line":0,"distance":3902,"station_id":"DAR","i_long":106.491338,"station_name":"Daru","i_lat":-6.338021,"time":5,"is_transit":false},{"station_name":"Cilejit","transit":false,"is_transit":false,"line":3,"i_long":106.508482,"time":6,"distance":2675,"station_id":"CJT","i_lat":-6.354349},{"station_id":"PRP","i_lat":-6.3441410000000005,"transit":false,"i_long":106.568863,"line":6,"time":9,"station_name":"Parung Panjang","is_transit":false,"distance":7025},{"station_id":"CC","is_transit":false,"i_lat":-6.329547,"transit":false,"distance":5968,"line":3,"time":8,"station_name":"Cicayur","i_long":106.617853},{"distance":2519,"station_id":"CSK","i_lat":-6.32484,"i_long":106.640411,"transit":false,"is_transit":false,"line":3,"time":4,"station_name":"Cisauk"},{"is_transit":false,"distance":1784,"station_name":"Serpong","transit":false,"i_lat":-6.319871,"i_long":106.66566,"line":6,"time":4,"station_id":"SRP"},{"time":4,"transit":false,"station_name":"Rawa Buntu","i_long":106.675475,"station_id":"RU","distance":2413,"i_lat":-6.314823,"line":6,"is_transit":false},{"i_long":106.712277,"i_lat":-6.296963,"time":6,"is_transit":false,"distance":4566,"station_id":"SDM","station_name":"Sudimara","transit":false,"line":6},{"i_long":106.728916,"i_lat":-6.288927,"transit":false,"time":4,"is_transit":false,"station_id":"JMU","line":6,"distance":1994,"station_name":"Jurangmangu"},{"distance":2179,"time":3,"station_id":"PDJ","is_transit":false,"transit":false,"i_long":106.74273,"i_lat":-6.276362,"station_name":"Pondokranji","line":6},{"time":8,"distance":6218,"station_id":"KBY","is_transit":false,"i_lat":-6.237242,"i_long":106.780334,"line":6,"station_name":"Kebayoran","transit":false},{"is_transit":false,"i_long":106.79689,"transit":false,"station_id":"PLM","station_name":"Palmerah","time":7,"i_lat":-6.207404,"distance":3737,"line":6},{"distance":3191,"transit":true,"is_transit":true,"time":6,"i_long":106.811091,"line":1,"station_id":"THB","i_lat":-6.185545,"station_name":"Tanah Abang"},{"line":1,"i_lat":-6.20132,"is_transit":false,"station_name":"Karet","i_long":106.816351,"transit":false,"distance":2029,"station_id":"KAT","time":5},{"is_transit":false,"distance":471,"time":1,"station_name":"Sudirman Baru","line":1,"station_id":"SUDB","transit":false,"i_long":106.819881,"i_lat":-6.201433},{"i_lat":-6.202263,"transit":false,"station_id":"SUD","i_long":106.822649,"station_name":"Sudirman","is_transit":false,"line":1,"distance":280,"time":1},{"station_name":"Manggarai","line":2,"time":4,"transit":true,"distance":3186,"station_id":"MRI","is_transit":true,"i_lat":-6.209883,"i_long":106.84912},{"time":4,"is_transit":false,"transit":false,"i_lat":-6.226659,"i_long":106.857948,"distance":2610,"line":2,"station_name":"Tebet","station_id":"TEB"},{"i_long":106.856607,"transit":false,"i_lat":-6.242512,"station_name":"Cawang","time":2,"station_id":"CW","distance":1230,"line":2,"is_transit":false},{"station_name":"Duren Kalibata","time":3,"distance":1546,"is_transit":false,"i_lat":-6.255332,"station_id":"DRN","transit":false,"i_long":106.85449,"line":2},{"time":2,"distance":824,"i_lat":-6.263214,"i_long":106.851577,"transit":false,"line":2,"station_id":"PSMB","station_name":"Pasar Minggu Baru","is_transit":false},{"i_lat":-6.2842400000000005,"time":2,"i_long":106.843999,"transit":false,"station_id":"PSM","station_name":"Pasar Minggu","distance":2380,"is_transit":false,"line":2},{"station_name":"Tanjung Barat","time":4,"line":2,"is_transit":false,"transit":false,"distance":2820,"station_id":"TNT","i_long":106.838896,"i_lat":-6.3080680000000005},{"time":3,"is_transit":false,"i_long":106.832616,"distance":2671,"transit":false,"station_name":"Lenteng Agung","station_id":"LNA","i_lat":-6.330363,"line":2},{"time":2,"station_id":"UP","distance":1029,"is_transit":false,"transit":false,"station_name":"Univ. Pancasila","line":2,"i_lat":-6.339291,"i_long":106.834175},{"station_name":"Univ. Indonesia","i_lat":-6.360749,"is_transit":false,"transit":false,"station_id":"UI","time":3,"distance":2264,"i_long":106.831474,"line":2},{"distance":1109,"time":2,"is_transit":false,"station_name":"Pondok Cina","station_id":"POC","line":2,"i_long":106.831114,"i_lat":-6.369073,"transit":false},{"i_lat":-6.391065,"is_transit":false,"time":4,"station_name":"Depokbaru","distance":2727,"station_id":"DPB","line":2,"i_long":106.819451,"transit":false},{"i_lat":-6.405256,"i_long":106.816926,"time":3,"is_transit":false,"transit":false,"station_name":"Depok","station_id":"DP","line":2,"distance":1584},{"time":6,"distance":5084,"station_id":"CTA","is_transit":true,"transit":true,"i_lat":-6.448811,"i_long":106.800298,"line":2,"station_name":"Citayam"},{"time":0,"line":21,"transit":false,"i_lat":-6.460735,"i_long":106.824374,"station_id":"PDRG","station_name":"Pondok Rajeg","distance":0,"is_transit":false},{"i_long":106.851978,"station_name":"Cibinong","i_lat":-6.46424,"time":0,"distance":0,"station_id":"CBN","is_transit":false,"line":21,"transit":false},{"station_id":"NMO","distance":6527,"is_transit":false,"transit":false,"i_long":106.905196,"line":21,"time":10,"station_name":"Nambo","i_lat":-6.466285}],[{"i_lat":-6.332307,"transit":false,"distance":0,"station_name":"Maja","line":6,"is_transit":false,"i_long":106.394373,"station_id":"MJ","time":0},{"station_name":"Cikoya","transit":false,"station_id":"CKY","time":4,"i_lat":-6.33561,"is_transit":false,"distance":1853,"i_long":106.411216,"line":3},{"distance":2651,"transit":false,"i_long":106.425991,"station_name":"Tigaraksa","i_lat":-6.328533,"station_id":"TGS","is_transit":false,"time":3,"line":6},{"station_id":"TEJ","time":5,"i_long":106.460812,"is_transit":false,"transit":false,"i_lat":-6.327251,"station_name":"Tenjo","distance":2974,"line":6},{"transit":false,"station_id":"DAR","station_name":"Daru","is_transit":false,"i_lat":-6.338021,"i_long":106.491338,"line":0,"time":5,"distance":3902},{"time":6,"is_transit":false,"station_name":"Cilejit","transit":false,"distance":2675,"line":3,"i_lat":-6.354349,"i_long":106.508482,"station_id":"CJT"},{"station_name":"Parung Panjang","station_id":"PRP","line":6,"distance":7025,"is_transit":false,"transit":false,"i_long":106.568863,"time":9,"i_lat":-6.3441410000000005},{"distance":5968,"time":8,"i_lat":-6.329547,"transit":false,"station_id":"CC","station_name":"Cicayur","is_transit":false,"i_long":106.617853,"line":3},{"is_transit":false,"line":3,"time":4,"i_lat":-6.32484,"i_long":106.640411,"transit":false,"distance":2519,"station_id":"CSK","station_name":"Cisauk"},{"distance":1784,"i_long":106.66566,"i_lat":-6.319871,"station_name":"Serpong","station_id":"SRP","is_transit":false,"transit":false,"line":6,"time":4},{"transit":false,"station_name":"Rawa Buntu","time":4,"is_transit":false,"i_lat":-6.314823,"distance":2413,"station_id":"RU","line":6,"i_long":106.675475},{"time":6,"transit":false,"station_id":"SDM","station_name":"Sudimara","i_long":106.712277,"i_lat":-6.296963,"line":6,"distance":4566,"is_transit":false},{"is_transit":false,"i_long":106.728916,"station_name":"Jurangmangu","time":4,"i_lat":-6.288927,"distance":1994,"station_id":"JMU","transit":false,"line":6},{"is_transit":false,"i_long":106.74273,"distance":2179,"station_id":"PDJ","time":3,"station_name":"Pondokranji","i_lat":-6.276362,"line":6,"transit":false},{"station_name":"Kebayoran","distance":6218,"line":6,"i_long":106.780334,"time":8,"is_transit":false,"transit":false,"i_lat":-6.237242,"station_id":"KBY"},{"i_long":106.79689,"line":6,"is_transit":false,"station_name":"Palmerah","time":7,"i_lat":-6.207404,"distance":3737,"station_id":"PLM","transit":false},{"line":1,"i_lat":-6.185545,"time":6,"i_long":106.811091,"is_transit":true,"station_id":"THB","transit":true,"station_name":"Tanah Abang","distance":3191},{"i_long":106.800832,"time":8,"distance":3632,"is_transit":false,"line":1,"station_name":"Duri","i_lat":-6.155215,"station_id":"DU","transit":false},{"i_long":106.79867,"station_name":"Angke","i_lat":-6.144674,"station_id":"AK","is_transit":false,"line":1,"time":4,"distance":1230,"transit":false},{"i_long":106.826365,"line":4,"time":9,"is_transit":true,"station_name":"Kampung Bandan","distance":4102,"transit":true,"station_id":"KPB","i_lat":-6.132549},{"i_long":106.812439,"transit":true,"line":2,"station_id":"JAKK","station_name":"Jakarta Kota","distance":1364,"i_lat":-6.137569,"time":3,"is_transit":true},{"i_long":106.820901,"line":2,"transit":false,"time":4,"is_transit":false,"i_lat":-6.141205,"distance":1264,"station_name":"Jayakarta","station_id":"JAY"},{"i_lat":-6.149769,"line":2,"is_transit":false,"time":2,"transit":false,"i_long":106.82482,"station_id":"MGB","distance":1080,"station_name":"Manggabesar"},{"station_id":"SW","distance":906,"transit":false,"i_lat":-6.160725,"time":2,"line":2,"station_name":"Sawah Besar","i_long":106.827103,"is_transit":false},{"is_transit":false,"time":2,"transit":false,"distance":1149,"station_name":"Juanda","station_id":"JUA","i_lat":-6.166716,"i_long":106.828284,"line":2},{"is_transit":false,"station_name":"Gondangdia","distance":2015,"line":2,"transit":false,"station_id":"GDD","i_lat":-6.186295,"i_long":106.832183,"time":4},{"line":2,"transit":false,"i_lat":-6.198556,"i_long":106.840169,"time":3,"distance":1750,"station_id":"CKI","is_transit":false,"station_name":"Cikini"},{"station_id":"MRI","transit":false,"time":4,"distance":1590,"is_transit":false,"station_name":"Manggarai","i_lat":-6.209883,"i_long":106.84912,"line":2},{"station_name":"Tebet","time":4,"station_id":"TEB","is_transit":false,"transit":false,"i_lat":-6.226659,"line":2,"distance":2610,"i_long":106.857948},{"station_name":"Cawang","i_lat":-6.242512,"distance":1230,"station_id":"CW","i_long":106.856607,"transit":false,"time":2,"line":2,"is_transit":false},{"time":3,"station_name":"Duren Kalibata","transit":false,"i_lat":-6.255332,"i_long":106.85449,"line":2,"is_transit":false,"distance":1546,"station_id":"DRN"},{"i_long":106.851577,"is_transit":false,"station_name":"Pasar Minggu Baru","transit":false,"station_id":"PSMB","i_lat":-6.263214,"line":2,"time":2,"distance":824},{"distance":2380,"is_transit":false,"transit":false,"i_lat":-6.2842400000000005,"time":2,"i_long":106.843999,"line":2,"station_name":"Pasar Minggu","station_id":"PSM"},{"line":2,"distance":2820,"station_id":"TNT","station_name":"Tanjung Barat","is_transit":false,"transit":false,"time":4,"i_lat":-6.3080680000000005,"i_long":106.838896},{"i_lat":-6.330363,"line":2,"distance":2671,"is_transit":false,"station_id":"LNA","time":3,"station_name":"Lenteng Agung","transit":false,"i_long":106.832616},{"station_id":"UP","distance":1029,"is_transit":false,"station_name":"Univ. Pancasila","i_lat":-6.339291,"line":2,"i_long":106.834175,"transit":false,"time":2},{"transit":false,"line":2,"station_id":"UI","time":3,"i_lat":-6.360749,"i_long":106.831474,"station_name":"Univ. Indonesia","is_transit":false,"distance":2264},{"i_lat":-6.369073,"transit":false,"i_long":106.831114,"station_id":"POC","time":2,"distance":1109,"station_name":"Pondok Cina","is_transit":false,"line":2},{"line":2,"distance":2727,"time":4,"station_name":"Depokbaru","is_transit":false,"station_id":"DPB","transit":false,"i_lat":-6.391065,"i_long":106.819451},{"station_name":"Depok","is_transit":false,"transit":false,"i_long":106.816926,"distance":1584,"line":2,"i_lat":-6.405256,"station_id":"DP","time":3},{"distance":5084,"is_transit":true,"station_name":"Citayam","transit":true,"i_lat":-6.448811,"i_long":106.800298,"time":6,"station_id":"CTA","line":2},{"station_name":"Pondok Rajeg","transit":false,"i_lat":-6.460735,"i_long":106.824374,"time":0,"station_id":"PDRG","is_transit":false,"line":21,"distance":0},{"i_long":106.851978,"station_name":"Cibinong","transit":false,"is_transit":false,"line":21,"station_id":"CBN","time":0,"distance":0,"i_lat":-6.46424},{"distance":6527,"station_id":"NMO","station_name":"Nambo","is_transit":false,"i_long":106.905196,"line":21,"i_lat":-6.466285,"time":10,"transit":false}],[{"distance":0,"i_lat":-6.332307,"i_long":106.394373,"line":6,"station_id":"MJ","time":0,"station_name":"Maja","transit":false,"is_transit":false},{"station_name":"Cikoya","line":3,"i_long":106.411216,"transit":false,"distance":1853,"station_id":"CKY","time":4,"is_transit":false,"i_lat":-6.33561},{"station_id":"TGS","time":3,"i_long":106.425991,"distance":2651,"station_name":"Tigaraksa","transit":false,"i_lat":-6.328533,"is_transit":false,"line":6},{"transit":false,"station_name":"Tenjo","i_lat":-6.327251,"time":5,"i_long":106.460812,"line":6,"station_id":"TEJ","is_transit":false,"distance":2974},{"station_id":"DAR","i_long":106.491338,"is_transit":false,"time":5,"distance":3902,"i_lat":-6.338021,"line":0,"station_name":"Daru","transit":false},{"transit":false,"is_transit":false,"i_lat":-6.354349,"i_long":106.508482,"time":6,"station_name":"Cilejit","distance":2675,"station_id":"CJT","line":3},{"is_transit":false,"line":6,"transit":false,"time":9,"station_id":"PRP","station_name":"Parung Panjang","i_long":106.568863,"i_lat":-6.3441410000000005,"distance":7025},{"station_name":"Cicayur","i_long":106.617853,"station_id":"CC","distance":5968,"is_transit":false,"time":8,"i_lat":-6.329547,"transit":false,"line":3},{"distance":2519,"i_long":106.640411,"time":4,"transit":false,"station_name":"Cisauk","station_id":"CSK","i_lat":-6.32484,"line":3,"is_transit":false},{"station_id":"SRP","transit":false,"is_transit":false,"distance":1784,"i_long":106.66566,"station_name":"Serpong","time":4,"i_lat":-6.319871,"line":6},{"distance":2413,"i_long":106.675475,"is_transit":false,"time":4,"station_id":"RU","line":6,"station_name":"Rawa Buntu","i_lat":-6.314823,"transit":false},{"i_lat":-6.296963,"is_transit":false,"distance":4566,"station_name":"Sudimara","i_long":106.712277,"time":6,"station_id":"SDM","line":6,"transit":false},{"station_id":"JMU","is_transit":false,"transit":false,"distance":1994,"i_lat":-6.288927,"i_long":106.728916,"time":4,"line":6,"station_name":"Jurangmangu"},{"is_transit":false,"line":6,"i_lat":-6.276362,"distance":2179,"time":3,"station_id":"PDJ","station_name":"Pondokranji","transit":false,"i_long":106.74273},{"i_lat":-6.237242,"line":6,"time":8,"is_transit":false,"station_id":"KBY","station_name":"Kebayoran","i_long":106.780334,"distance":6218,"transit":false},{"i_lat":-6.207404,"line":6,"distance":3737,"station_id":"PLM","i_long":106.79689,"is_transit":false,"time":7,"transit":false,"station_name":"Palmerah"},{"station_name":"Tanah Abang","station_id":"THB","is_transit":true,"transit":true,"i_lat":-6.185545,"i_long":106.811091,"distance":3191,"time":6,"line":1},{"is_transit":false,"transit":false,"line":1,"i_lat":-6.155215,"station_name":"Duri","i_long":106.800832,"time":8,"station_id":"DU","distance":3632},{"transit":false,"i_long":106.79867,"station_id":"AK","line":1,"is_transit":false,"station_name":"Angke","time":4,"i_lat":-6.144674,"distance":1230},{"i_long":106.826365,"line":4,"time":9,"is_transit":true,"transit":true,"station_id":"KPB","i_lat":-6.132549,"distance":4102,"station_name":"Kampung Bandan"},{"time":3,"distance":1444,"i_lat":-6.14505,"station_id":"RJW","i_long":106.836569,"line":11,"is_transit":false,"station_name":"Rajawali","transit":false},{"line":11,"time":5,"is_transit":false,"i_lat":-6.161728,"distance":1901,"transit":false,"station_name":"Kemayoran","i_long":106.839204,"station_id":"KMO"},{"station_name":"Pasar Senen","is_transit":false,"i_lat":-6.174784,"transit":false,"line":11,"distance":1436,"time":4,"i_long":106.84368,"station_id":"PSE"},{"station_id":"GST","station_name":"Gang Sentiong","is_transit":false,"transit":false,"distance":1567,"i_long":106.850107,"i_lat":-6.185975,"line":11,"time":8},{"time":1,"distance":973,"transit":false,"station_name":"Kramat","station_id":"KMT","line":11,"is_transit":false,"i_long":106.855437,"i_lat":-6.193792},{"is_transit":false,"transit":false,"station_name":"Pondok Jati","station_id":"POK","i_lat":-6.209188,"time":2,"i_long":106.861737,"line":11,"distance":1829},{"is_transit":true,"station_name":"Jatinegara","distance":1236,"transit":true,"time":9,"i_lat":-6.215091,"i_long":106.86807400000001,"line":1,"station_id":"JNG"},{"station_name":"Matraman","i_lat":-6.212485,"station_id":"MTR","is_transit":false,"i_long":106.858896,"time":2,"transit":false,"line":1,"distance":1377},{"station_name":"Manggarai","i_lat":-6.209883,"line":2,"station_id":"MRI","transit":true,"i_long":106.84912,"time":2,"is_transit":true,"distance":1275},{"distance":2610,"transit":false,"time":4,"station_name":"Tebet","line":2,"i_lat":-6.226659,"station_id":"TEB","is_transit":false,"i_long":106.857948},{"station_id":"CW","i_long":106.856607,"station_name":"Cawang","distance":1230,"line":2,"transit":false,"i_lat":-6.242512,"time":2,"is_transit":false},{"i_lat":-6.255332,"time":3,"transit":false,"distance":1546,"station_id":"DRN","station_name":"Duren Kalibata","line":2,"is_transit":false,"i_long":106.85449},{"station_id":"PSMB","distance":824,"is_transit":false,"i_lat":-6.263214,"line":2,"i_long":106.851577,"station_name":"Pasar Minggu Baru","time":2,"transit":false},{"is_transit":false,"station_name":"Pasar Minggu","station_id":"PSM","transit":false,"i_lat":-6.2842400000000005,"i_long":106.843999,"line":2,"time":2,"distance":2380},{"i_lat":-6.3080680000000005,"transit":false,"line":2,"station_id":"TNT","station_name":"Tanjung Barat","is_transit":false,"time":4,"i_long":106.838896,"distance":2820},{"i_long":106.832616,"time":3,"station_id":"LNA","station_name":"Lenteng Agung","i_lat":-6.330363,"distance":2671,"line":2,"is_transit":false,"transit":false},{"time":2,"station_id":"UP","transit":false,"i_long":106.834175,"station_name":"Univ. Pancasila","line":2,"i_lat":-6.339291,"is_transit":false,"distance":1029},{"i_lat":-6.360749,"time":3,"distance":2264,"transit":false,"station_id":"UI","i_long":106.831474,"is_transit":false,"line":2,"station_name":"Univ. Indonesia"},{"line":2,"transit":false,"station_id":"POC","is_transit":false,"time":2,"distance":1109,"i_lat":-6.369073,"station_name":"Pondok Cina","i_long":106.831114},{"distance":2727,"time":4,"i_long":106.819451,"is_transit":false,"i_lat":-6.391065,"line":2,"transit":false,"station_name":"Depokbaru","station_id":"DPB"},{"i_lat":-6.405256,"i_long":106.816926,"station_name":"Depok","is_transit":false,"line":2,"station_id":"DP","distance":1584,"time":3,"transit":false},{"time":6,"station_id":"CTA","distance":5084,"transit":true,"i_lat":-6.448811,"i_long":106.800298,"line":2,"station_name":"Citayam","is_transit":true},{"is_transit":false,"distance":0,"line":21,"time":0,"i_long":106.824374,"transit":false,"station_name":"Pondok Rajeg","i_lat":-6.460735,"station_id":"PDRG"},{"station_id":"CBN","station_name":"Cibinong","i_lat":-6.46424,"line":21,"time":0,"is_transit":false,"transit":false,"distance":0,"i_long":106.851978},{"line":21,"station_id":"NMO","distance":6527,"i_long":106.905196,"i_lat":-6.466285,"time":10,"station_name":"Nambo","transit":false,"is_transit":false}]]}