{"data":[[{"transit":false,"i_lat":-6.332307,"i_long":106.394373,"time":0,"station_id":"MJ","station_name":"Maja","distance":0,"is_transit":false,"line":6},{"i_lat":-6.33561,"station_id":"CKY","time":4,"is_transit":false,"line":0,"distance":1853,"i_long":106.411216,"station_name":"Cikoya","transit":false},{"time":3,"i_long":106.425991,"line":6,"station_name":"Tigaraksa","is_transit":false,"transit":false,"i_lat":-6.328533,"station_id":"TGS","distance":2651},{"station_name":"Tenjo","station_id":"TEJ","line":6,"i_lat":-6.327251,"distance":2974,"is_transit":false,"i_long":106.460812,"time":5,"transit":false},{"station_id":"DAR","transit":false,"station_name":"Daru","line":0,"distance":3902,"i_lat":-6.338021,"i_long":106.491338,"time":5,"is_transit":false},{"is_transit":false,"distance":2675,"line":0,"i_lat":-6.354349,"transit":false,"time":6,"i_long":106.508482,"station_name":"Cilejit","station_id":"CJT"},{"station_id":"PRP","distance":7025,"line":6,"i_long":106.568863,"is_transit":false,"time":9,"station_name":"Parung Panjang","transit":false,"i_lat":-6.3441410000000005},{"time":8,"station_id":"CC","station_name":"Cicayur","is_transit":false,"i_lat":-6.329547,"i_long":106.617853,"line":0,"distance":5968,"transit":false},{"time":4,"station_id":"CSK","station_name":"Cisauk","is_transit":false,"transit":false,"i_lat":-6.32484,"distance":2519,"i_long":106.640411,"line":0},{"station_id":"SRP","i_long":106.66566,"is_transit":false,"transit":false,"time":4,"distance":1784,"station_name":"Serpong","i_lat":-6.319871,"line":6},{"time":4,"transit":false,"station_name":"Rawa Buntu","station_id":"RU","i_lat":-6.314823,"distance":2413,"i_long":106.675475,"line":6,"is_transit":false},{"transit":false,"i_lat":-6.296963,"station_id":"SDM","time":6,"is_transit":false,"distance":4566,"i_long":106.712277,"station_name":"Sudimara","line":6},{"transit":false,"distance":1994,"line":6,"is_transit":false,"time":4,"station_name":"Jurangmangu","station_id":"JMU","i_lat":-6.288927,"i_long":106.728916},{"i_long":106.74273,"line":6,"time":3,"station_id":"PDJ","is_transit":false,"transit":false,"distance":2179,"i_lat":-6.276362,"station_name":"Pondokranji"},{"station_id":"KBY","station_name":"Kebayoran","i_long":106.780334,"distance":6218,"transit":false,"i_lat":-6.237242,"time":8,"line":6,"is_transit":false},{"i_long":106.79689,"station_name":"Palmerah","transit":false,"line":6,"is_transit":false,"distance":3737,"i_lat":-6.207404,"station_id":"PLM","time":7},{"time":6,"distance":3191,"i_lat":-6.185545,"transit":true,"line":1,"station_name":"Tanah Abang","i_long":106.811091,"station_id":"THB","is_transit":true},{"line":1,"i_lat":-6.20132,"station_id":"KAT","station_name":"Karet","distance":2029,"transit":false,"is_transit":false,"i_long":106.816351,"time":5},{"time":1,"station_id":"SUDB","transit":false,"i_lat":-6.201433,"line":1,"is_transit":false,"i_long":106.819881,"distance":471,"station_name":"Sudirman Baru"},{"time":1,"distance":280,"i_lat":-6.202263,"is_transit":false,"station_name":"Sudirman","line":1,"i_long":106.822649,"station_id":"SUD","transit":false},{"station_id":"MRI","station_name":"Manggarai","distance":3186,"i_long":106.84912,"i_lat":-6.209883,"is_transit":true,"transit":true,"time":4,"line":0},{"time":4,"station_name":"Tebet","i_lat":-6.226659,"transit":false,"i_long":106.857948,"station_id":"TEB","line":2,"is_transit":false,"distance":2610},{"is_transit":false,"transit":false,"time":2,"station_name":"Cawang","distance":1230,"line":0,"station_id":"CW","i_lat":-6.242512,"i_long":106.856607},{"distance":1546,"transit":false,"station_id":"DRN","line":0,"is_transit":false,"time":3,"i_lat":-6.255332,"station_name":"Duren Kalibata","i_long":106.85449},{"station_id":"PSMB","i_lat":-6.263214,"transit":false,"station_name":"Pasar Minggu Baru","i_long":106.851577,"is_transit":false,"line":2,"time":2,"distance":824},{"is_transit":false,"transit":false,"station_id":"PSM","distance":2380,"i_lat":-6.2842400000000005,"station_name":"Pasar Minggu","i_long":106.843999,"line":2,"time":2},{"i_long":106.838896,"station_id":"TNT","is_transit":false,"i_lat":-6.3080680000000005,"time":4,"transit":false,"station_name":"Tanjung Barat","distance":2820,"line":2},{"time":3,"i_lat":-6.330363,"transit":false,"i_long":106.832616,"station_name":"Lenteng Agung","is_transit":false,"station_id":"LNA","line":2,"distance":2671},{"transit":false,"i_lat":-6.339291,"line":2,"station_id":"UP","time":2,"is_transit":false,"distance":1029,"i_long":106.834175,"station_name":"Univ. Pancasila"},{"distance":2264,"is_transit":false,"i_lat":-6.360749,"line":2,"transit":false,"station_id":"UI","i_long":106.831474,"time":3,"station_name":"Univ. Indonesia"},{"is_transit":false,"line":2,"distance":1109,"i_lat":-6.369073,"i_long":106.831114,"station_id":"POC","transit":false,"time":2,"station_name":"Pondok Cina"},{"distance":2727,"station_name":"Depokbaru","i_long":106.819451,"transit":false,"station_id":"DPB","time":4,"is_transit":false,"i_lat":-6.391065,"line":0},{"is_transit":false,"line":0,"time":3,"station_name":"Depok","distance":1584,"i_long":106.816926,"transit":false,"i_lat":-6.405256,"station_id":"DP"},{"time":6,"line":1,"station_id":"CTA","station_name":"Citayam","transit":false,"distance":5084,"is_transit":true,"i_long":106.800298,"i_lat":-6.448811},{"i_lat":-6.46424,"distance":6740,"time":10,"is_transit":false,"line":0,"transit":false,"i_long":106.851978,"station_name":"Cibinong","station_id":"CBN"},{"i_long":106.905196,"station_id":"NMO","is_transit":false,"transit":false,"time":10,"distance":6527,"station_name":"Nambo","i_lat":-6.466285,"line":21}],[{"line":6,"transit":false,"station_name":"Maja","distance":0,"is_transit":false,"i_long":106.394373,"i_lat":-6.332307,"station_id":"MJ","time":0},{"station_name":"Cikoya","line":0,"i_long":106.411216,"time":4,"i_lat":-6.33561,"station_id":"CKY","is_transit":false,"distance":1853,"transit":false},{"station_id":"TGS","is_transit":false,"transit":false,"distance":2651,"i_long":106.425991,"time":3,"station_name":"Tigaraksa","i_lat":-6.328533,"line":6},{"line":6,"i_lat":-6.327251,"time":5,"distance":2974,"station_id":"TEJ","station_name":"Tenjo","is_transit":false,"transit":false,"i_long":106.460812},{"transit":false,"distance":3902,"time":5,"i_lat":-6.338021,"is_transit":false,"line":0,"i_long":106.491338,"station_id":"DAR","station_name":"Daru"},{"station_id":"CJT","distance":2675,"line":0,"transit":false,"time":6,"is_transit":false,"i_lat":-6.354349,"i_long":106.508482,"station_name":"Cilejit"},{"is_transit":false,"i_lat":-6.3441410000000005,"station_id":"PRP","time":9,"distance":7025,"transit":false,"i_long":106.568863,"station_name":"Parung Panjang","line":6},{"transit":false,"i_lat":-6.329547,"is_transit":false,"i_long":106.617853,"time":8,"station_name":"Cicayur","distance":5968,"line":0,"station_id":"CC"},{"station_id":"CSK","transit":false,"i_lat":-6.32484,"station_name":"Cisauk","i_long":106.640411,"time":4,"is_transit":false,"distance":2519,"line":0},{"line":6,"distance":1784,"i_long":106.66566,"is_transit":false,"time":4,"transit":false,"i_lat":-6.319871,"station_name":"Serpong","station_id":"SRP"},{"distance":2413,"transit":false,"station_id":"RU","i_lat":-6.314823,"i_long":106.675475,"line":6,"time":4,"is_transit":false,"station_name":"Rawa Buntu"},{"is_transit":false,"i_lat":-6.296963,"transit":false,"station_name":"Sudimara","i_long":106.712277,"time":6,"station_id":"SDM","line":6,"distance":4566},{"station_id":"JMU","station_name":"Jurangmangu","distance":1994,"transit":false,"i_long":106.728916,"i_lat":-6.288927,"time":4,"is_transit":false,"line":6},{"time":3,"transit":false,"line":6,"distance":2179,"i_long":106.74273,"station_id":"PDJ","i_lat":-6.276362,"is_transit":false,"station_name":"Pondokranji"},{"transit":false,"i_long":106.780334,"line":6,"station_id":"KBY","time":8,"distance":6218,"i_lat":-6.237242,"station_name":"Kebayoran","is_transit":false},{"transit":false,"i_lat":-6.207404,"station_id":"PLM","time":7,"station_name":"Palmerah","i_long":106.79689,"line":6,"is_transit":false,"distance":3737},{"time":6,"station_id":"THB","station_name":"Tanah Abang","is_transit":true,"distance":3191,"line":1,"i_lat":-6.185545,"transit":true,"i_long":106.811091},{"transit":true,"station_name":"Duri","distance":3632,"i_long":106.800832,"time":8,"is_transit":true,"station_id":"DU","i_lat":-6.155215,"line":1},{"station_id":"AK","i_lat":-6.144674,"time":4,"i_long":106.79867,"is_transit":false,"line":0,"transit":false,"distance":1230,"station_name":"Angke"},{"distance":4102,"station_id":"KPB","time":9,"station_name":"Kampung Bandan","transit":false,"i_long":106.826365,"i_lat":-6.132549,"line":0,"is_transit":true},{"i_lat":-6.137569,"transit":true,"i_long":106.812439,"station_name":"Jakarta Kota","is_transit":true,"line":0,"station_id":"JAKK","time":3,"distance":1364},{"is_transit":false,"station_id":"JAY","i_long":106.820901,"station_name":"Jayakarta","transit":false,"distance":1264,"i_lat":-6.141205,"line":7,"time":4},{"station_id":"MGB","is_transit":false,"transit":false,"distance":1080,"time":2,"station_name":"Manggabesar","i_lat":-6.149769,"i_long":106.82482,"line":2},{"station_name":"Sawah Besar","line":2,"distance":906,"i_long":106.827103,"transit":false,"i_lat":-6.160725,"time":2,"is_transit":false,"station_id":"SW"},{"is_transit":false,"station_id":"JUA","transit":false,"i_lat":-6.166716,"i_long":106.828284,"distance":1149,"line":2,"time":2,"station_name":"Juanda"},{"distance":2015,"transit":false,"i_lat":-6.186295,"line":2,"station_id":"GDD","is_transit":false,"i_long":106.832183,"station_name":"Gondangdia","time":4},{"station_id":"CKI","line":0,"distance":1750,"i_long":106.840169,"is_transit":false,"i_lat":-6.198556,"transit":false,"time":3,"station_name":"Cikini"},{"time":4,"distance":1590,"line":0,"i_lat":-6.209883,"i_long":106.84912,"is_transit":true,"station_name":"Manggarai","station_id":"MRI","transit":true},{"is_transit":false,"transit":false,"distance":2610,"i_lat":-6.226659,"i_long":106.857948,"line":2,"station_id":"TEB","time":4,"station_name":"Tebet"},{"i_lat":-6.242512,"station_id":"CW","station_name":"Cawang","line":0,"i_long":106.856607,"distance":1230,"time":2,"is_transit":false,"transit":false},{"i_lat":-6.255332,"transit":false,"line":0,"distance":1546,"i_long":106.85449,"station_id":"DRN","station_name":"Duren Kalibata","is_transit":false,"time":3},{"transit":false,"i_long":106.851577,"distance":824,"station_name":"Pasar Minggu Baru","is_transit":false,"line":2,"time":2,"i_lat":-6.263214,"station_id":"PSMB"},{"i_lat":-6.2842400000000005,"distance":2380,"station_id":"PSM","is_transit":false,"station_name":"Pasar Minggu","transit":false,"line":2,"i_long":106.843999,"time":2},{"time":4,"transit":false,"line":2,"station_name":"Tanjung Barat","station_id":"TNT","i_lat":-6.3080680000000005,"i_long":106.838896,"is_transit":false,"distance":2820},{"station_id":"LNA","i_lat":-6.330363,"is_transit":false,"line":2,"transit":false,"station_name":"Lenteng Agung","time":3,"distance":2671,"i_long":106.832616},{"station_id":"UP","transit":false,"distance":1029,"is_transit":false,"line":2,"i_long":106.834175,"station_name":"Univ. Pancasila","time":2,"i_lat":-6.339291},{"i_long":106.831474,"transit":false,"station_name":"Univ. Indonesia","distance":2264,"is_transit":false,"line":2,"station_id":"UI","time":3,"i_lat":-6.360749},{"i_long":106.831114,"time":2,"station_name":"Pondok Cina","station_id":"POC","is_transit":false,"distance":1109,"transit":false,"line":2,"i_lat":-6.369073},{"line":0,"station_name":"Depokbaru","station_id":"DPB","time":4,"is_transit":false,"transit":false,"distance":2727,"i_lat":-6.391065,"i_long":106.819451},{"station_id":"DP","time":3,"station_name":"Depok","i_lat":-6.405256,"transit":false,"distance":1584,"i_long":106.816926,"line":0,"is_transit":false},{"i_lat":-6.448811,"transit":false,"i_long":106.800298,"station_name":"Citayam","distance":5084,"line":1,"time":6,"station_id":"CTA","is_transit":true},{"is_transit":false,"line":0,"time":10,"station_name":"Cibinong","station_id":"CBN","i_lat":-6.46424,"distance":6740,"transit":false,"i_long":106.851978},{"time":10,"is_transit":false,"i_long":106.905196,"distance":6527,"station_id":"NMO","transit":false,"i_lat":-6.466285,"line":21,"station_name":"Nambo"}],[{"i_long":106.394373,"distance":0,"transit":false,"station_name":"Maja","station_id":"MJ","time":0,"line":6,"i_lat":-6.332307,"is_transit":false},{"i_long":106.411216,"line":0,"time":4,"station_id":"CKY","transit":false,"distance":1853,"station_name":"Cikoya","i_lat":-6.33561,"is_transit":false},{"transit":false,"station_name":"Tigaraksa","i_long":106.425991,"line":6,"distance":2651,"is_transit":false,"time":3,"station_id":"TGS","i_lat":-6.328533},{"line":6,"station_id":"TEJ","i_lat":-6.327251,"is_transit":false,"transit":false,"distance":2974,"time":5,"station_name":"Tenjo","i_long":106.460812},{"distance":3902,"i_lat":-6.338021,"i_long":106.491338,"time":5,"line":0,"station_id":"DAR","is_transit":false,"transit":false,"station_name":"Daru"},{"distance":2675,"time":6,"is_transit":false,"i_lat":-6.354349,"i_long":106.508482,"transit":false,"station_name":"Cilejit","line":0,"station_id":"CJT"},{"line":6,"i_lat":-6.3441410000000005,"is_transit":false,"station_id":"PRP","i_long":106.568863,"station_name":"Parung Panjang","distance":7025,"transit":false,"time":9},{"station_id":"CC","i_lat":-6.329547,"station_name":"Cicayur","distance":5968,"line":0,"time":8,"i_long":106.617853,"is_transit":false,"transit":false},{"station_id":"CSK","i_long":106.640411,"distance":2519,"time":4,"is_transit":false,"line":0,"station_name":"Cisauk","transit":false,"i_lat":-6.32484},{"transit":false,"i_long":106.66566,"station_id":"SRP","line":6,"i_lat":-6.319871,"distance":1784,"station_name":"Serpong","is_transit":false,"time":4},{"line":6,"station_id":"RU","is_transit":false,"station_name":"Rawa Buntu","i_lat":-6.314823,"time":4,"distance":2413,"transit":false,"i_long":106.675475},{"distance":4566,"transit":false,"i_long":106.712277,"is_transit":false,"i_lat":-6.296963,"station_id":"SDM","station_name":"Sudimara","line":6,"time":6},{"line":6,"transit":false,"station_name":"Jurangmangu","is_transit":false,"i_lat":-6.288927,"i_long":106.728916,"station_id":"JMU","time":4,"distance":1994},{"transit":false,"distance":2179,"station_name":"Pondokranji","i_long":106.74273,"is_transit":false,"i_lat":-6.276362,"line":6,"station_id":"PDJ","time":3},{"transit":false,"i_lat":-6.237242,"i_long":106.780334,"line":6,"distance":6218,"station_id":"KBY","is_transit":false,"time":8,"station_name":"Kebayoran"},{"i_long":106.79689,"time":7,"is_transit":false,"station_name":"Palmerah","transit":false,"station_id":"PLM","i_lat":-6.207404,"distance":3737,"line":6},{"time":6,"i_long":106.811091,"station_name":"Tanah Abang","station_id":"THB","transit":true,"i_lat":-6.185545,"line":1,"is_transit":true,"distance":3191},{"distance":3632,"i_lat":-6.155215,"i_long":106.800832,"line":1,"station_name":"Duri","transit":true,"station_id":"DU","time":8,"is_transit":true},{"station_id":"AK","station_name":"Angke","distance":1230,"is_transit":false,"line":0,"time":4,"transit":false,"i_lat":-6.144674,"i_long":106.79867},{"line":0,"i_lat":-6.132549,"i_long":106.826365,"is_transit":true,"transit":true,"distance":4102,"station_name":"Kampung Bandan","station_id":"KPB","time":9},{"distance":1444,"transit":false,"station_id":"RJW","station_name":"Rajawali","i_long":106.836569,"line":11,"is_transit":false,"time":3,"i_lat":-6.14505},{"i_lat":-6.161728,"transit":false,"time":5,"station_name":"Kemayoran","i_long":106.839204,"is_transit":false,"line":11,"distance":1901,"station_id":"KMO"},{"station_id":"PSE","line":11,"station_name":"Pasar Senen","time":4,"transit":false,"is_transit":false,"distance":1436,"i_lat":-6.174784,"i_long":106.84368},{"station_name":"Gang Sentiong","is_transit":false,"i_long":106.850107,"station_id":"GST","i_lat":-6.185975,"time":8,"distance":1567,"transit":false,"line":11},{"station_id":"KMT","time":1,"i_lat":-6.193792,"is_transit":false,"distance":973,"line":11,"i_long":106.855437,"transit":false,"station_name":"Kramat"},{"station_id":"POK","is_transit":false,"transit":false,"distance":1829,"station_name":"Pondok Jati","i_lat":-6.209188,"line":11,"i_long":106.861737,"time":2},{"time":9,"transit":true,"distance":1236,"line":0,"is_transit":true,"station_id":"JNG","i_long":106.86807400000001,"i_lat":-6.215091,"station_name":"Jatinegara"},{"station_id":"MTR","station_name":"Matraman","transit":false,"i_lat":-6.212485,"line":1,"time":2,"i_long":106.858896,"distance":1377,"is_transit":false},{"i_long":106.84912,"time":2,"transit":true,"i_lat":-6.209883,"line":0,"distance":1275,"station_name":"Manggarai","is_transit":true,"station_id":"MRI"},{"station_id":"TEB","i_long":106.857948,"line":2,"station_name":"Tebet","is_transit":false,"i_lat":-6.226659,"time":4,"transit":false,"distance":2610},{"is_transit":false,"i_lat":-6.242512,"line":0,"time":2,"station_id":"CW","station_name":"Cawang","distance":1230,"i_long":106.856607,"transit":false},{"time":3,"distance":1546,"line":0,"station_id":"DRN","is_transit":false,"transit":false,"i_lat":-6.255332,"station_name":"Duren Kalibata","i_long":106.85449},{"line":2,"station_name":"Pasar Minggu Baru","transit":false,"time":2,"i_lat":-6.263214,"station_id":"PSMB","is_transit":false,"distance":824,"i_long":106.851577},{"time":2,"is_transit":false,"i_long":106.843999,"line":2,"i_lat":-6.2842400000000005,"station_name":"Pasar Minggu","transit":false,"station_id":"PSM","distance":2380},{"distance":2820,"station_name":"Tanjung Barat","line":2,"time":4,"station_id":"TNT","transit":false,"i_long":106.838896,"is_transit":false,"i_lat":-6.3080680000000005},{"line":2,"time":3,"transit":false,"station_id":"LNA","distance":2671,"i_lat":-6.330363,"station_name":"Lenteng Agung","i_long":106.832616,"is_transit":false},{"distance":1029,"is_transit":false,"station_name":"Univ. Pancasila","station_id":"UP","transit":false,"i_lat":-6.339291,"time":2,"i_long":106.834175,"line":2},{"is_transit":false,"station_id":"UI","transit":false,"time":3,"i_lat":-6.360749,"distance":2264,"station_name":"Univ. Indonesia","i_long":106.831474,"line":2},{"i_lat":-6.369073,"is_transit":false,"transit":false,"time":2,"station_name":"Pondok Cina","i_long":106.831114,"line":2,"station_id":"POC","distance":1109},{"transit":false,"time":4,"is_transit":false,"i_long":106.819451,"station_name":"Depokbaru","distance":2727,"line":0,"i_lat":-6.391065,"station_id":"DPB"},{"time":3,"is_transit":false,"transit":false,"station_id":"DP","i_long":106.816926,"line":0,"i_lat":-6.405256,"station_name":"Depok","distance":1584},{"station_id":"CTA","is_transit":true,"transit":false,"distance":5084,"line":1,"station_name":"Citayam","time":6,"i_lat":-6.448811,"i_long":106.800298},{"transit":false,"time":10,"i_long":106.851978,"is_transit":false,"station_name":"Cibinong","station_id":"CBN","distance":6740,"i_lat":-6.46424,"line":0},{"station_id":"NMO","station_name":"Nambo","i_lat":-6.466285,"time":10,"distance":6527,"i_long":106.905196,"transit":false,"is_transit":false,"line":21}]]}