{"data":[[{"i_lat":-6.332307,"i_long":106.394373,"station_id":"MJ","time":0,"transit":false,"line":6,"distance":0,"station_name":"Maja","is_transit":false},{"distance":1853,"transit":false,"station_id":"CKY","time":4,"is_transit":false,"i_lat":-6.33561,"line":3,"station_name":"Cikoya","i_long":106.411216},{"distance":2651,"i_lat":-6.328533,"i_long":106.425991,"transit":false,"is_transit":false,"time":3,"station_name":"Tigaraksa","line":6,"station_id":"TGS"},{"is_transit":false,"i_lat":-6.327251,"station_id":"TEJ","station_name":"Tenjo","i_long":106.460812,"time":5,"distance":2974,"transit":false,"line":6},{"station_id":"DAR","i_long":106.491338,"is_transit":false,"time":5,"transit":false,"station_name":"Daru","distance":3902,"i_lat":-6.338021,"line":0},{"is_transit":false,"transit":false,"station_id":"CJT","i_lat":-6.354349,"i_long":106.508482,"line":3,"distance":2675,"time":6,"station_name":"Cilejit"},{"i_lat":-6.3441410000000005,"distance":7025,"line":6,"is_transit":false,"station_name":"Parung Panjang","time":9,"i_long":106.568863,"transit":false,"station_id":"PRP"},{"is_transit":false,"i_lat":-6.329547,"line":3,"station_id":"CC","time":8,"distance":5968,"station_name":"Cicayur","transit":false,"i_long":106.617853},{"i_lat":-6.32484,"is_transit":false,"i_long":106.640411,"station_id":"CSK","line":3,"time":4,"distance":2519,"station_name":"Cisauk","transit":false},{"station_id":"SRP","is_transit":false,"i_lat":-6.319871,"i_long":106.66566,"line":6,"time":4,"transit":false,"station_name":"Serpong","distance":1784},{"station_id":"RU","distance":2413,"time":4,"is_transit":false,"i_lat":-6.314823,"i_long":106.675475,"transit":false,"line":6,"station_name":"Rawa Buntu"},{"i_long":106.712277,"station_name":"Sudimara","is_transit":false,"line":6,"distance":4566,"i_lat":-6.296963,"station_id":"SDM","time":6,"transit":false},{"distance":1994,"i_lat":-6.288927,"transit":false,"time":4,"i_long":106.728916,"station_name":"Jurangmangu","is_transit":false,"station_id":"JMU","line":6},{"station_id":"PDJ","distance":2179,"i_lat":-6.276362,"i_long":106.74273,"line":6,"station_name":"Pondokranji","time":3,"transit":false,"is_transit":false},{"time":8,"transit":false,"i_lat":-6.237242,"i_long":106.780334,"station_id":"KBY","line":6,"station_name":"Kebayoran","distance":6218,"is_transit":false},{"station_id":"PLM","i_lat":-6.207404,"time":7,"station_name":"Palmerah","is_transit":false,"distance":3737,"transit":false,"i_long":106.79689,"line":6},{"line":1,"is_transit":true,"time":6,"station_name":"Tanah Abang","station_id":"THB","i_lat":-6.185545,"distance":3191,"transit":true,"i_long":106.811091},{"transit":false,"is_transit":false,"i_long":106.816351,"line":1,"distance":2029,"time":5,"i_lat":-6.20132,"station_name":"Karet","station_id":"KAT"},{"transit":false,"distance":471,"is_transit":false,"line":1,"station_name":"Sudirman Baru","i_long":106.819881,"station_id":"SUDB","time":1,"i_lat":-6.201433},{"transit":false,"i_lat":-6.202263,"station_name":"Sudirman","distance":280,"line":1,"station_id":"SUD","i_long":106.822649,"time":1,"is_transit":false},{"station_id":"MRI","line":2,"i_long":106.84912,"station_name":"Manggarai","distance":3186,"i_lat":-6.209883,"is_transit":true,"transit":true,"time":4},{"transit":false,"is_transit":false,"i_long":106.857948,"station_name":"Tebet","line":2,"station_id":"TEB","i_lat":-6.226659,"time":4,"distance":2610},{"time":2,"is_transit":false,"station_name":"Cawang","distance":1230,"station_id":"CW","i_long":106.856607,"line":2,"transit":false,"i_lat":-6.242512},{"time":3,"station_name":"Duren Kalibata","station_id":"DRN","transit":false,"line":2,"i_lat":-6.255332,"i_long":106.85449,"distance":1546,"is_transit":false},{"station_name":"Pasar Minggu Baru","i_long":106.851577,"is_transit":false,"distance":824,"i_lat":-6.263214,"line":2,"station_id":"PSMB","time":2,"transit":false},{"line":2,"distance":2380,"i_long":106.843999,"i_lat":-6.2842400000000005,"station_id":"PSM","transit":false,"time":2,"is_transit":false,"station_name":"Pasar Minggu"},{"station_name":"Tanjung Barat","is_transit":false,"i_lat":-6.3080680000000005,"transit":false,"station_id":"TNT","time":4,"distance":2820,"i_long":106.838896,"line":2},{"time":3,"distance":2671,"is_transit":false,"station_name":"Lenteng Agung","i_lat":-6.330363,"i_long":106.832616,"station_id":"LNA","transit":false,"line":2},{"station_name":"Univ. Pancasila","distance":1029,"i_long":106.834175,"i_lat":-6.339291,"time":2,"transit":false,"line":2,"is_transit":false,"station_id":"UP"},{"i_long":106.831474,"transit":false,"station_name":"Univ. Indonesia","time":3,"line":2,"is_transit":false,"distance":2264,"i_lat":-6.360749,"station_id":"UI"},{"i_lat":-6.369073,"time":2,"station_name":"Pondok Cina","transit":false,"station_id":"POC","is_transit":false,"distance":1109,"line":2,"i_long":106.831114},{"station_id":"DPB","i_lat":-6.391065,"is_transit":false,"distance":2727,"station_name":"Depokbaru","time":4,"i_long":106.819451,"transit":false,"line":2},{"time":3,"transit":false,"station_name":"Depok","distance":1584,"i_lat":-6.405256,"i_long":106.816926,"line":2,"station_id":"DP","is_transit":false},{"station_name":"Citayam","transit":true,"time":6,"i_long":106.800298,"line":2,"station_id":"CTA","distance":5084,"i_lat":-6.448811,"is_transit":true},{"line":21,"station_name":"Pondok Rajeg","time":0,"is_transit":false,"i_lat":-6.460735,"distance":0,"station_id":"PDRG","transit":false,"i_long":106.824374},{"station_id":"CBN","is_transit":false,"time":0,"line":21,"transit":false,"i_lat":-6.46424,"station_name":"Cibinong","i_long":106.851978,"distance":0},{"distance":6527,"station_name":"Nambo","i_lat":-6.466285,"is_transit":false,"i_long":106.905196,"line":21,"station_id":"NMO","time":10,"transit":false}],[{"i_long":106.394373,"station_id":"MJ","distance":0,"station_name":"Maja","i_lat":-6.332307,"transit":false,"is_transit":false,"line":6,"time":0},{"station_name":"Cikoya","time":4,"i_lat":-6.33561,"station_id":"CKY","distance":1853,"i_long":106.411216,"line":3,"transit":false,"is_transit":false},{"transit":false,"station_name":"Tigaraksa","is_transit":false,"time":3,"i_lat":-6.328533,"distance":2651,"station_id":"TGS","i_long":106.425991,"line":6},{"time":5,"station_name":"Tenjo","distance":2974,"station_id":"TEJ","i_lat":-6.327251,"i_long":106.460812,"is_transit":false,"line":6,"transit":false},{"time":5,"distance":3902,"i_long":106.491338,"line":0,"station_id":"DAR","transit":false,"i_lat":-6.338021,"is_transit":false,"station_name":"Daru"},{"line":3,"station_name":"Cilejit","transit":false,"time":6,"station_id":"CJT","distance":2675,"i_lat":-6.354349,"is_transit":false,"i_long":106.508482},{"transit":false,"time":9,"distance":7025,"line":6,"station_id":"PRP","is_transit":false,"i_lat":-6.3441410000000005,"i_long":106.568863,"station_name":"Parung Panjang"},{"i_lat":-6.329547,"i_long":106.617853,"time":8,"station_name":"Cicayur","transit":false,"station_id":"CC","distance":5968,"is_transit":false,"line":3},{"transit":false,"time":4,"station_id":"CSK","line":3,"station_name":"Cisauk","is_transit":false,"distance":2519,"i_lat":-6.32484,"i_long":106.640411},{"station_name":"Serpong","time":4,"line":6,"i_lat":-6.319871,"i_long":106.66566,"transit":false,"is_transit":false,"distance":1784,"station_id":"SRP"},{"distance":2413,"line":6,"i_long":106.675475,"i_lat":-6.314823,"time":4,"station_name":"Rawa Buntu","station_id":"RU","transit":false,"is_transit":false},{"station_name":"Sudimara","i_lat":-6.296963,"time":6,"line":6,"station_id":"SDM","transit":false,"is_transit":false,"distance":4566,"i_long":106.712277},{"i_long":106.728916,"line":6,"transit":false,"station_name":"Jurangmangu","time":4,"station_id":"JMU","is_transit":false,"distance":1994,"i_lat":-6.288927},{"line":6,"station_name":"Pondokranji","time":3,"i_lat":-6.276362,"distance":2179,"i_long":106.74273,"transit":false,"station_id":"PDJ","is_transit":false},{"i_lat":-6.237242,"station_name":"Kebayoran","is_transit":false,"i_long":106.780334,"line":6,"time":8,"station_id":"KBY","transit":false,"distance":6218},{"time":7,"i_long":106.79689,"i_lat":-6.207404,"line":6,"distance":3737,"station_id":"PLM","station_name":"Palmerah","is_transit":false,"transit":false},{"station_name":"Tanah Abang","time":6,"i_lat":-6.185545,"transit":true,"distance":3191,"line":1,"is_transit":true,"station_id":"THB","i_long":106.811091},{"transit":false,"distance":3632,"i_lat":-6.155215,"time":8,"is_transit":false,"station_id":"DU","station_name":"Duri","i_long":106.800832,"line":1},{"line":1,"transit":false,"time":4,"i_long":106.79867,"distance":1230,"station_id":"AK","station_name":"Angke","is_transit":false,"i_lat":-6.144674},{"time":9,"transit":true,"is_transit":true,"i_long":106.826365,"line":4,"station_id":"KPB","i_lat":-6.132549,"distance":4102,"station_name":"Kampung Bandan"},{"is_transit":true,"line":2,"distance":1364,"time":3,"station_id":"JAKK","i_long":106.812439,"station_name":"Jakarta Kota","i_lat":-6.137569,"transit":true},{"station_id":"JAY","time":4,"is_transit":false,"station_name":"Jayakarta","i_long":106.820901,"transit":false,"distance":1264,"line":2,"i_lat":-6.141205},{"station_id":"MGB","time":2,"is_transit":false,"i_lat":-6.149769,"line":2,"i_long":106.82482,"distance":1080,"station_name":"Manggabesar","transit":false},{"i_long":106.827103,"line":2,"is_transit":false,"distance":906,"station_id":"SW","transit":false,"station_name":"Sawah Besar","i_lat":-6.160725,"time":2},{"i_lat":-6.166716,"time":2,"is_transit":false,"i_long":106.828284,"transit":false,"station_id":"JUA","distance":1149,"station_name":"Juanda","line":2},{"i_long":106.832183,"is_transit":false,"line":2,"distance":2015,"station_name":"Gondangdia","time":4,"station_id":"GDD","transit":false,"i_lat":-6.186295},{"i_lat":-6.198556,"time":3,"distance":1750,"i_long":106.840169,"is_transit":false,"station_id":"CKI","transit":false,"line":2,"station_name":"Cikini"},{"distance":1590,"time":4,"is_transit":false,"transit":false,"station_name":"Manggarai","station_id":"MRI","i_lat":-6.209883,"line":2,"i_long":106.84912},{"distance":2610,"i_lat":-6.226659,"line":2,"time":4,"station_id":"TEB","station_name":"Tebet","is_transit":false,"i_long":106.857948,"transit":false},{"i_lat":-6.242512,"line":2,"time":2,"transit":false,"station_id":"CW","i_long":106.856607,"station_name":"Cawang","distance":1230,"is_transit":false},{"transit":false,"is_transit":false,"distance":1546,"i_lat":-6.255332,"i_long":106.85449,"station_id":"DRN","time":3,"station_name":"Duren Kalibata","line":2},{"transit":false,"time":2,"line":2,"distance":824,"station_id":"PSMB","station_name":"Pasar Minggu Baru","is_transit":false,"i_lat":-6.263214,"i_long":106.851577},{"i_long":106.843999,"i_lat":-6.2842400000000005,"station_name":"Pasar Minggu","station_id":"PSM","distance":2380,"transit":false,"is_transit":false,"time":2,"line":2},{"transit":false,"station_name":"Tanjung Barat","station_id":"TNT","i_long":106.838896,"time":4,"is_transit":false,"i_lat":-6.3080680000000005,"line":2,"distance":2820},{"i_lat":-6.330363,"line":2,"station_name":"Lenteng Agung","distance":2671,"i_long":106.832616,"transit":false,"time":3,"station_id":"LNA","is_transit":false},{"i_lat":-6.339291,"line":2,"time":2,"i_long":106.834175,"transit":false,"station_name":"Univ. Pancasila","is_transit":false,"station_id":"UP","distance":1029},{"distance":2264,"is_transit":false,"transit":false,"i_lat":-6.360749,"line":2,"time":3,"i_long":106.831474,"station_name":"Univ. Indonesia","station_id":"UI"},{"time":2,"line":2,"is_transit":false,"station_name":"Pondok Cina","i_long":106.831114,"station_id":"POC","distance":1109,"transit":false,"i_lat":-6.369073},{"time":4,"transit":false,"station_name":"Depokbaru","distance":2727,"i_long":106.819451,"station_id":"DPB","is_transit":false,"i_lat":-6.391065,"line":2},{"is_transit":false,"distance":1584,"time":3,"i_lat":-6.405256,"i_long":106.816926,"transit":false,"line":2,"station_name":"Depok","station_id":"DP"},{"time":6,"distance":5084,"station_id":"CTA","i_long":106.800298,"i_lat":-6.448811,"is_transit":true,"station_name":"Citayam","line":2,"transit":true},{"is_transit":false,"i_lat":-6.460735,"transit":false,"i_long":106.824374,"station_id":"PDRG","station_name":"Pondok Rajeg","line":21,"time":0,"distance":0},{"transit":false,"station_id":"CBN","distance":0,"is_transit":false,"line":21,"i_lat":-6.46424,"station_name":"Cibinong","time":0,"i_long":106.851978},{"time":10,"station_name":"Nambo","i_long":106.905196,"station_id":"NMO","line":21,"transit":false,"is_transit":false,"i_lat":-6.466285,"distance":6527}],[{"transit":false,"station_id":"MJ","is_transit":false,"line":6,"i_long":106.394373,"time":0,"distance":0,"station_name":"Maja","i_lat":-6.332307},{"station_id":"CKY","time":4,"i_long":106.411216,"line":3,"distance":1853,"transit":false,"i_lat":-6.33561,"is_transit":false,"station_name":"Cikoya"},{"station_name":"Tigaraksa","distance":2651,"i_long":106.425991,"station_id":"TGS","line":6,"i_lat":-6.328533,"transit":false,"is_transit":false,"time":3},{"line":6,"station_id":"TEJ","station_name":"Tenjo","time":5,"i_lat":-6.327251,"is_transit":false,"distance":2974,"i_long":106.460812,"transit":false},{"station_id":"DAR","distance":3902,"transit":false,"line":0,"time":5,"is_transit":false,"i_long":106.491338,"i_lat":-6.338021,"station_name":"Daru"},{"distance":2675,"station_name":"Cilejit","i_long":106.508482,"transit":false,"time":6,"is_transit":false,"i_lat":-6.354349,"station_id":"CJT","line":3},{"time":9,"transit":false,"line":6,"i_lat":-6.3441410000000005,"i_long":106.568863,"station_id":"PRP","distance":7025,"station_name":"Parung Panjang","is_transit":false},{"i_long":106.617853,"transit":false,"time":8,"station_name":"Cicayur","distance":5968,"line":3,"is_transit":false,"station_id":"CC","i_lat":-6.329547},{"station_id":"CSK","station_name":"Cisauk","i_lat":-6.32484,"line":3,"transit":false,"time":4,"is_transit":false,"distance":2519,"i_long":106.640411},{"is_transit":false,"station_name":"Serpong","station_id":"SRP","distance":1784,"line":6,"i_lat":-6.319871,"transit":false,"time":4,"i_long":106.66566},{"i_lat":-6.314823,"line":6,"station_name":"Rawa Buntu","is_transit":false,"transit":false,"time":4,"i_long":106.675475,"station_id":"RU","distance":2413},{"transit":false,"i_long":106.712277,"is_transit":false,"time":6,"station_id":"SDM","i_lat":-6.296963,"station_name":"Sudimara","line":6,"distance":4566},{"distance":1994,"is_transit":false,"i_lat":-6.288927,"station_id":"JMU","transit":false,"line":6,"i_long":106.728916,"time":4,"station_name":"Jurangmangu"},{"distance":2179,"i_lat":-6.276362,"time":3,"station_id":"PDJ","line":6,"transit":false,"is_transit":false,"station_name":"Pondokranji","i_long":106.74273},{"i_long":106.780334,"time":8,"i_lat":-6.237242,"station_name":"Kebayoran","is_transit":false,"transit":false,"station_id":"KBY","line":6,"distance":6218},{"is_transit":false,"distance":3737,"i_lat":-6.207404,"transit":false,"line":6,"time":7,"station_name":"Palmerah","station_id":"PLM","i_long":106.79689},{"distance":3191,"station_id":"THB","transit":true,"i_long":106.811091,"station_name":"Tanah Abang","is_transit":true,"i_lat":-6.185545,"line":1,"time":6},{"station_id":"DU","i_lat":-6.155215,"line":1,"transit":false,"is_transit":false,"time":8,"station_name":"Duri","i_long":106.800832,"distance":3632},{"transit":false,"time":4,"is_transit":false,"i_lat":-6.144674,"station_name":"Angke","line":1,"i_long":106.79867,"station_id":"AK","distance":1230},{"i_lat":-6.132549,"i_long":106.826365,"transit":true,"is_transit":true,"station_id":"KPB","station_name":"Kampung Bandan","line":4,"time":9,"distance":4102},{"station_name":"Rajawali","line":11,"i_lat":-6.14505,"station_id":"RJW","distance":1444,"i_long":106.836569,"transit":false,"is_transit":false,"time":3},{"station_id":"KMO","i_long":106.839204,"transit":false,"is_transit":false,"line":11,"i_lat":-6.161728,"distance":1901,"time":5,"station_name":"Kemayoran"},{"i_lat":-6.174784,"is_transit":false,"time":4,"i_long":106.84368,"station_name":"Pasar Senen","station_id":"PSE","distance":1436,"transit":false,"line":11},{"distance":1567,"station_name":"Gang Sentiong","is_transit":false,"i_lat":-6.185975,"line":11,"station_id":"GST","i_long":106.850107,"time":8,"transit":false},{"i_long":106.855437,"i_lat":-6.193792,"transit":false,"station_id":"KMT","is_transit":false,"station_name":"Kramat","time":1,"distance":973,"line":11},{"line":11,"station_id":"POK","station_name":"Pondok Jati","time":2,"distance":1829,"i_long":106.861737,"i_lat":-6.209188,"is_transit":false,"transit":false},{"station_name":"Jatinegara","distance":1236,"is_transit":true,"i_long":106.86807400000001,"line":1,"station_id":"JNG","transit":true,"time":9,"i_lat":-6.215091},{"line":1,"station_name":"Matraman","i_long":106.858896,"time":2,"station_id":"MTR","is_transit":false,"distance":1377,"i_lat":-6.212485,"transit":false},{"station_name":"Manggarai","i_lat":-6.209883,"i_long":106.84912,"transit":true,"station_id":"MRI","is_transit":true,"time":2,"distance":1275,"line":2},{"is_transit":false,"line":2,"transit":false,"time":4,"i_long":106.857948,"station_name":"Tebet","distance":2610,"station_id":"TEB","i_lat":-6.226659},{"time":2,"station_id":"CW","transit":false,"distance":1230,"i_lat":-6.242512,"i_long":106.856607,"line":2,"station_name":"Cawang","is_transit":false},{"line":2,"i_long":106.85449,"transit":false,"time":3,"station_id":"DRN","is_transit":false,"distance":1546,"station_name":"Duren Kalibata","i_lat":-6.255332},{"distance":824,"i_long":106.851577,"station_id":"PSMB","i_lat":-6.263214,"is_transit":false,"time":2,"line":2,"transit":false,"station_name":"Pasar Minggu Baru"},{"distance":2380,"is_transit":false,"station_name":"Pasar Minggu","transit":false,"line":2,"i_lat":-6.2842400000000005,"station_id":"PSM","time":2,"i_long":106.843999},{"distance":2820,"time":4,"line":2,"is_transit":false,"station_name":"Tanjung Barat","i_lat":-6.3080680000000005,"i_long":106.838896,"transit":false,"station_id":"TNT"},{"station_id":"LNA","i_long":106.832616,"station_name":"Lenteng Agung","is_transit":false,"i_lat":-6.330363,"distance":2671,"transit":false,"time":3,"line":2},{"time":2,"station_id":"UP","i_lat":-6.339291,"i_long":106.834175,"line":2,"is_transit":false,"station_name":"Univ. Pancasila","transit":false,"distance":1029},{"station_id":"UI","i_lat":-6.360749,"distance":2264,"station_name":"Univ. Indonesia","line":2,"transit":false,"time":3,"is_transit":false,"i_long":106.831474},{"i_long":106.831114,"time":2,"is_transit":false,"distance":1109,"line":2,"i_lat":-6.369073,"station_name":"Pondok Cina","station_id":"POC","transit":false},{"distance":2727,"transit":false,"i_long":106.819451,"line":2,"station_id":"DPB","i_lat":-6.391065,"station_name":"Depokbaru","time":4,"is_transit":false},{"station_name":"Depok","is_transit":false,"time":3,"i_lat":-6.405256,"distance":1584,"i_long":106.816926,"line":2,"transit":false,"station_id":"DP"},{"time":6,"i_lat":-6.448811,"station_name":"Citayam","station_id":"CTA","is_transit":true,"i_long":106.800298,"line":2,"distance":5084,"transit":true},{"transit":false,"i_lat":-6.460735,"station_name":"Pondok Rajeg","is_transit":false,"time":0,"distance":0,"i_long":106.824374,"line":21,"station_id":"PDRG"},{"station_name":"Cibinong","is_transit":false,"i_long":106.851978,"distance":0,"transit":false,"line":21,"i_lat":-6.46424,"time":0,"station_id":"CBN"},{"distance":6527,"time":10,"i_lat":-6.466285,"transit":false,"i_long":106.905196,"line":21,"station_name":"Nambo","is_transit":false,"station_id":"NMO"}]]}