{"data":[[{"line":6,"distance":0,"station_name":"Maja","time":0,"station_id":"MJ","transit":false,"is_transit":false,"i_long":106.394373,"i_lat":-6.332307},{"transit":false,"station_id":"CKY","is_transit":false,"line":3,"i_long":106.411216,"time":4,"i_lat":-6.33561,"station_name":"Cikoya","distance":1853},{"line":6,"i_long":106.425991,"station_id":"TGS","is_transit":false,"distance":2651,"i_lat":-6.328533,"transit":false,"station_name":"Tigaraksa","time":3},{"station_name":"Tenjo","is_transit":false,"time":5,"distance":2974,"station_id":"TEJ","transit":false,"line":6,"i_long":106.460812,"i_lat":-6.327251},{"i_long":106.491338,"station_name":"Daru","is_transit":false,"station_id":"DAR","time":5,"line":0,"distance":3902,"i_lat":-6.338021,"transit":false},{"line":3,"is_transit":false,"i_long":106.508482,"transit":false,"station_id":"CJT","station_name":"Cilejit","i_lat":-6.354349,"time":6,"distance":2675},{"station_id":"PRP","line":6,"time":9,"station_name":"Parung Panjang","distance":7025,"i_lat":-6.3441410000000005,"transit":false,"i_long":106.568863,"is_transit":false},{"time":8,"transit":false,"line":3,"station_name":"Cicayur","i_long":106.617853,"i_lat":-6.329547,"station_id":"CC","distance":5968,"is_transit":false},{"is_transit":false,"distance":2519,"transit":false,"line":3,"i_long":106.640411,"station_id":"CSK","station_name":"Cisauk","i_lat":-6.32484,"time":4},{"line":6,"station_id":"SRP","distance":1784,"transit":false,"station_name":"Serpong","i_lat":-6.319871,"is_transit":false,"time":4,"i_long":106.66566},{"i_long":106.675475,"station_name":"Rawa Buntu","transit":false,"i_lat":-6.314823,"distance":2413,"time":4,"station_id":"RU","is_transit":false,"line":6},{"i_long":106.712277,"i_lat":-6.296963,"transit":false,"station_name":"Sudimara","time":6,"line":6,"is_transit":false,"distance":4566,"station_id":"SDM"},{"line":6,"station_name":"Jurangmangu","distance":1994,"time":4,"station_id":"JMU","i_lat":-6.288927,"is_transit":false,"i_long":106.728916,"transit":false},{"transit":false,"time":3,"i_lat":-6.276362,"i_long":106.74273,"is_transit":false,"line":6,"distance":2179,"station_name":"Pondokranji","station_id":"PDJ"},{"transit":false,"i_long":106.780334,"distance":6218,"line":6,"station_name":"Kebayoran","station_id":"KBY","is_transit":false,"time":8,"i_lat":-6.237242},{"time":7,"i_long":106.79689,"transit":false,"line":6,"distance":3737,"station_id":"PLM","i_lat":-6.207404,"station_name":"Palmerah","is_transit":false},{"transit":true,"distance":3191,"i_lat":-6.185545,"line":1,"station_name":"Tanah Abang","time":6,"is_transit":true,"station_id":"THB","i_long":106.811091},{"time":8,"is_transit":true,"i_long":106.800832,"transit":true,"distance":3632,"i_lat":-6.155215,"station_name":"Duri","station_id":"DU","line":1},{"line":5,"distance":1700,"time":3,"i_long":106.788277,"is_transit":false,"station_id":"GGL","transit":false,"station_name":"Grogol","i_lat":-6.162021},{"is_transit":false,"distance":2036,"station_name":"Pesing","line":5,"transit":false,"i_lat":-6.161433,"station_id":"PSG","i_long":106.771379,"time":2}],[{"transit":false,"station_id":"MJ","time":0,"line":6,"distance":0,"station_name":"Maja","i_lat":-6.332307,"i_long":106.394373,"is_transit":false},{"is_transit":false,"distance":1853,"i_long":106.411216,"time":4,"station_name":"Cikoya","transit":false,"i_lat":-6.33561,"line":3,"station_id":"CKY"},{"is_transit":false,"i_lat":-6.328533,"time":3,"distance":2651,"i_long":106.425991,"line":6,"station_name":"Tigaraksa","station_id":"TGS","transit":false},{"transit":false,"station_name":"Tenjo","time":5,"i_long":106.460812,"i_lat":-6.327251,"is_transit":false,"distance":2974,"station_id":"TEJ","line":6},{"transit":false,"distance":3902,"time":5,"station_name":"Daru","line":0,"i_long":106.491338,"is_transit":false,"station_id":"DAR","i_lat":-6.338021},{"time":6,"station_name":"Cilejit","distance":2675,"is_transit":false,"i_long":106.508482,"i_lat":-6.354349,"line":3,"station_id":"CJT","transit":false},{"transit":false,"i_long":106.568863,"station_name":"Parung Panjang","distance":7025,"line":6,"is_transit":false,"i_lat":-6.3441410000000005,"time":9,"station_id":"PRP"},{"distance":5968,"i_long":106.617853,"station_id":"CC","is_transit":false,"station_name":"Cicayur","time":8,"i_lat":-6.329547,"line":3,"transit":false},{"transit":false,"station_id":"CSK","station_name":"Cisauk","is_transit":false,"time":4,"distance":2519,"i_long":106.640411,"line":3,"i_lat":-6.32484},{"distance":1784,"i_lat":-6.319871,"is_transit":false,"line":6,"i_long":106.66566,"station_name":"Serpong","station_id":"SRP","transit":false,"time":4},{"transit":false,"time":4,"distance":2413,"line":6,"station_name":"Rawa Buntu","station_id":"RU","i_lat":-6.314823,"i_long":106.675475,"is_transit":false},{"line":6,"time":6,"transit":false,"station_id":"SDM","i_long":106.712277,"station_name":"Sudimara","distance":4566,"is_transit":false,"i_lat":-6.296963},{"time":4,"transit":false,"distance":1994,"i_lat":-6.288927,"station_name":"Jurangmangu","line":6,"station_id":"JMU","is_transit":false,"i_long":106.728916},{"station_id":"PDJ","station_name":"Pondokranji","is_transit":false,"transit":false,"i_lat":-6.276362,"distance":2179,"time":3,"i_long":106.74273,"line":6},{"line":6,"time":8,"i_lat":-6.237242,"distance":6218,"station_name":"Kebayoran","i_long":106.780334,"transit":false,"station_id":"KBY","is_transit":false},{"transit":false,"station_id":"PLM","distance":3737,"is_transit":false,"station_name":"Palmerah","time":7,"i_lat":-6.207404,"i_long":106.79689,"line":6},{"station_name":"Tanah Abang","time":6,"station_id":"THB","transit":true,"distance":3191,"is_transit":true,"i_lat":-6.185545,"i_long":106.811091,"line":1},{"i_lat":-6.20132,"station_name":"Karet","i_long":106.816351,"distance":2029,"transit":false,"time":5,"line":1,"station_id":"KAT","is_transit":false},{"station_id":"SUDB","i_lat":-6.201433,"i_long":106.819881,"line":1,"station_name":"Sudirman Baru","time":1,"distance":471,"transit":false,"is_transit":false},{"i_long":106.822649,"station_name":"Sudirman","station_id":"SUD","is_transit":false,"distance":280,"line":1,"transit":false,"time":1,"i_lat":-6.202263},{"station_name":"Manggarai","time":4,"i_long":106.84912,"station_id":"MRI","line":2,"is_transit":true,"distance":3186,"transit":true,"i_lat":-6.209883},{"i_long":106.840169,"time":4,"is_transit":false,"line":2,"transit":false,"station_name":"Cikini","station_id":"CKI","distance":1590,"i_lat":-6.198556},{"time":3,"is_transit":false,"line":2,"i_long":106.832183,"distance":1750,"transit":false,"i_lat":-6.186295,"station_id":"GDD","station_name":"Gondangdia"},{"distance":2015,"line":2,"station_id":"JUA","station_name":"Juanda","is_transit":false,"time":4,"i_lat":-6.166716,"transit":false,"i_long":106.828284},{"time":2,"distance":1149,"transit":false,"i_long":106.827103,"station_id":"SW","is_transit":false,"line":2,"i_lat":-6.160725,"station_name":"Sawah Besar"},{"i_lat":-6.149769,"station_name":"Manggabesar","station_id":"MGB","distance":906,"is_transit":false,"i_long":106.82482,"line":2,"transit":false,"time":2},{"transit":false,"station_name":"Jayakarta","i_long":106.820901,"is_transit":false,"station_id":"JAY","i_lat":-6.141205,"line":2,"time":2,"distance":1080},{"station_name":"Jakarta Kota","transit":true,"distance":1264,"i_lat":-6.137569,"is_transit":true,"time":4,"i_long":106.812439,"line":2,"station_id":"JAKK"},{"station_name":"Kampung Bandan","is_transit":true,"distance":1364,"i_lat":-6.132549,"transit":true,"i_long":106.826365,"line":4,"time":3,"station_id":"KPB"},{"time":9,"distance":4102,"station_name":"Angke","station_id":"AK","i_lat":-6.144674,"i_long":106.79867,"line":1,"transit":false,"is_transit":false},{"station_id":"DU","time":4,"i_long":106.800832,"line":1,"transit":true,"station_name":"Duri","i_lat":-6.155215,"is_transit":true,"distance":1230},{"i_lat":-6.162021,"station_name":"Grogol","i_long":106.788277,"time":3,"line":5,"transit":false,"station_id":"GGL","distance":1700,"is_transit":false},{"distance":2036,"i_lat":-6.161433,"station_id":"PSG","time":2,"i_long":106.771379,"is_transit":false,"line":5,"station_name":"Pesing","transit":false}],[{"line":6,"i_lat":-6.332307,"is_transit":false,"transit":false,"i_long":106.394373,"station_name":"Maja","station_id":"MJ","time":0,"distance":0},{"station_name":"Cikoya","is_transit":false,"transit":false,"distance":1853,"i_lat":-6.33561,"i_long":106.411216,"station_id":"CKY","time":4,"line":3},{"station_id":"TGS","line":6,"time":3,"distance":2651,"i_long":106.425991,"i_lat":-6.328533,"transit":false,"is_transit":false,"station_name":"Tigaraksa"},{"is_transit":false,"time":5,"station_name":"Tenjo","transit":false,"i_long":106.460812,"station_id":"TEJ","line":6,"distance":2974,"i_lat":-6.327251},{"i_lat":-6.338021,"line":0,"distance":3902,"time":5,"i_long":106.491338,"station_name":"Daru","is_transit":false,"transit":false,"station_id":"DAR"},{"time":6,"station_name":"Cilejit","line":3,"station_id":"CJT","transit":false,"is_transit":false,"i_lat":-6.354349,"i_long":106.508482,"distance":2675},{"i_lat":-6.3441410000000005,"i_long":106.568863,"line":6,"distance":7025,"time":9,"station_name":"Parung Panjang","is_transit":false,"station_id":"PRP","transit":false},{"is_transit":false,"distance":5968,"line":3,"time":8,"transit":false,"i_lat":-6.329547,"station_name":"Cicayur","station_id":"CC","i_long":106.617853},{"transit":false,"distance":2519,"is_transit":false,"station_id":"CSK","station_name":"Cisauk","i_lat":-6.32484,"i_long":106.640411,"time":4,"line":3},{"time":4,"distance":1784,"transit":false,"station_name":"Serpong","i_long":106.66566,"station_id":"SRP","is_transit":false,"i_lat":-6.319871,"line":6},{"time":4,"distance":2413,"station_id":"RU","transit":false,"i_lat":-6.314823,"i_long":106.675475,"is_transit":false,"line":6,"station_name":"Rawa Buntu"},{"i_long":106.712277,"station_name":"Sudimara","transit":false,"station_id":"SDM","i_lat":-6.296963,"time":6,"distance":4566,"line":6,"is_transit":false},{"i_long":106.728916,"station_name":"Jurangmangu","transit":false,"line":6,"station_id":"JMU","time":4,"is_transit":false,"distance":1994,"i_lat":-6.288927},{"is_transit":false,"line":6,"transit":false,"station_id":"PDJ","i_lat":-6.276362,"time":3,"i_long":106.74273,"station_name":"Pondokranji","distance":2179},{"line":6,"i_lat":-6.237242,"time":8,"i_long":106.780334,"transit":false,"station_id":"KBY","station_name":"Kebayoran","is_transit":false,"distance":6218},{"i_lat":-6.207404,"station_id":"PLM","line":6,"station_name":"Palmerah","distance":3737,"transit":false,"is_transit":false,"time":7,"i_long":106.79689},{"station_id":"THB","is_transit":true,"line":1,"i_long":106.811091,"distance":3191,"transit":true,"time":6,"i_lat":-6.185545,"station_name":"Tanah Abang"},{"transit":false,"station_name":"Karet","i_lat":-6.20132,"i_long":106.816351,"line":1,"distance":2029,"time":5,"is_transit":false,"station_id":"KAT"},{"is_transit":false,"time":1,"i_long":106.819881,"station_name":"Sudirman Baru","i_lat":-6.201433,"line":1,"transit":false,"station_id":"SUDB","distance":471},{"distance":280,"transit":false,"line":1,"i_lat":-6.202263,"station_name":"Sudirman","time":1,"is_transit":false,"i_long":106.822649,"station_id":"SUD"},{"station_id":"MRI","line":2,"i_lat":-6.209883,"i_long":106.84912,"transit":false,"station_name":"Manggarai","time":4,"distance":3186,"is_transit":false},{"i_long":106.858896,"station_id":"MTR","distance":1275,"is_transit":false,"time":2,"i_lat":-6.212485,"station_name":"Matraman","transit":false,"line":1},{"transit":true,"i_long":106.86807400000001,"station_id":"JNG","is_transit":true,"station_name":"Jatinegara","distance":1377,"line":1,"time":8,"i_lat":-6.215091},{"station_name":"Pondok Jati","i_lat":-6.209188,"station_id":"POK","is_transit":false,"distance":1236,"i_long":106.861737,"time":2,"line":11,"transit":false},{"transit":false,"time":2,"i_long":106.855437,"line":11,"station_id":"KMT","is_transit":false,"distance":1829,"station_name":"Kramat","i_lat":-6.193792},{"station_name":"Gang Sentiong","i_lat":-6.185975,"transit":false,"time":1,"i_long":106.850107,"line":11,"distance":973,"station_id":"GST","is_transit":false},{"i_lat":-6.174784,"i_long":106.84368,"station_id":"PSE","station_name":"Pasar Senen","distance":1567,"line":11,"is_transit":false,"time":8,"transit":false},{"i_long":106.839204,"station_name":"Kemayoran","transit":false,"line":11,"is_transit":false,"station_id":"KMO","time":4,"distance":1436,"i_lat":-6.161728},{"transit":false,"i_lat":-6.14505,"line":11,"time":5,"is_transit":false,"i_long":106.836569,"station_name":"Rajawali","distance":1901,"station_id":"RJW"},{"i_lat":-6.132549,"time":3,"i_long":106.826365,"transit":true,"station_id":"KPB","station_name":"Kampung Bandan","is_transit":true,"distance":1444,"line":4},{"i_long":106.79867,"line":1,"station_name":"Angke","is_transit":false,"transit":false,"station_id":"AK","distance":4102,"time":9,"i_lat":-6.144674},{"is_transit":true,"station_name":"Duri","distance":1230,"station_id":"DU","i_lat":-6.155215,"i_long":106.800832,"time":4,"transit":true,"line":1},{"station_id":"GGL","time":3,"transit":false,"i_long":106.788277,"line":5,"station_name":"Grogol","is_transit":false,"distance":1700,"i_lat":-6.162021},{"is_transit":false,"transit":false,"distance":2036,"i_long":106.771379,"time":2,"station_name":"Pesing","station_id":"PSG","line":5,"i_lat":-6.161433}]]}