{"data":[[{"distance":0,"transit":false,"station_id":"MJ","i_long":106.394373,"time":0,"station_name":"Maja","is_transit":false,"i_lat":-6.332307,"line":6},{"station_name":"Cikoya","distance":1853,"time":4,"is_transit":false,"i_lat":-6.33561,"station_id":"CKY","i_long":106.411216,"transit":false,"line":0},{"station_name":"Tigaraksa","i_lat":-6.328533,"i_long":106.425991,"line":6,"distance":2651,"station_id":"TGS","transit":false,"time":3,"is_transit":false},{"transit":false,"is_transit":false,"distance":2974,"i_long":106.460812,"line":6,"time":5,"station_name":"Tenjo","station_id":"TEJ","i_lat":-6.327251},{"line":0,"distance":3902,"is_transit":false,"station_name":"Daru","transit":false,"i_lat":-6.338021,"i_long":106.491338,"station_id":"DAR","time":5},{"distance":2675,"i_lat":-6.354349,"is_transit":false,"i_long":106.508482,"line":0,"transit":false,"time":6,"station_name":"Cilejit","station_id":"CJT"},{"i_lat":-6.3441410000000005,"station_id":"PRP","distance":7025,"line":6,"transit":false,"is_transit":false,"time":9,"i_long":106.568863,"station_name":"Parung Panjang"},{"station_id":"CC","distance":5968,"i_long":106.617853,"line":0,"is_transit":false,"time":8,"transit":false,"station_name":"Cicayur","i_lat":-6.329547},{"distance":2519,"transit":false,"station_id":"CSK","i_lat":-6.32484,"i_long":106.640411,"line":0,"time":4,"is_transit":false,"station_name":"Cisauk"},{"transit":false,"i_lat":-6.319871,"station_id":"SRP","i_long":106.66566,"is_transit":false,"station_name":"Serpong","time":4,"line":6,"distance":1784},{"i_lat":-6.314823,"line":6,"distance":2413,"is_transit":false,"station_name":"Rawa Buntu","time":4,"transit":false,"station_id":"RU","i_long":106.675475},{"is_transit":false,"station_id":"SDM","i_long":106.712277,"distance":4566,"time":6,"transit":false,"line":6,"i_lat":-6.296963,"station_name":"Sudimara"},{"line":6,"station_name":"Jurangmangu","is_transit":false,"i_long":106.728916,"transit":false,"i_lat":-6.288927,"distance":1994,"station_id":"JMU","time":4},{"i_long":106.74273,"i_lat":-6.276362,"station_name":"Pondokranji","line":6,"transit":false,"is_transit":false,"station_id":"PDJ","distance":2179,"time":3},{"distance":6218,"time":8,"station_name":"Kebayoran","line":6,"i_long":106.780334,"i_lat":-6.237242,"transit":false,"station_id":"KBY","is_transit":false},{"transit":false,"i_lat":-6.207404,"is_transit":false,"i_long":106.79689,"time":7,"line":6,"station_name":"Palmerah","distance":3737,"station_id":"PLM"},{"station_id":"THB","time":6,"transit":true,"distance":3191,"i_lat":-6.185545,"station_name":"Tanah Abang","is_transit":true,"i_long":106.811091,"line":1},{"time":8,"station_id":"DU","line":1,"i_long":106.800832,"is_transit":true,"station_name":"Duri","transit":true,"i_lat":-6.155215,"distance":3632},{"line":5,"station_name":"Grogol","station_id":"GGL","transit":false,"i_long":106.788277,"is_transit":false,"distance":1700,"time":3,"i_lat":-6.162021},{"i_long":106.771379,"time":2,"station_id":"PSG","i_lat":-6.161433,"station_name":"Pesing","transit":false,"is_transit":false,"distance":2036,"line":5}],[{"time":0,"i_long":106.394373,"transit":false,"station_id":"MJ","station_name":"Maja","is_transit":false,"distance":0,"line":6,"i_lat":-6.332307},{"distance":1853,"i_lat":-6.33561,"transit":false,"station_id":"CKY","time":4,"line":0,"is_transit":false,"station_name":"Cikoya","i_long":106.411216},{"line":6,"station_id":"TGS","i_lat":-6.328533,"distance":2651,"time":3,"transit":false,"station_name":"Tigaraksa","is_transit":false,"i_long":106.425991},{"time":5,"distance":2974,"i_long":106.460812,"line":6,"is_transit":false,"transit":false,"station_id":"TEJ","station_name":"Tenjo","i_lat":-6.327251},{"transit":false,"station_name":"Daru","i_lat":-6.338021,"is_transit":false,"line":0,"station_id":"DAR","distance":3902,"i_long":106.491338,"time":5},{"station_id":"CJT","i_lat":-6.354349,"station_name":"Cilejit","distance":2675,"time":6,"transit":false,"is_transit":false,"line":0,"i_long":106.508482},{"distance":7025,"station_name":"Parung Panjang","time":9,"station_id":"PRP","i_long":106.568863,"line":6,"is_transit":false,"i_lat":-6.3441410000000005,"transit":false},{"i_long":106.617853,"is_transit":false,"distance":5968,"time":8,"i_lat":-6.329547,"line":0,"transit":false,"station_name":"Cicayur","station_id":"CC"},{"station_name":"Cisauk","station_id":"CSK","is_transit":false,"line":0,"time":4,"transit":false,"i_long":106.640411,"distance":2519,"i_lat":-6.32484},{"transit":false,"time":4,"i_lat":-6.319871,"distance":1784,"station_id":"SRP","is_transit":false,"i_long":106.66566,"line":6,"station_name":"Serpong"},{"is_transit":false,"distance":2413,"station_id":"RU","i_lat":-6.314823,"i_long":106.675475,"transit":false,"time":4,"station_name":"Rawa Buntu","line":6},{"i_lat":-6.296963,"station_id":"SDM","is_transit":false,"distance":4566,"station_name":"Sudimara","i_long":106.712277,"time":6,"transit":false,"line":6},{"time":4,"transit":false,"distance":1994,"station_id":"JMU","line":6,"is_transit":false,"i_lat":-6.288927,"station_name":"Jurangmangu","i_long":106.728916},{"transit":false,"distance":2179,"line":6,"station_id":"PDJ","i_long":106.74273,"i_lat":-6.276362,"is_transit":false,"time":3,"station_name":"Pondokranji"},{"distance":6218,"station_id":"KBY","i_lat":-6.237242,"is_transit":false,"station_name":"Kebayoran","i_long":106.780334,"line":6,"time":8,"transit":false},{"station_name":"Palmerah","is_transit":false,"transit":false,"station_id":"PLM","time":7,"i_lat":-6.207404,"distance":3737,"i_long":106.79689,"line":6},{"station_id":"THB","is_transit":true,"time":6,"transit":true,"i_long":106.811091,"i_lat":-6.185545,"line":1,"distance":3191,"station_name":"Tanah Abang"},{"i_long":106.816351,"transit":false,"i_lat":-6.20132,"station_id":"KAT","is_transit":false,"line":1,"distance":2029,"station_name":"Karet","time":5},{"station_id":"SUDB","station_name":"Sudirman Baru","distance":471,"line":1,"transit":false,"is_transit":false,"i_lat":-6.201433,"i_long":106.819881,"time":1},{"station_name":"Sudirman","is_transit":false,"line":1,"time":1,"distance":280,"i_lat":-6.202263,"transit":false,"station_id":"SUD","i_long":106.822649},{"is_transit":true,"distance":3186,"time":4,"i_long":106.84912,"line":0,"transit":true,"station_id":"MRI","i_lat":-6.209883,"station_name":"Manggarai"},{"i_lat":-6.198556,"i_long":106.840169,"is_transit":false,"transit":false,"line":0,"station_name":"Cikini","station_id":"CKI","distance":1590,"time":4},{"station_id":"GDD","time":3,"station_name":"Gondangdia","is_transit":false,"i_lat":-6.186295,"i_long":106.832183,"line":2,"transit":false,"distance":1750},{"line":2,"is_transit":false,"time":4,"station_name":"Juanda","i_lat":-6.166716,"station_id":"JUA","distance":2015,"transit":false,"i_long":106.828284},{"station_name":"Sawah Besar","transit":false,"is_transit":false,"distance":1149,"i_lat":-6.160725,"station_id":"SW","i_long":106.827103,"line":2,"time":2},{"station_id":"MGB","i_lat":-6.149769,"distance":906,"line":2,"is_transit":false,"transit":false,"station_name":"Manggabesar","i_long":106.82482,"time":2},{"line":7,"station_id":"JAY","i_lat":-6.141205,"i_long":106.820901,"station_name":"Jayakarta","distance":1080,"time":2,"transit":false,"is_transit":false},{"station_name":"Jakarta Kota","is_transit":true,"i_lat":-6.137569,"line":0,"transit":true,"distance":1264,"time":4,"station_id":"JAKK","i_long":106.812439},{"station_name":"Kampung Bandan","station_id":"KPB","is_transit":true,"distance":1364,"i_lat":-6.132549,"i_long":106.826365,"time":3,"transit":false,"line":0},{"line":0,"is_transit":false,"distance":4102,"transit":false,"time":9,"station_name":"Angke","station_id":"AK","i_lat":-6.144674,"i_long":106.79867},{"distance":1230,"i_lat":-6.155215,"station_name":"Duri","time":4,"transit":true,"station_id":"DU","is_transit":true,"i_long":106.800832,"line":1},{"i_lat":-6.162021,"distance":1700,"transit":false,"station_id":"GGL","station_name":"Grogol","is_transit":false,"i_long":106.788277,"line":5,"time":3},{"distance":2036,"line":5,"i_long":106.771379,"station_name":"Pesing","time":2,"transit":false,"station_id":"PSG","is_transit":false,"i_lat":-6.161433}],[{"i_lat":-6.332307,"i_long":106.394373,"station_name":"Maja","time":0,"distance":0,"station_id":"MJ","is_transit":false,"transit":false,"line":6},{"transit":false,"distance":1853,"line":0,"station_name":"Cikoya","time":4,"station_id":"CKY","is_transit":false,"i_lat":-6.33561,"i_long":106.411216},{"i_lat":-6.328533,"is_transit":false,"time":3,"i_long":106.425991,"station_name":"Tigaraksa","transit":false,"station_id":"TGS","distance":2651,"line":6},{"distance":2974,"station_id":"TEJ","time":5,"transit":false,"i_lat":-6.327251,"station_name":"Tenjo","is_transit":false,"line":6,"i_long":106.460812},{"i_long":106.491338,"line":0,"time":5,"is_transit":false,"i_lat":-6.338021,"station_id":"DAR","transit":false,"station_name":"Daru","distance":3902},{"transit":false,"line":0,"station_id":"CJT","is_transit":false,"i_lat":-6.354349,"distance":2675,"i_long":106.508482,"time":6,"station_name":"Cilejit"},{"distance":7025,"time":9,"i_lat":-6.3441410000000005,"transit":false,"station_id":"PRP","line":6,"i_long":106.568863,"is_transit":false,"station_name":"Parung Panjang"},{"transit":false,"is_transit":false,"station_id":"CC","distance":5968,"i_long":106.617853,"line":0,"time":8,"station_name":"Cicayur","i_lat":-6.329547},{"i_long":106.640411,"station_name":"Cisauk","station_id":"CSK","line":0,"distance":2519,"time":4,"is_transit":false,"transit":false,"i_lat":-6.32484},{"time":4,"transit":false,"is_transit":false,"distance":1784,"i_lat":-6.319871,"station_name":"Serpong","line":6,"i_long":106.66566,"station_id":"SRP"},{"station_id":"RU","i_long":106.675475,"station_name":"Rawa Buntu","distance":2413,"time":4,"transit":false,"i_lat":-6.314823,"line":6,"is_transit":false},{"station_name":"Sudimara","line":6,"is_transit":false,"station_id":"SDM","transit":false,"i_lat":-6.296963,"distance":4566,"i_long":106.712277,"time":6},{"is_transit":false,"distance":1994,"time":4,"transit":false,"i_long":106.728916,"i_lat":-6.288927,"line":6,"station_name":"Jurangmangu","station_id":"JMU"},{"station_id":"PDJ","i_long":106.74273,"station_name":"Pondokranji","transit":false,"time":3,"is_transit":false,"distance":2179,"line":6,"i_lat":-6.276362},{"time":8,"distance":6218,"line":6,"station_name":"Kebayoran","i_lat":-6.237242,"transit":false,"station_id":"KBY","is_transit":false,"i_long":106.780334},{"time":7,"i_lat":-6.207404,"station_name":"Palmerah","is_transit":false,"i_long":106.79689,"line":6,"distance":3737,"station_id":"PLM","transit":false},{"i_lat":-6.185545,"transit":true,"i_long":106.811091,"is_transit":true,"distance":3191,"station_name":"Tanah Abang","line":1,"station_id":"THB","time":6},{"line":1,"time":5,"station_id":"KAT","transit":false,"is_transit":false,"station_name":"Karet","distance":2029,"i_lat":-6.20132,"i_long":106.816351},{"i_long":106.819881,"is_transit":false,"station_name":"Sudirman Baru","station_id":"SUDB","time":1,"i_lat":-6.201433,"transit":false,"distance":471,"line":1},{"station_name":"Sudirman","line":1,"transit":false,"i_long":106.822649,"is_transit":false,"distance":280,"station_id":"SUD","i_lat":-6.202263,"time":1},{"distance":3186,"i_lat":-6.209883,"is_transit":true,"transit":false,"station_id":"MRI","line":0,"station_name":"Manggarai","i_long":106.84912,"time":4},{"is_transit":false,"time":2,"station_id":"MTR","i_lat":-6.212485,"station_name":"Matraman","i_long":106.858896,"distance":1275,"line":1,"transit":false},{"line":0,"is_transit":true,"i_long":106.86807400000001,"i_lat":-6.215091,"distance":1377,"station_id":"JNG","station_name":"Jatinegara","transit":true,"time":8},{"is_transit":false,"line":11,"i_lat":-6.209188,"i_long":106.861737,"distance":1236,"station_name":"Pondok Jati","station_id":"POK","time":2,"transit":false},{"station_id":"KMT","is_transit":false,"time":2,"line":11,"distance":1829,"station_name":"Kramat","i_lat":-6.193792,"i_long":106.855437,"transit":false},{"station_id":"GST","station_name":"Gang Sentiong","i_lat":-6.185975,"i_long":106.850107,"time":1,"is_transit":false,"distance":973,"line":11,"transit":false},{"distance":1567,"station_name":"Pasar Senen","transit":false,"i_long":106.84368,"time":8,"is_transit":false,"station_id":"PSE","i_lat":-6.174784,"line":11},{"distance":1436,"transit":false,"i_lat":-6.161728,"line":11,"i_long":106.839204,"station_id":"KMO","time":4,"station_name":"Kemayoran","is_transit":false},{"i_long":106.836569,"distance":1901,"station_name":"Rajawali","line":11,"is_transit":false,"time":5,"transit":false,"station_id":"RJW","i_lat":-6.14505},{"station_name":"Kampung Bandan","station_id":"KPB","transit":true,"time":3,"i_long":106.826365,"distance":1444,"line":0,"is_transit":true,"i_lat":-6.132549},{"line":0,"distance":4102,"time":9,"i_lat":-6.144674,"station_id":"AK","station_name":"Angke","i_long":106.79867,"transit":false,"is_transit":false},{"line":1,"is_transit":true,"i_long":106.800832,"distance":1230,"station_name":"Duri","transit":true,"i_lat":-6.155215,"time":4,"station_id":"DU"},{"i_long":106.788277,"is_transit":false,"distance":1700,"station_id":"GGL","transit":false,"i_lat":-6.162021,"line":5,"station_name":"Grogol","time":3},{"time":2,"transit":false,"line":5,"station_id":"PSG","is_transit":false,"i_long":106.771379,"i_lat":-6.161433,"station_name":"Pesing","distance":2036}]]}