{"data":[[{"line":6,"station_id":"MJ","is_transit":false,"distance":0,"transit":false,"i_long":106.394373,"station_name":"Maja","time":0,"i_lat":-6.332307},{"time":4,"i_long":106.411216,"station_id":"CKY","distance":1853,"transit":false,"station_name":"Cikoya","line":3,"i_lat":-6.33561,"is_transit":false},{"line":6,"is_transit":false,"i_lat":-6.328533,"station_id":"TGS","distance":2651,"station_name":"Tigaraksa","time":3,"transit":false,"i_long":106.425991},{"transit":false,"station_name":"Tenjo","is_transit":false,"station_id":"TEJ","line":6,"distance":2974,"i_long":106.460812,"i_lat":-6.327251,"time":5},{"station_name":"Daru","station_id":"DAR","transit":false,"distance":3902,"is_transit":false,"time":5,"i_lat":-6.338021,"i_long":106.491338,"line":0},{"station_name":"Cilejit","i_lat":-6.354349,"transit":false,"station_id":"CJT","time":6,"distance":2675,"i_long":106.508482,"line":3,"is_transit":false},{"station_name":"Parung Panjang","line":6,"time":9,"distance":7025,"i_lat":-6.3441410000000005,"is_transit":false,"station_id":"PRP","transit":false,"i_long":106.568863},{"station_id":"CC","distance":5968,"i_lat":-6.329547,"line":3,"time":8,"is_transit":false,"station_name":"Cicayur","i_long":106.617853,"transit":false},{"i_lat":-6.32484,"transit":false,"i_long":106.640411,"distance":2519,"is_transit":false,"station_id":"CSK","line":3,"time":4,"station_name":"Cisauk"},{"distance":1784,"station_name":"Serpong","i_lat":-6.319871,"station_id":"SRP","is_transit":false,"line":6,"transit":false,"time":4,"i_long":106.66566},{"line":6,"distance":2413,"i_lat":-6.314823,"time":4,"transit":false,"is_transit":false,"station_id":"RU","station_name":"Rawa Buntu","i_long":106.675475},{"distance":4566,"station_id":"SDM","station_name":"Sudimara","i_lat":-6.296963,"is_transit":false,"transit":false,"time":6,"i_long":106.712277,"line":6},{"distance":1994,"line":6,"transit":false,"i_lat":-6.288927,"station_name":"Jurangmangu","i_long":106.728916,"time":4,"is_transit":false,"station_id":"JMU"},{"transit":false,"is_transit":false,"time":3,"distance":2179,"line":6,"station_name":"Pondokranji","i_long":106.74273,"station_id":"PDJ","i_lat":-6.276362},{"time":8,"station_name":"Kebayoran","distance":6218,"is_transit":false,"station_id":"KBY","i_lat":-6.237242,"transit":false,"line":6,"i_long":106.780334},{"time":7,"transit":false,"distance":3737,"line":6,"is_transit":false,"station_name":"Palmerah","station_id":"PLM","i_long":106.79689,"i_lat":-6.207404},{"station_name":"Tanah Abang","i_lat":-6.185545,"is_transit":true,"i_long":106.811091,"transit":true,"distance":3191,"time":6,"station_id":"THB","line":1},{"line":1,"i_lat":-6.155215,"is_transit":true,"station_name":"Duri","station_id":"DU","transit":true,"distance":3632,"time":8,"i_long":106.800832},{"is_transit":false,"time":3,"i_long":106.788277,"distance":1700,"station_id":"GRG","i_lat":-6.162021,"transit":false,"line":5,"station_name":"Grogol"},{"time":2,"station_name":"Pesing","i_long":106.771379,"line":5,"transit":false,"i_lat":-6.161433,"station_id":"PSG","distance":2036,"is_transit":false}],[{"station_id":"MJ","distance":0,"time":0,"line":6,"transit":false,"i_lat":-6.332307,"i_long":106.394373,"is_transit":false,"station_name":"Maja"},{"is_transit":false,"time":4,"station_id":"CKY","station_name":"Cikoya","transit":false,"distance":1853,"i_lat":-6.33561,"i_long":106.411216,"line":3},{"is_transit":false,"station_id":"TGS","distance":2651,"i_lat":-6.328533,"time":3,"station_name":"Tigaraksa","transit":false,"i_long":106.425991,"line":6},{"station_name":"Tenjo","station_id":"TEJ","is_transit":false,"transit":false,"i_long":106.460812,"line":6,"distance":2974,"time":5,"i_lat":-6.327251},{"is_transit":false,"line":0,"i_lat":-6.338021,"time":5,"distance":3902,"i_long":106.491338,"station_name":"Daru","transit":false,"station_id":"DAR"},{"line":3,"time":6,"transit":false,"i_long":106.508482,"distance":2675,"station_name":"Cilejit","is_transit":false,"station_id":"CJT","i_lat":-6.354349},{"station_name":"Parung Panjang","transit":false,"is_transit":false,"i_long":106.568863,"time":9,"distance":7025,"line":6,"station_id":"PRP","i_lat":-6.3441410000000005},{"distance":5968,"station_name":"Cicayur","is_transit":false,"transit":false,"i_lat":-6.329547,"i_long":106.617853,"time":8,"station_id":"CC","line":3},{"time":4,"transit":false,"station_id":"CSK","line":3,"i_long":106.640411,"distance":2519,"i_lat":-6.32484,"station_name":"Cisauk","is_transit":false},{"station_name":"Serpong","i_long":106.66566,"is_transit":false,"transit":false,"i_lat":-6.319871,"line":6,"distance":1784,"station_id":"SRP","time":4},{"is_transit":false,"distance":2413,"i_lat":-6.314823,"station_name":"Rawa Buntu","station_id":"RU","i_long":106.675475,"transit":false,"time":4,"line":6},{"transit":false,"is_transit":false,"time":6,"line":6,"distance":4566,"station_id":"SDM","i_lat":-6.296963,"station_name":"Sudimara","i_long":106.712277},{"station_name":"Jurangmangu","is_transit":false,"transit":false,"i_long":106.728916,"line":6,"time":4,"i_lat":-6.288927,"distance":1994,"station_id":"JMU"},{"i_lat":-6.276362,"i_long":106.74273,"station_id":"PDJ","is_transit":false,"transit":false,"station_name":"Pondokranji","line":6,"distance":2179,"time":3},{"time":8,"station_id":"KBY","distance":6218,"is_transit":false,"transit":false,"i_lat":-6.237242,"i_long":106.780334,"line":6,"station_name":"Kebayoran"},{"station_id":"PLM","i_lat":-6.207404,"line":6,"is_transit":false,"distance":3737,"transit":false,"i_long":106.79689,"time":7,"station_name":"Palmerah"},{"transit":true,"i_lat":-6.185545,"distance":3191,"station_name":"Tanah Abang","time":6,"is_transit":true,"station_id":"THB","i_long":106.811091,"line":1},{"distance":2029,"i_lat":-6.20132,"i_long":106.816351,"time":5,"station_name":"Karet","is_transit":false,"station_id":"KAT","line":1,"transit":false},{"time":1,"transit":false,"line":1,"station_name":"Sudirman Baru","station_id":"SUDB","distance":471,"is_transit":false,"i_lat":-6.201433,"i_long":106.819881},{"line":1,"transit":false,"time":1,"i_lat":-6.202263,"station_id":"SUD","station_name":"Sudirman","distance":280,"is_transit":false,"i_long":106.822649},{"distance":3186,"station_id":"MRI","i_long":106.84912,"time":4,"transit":true,"line":2,"station_name":"Manggarai","is_transit":true,"i_lat":-6.209883},{"transit":false,"distance":1590,"i_long":106.840169,"line":2,"station_id":"CKI","time":4,"station_name":"Cikini","is_transit":false,"i_lat":-6.198556},{"distance":1750,"is_transit":false,"station_name":"Gondangdia","i_lat":-6.186295,"i_long":106.832183,"time":3,"station_id":"GDD","line":2,"transit":false},{"line":2,"is_transit":false,"i_lat":-6.166716,"transit":false,"station_name":"Juanda","station_id":"JUA","distance":2015,"i_long":106.828284,"time":4},{"is_transit":false,"line":2,"time":2,"distance":1149,"i_long":106.827103,"station_name":"Sawah Besar","transit":false,"station_id":"SW","i_lat":-6.160725},{"line":2,"is_transit":false,"i_long":106.82482,"distance":906,"station_name":"Manggabesar","time":2,"transit":false,"station_id":"MGB","i_lat":-6.149769},{"station_id":"JAY","i_lat":-6.141205,"is_transit":false,"line":2,"transit":false,"station_name":"Jayakarta","i_long":106.820901,"distance":1080,"time":2},{"transit":true,"line":2,"i_lat":-6.137569,"distance":1264,"time":4,"station_name":"Jakarta Kota","station_id":"JAKK","is_transit":true,"i_long":106.812439},{"station_id":"KPB","station_name":"Kampung Bandan","i_lat":-6.132549,"time":3,"distance":1364,"i_long":106.826365,"line":4,"transit":true,"is_transit":true},{"is_transit":false,"line":1,"transit":false,"i_long":106.79867,"i_lat":-6.144674,"distance":4102,"station_name":"Angke","time":9,"station_id":"AK"},{"line":1,"station_id":"DU","station_name":"Duri","distance":1230,"i_lat":-6.155215,"transit":true,"time":4,"is_transit":true,"i_long":106.800832},{"i_lat":-6.162021,"time":3,"station_name":"Grogol","station_id":"GRG","transit":false,"is_transit":false,"distance":1700,"i_long":106.788277,"line":5},{"line":5,"transit":false,"station_name":"Pesing","i_lat":-6.161433,"distance":2036,"i_long":106.771379,"station_id":"PSG","time":2,"is_transit":false}],[{"is_transit":false,"i_lat":-6.332307,"station_name":"Maja","line":6,"distance":0,"i_long":106.394373,"transit":false,"station_id":"MJ","time":0},{"distance":1853,"line":3,"i_long":106.411216,"station_id":"CKY","transit":false,"is_transit":false,"i_lat":-6.33561,"station_name":"Cikoya","time":4},{"i_long":106.425991,"i_lat":-6.328533,"distance":2651,"station_id":"TGS","transit":false,"is_transit":false,"line":6,"station_name":"Tigaraksa","time":3},{"i_lat":-6.327251,"time":5,"station_name":"Tenjo","distance":2974,"line":6,"transit":false,"station_id":"TEJ","is_transit":false,"i_long":106.460812},{"time":5,"station_name":"Daru","station_id":"DAR","distance":3902,"line":0,"transit":false,"i_lat":-6.338021,"i_long":106.491338,"is_transit":false},{"station_name":"Cilejit","distance":2675,"is_transit":false,"station_id":"CJT","i_long":106.508482,"i_lat":-6.354349,"time":6,"line":3,"transit":false},{"station_name":"Parung Panjang","line":6,"transit":false,"i_lat":-6.3441410000000005,"time":9,"is_transit":false,"station_id":"PRP","i_long":106.568863,"distance":7025},{"i_long":106.617853,"time":8,"transit":false,"station_name":"Cicayur","station_id":"CC","is_transit":false,"i_lat":-6.329547,"distance":5968,"line":3},{"station_name":"Cisauk","line":3,"i_lat":-6.32484,"is_transit":false,"transit":false,"i_long":106.640411,"station_id":"CSK","distance":2519,"time":4},{"station_name":"Serpong","line":6,"is_transit":false,"transit":false,"i_lat":-6.319871,"station_id":"SRP","i_long":106.66566,"time":4,"distance":1784},{"station_name":"Rawa Buntu","is_transit":false,"distance":2413,"i_lat":-6.314823,"station_id":"RU","transit":false,"i_long":106.675475,"line":6,"time":4},{"station_name":"Sudimara","distance":4566,"is_transit":false,"i_long":106.712277,"time":6,"i_lat":-6.296963,"station_id":"SDM","transit":false,"line":6},{"transit":false,"station_name":"Jurangmangu","i_lat":-6.288927,"line":6,"distance":1994,"time":4,"i_long":106.728916,"is_transit":false,"station_id":"JMU"},{"time":3,"is_transit":false,"transit":false,"line":6,"distance":2179,"station_id":"PDJ","i_lat":-6.276362,"i_long":106.74273,"station_name":"Pondokranji"},{"i_lat":-6.237242,"station_name":"Kebayoran","i_long":106.780334,"time":8,"line":6,"transit":false,"distance":6218,"station_id":"KBY","is_transit":false},{"is_transit":false,"transit":false,"station_name":"Palmerah","i_lat":-6.207404,"time":7,"station_id":"PLM","line":6,"distance":3737,"i_long":106.79689},{"i_lat":-6.185545,"is_transit":true,"station_id":"THB","transit":true,"i_long":106.811091,"line":1,"distance":3191,"station_name":"Tanah Abang","time":6},{"i_long":106.816351,"time":5,"station_id":"KAT","distance":2029,"line":1,"station_name":"Karet","i_lat":-6.20132,"is_transit":false,"transit":false},{"i_long":106.819881,"is_transit":false,"transit":false,"time":1,"station_name":"Sudirman Baru","station_id":"SUDB","distance":471,"i_lat":-6.201433,"line":1},{"line":1,"transit":false,"station_name":"Sudirman","i_lat":-6.202263,"is_transit":false,"time":1,"distance":280,"station_id":"SUD","i_long":106.822649},{"time":4,"transit":false,"distance":3186,"station_name":"Manggarai","i_lat":-6.209883,"station_id":"MRI","is_transit":false,"i_long":106.84912,"line":2},{"transit":false,"station_id":"MTR","is_transit":false,"station_name":"Matraman","distance":1275,"line":1,"i_long":106.858896,"time":2,"i_lat":-6.212485},{"station_id":"JNG","transit":true,"station_name":"Jatinegara","time":8,"line":1,"distance":1377,"i_lat":-6.215091,"i_long":106.86807400000001,"is_transit":true},{"time":2,"line":11,"i_lat":-6.209188,"distance":1236,"station_name":"Pondok Jati","is_transit":false,"transit":false,"i_long":106.861737,"station_id":"POK"},{"station_name":"Kramat","i_lat":-6.193792,"is_transit":false,"i_long":106.855437,"station_id":"KMT","distance":1829,"time":2,"line":11,"transit":false},{"transit":false,"time":1,"line":11,"distance":973,"i_lat":-6.185975,"is_transit":false,"station_name":"Gang Sentiong","station_id":"GST","i_long":106.850107},{"time":8,"is_transit":false,"distance":1567,"station_id":"PSE","i_lat":-6.174784,"i_long":106.84368,"transit":false,"station_name":"Pasar Senen","line":11},{"station_id":"KMO","station_name":"Kemayoran","i_long":106.839204,"distance":1436,"is_transit":false,"i_lat":-6.161728,"time":4,"line":11,"transit":false},{"transit":false,"station_name":"Rajawali","i_lat":-6.14505,"i_long":106.836569,"distance":1901,"line":11,"station_id":"RJW","is_transit":false,"time":5},{"is_transit":true,"time":3,"i_lat":-6.132549,"i_long":106.826365,"line":4,"station_id":"KPB","distance":1444,"transit":true,"station_name":"Kampung Bandan"},{"is_transit":false,"station_name":"Angke","i_long":106.79867,"distance":4102,"station_id":"AK","line":1,"transit":false,"i_lat":-6.144674,"time":9},{"i_lat":-6.155215,"is_transit":true,"station_id":"DU","time":4,"transit":true,"i_long":106.800832,"line":1,"distance":1230,"station_name":"Duri"},{"i_long":106.788277,"station_id":"GRG","line":5,"station_name":"Grogol","time":3,"transit":false,"i_lat":-6.162021,"is_transit":false,"distance":1700},{"transit":false,"i_lat":-6.161433,"distance":2036,"line":5,"is_transit":false,"i_long":106.771379,"station_id":"PSG","station_name":"Pesing","time":2}]]}