{"data":[[{"time":0,"is_transit":false,"distance":0,"transit":false,"i_lat":-6.332307,"station_name":"Maja","station_id":"MJ","i_long":106.394373,"line":6},{"station_id":"CKY","transit":false,"line":3,"is_transit":false,"distance":1853,"i_long":106.411216,"station_name":"Cikoya","time":4,"i_lat":-6.33561},{"station_id":"TGS","time":3,"is_transit":false,"distance":2651,"i_lat":-6.328533,"transit":false,"i_long":106.425991,"station_name":"Tigaraksa","line":6},{"station_id":"TEJ","transit":false,"distance":2974,"i_lat":-6.327251,"line":6,"i_long":106.460812,"time":5,"is_transit":false,"station_name":"Tenjo"},{"transit":false,"time":5,"station_id":"DAR","i_lat":-6.338021,"station_name":"Daru","distance":3902,"is_transit":false,"i_long":106.491338,"line":0},{"transit":false,"station_name":"Cilejit","time":6,"station_id":"CJT","distance":2675,"line":3,"is_transit":false,"i_lat":-6.354349,"i_long":106.508482},{"time":9,"transit":false,"i_long":106.568863,"station_name":"Parung Panjang","is_transit":false,"distance":7025,"station_id":"PRP","line":6,"i_lat":-6.3441410000000005},{"station_name":"Cicayur","is_transit":false,"time":8,"distance":5968,"station_id":"CC","transit":false,"i_long":106.617853,"line":3,"i_lat":-6.329547},{"i_lat":-6.32484,"station_id":"CSK","distance":2519,"station_name":"Cisauk","transit":false,"is_transit":false,"time":4,"i_long":106.640411,"line":3},{"transit":false,"i_long":106.66566,"distance":1784,"station_name":"Serpong","is_transit":false,"i_lat":-6.319871,"station_id":"SRP","time":4,"line":6},{"station_id":"RU","station_name":"Rawa Buntu","is_transit":false,"i_lat":-6.314823,"time":4,"transit":false,"i_long":106.675475,"line":6,"distance":2413}]]}