{"data":[[{"station_id":"MJ","is_transit":false,"line":6,"station_name":"Maja","i_lat":-6.332307,"distance":0,"i_long":106.394373,"time":0,"transit":false},{"station_id":"CKY","station_name":"Cikoya","is_transit":false,"time":4,"line":0,"i_lat":-6.33561,"transit":false,"distance":1853,"i_long":106.411216},{"line":6,"time":3,"i_lat":-6.328533,"is_transit":false,"station_name":"Tigaraksa","distance":2651,"station_id":"TGS","transit":false,"i_long":106.425991},{"i_long":106.460812,"station_id":"TEJ","i_lat":-6.327251,"distance":2974,"time":5,"station_name":"Tenjo","transit":false,"is_transit":false,"line":6},{"line":0,"time":5,"station_id":"DAR","transit":false,"i_long":106.491338,"is_transit":false,"station_name":"Daru","distance":3902,"i_lat":-6.338021},{"time":6,"transit":false,"distance":2675,"line":0,"station_id":"CJT","station_name":"Cilejit","i_lat":-6.354349,"i_long":106.508482,"is_transit":false},{"station_id":"PRP","is_transit":false,"i_long":106.568863,"transit":false,"station_name":"Parung Panjang","distance":7025,"i_lat":-6.3441410000000005,"time":9,"line":6},{"station_id":"CC","line":0,"i_long":106.617853,"station_name":"Cicayur","i_lat":-6.329547,"distance":5968,"is_transit":false,"transit":false,"time":8},{"time":4,"station_name":"Cisauk","i_lat":-6.32484,"is_transit":false,"line":0,"station_id":"CSK","i_long":106.640411,"transit":false,"distance":2519},{"i_long":106.66566,"station_name":"Serpong","station_id":"SRP","time":4,"line":6,"i_lat":-6.319871,"is_transit":false,"transit":false,"distance":1784},{"i_long":106.675475,"is_transit":false,"distance":2413,"station_id":"RU","line":6,"transit":false,"time":4,"station_name":"Rawa Buntu","i_lat":-6.314823}]]}