{"data":[[{"i_long":106.394373,"i_lat":-6.332307,"distance":0,"station_name":"Maja","time":0,"is_transit":false,"station_id":"MJ","line":6,"transit":false},{"station_name":"Cikoya","distance":1853,"time":4,"i_lat":-6.33561,"station_id":"CKY","line":3,"i_long":106.411216,"is_transit":false,"transit":false},{"station_id":"TGS","is_transit":false,"time":3,"i_lat":-6.328533,"transit":false,"station_name":"Tigaraksa","distance":2651,"i_long":106.425991,"line":6},{"distance":2974,"line":6,"station_id":"TEJ","transit":false,"i_long":106.460812,"station_name":"Tenjo","time":5,"i_lat":-6.327251,"is_transit":false},{"transit":false,"line":0,"is_transit":false,"station_name":"Daru","time":5,"distance":3902,"i_long":106.491338,"station_id":"DAR","i_lat":-6.338021},{"transit":false,"i_lat":-6.354349,"station_name":"Cilejit","station_id":"CJT","distance":2675,"i_long":106.508482,"time":6,"line":3,"is_transit":false},{"i_lat":-6.3441410000000005,"line":6,"station_name":"Parung Panjang","time":9,"i_long":106.568863,"is_transit":false,"transit":false,"station_id":"PRP","distance":7025},{"i_lat":-6.329547,"transit":false,"station_name":"Cicayur","time":8,"station_id":"CC","distance":5968,"is_transit":false,"i_long":106.617853,"line":3},{"distance":2519,"is_transit":false,"transit":false,"station_name":"Cisauk","station_id":"CSK","time":4,"i_long":106.640411,"i_lat":-6.32484,"line":3},{"line":6,"is_transit":false,"time":4,"i_long":106.66566,"station_id":"SRP","i_lat":-6.319871,"station_name":"Serpong","transit":false,"distance":1784},{"i_long":106.675475,"transit":false,"station_name":"Rawa Buntu","is_transit":false,"i_lat":-6.314823,"station_id":"RU","distance":2413,"line":6,"time":4}]]}