{"data":[[{"i_long":106.394373,"station_id":"MJ","time":0,"transit":false,"station_name":"Maja","i_lat":-6.332307,"distance":0,"is_transit":false,"line":6},{"is_transit":false,"i_lat":-6.33561,"transit":false,"station_name":"Cikoya","line":3,"station_id":"CKY","distance":1853,"i_long":106.411216,"time":4},{"time":3,"distance":2651,"i_lat":-6.328533,"station_id":"TGS","station_name":"Tigaraksa","transit":false,"is_transit":false,"i_long":106.425991,"line":6},{"time":5,"line":6,"is_transit":false,"i_long":106.460812,"station_id":"TEJ","transit":false,"station_name":"Tenjo","i_lat":-6.327251,"distance":2974},{"station_name":"Daru","i_long":106.491338,"distance":3902,"line":0,"transit":false,"is_transit":false,"i_lat":-6.338021,"station_id":"DAR","time":5},{"station_name":"Cilejit","i_lat":-6.354349,"time":6,"distance":2675,"transit":false,"station_id":"CJT","is_transit":false,"i_long":106.508482,"line":3},{"station_id":"PRP","is_transit":false,"time":9,"distance":7025,"line":6,"i_long":106.568863,"i_lat":-6.3441410000000005,"transit":false,"station_name":"Parung Panjang"},{"station_id":"CC","station_name":"Cicayur","i_long":106.617853,"line":3,"distance":5968,"is_transit":false,"transit":false,"time":8,"i_lat":-6.329547},{"is_transit":false,"transit":false,"i_long":106.640411,"distance":2519,"time":4,"i_lat":-6.32484,"station_name":"Cisauk","station_id":"CSK","line":3},{"station_name":"Serpong","station_id":"SRP","transit":false,"is_transit":false,"i_lat":-6.319871,"i_long":106.66566,"time":4,"distance":1784,"line":6},{"time":4,"station_id":"RU","transit":false,"distance":2413,"station_name":"Rawa Buntu","is_transit":false,"i_lat":-6.314823,"i_long":106.675475,"line":6}]]}