{"data":[[{"time":0,"i_long":106.394373,"station_id":"MJ","distance":0,"line":6,"is_transit":false,"i_lat":-6.332307,"transit":false,"station_name":"Maja"},{"distance":1853,"station_name":"Cikoya","is_transit":false,"i_long":106.411216,"line":3,"transit":false,"i_lat":-6.33561,"station_id":"CKY","time":4},{"i_lat":-6.328533,"i_long":106.425991,"station_name":"Tigaraksa","time":3,"station_id":"TGS","distance":2651,"transit":false,"line":6,"is_transit":false},{"distance":2974,"line":6,"i_long":106.460812,"station_id":"TEJ","is_transit":false,"time":5,"station_name":"Tenjo","i_lat":-6.327251,"transit":false},{"station_name":"Daru","i_lat":-6.338021,"station_id":"DAR","time":5,"i_long":106.491338,"transit":false,"is_transit":false,"distance":3902,"line":0},{"station_id":"CJT","transit":false,"distance":2675,"i_lat":-6.354349,"time":6,"line":3,"is_transit":false,"station_name":"Cilejit","i_long":106.508482},{"i_long":106.568863,"line":6,"i_lat":-6.3441410000000005,"is_transit":false,"time":9,"distance":7025,"station_id":"PRP","station_name":"Parung Panjang","transit":false},{"station_name":"Cicayur","station_id":"CC","line":3,"time":8,"i_long":106.617853,"is_transit":false,"transit":false,"distance":5968,"i_lat":-6.329547},{"is_transit":false,"station_name":"Cisauk","i_lat":-6.32484,"line":3,"distance":2519,"i_long":106.640411,"station_id":"CSK","transit":false,"time":4},{"i_lat":-6.319871,"time":4,"station_id":"SRP","i_long":106.66566,"transit":false,"station_name":"Serpong","distance":1784,"line":6,"is_transit":false},{"is_transit":false,"i_lat":-6.314823,"line":6,"transit":false,"time":4,"distance":2413,"station_name":"Rawa Buntu","station_id":"RU","i_long":106.675475},{"i_lat":-6.296963,"time":6,"transit":false,"i_long":106.712277,"line":6,"is_transit":false,"station_name":"Sudimara","station_id":"SDM","distance":4566},{"transit":false,"line":6,"is_transit":false,"time":4,"distance":1994,"station_name":"Jurangmangu","station_id":"JMU","i_lat":-6.288927,"i_long":106.728916},{"i_long":106.74273,"line":6,"i_lat":-6.276362,"is_transit":false,"station_id":"PDJ","time":3,"transit":false,"station_name":"Pondokranji","distance":2179},{"i_long":106.780334,"time":8,"distance":6218,"station_name":"Kebayoran","transit":false,"line":6,"i_lat":-6.237242,"is_transit":false,"station_id":"KBY"},{"is_transit":false,"station_name":"Palmerah","time":7,"i_lat":-6.207404,"transit":false,"station_id":"PLM","distance":3737,"i_long":106.79689,"line":6},{"time":6,"transit":true,"distance":3191,"station_id":"THB","station_name":"Tanah Abang","i_lat":-6.185545,"is_transit":true,"i_long":106.811091,"line":1},{"i_long":106.800832,"is_transit":false,"transit":false,"time":8,"distance":3632,"line":1,"station_name":"Duri","i_lat":-6.155215,"station_id":"DU"},{"station_name":"Angke","line":1,"transit":false,"i_long":106.79867,"time":4,"is_transit":false,"distance":1230,"i_lat":-6.144674,"station_id":"AK"},{"time":9,"distance":4102,"transit":true,"is_transit":true,"station_id":"KPB","i_lat":-6.132549,"station_name":"Kampung Bandan","i_long":106.826365,"line":4},{"distance":1364,"i_long":106.812439,"time":3,"i_lat":-6.137569,"station_id":"JAKK","transit":true,"station_name":"Jakarta Kota","line":2,"is_transit":true},{"i_long":106.820901,"line":2,"distance":1264,"i_lat":-6.141205,"is_transit":false,"station_id":"JAY","station_name":"Jayakarta","transit":false,"time":4},{"time":2,"line":2,"station_name":"Manggabesar","transit":false,"is_transit":false,"station_id":"MGB","distance":1080,"i_lat":-6.149769,"i_long":106.82482},{"transit":false,"line":2,"station_name":"Sawah Besar","is_transit":false,"station_id":"SW","distance":906,"time":2,"i_lat":-6.160725,"i_long":106.827103}],[{"time":0,"i_long":106.394373,"distance":0,"transit":false,"station_id":"MJ","i_lat":-6.332307,"station_name":"Maja","line":6,"is_transit":false},{"is_transit":false,"time":4,"line":3,"station_id":"CKY","i_long":106.411216,"distance":1853,"station_name":"Cikoya","transit":false,"i_lat":-6.33561},{"station_name":"Tigaraksa","transit":false,"i_lat":-6.328533,"is_transit":false,"distance":2651,"line":6,"i_long":106.425991,"station_id":"TGS","time":3},{"station_id":"TEJ","time":5,"distance":2974,"i_lat":-6.327251,"station_name":"Tenjo","transit":false,"is_transit":false,"line":6,"i_long":106.460812},{"i_long":106.491338,"distance":3902,"transit":false,"line":0,"station_name":"Daru","station_id":"DAR","i_lat":-6.338021,"time":5,"is_transit":false},{"line":3,"station_name":"Cilejit","station_id":"CJT","distance":2675,"i_long":106.508482,"transit":false,"time":6,"i_lat":-6.354349,"is_transit":false},{"distance":7025,"i_long":106.568863,"station_id":"PRP","i_lat":-6.3441410000000005,"line":6,"is_transit":false,"station_name":"Parung Panjang","transit":false,"time":9},{"i_lat":-6.329547,"i_long":106.617853,"is_transit":false,"station_name":"Cicayur","station_id":"CC","time":8,"transit":false,"line":3,"distance":5968},{"is_transit":false,"transit":false,"time":4,"i_lat":-6.32484,"distance":2519,"station_name":"Cisauk","line":3,"i_long":106.640411,"station_id":"CSK"},{"station_id":"SRP","time":4,"is_transit":false,"distance":1784,"line":6,"station_name":"Serpong","transit":false,"i_lat":-6.319871,"i_long":106.66566},{"i_long":106.675475,"distance":2413,"is_transit":false,"time":4,"station_id":"RU","line":6,"transit":false,"station_name":"Rawa Buntu","i_lat":-6.314823},{"i_long":106.712277,"is_transit":false,"i_lat":-6.296963,"station_id":"SDM","line":6,"station_name":"Sudimara","distance":4566,"transit":false,"time":6},{"station_id":"JMU","station_name":"Jurangmangu","distance":1994,"i_long":106.728916,"time":4,"i_lat":-6.288927,"is_transit":false,"transit":false,"line":6},{"is_transit":false,"time":3,"station_name":"Pondokranji","distance":2179,"i_lat":-6.276362,"i_long":106.74273,"transit":false,"line":6,"station_id":"PDJ"},{"station_id":"KBY","distance":6218,"time":8,"i_lat":-6.237242,"line":6,"transit":false,"i_long":106.780334,"is_transit":false,"station_name":"Kebayoran"},{"i_long":106.79689,"line":6,"transit":false,"station_id":"PLM","distance":3737,"i_lat":-6.207404,"station_name":"Palmerah","is_transit":false,"time":7},{"distance":3191,"station_name":"Tanah Abang","is_transit":true,"time":6,"i_lat":-6.185545,"transit":true,"line":1,"station_id":"THB","i_long":106.811091},{"i_lat":-6.20132,"i_long":106.816351,"distance":2029,"station_id":"KAT","station_name":"Karet","transit":false,"time":5,"line":1,"is_transit":false},{"station_id":"SUDB","distance":471,"i_lat":-6.201433,"line":1,"transit":false,"is_transit":false,"station_name":"Sudirman Baru","i_long":106.819881,"time":1},{"i_lat":-6.202263,"station_id":"SUD","line":1,"time":1,"i_long":106.822649,"transit":false,"is_transit":false,"station_name":"Sudirman","distance":280},{"transit":true,"i_lat":-6.209883,"i_long":106.84912,"line":2,"is_transit":true,"station_name":"Manggarai","time":4,"station_id":"MRI","distance":3186},{"line":2,"time":4,"i_long":106.840169,"i_lat":-6.198556,"transit":false,"station_name":"Cikini","distance":1590,"is_transit":false,"station_id":"CKI"},{"time":3,"distance":1750,"i_lat":-6.186295,"line":2,"transit":false,"i_long":106.832183,"station_name":"Gondangdia","station_id":"GDD","is_transit":false},{"i_lat":-6.166716,"time":4,"transit":false,"line":2,"station_name":"Juanda","station_id":"JUA","distance":2015,"is_transit":false,"i_long":106.828284},{"station_name":"Sawah Besar","time":2,"distance":1149,"i_long":106.827103,"is_transit":false,"transit":false,"station_id":"SW","i_lat":-6.160725,"line":2}],[{"i_lat":-6.332307,"line":6,"transit":false,"distance":0,"i_long":106.394373,"station_id":"MJ","station_name":"Maja","is_transit":false,"time":0},{"distance":1853,"is_transit":false,"time":4,"line":3,"i_lat":-6.33561,"transit":false,"station_id":"CKY","i_long":106.411216,"station_name":"Cikoya"},{"i_long":106.425991,"is_transit":false,"line":6,"distance":2651,"time":3,"station_name":"Tigaraksa","transit":false,"station_id":"TGS","i_lat":-6.328533},{"station_name":"Tenjo","station_id":"TEJ","i_long":106.460812,"line":6,"i_lat":-6.327251,"time":5,"transit":false,"distance":2974,"is_transit":false},{"time":5,"transit":false,"station_name":"Daru","distance":3902,"i_lat":-6.338021,"line":0,"i_long":106.491338,"station_id":"DAR","is_transit":false},{"distance":2675,"transit":false,"i_long":106.508482,"line":3,"is_transit":false,"station_name":"Cilejit","station_id":"CJT","time":6,"i_lat":-6.354349},{"is_transit":false,"station_name":"Parung Panjang","distance":7025,"transit":false,"line":6,"station_id":"PRP","i_lat":-6.3441410000000005,"i_long":106.568863,"time":9},{"distance":5968,"station_name":"Cicayur","i_lat":-6.329547,"line":3,"transit":false,"is_transit":false,"i_long":106.617853,"station_id":"CC","time":8},{"i_long":106.640411,"transit":false,"is_transit":false,"time":4,"line":3,"station_name":"Cisauk","distance":2519,"station_id":"CSK","i_lat":-6.32484},{"station_name":"Serpong","transit":false,"i_lat":-6.319871,"station_id":"SRP","is_transit":false,"line":6,"distance":1784,"time":4,"i_long":106.66566},{"i_lat":-6.314823,"i_long":106.675475,"line":6,"is_transit":false,"distance":2413,"station_id":"RU","transit":false,"station_name":"Rawa Buntu","time":4},{"time":6,"i_long":106.712277,"distance":4566,"line":6,"station_id":"SDM","station_name":"Sudimara","i_lat":-6.296963,"is_transit":false,"transit":false},{"transit":false,"i_lat":-6.288927,"station_id":"JMU","is_transit":false,"line":6,"time":4,"distance":1994,"station_name":"Jurangmangu","i_long":106.728916},{"i_long":106.74273,"distance":2179,"transit":false,"station_id":"PDJ","is_transit":false,"i_lat":-6.276362,"station_name":"Pondokranji","time":3,"line":6},{"is_transit":false,"line":6,"distance":6218,"station_name":"Kebayoran","transit":false,"time":8,"i_lat":-6.237242,"i_long":106.780334,"station_id":"KBY"},{"station_name":"Palmerah","i_lat":-6.207404,"distance":3737,"line":6,"station_id":"PLM","transit":false,"is_transit":false,"time":7,"i_long":106.79689},{"distance":3191,"i_lat":-6.185545,"line":1,"is_transit":true,"time":6,"station_id":"THB","station_name":"Tanah Abang","i_long":106.811091,"transit":true},{"i_lat":-6.155215,"time":8,"is_transit":false,"station_name":"Duri","station_id":"DU","line":1,"i_long":106.800832,"transit":false,"distance":3632},{"line":1,"station_id":"AK","distance":1230,"i_lat":-6.144674,"transit":false,"is_transit":false,"i_long":106.79867,"time":4,"station_name":"Angke"},{"i_long":106.826365,"transit":true,"is_transit":true,"time":9,"station_name":"Kampung Bandan","line":4,"station_id":"KPB","i_lat":-6.132549,"distance":4102},{"transit":false,"i_long":106.836569,"station_id":"RJW","is_transit":false,"distance":1444,"time":3,"i_lat":-6.14505,"line":11,"station_name":"Rajawali"},{"i_long":106.839204,"transit":false,"is_transit":false,"distance":1901,"i_lat":-6.161728,"station_id":"KMO","time":5,"station_name":"Kemayoran","line":11},{"time":4,"i_long":106.84368,"line":11,"is_transit":false,"station_name":"Pasar Senen","station_id":"PSE","transit":false,"distance":1436,"i_lat":-6.174784},{"is_transit":false,"transit":false,"time":8,"i_lat":-6.185975,"i_long":106.850107,"station_id":"GST","line":11,"station_name":"Gang Sentiong","distance":1567},{"station_name":"Kramat","is_transit":false,"transit":false,"distance":973,"i_lat":-6.193792,"i_long":106.855437,"station_id":"KMT","time":1,"line":11},{"distance":1829,"line":11,"station_name":"Pondok Jati","i_lat":-6.209188,"transit":false,"station_id":"POK","is_transit":false,"i_long":106.861737,"time":2},{"station_id":"JNG","is_transit":true,"i_long":106.86807400000001,"time":9,"i_lat":-6.215091,"transit":true,"station_name":"Jatinegara","distance":1236,"line":1},{"time":2,"distance":1377,"station_id":"MTR","transit":false,"i_long":106.858896,"line":1,"i_lat":-6.212485,"is_transit":false,"station_name":"Matraman"},{"is_transit":true,"station_name":"Manggarai","time":2,"distance":1275,"i_long":106.84912,"line":2,"i_lat":-6.209883,"transit":true,"station_id":"MRI"},{"is_transit":false,"transit":false,"station_name":"Cikini","station_id":"CKI","time":4,"i_long":106.840169,"line":2,"distance":1590,"i_lat":-6.198556},{"i_long":106.832183,"transit":false,"time":3,"is_transit":false,"line":2,"station_name":"Gondangdia","distance":1750,"station_id":"GDD","i_lat":-6.186295},{"transit":false,"i_lat":-6.166716,"line":2,"time":4,"station_name":"Juanda","is_transit":false,"station_id":"JUA","i_long":106.828284,"distance":2015},{"transit":false,"distance":1149,"i_lat":-6.160725,"station_id":"SW","station_name":"Sawah Besar","is_transit":false,"i_long":106.827103,"time":2,"line":2}],[{"distance":0,"i_long":106.394373,"time":0,"i_lat":-6.332307,"line":6,"station_name":"Maja","station_id":"MJ","transit":false,"is_transit":false},{"i_lat":-6.33561,"line":3,"transit":false,"is_transit":false,"station_name":"Cikoya","i_long":106.411216,"station_id":"CKY","time":4,"distance":1853},{"transit":false,"station_id":"TGS","i_lat":-6.328533,"i_long":106.425991,"time":3,"is_transit":false,"distance":2651,"station_name":"Tigaraksa","line":6},{"is_transit":false,"i_lat":-6.327251,"time":5,"station_id":"TEJ","line":6,"i_long":106.460812,"distance":2974,"transit":false,"station_name":"Tenjo"},{"i_lat":-6.338021,"station_id":"DAR","is_transit":false,"distance":3902,"time":5,"transit":false,"station_name":"Daru","i_long":106.491338,"line":0},{"station_id":"CJT","distance":2675,"line":3,"is_transit":false,"transit":false,"i_lat":-6.354349,"i_long":106.508482,"time":6,"station_name":"Cilejit"},{"is_transit":false,"station_name":"Parung Panjang","i_lat":-6.3441410000000005,"i_long":106.568863,"station_id":"PRP","transit":false,"line":6,"distance":7025,"time":9},{"i_lat":-6.329547,"line":3,"transit":false,"time":8,"i_long":106.617853,"station_name":"Cicayur","station_id":"CC","distance":5968,"is_transit":false},{"i_long":106.640411,"station_id":"CSK","line":3,"time":4,"i_lat":-6.32484,"transit":false,"is_transit":false,"station_name":"Cisauk","distance":2519},{"time":4,"station_name":"Serpong","i_lat":-6.319871,"station_id":"SRP","distance":1784,"i_long":106.66566,"transit":false,"is_transit":false,"line":6},{"i_lat":-6.314823,"station_id":"RU","i_long":106.675475,"is_transit":false,"distance":2413,"line":6,"station_name":"Rawa Buntu","transit":false,"time":4},{"is_transit":false,"transit":false,"time":6,"line":6,"distance":4566,"i_lat":-6.296963,"station_name":"Sudimara","station_id":"SDM","i_long":106.712277},{"station_id":"JMU","i_lat":-6.288927,"is_transit":false,"time":4,"distance":1994,"transit":false,"station_name":"Jurangmangu","i_long":106.728916,"line":6},{"station_name":"Pondokranji","is_transit":false,"distance":2179,"i_long":106.74273,"station_id":"PDJ","time":3,"i_lat":-6.276362,"line":6,"transit":false},{"i_lat":-6.237242,"transit":false,"time":8,"station_name":"Kebayoran","is_transit":false,"line":6,"i_long":106.780334,"station_id":"KBY","distance":6218},{"station_name":"Palmerah","transit":false,"station_id":"PLM","distance":3737,"is_transit":false,"i_long":106.79689,"line":6,"time":7,"i_lat":-6.207404},{"i_long":106.811091,"transit":true,"is_transit":true,"i_lat":-6.185545,"line":1,"station_name":"Tanah Abang","station_id":"THB","distance":3191,"time":6},{"line":1,"is_transit":false,"transit":false,"station_name":"Karet","distance":2029,"station_id":"KAT","time":5,"i_lat":-6.20132,"i_long":106.816351},{"station_name":"Sudirman Baru","station_id":"SUDB","transit":false,"is_transit":false,"time":1,"distance":471,"i_long":106.819881,"line":1,"i_lat":-6.201433},{"distance":280,"line":1,"transit":false,"is_transit":false,"i_lat":-6.202263,"i_long":106.822649,"station_name":"Sudirman","station_id":"SUD","time":1},{"time":4,"line":2,"is_transit":false,"i_long":106.84912,"station_id":"MRI","i_lat":-6.209883,"distance":3186,"transit":false,"station_name":"Manggarai"},{"station_name":"Matraman","time":2,"station_id":"MTR","i_lat":-6.212485,"i_long":106.858896,"line":1,"distance":1275,"transit":false,"is_transit":false},{"is_transit":true,"station_name":"Jatinegara","transit":true,"i_long":106.86807400000001,"time":8,"line":1,"distance":1377,"i_lat":-6.215091,"station_id":"JNG"},{"station_id":"POK","is_transit":false,"distance":1236,"i_lat":-6.209188,"i_long":106.861737,"line":11,"time":2,"transit":false,"station_name":"Pondok Jati"},{"transit":false,"station_name":"Kramat","line":11,"station_id":"KMT","i_lat":-6.193792,"i_long":106.855437,"is_transit":false,"time":2,"distance":1829},{"line":11,"distance":973,"i_long":106.850107,"time":1,"i_lat":-6.185975,"station_id":"GST","transit":false,"is_transit":false,"station_name":"Gang Sentiong"},{"time":8,"distance":1567,"i_lat":-6.174784,"i_long":106.84368,"station_id":"PSE","is_transit":false,"transit":false,"line":11,"station_name":"Pasar Senen"},{"is_transit":false,"line":11,"time":4,"station_id":"KMO","distance":1436,"i_lat":-6.161728,"transit":false,"station_name":"Kemayoran","i_long":106.839204},{"distance":1901,"station_name":"Rajawali","transit":false,"is_transit":false,"i_long":106.836569,"line":11,"i_lat":-6.14505,"station_id":"RJW","time":5},{"i_lat":-6.132549,"is_transit":true,"i_long":106.826365,"station_name":"Kampung Bandan","transit":true,"station_id":"KPB","time":3,"distance":1444,"line":4},{"transit":true,"station_id":"JAKK","distance":1364,"line":2,"i_lat":-6.137569,"is_transit":true,"station_name":"Jakarta Kota","i_long":106.812439,"time":3},{"i_long":106.820901,"distance":1264,"station_id":"JAY","transit":false,"line":2,"i_lat":-6.141205,"is_transit":false,"station_name":"Jayakarta","time":4},{"station_name":"Manggabesar","distance":1080,"line":2,"is_transit":false,"i_lat":-6.149769,"station_id":"MGB","i_long":106.82482,"time":2,"transit":false},{"station_id":"SW","station_name":"Sawah Besar","distance":906,"i_lat":-6.160725,"i_long":106.827103,"time":2,"is_transit":false,"line":2,"transit":false}]]}