{"data":[[{"time":0,"transit":false,"station_name":"Maja","station_id":"MJ","is_transit":false,"i_long":106.394373,"line":6,"distance":0,"i_lat":-6.332307},{"distance":1853,"station_name":"Cikoya","is_transit":false,"time":4,"i_lat":-6.33561,"station_id":"CKY","transit":false,"i_long":106.411216,"line":0},{"station_id":"TGS","i_long":106.425991,"line":6,"is_transit":false,"i_lat":-6.328533,"time":3,"distance":2651,"station_name":"Tigaraksa","transit":false},{"line":6,"time":5,"is_transit":false,"station_name":"Tenjo","station_id":"TEJ","distance":2974,"transit":false,"i_lat":-6.327251,"i_long":106.460812},{"i_lat":-6.338021,"line":0,"distance":3902,"transit":false,"is_transit":false,"station_name":"Daru","station_id":"DAR","time":5,"i_long":106.491338},{"time":6,"line":0,"is_transit":false,"station_name":"Cilejit","i_long":106.508482,"station_id":"CJT","transit":false,"distance":2675,"i_lat":-6.354349},{"i_long":106.568863,"line":6,"station_name":"Parung Panjang","station_id":"PRP","transit":false,"is_transit":false,"time":9,"distance":7025,"i_lat":-6.3441410000000005},{"time":8,"distance":5968,"station_id":"CC","transit":false,"station_name":"Cicayur","i_lat":-6.329547,"is_transit":false,"i_long":106.617853,"line":0},{"time":4,"is_transit":false,"i_lat":-6.32484,"station_id":"CSK","line":0,"distance":2519,"transit":false,"i_long":106.640411,"station_name":"Cisauk"},{"station_id":"SRP","transit":false,"line":6,"station_name":"Serpong","i_lat":-6.319871,"is_transit":false,"distance":1784,"i_long":106.66566,"time":4},{"time":4,"distance":2413,"transit":false,"line":6,"station_name":"Rawa Buntu","station_id":"RU","is_transit":false,"i_lat":-6.314823,"i_long":106.675475},{"is_transit":false,"i_long":106.712277,"transit":false,"station_id":"SDM","i_lat":-6.296963,"distance":4566,"line":6,"time":6,"station_name":"Sudimara"},{"station_name":"Jurangmangu","transit":false,"line":6,"distance":1994,"station_id":"JMU","i_lat":-6.288927,"i_long":106.728916,"time":4,"is_transit":false},{"distance":2179,"is_transit":false,"station_name":"Pondokranji","transit":false,"i_lat":-6.276362,"time":3,"i_long":106.74273,"line":6,"station_id":"PDJ"},{"station_name":"Kebayoran","station_id":"KBY","i_lat":-6.237242,"time":8,"i_long":106.780334,"distance":6218,"is_transit":false,"transit":false,"line":6},{"station_name":"Palmerah","i_lat":-6.207404,"distance":3737,"i_long":106.79689,"transit":false,"station_id":"PLM","is_transit":false,"line":6,"time":7},{"i_lat":-6.185545,"distance":3191,"transit":true,"line":1,"time":6,"station_id":"THB","i_long":106.811091,"is_transit":true,"station_name":"Tanah Abang"},{"transit":true,"i_lat":-6.155215,"line":1,"distance":3632,"station_name":"Duri","i_long":106.800832,"station_id":"DU","time":8,"is_transit":true},{"is_transit":false,"transit":false,"i_long":106.79867,"line":0,"station_name":"Angke","i_lat":-6.144674,"station_id":"AK","time":4,"distance":1230},{"is_transit":true,"i_lat":-6.132549,"i_long":106.826365,"time":9,"transit":false,"station_name":"Kampung Bandan","line":0,"distance":4102,"station_id":"KPB"},{"distance":1364,"transit":true,"is_transit":true,"station_id":"JAKK","station_name":"Jakarta Kota","i_long":106.812439,"line":0,"time":3,"i_lat":-6.137569},{"i_lat":-6.141205,"is_transit":false,"station_name":"Jayakarta","station_id":"JAY","transit":false,"time":4,"line":7,"i_long":106.820901,"distance":1264},{"line":2,"is_transit":false,"station_name":"Manggabesar","i_long":106.82482,"i_lat":-6.149769,"time":2,"distance":1080,"transit":false,"station_id":"MGB"},{"time":2,"distance":906,"is_transit":false,"i_long":106.827103,"station_id":"SW","i_lat":-6.160725,"line":2,"station_name":"Sawah Besar","transit":false}],[{"i_lat":-6.332307,"transit":false,"time":0,"station_name":"Maja","is_transit":false,"distance":0,"i_long":106.394373,"line":6,"station_id":"MJ"},{"transit":false,"time":4,"station_id":"CKY","is_transit":false,"line":0,"distance":1853,"station_name":"Cikoya","i_lat":-6.33561,"i_long":106.411216},{"station_name":"Tigaraksa","distance":2651,"station_id":"TGS","is_transit":false,"i_lat":-6.328533,"line":6,"transit":false,"i_long":106.425991,"time":3},{"line":6,"i_long":106.460812,"i_lat":-6.327251,"station_id":"TEJ","transit":false,"is_transit":false,"station_name":"Tenjo","time":5,"distance":2974},{"i_lat":-6.338021,"is_transit":false,"station_id":"DAR","line":0,"distance":3902,"time":5,"station_name":"Daru","i_long":106.491338,"transit":false},{"is_transit":false,"time":6,"distance":2675,"transit":false,"i_lat":-6.354349,"line":0,"station_name":"Cilejit","station_id":"CJT","i_long":106.508482},{"i_lat":-6.3441410000000005,"transit":false,"i_long":106.568863,"station_name":"Parung Panjang","distance":7025,"is_transit":false,"line":6,"time":9,"station_id":"PRP"},{"time":8,"transit":false,"station_id":"CC","is_transit":false,"i_lat":-6.329547,"i_long":106.617853,"line":0,"station_name":"Cicayur","distance":5968},{"time":4,"station_id":"CSK","station_name":"Cisauk","is_transit":false,"distance":2519,"line":0,"i_long":106.640411,"i_lat":-6.32484,"transit":false},{"i_long":106.66566,"time":4,"distance":1784,"station_name":"Serpong","is_transit":false,"line":6,"station_id":"SRP","i_lat":-6.319871,"transit":false},{"station_name":"Rawa Buntu","i_lat":-6.314823,"station_id":"RU","time":4,"transit":false,"distance":2413,"is_transit":false,"i_long":106.675475,"line":6},{"distance":4566,"i_lat":-6.296963,"i_long":106.712277,"time":6,"station_name":"Sudimara","station_id":"SDM","is_transit":false,"line":6,"transit":false},{"distance":1994,"station_name":"Jurangmangu","station_id":"JMU","transit":false,"time":4,"i_lat":-6.288927,"i_long":106.728916,"is_transit":false,"line":6},{"transit":false,"i_lat":-6.276362,"line":6,"distance":2179,"is_transit":false,"station_id":"PDJ","time":3,"station_name":"Pondokranji","i_long":106.74273},{"is_transit":false,"distance":6218,"time":8,"transit":false,"line":6,"station_name":"Kebayoran","i_lat":-6.237242,"station_id":"KBY","i_long":106.780334},{"i_long":106.79689,"line":6,"time":7,"station_id":"PLM","transit":false,"is_transit":false,"distance":3737,"i_lat":-6.207404,"station_name":"Palmerah"},{"station_name":"Tanah Abang","is_transit":true,"station_id":"THB","line":1,"transit":true,"distance":3191,"i_lat":-6.185545,"time":6,"i_long":106.811091},{"is_transit":false,"transit":false,"station_name":"Karet","i_lat":-6.20132,"i_long":106.816351,"line":1,"station_id":"KAT","distance":2029,"time":5},{"is_transit":false,"time":1,"station_id":"SUDB","station_name":"Sudirman Baru","i_lat":-6.201433,"i_long":106.819881,"transit":false,"line":1,"distance":471},{"station_id":"SUD","distance":280,"time":1,"is_transit":false,"station_name":"Sudirman","transit":false,"i_lat":-6.202263,"i_long":106.822649,"line":1},{"distance":3186,"i_lat":-6.209883,"transit":true,"station_name":"Manggarai","station_id":"MRI","time":4,"is_transit":true,"i_long":106.84912,"line":0},{"transit":false,"station_id":"CKI","i_lat":-6.198556,"distance":1590,"line":0,"is_transit":false,"station_name":"Cikini","time":4,"i_long":106.840169},{"line":2,"station_id":"GDD","transit":false,"i_lat":-6.186295,"distance":1750,"station_name":"Gondangdia","time":3,"is_transit":false,"i_long":106.832183},{"is_transit":false,"station_name":"Juanda","i_lat":-6.166716,"i_long":106.828284,"time":4,"line":2,"transit":false,"distance":2015,"station_id":"JUA"},{"time":2,"line":2,"distance":1149,"transit":false,"i_long":106.827103,"station_name":"Sawah Besar","station_id":"SW","is_transit":false,"i_lat":-6.160725}],[{"time":0,"transit":false,"station_id":"MJ","is_transit":false,"distance":0,"i_lat":-6.332307,"line":6,"i_long":106.394373,"station_name":"Maja"},{"is_transit":false,"line":0,"transit":false,"time":4,"i_lat":-6.33561,"station_name":"Cikoya","distance":1853,"station_id":"CKY","i_long":106.411216},{"time":3,"is_transit":false,"station_name":"Tigaraksa","i_long":106.425991,"transit":false,"distance":2651,"station_id":"TGS","i_lat":-6.328533,"line":6},{"distance":2974,"line":6,"transit":false,"is_transit":false,"time":5,"station_name":"Tenjo","station_id":"TEJ","i_long":106.460812,"i_lat":-6.327251},{"distance":3902,"time":5,"transit":false,"i_long":106.491338,"line":0,"station_name":"Daru","station_id":"DAR","i_lat":-6.338021,"is_transit":false},{"time":6,"station_name":"Cilejit","is_transit":false,"line":0,"station_id":"CJT","transit":false,"i_long":106.508482,"i_lat":-6.354349,"distance":2675},{"i_lat":-6.3441410000000005,"i_long":106.568863,"time":9,"distance":7025,"is_transit":false,"line":6,"station_name":"Parung Panjang","station_id":"PRP","transit":false},{"time":8,"distance":5968,"station_name":"Cicayur","line":0,"transit":false,"station_id":"CC","is_transit":false,"i_lat":-6.329547,"i_long":106.617853},{"i_lat":-6.32484,"station_name":"Cisauk","i_long":106.640411,"distance":2519,"is_transit":false,"time":4,"station_id":"CSK","transit":false,"line":0},{"i_long":106.66566,"line":6,"station_name":"Serpong","distance":1784,"transit":false,"time":4,"station_id":"SRP","is_transit":false,"i_lat":-6.319871},{"i_long":106.675475,"i_lat":-6.314823,"line":6,"station_id":"RU","time":4,"station_name":"Rawa Buntu","distance":2413,"transit":false,"is_transit":false},{"i_long":106.712277,"station_id":"SDM","time":6,"distance":4566,"transit":false,"i_lat":-6.296963,"is_transit":false,"line":6,"station_name":"Sudimara"},{"station_name":"Jurangmangu","transit":false,"is_transit":false,"station_id":"JMU","i_lat":-6.288927,"time":4,"i_long":106.728916,"line":6,"distance":1994},{"station_name":"Pondokranji","transit":false,"i_lat":-6.276362,"distance":2179,"line":6,"station_id":"PDJ","i_long":106.74273,"time":3,"is_transit":false},{"station_id":"KBY","transit":false,"i_lat":-6.237242,"time":8,"i_long":106.780334,"distance":6218,"station_name":"Kebayoran","is_transit":false,"line":6},{"distance":3737,"station_id":"PLM","is_transit":false,"i_lat":-6.207404,"i_long":106.79689,"transit":false,"line":6,"station_name":"Palmerah","time":7},{"time":6,"station_id":"THB","transit":true,"is_transit":true,"station_name":"Tanah Abang","i_lat":-6.185545,"line":1,"distance":3191,"i_long":106.811091},{"line":1,"i_lat":-6.155215,"transit":true,"station_id":"DU","i_long":106.800832,"distance":3632,"station_name":"Duri","time":8,"is_transit":true},{"station_name":"Angke","time":4,"distance":1230,"station_id":"AK","i_lat":-6.144674,"transit":false,"i_long":106.79867,"is_transit":false,"line":0},{"line":0,"distance":4102,"time":9,"station_id":"KPB","i_long":106.826365,"i_lat":-6.132549,"transit":true,"station_name":"Kampung Bandan","is_transit":true},{"distance":1444,"station_id":"RJW","i_long":106.836569,"is_transit":false,"station_name":"Rajawali","i_lat":-6.14505,"time":3,"transit":false,"line":11},{"distance":1901,"time":5,"station_id":"KMO","i_lat":-6.161728,"is_transit":false,"station_name":"Kemayoran","line":11,"transit":false,"i_long":106.839204},{"station_id":"PSE","transit":false,"is_transit":false,"station_name":"Pasar Senen","distance":1436,"i_long":106.84368,"line":11,"i_lat":-6.174784,"time":4},{"station_id":"GST","i_long":106.850107,"distance":1567,"station_name":"Gang Sentiong","transit":false,"is_transit":false,"line":11,"time":8,"i_lat":-6.185975},{"distance":973,"station_name":"Kramat","time":1,"i_long":106.855437,"is_transit":false,"i_lat":-6.193792,"station_id":"KMT","transit":false,"line":11},{"i_long":106.861737,"station_name":"Pondok Jati","i_lat":-6.209188,"time":2,"transit":false,"distance":1829,"station_id":"POK","is_transit":false,"line":11},{"line":0,"i_lat":-6.215091,"is_transit":true,"distance":1236,"station_name":"Jatinegara","transit":true,"station_id":"JNG","time":9,"i_long":106.86807400000001},{"transit":false,"i_lat":-6.212485,"station_id":"MTR","is_transit":false,"i_long":106.858896,"line":1,"time":2,"distance":1377,"station_name":"Matraman"},{"distance":1275,"time":2,"station_id":"MRI","is_transit":true,"line":0,"i_lat":-6.209883,"transit":true,"station_name":"Manggarai","i_long":106.84912},{"is_transit":false,"time":4,"i_lat":-6.198556,"station_id":"CKI","line":0,"station_name":"Cikini","distance":1590,"transit":false,"i_long":106.840169},{"i_long":106.832183,"distance":1750,"time":3,"i_lat":-6.186295,"transit":false,"station_id":"GDD","is_transit":false,"station_name":"Gondangdia","line":2},{"i_long":106.828284,"line":2,"station_name":"Juanda","is_transit":false,"station_id":"JUA","time":4,"distance":2015,"transit":false,"i_lat":-6.166716},{"is_transit":false,"i_lat":-6.160725,"station_name":"Sawah Besar","i_long":106.827103,"station_id":"SW","time":2,"distance":1149,"transit":false,"line":2}],[{"transit":false,"distance":0,"station_id":"MJ","i_long":106.394373,"is_transit":false,"line":6,"time":0,"station_name":"Maja","i_lat":-6.332307},{"time":4,"i_long":106.411216,"station_id":"CKY","line":0,"transit":false,"distance":1853,"station_name":"Cikoya","i_lat":-6.33561,"is_transit":false},{"distance":2651,"i_lat":-6.328533,"line":6,"station_id":"TGS","transit":false,"i_long":106.425991,"is_transit":false,"station_name":"Tigaraksa","time":3},{"station_name":"Tenjo","i_lat":-6.327251,"time":5,"is_transit":false,"transit":false,"line":6,"station_id":"TEJ","distance":2974,"i_long":106.460812},{"station_id":"DAR","station_name":"Daru","time":5,"i_lat":-6.338021,"transit":false,"distance":3902,"is_transit":false,"i_long":106.491338,"line":0},{"i_long":106.508482,"i_lat":-6.354349,"station_id":"CJT","transit":false,"line":0,"is_transit":false,"time":6,"station_name":"Cilejit","distance":2675},{"distance":7025,"transit":false,"station_id":"PRP","is_transit":false,"line":6,"i_lat":-6.3441410000000005,"time":9,"station_name":"Parung Panjang","i_long":106.568863},{"station_name":"Cicayur","is_transit":false,"station_id":"CC","i_long":106.617853,"distance":5968,"transit":false,"time":8,"i_lat":-6.329547,"line":0},{"time":4,"station_id":"CSK","i_lat":-6.32484,"i_long":106.640411,"distance":2519,"transit":false,"line":0,"is_transit":false,"station_name":"Cisauk"},{"transit":false,"distance":1784,"line":6,"time":4,"i_long":106.66566,"station_name":"Serpong","is_transit":false,"i_lat":-6.319871,"station_id":"SRP"},{"station_name":"Rawa Buntu","distance":2413,"transit":false,"is_transit":false,"time":4,"station_id":"RU","i_lat":-6.314823,"i_long":106.675475,"line":6},{"distance":4566,"time":6,"transit":false,"line":6,"station_id":"SDM","is_transit":false,"i_long":106.712277,"station_name":"Sudimara","i_lat":-6.296963},{"is_transit":false,"time":4,"transit":false,"line":6,"station_name":"Jurangmangu","i_long":106.728916,"station_id":"JMU","distance":1994,"i_lat":-6.288927},{"i_lat":-6.276362,"line":6,"is_transit":false,"station_id":"PDJ","time":3,"i_long":106.74273,"distance":2179,"station_name":"Pondokranji","transit":false},{"station_id":"KBY","time":8,"is_transit":false,"transit":false,"line":6,"i_long":106.780334,"distance":6218,"station_name":"Kebayoran","i_lat":-6.237242},{"station_id":"PLM","i_long":106.79689,"station_name":"Palmerah","distance":3737,"time":7,"transit":false,"is_transit":false,"line":6,"i_lat":-6.207404},{"is_transit":true,"distance":3191,"station_id":"THB","i_long":106.811091,"time":6,"transit":true,"i_lat":-6.185545,"station_name":"Tanah Abang","line":1},{"station_name":"Karet","i_lat":-6.20132,"station_id":"KAT","distance":2029,"transit":false,"time":5,"is_transit":false,"i_long":106.816351,"line":1},{"is_transit":false,"i_lat":-6.201433,"line":1,"station_id":"SUDB","i_long":106.819881,"time":1,"distance":471,"station_name":"Sudirman Baru","transit":false},{"station_name":"Sudirman","transit":false,"is_transit":false,"station_id":"SUD","line":1,"i_lat":-6.202263,"time":1,"distance":280,"i_long":106.822649},{"i_long":106.84912,"distance":3186,"time":4,"station_name":"Manggarai","station_id":"MRI","is_transit":true,"transit":false,"i_lat":-6.209883,"line":0},{"transit":false,"time":2,"distance":1275,"station_id":"MTR","i_lat":-6.212485,"i_long":106.858896,"is_transit":false,"station_name":"Matraman","line":1},{"is_transit":true,"i_long":106.86807400000001,"time":8,"line":0,"station_name":"Jatinegara","station_id":"JNG","transit":true,"i_lat":-6.215091,"distance":1377},{"distance":1236,"i_lat":-6.209188,"transit":false,"station_name":"Pondok Jati","time":2,"is_transit":false,"station_id":"POK","i_long":106.861737,"line":11},{"distance":1829,"station_name":"Kramat","transit":false,"i_lat":-6.193792,"i_long":106.855437,"line":11,"is_transit":false,"time":2,"station_id":"KMT"},{"is_transit":false,"line":11,"distance":973,"station_id":"GST","transit":false,"i_lat":-6.185975,"time":1,"station_name":"Gang Sentiong","i_long":106.850107},{"i_lat":-6.174784,"i_long":106.84368,"transit":false,"is_transit":false,"distance":1567,"time":8,"station_name":"Pasar Senen","line":11,"station_id":"PSE"},{"transit":false,"i_lat":-6.161728,"station_id":"KMO","distance":1436,"i_long":106.839204,"line":11,"time":4,"station_name":"Kemayoran","is_transit":false},{"i_lat":-6.14505,"i_long":106.836569,"station_id":"RJW","is_transit":false,"station_name":"Rajawali","distance":1901,"time":5,"transit":false,"line":11},{"station_id":"KPB","transit":true,"distance":1444,"i_lat":-6.132549,"time":3,"station_name":"Kampung Bandan","i_long":106.826365,"line":0,"is_transit":true},{"i_lat":-6.137569,"distance":1364,"line":0,"time":3,"station_id":"JAKK","transit":true,"is_transit":true,"i_long":106.812439,"station_name":"Jakarta Kota"},{"line":7,"transit":false,"time":4,"distance":1264,"station_id":"JAY","i_lat":-6.141205,"station_name":"Jayakarta","is_transit":false,"i_long":106.820901},{"distance":1080,"transit":false,"station_id":"MGB","i_lat":-6.149769,"i_long":106.82482,"line":2,"station_name":"Manggabesar","time":2,"is_transit":false},{"is_transit":false,"i_lat":-6.160725,"time":2,"i_long":106.827103,"line":2,"station_name":"Sawah Besar","station_id":"SW","distance":906,"transit":false}]]}