{"data":[[{"distance":0,"time":0,"station_name":"Maja","is_transit":false,"transit":false,"station_id":"MJ","i_lat":-6.332307,"line":6,"i_long":106.394373},{"time":4,"transit":false,"is_transit":false,"station_name":"Cikoya","station_id":"CKY","i_lat":-6.33561,"i_long":106.411216,"line":3,"distance":1853},{"transit":false,"time":3,"distance":2651,"station_name":"Tigaraksa","is_transit":false,"i_long":106.425991,"i_lat":-6.328533,"line":6,"station_id":"TGS"},{"i_lat":-6.327251,"station_id":"TEJ","is_transit":false,"time":5,"i_long":106.460812,"line":6,"station_name":"Tenjo","distance":2974,"transit":false},{"time":5,"station_name":"Daru","is_transit":false,"line":0,"transit":false,"i_long":106.491338,"distance":3902,"station_id":"DAR","i_lat":-6.338021},{"station_name":"Cilejit","time":6,"distance":2675,"is_transit":false,"station_id":"CJT","i_lat":-6.354349,"transit":false,"line":3,"i_long":106.508482},{"station_name":"Parung Panjang","i_lat":-6.3441410000000005,"distance":7025,"is_transit":false,"i_long":106.568863,"transit":false,"time":9,"station_id":"PRP","line":6},{"time":8,"station_id":"CC","station_name":"Cicayur","transit":false,"is_transit":false,"distance":5968,"i_lat":-6.329547,"line":3,"i_long":106.617853},{"i_long":106.640411,"i_lat":-6.32484,"station_name":"Cisauk","time":4,"transit":false,"station_id":"CSK","distance":2519,"is_transit":false,"line":3},{"time":4,"i_long":106.66566,"transit":false,"is_transit":false,"station_id":"SRP","i_lat":-6.319871,"station_name":"Serpong","line":6,"distance":1784},{"is_transit":false,"line":6,"distance":2413,"i_lat":-6.314823,"i_long":106.675475,"transit":false,"time":4,"station_name":"Rawa Buntu","station_id":"RU"},{"i_lat":-6.296963,"time":6,"line":6,"transit":false,"station_name":"Sudimara","station_id":"SDM","i_long":106.712277,"is_transit":false,"distance":4566},{"line":6,"distance":1994,"station_id":"JMU","station_name":"Jurangmangu","transit":false,"i_lat":-6.288927,"i_long":106.728916,"is_transit":false,"time":4},{"is_transit":false,"i_lat":-6.276362,"line":6,"station_id":"PDJ","transit":false,"station_name":"Pondokranji","i_long":106.74273,"distance":2179,"time":3},{"transit":false,"time":8,"distance":6218,"station_name":"Kebayoran","station_id":"KBY","i_lat":-6.237242,"line":6,"is_transit":false,"i_long":106.780334},{"station_name":"Palmerah","distance":3737,"transit":false,"is_transit":false,"i_lat":-6.207404,"station_id":"PLM","i_long":106.79689,"line":6,"time":7},{"line":1,"time":6,"station_id":"THB","station_name":"Tanah Abang","distance":3191,"i_lat":-6.185545,"i_long":106.811091,"transit":true,"is_transit":true},{"i_lat":-6.155215,"station_name":"Duri","transit":false,"distance":3632,"station_id":"DU","line":1,"is_transit":false,"i_long":106.800832,"time":8},{"station_name":"Angke","line":1,"i_lat":-6.144674,"transit":false,"distance":1230,"i_long":106.79867,"station_id":"AK","is_transit":false,"time":4},{"is_transit":true,"station_id":"KPB","line":4,"transit":true,"i_long":106.826365,"distance":4102,"i_lat":-6.132549,"station_name":"Kampung Bandan","time":9},{"i_long":106.812439,"time":3,"transit":true,"station_id":"JAKK","line":2,"distance":1364,"is_transit":true,"i_lat":-6.137569,"station_name":"Jakarta Kota"},{"i_lat":-6.141205,"transit":false,"line":2,"i_long":106.820901,"station_id":"JAY","distance":1264,"is_transit":false,"time":4,"station_name":"Jayakarta"},{"line":2,"time":2,"station_name":"Manggabesar","i_lat":-6.149769,"station_id":"MGB","transit":false,"is_transit":false,"i_long":106.82482,"distance":1080},{"i_long":106.827103,"transit":false,"line":2,"station_id":"SW","distance":906,"station_name":"Sawah Besar","time":2,"is_transit":false,"i_lat":-6.160725}],[{"station_id":"MJ","station_name":"Maja","line":6,"transit":false,"time":0,"is_transit":false,"i_long":106.394373,"distance":0,"i_lat":-6.332307},{"i_lat":-6.33561,"i_long":106.411216,"station_name":"Cikoya","is_transit":false,"station_id":"CKY","line":3,"distance":1853,"transit":false,"time":4},{"distance":2651,"time":3,"station_name":"Tigaraksa","station_id":"TGS","is_transit":false,"transit":false,"i_long":106.425991,"line":6,"i_lat":-6.328533},{"i_lat":-6.327251,"i_long":106.460812,"distance":2974,"line":6,"is_transit":false,"transit":false,"time":5,"station_name":"Tenjo","station_id":"TEJ"},{"station_name":"Daru","i_lat":-6.338021,"is_transit":false,"time":5,"transit":false,"i_long":106.491338,"line":0,"station_id":"DAR","distance":3902},{"station_name":"Cilejit","transit":false,"i_lat":-6.354349,"distance":2675,"station_id":"CJT","time":6,"line":3,"i_long":106.508482,"is_transit":false},{"is_transit":false,"time":9,"line":6,"station_id":"PRP","station_name":"Parung Panjang","i_lat":-6.3441410000000005,"transit":false,"i_long":106.568863,"distance":7025},{"station_name":"Cicayur","station_id":"CC","line":3,"time":8,"distance":5968,"transit":false,"i_lat":-6.329547,"i_long":106.617853,"is_transit":false},{"distance":2519,"transit":false,"is_transit":false,"station_name":"Cisauk","line":3,"i_long":106.640411,"time":4,"i_lat":-6.32484,"station_id":"CSK"},{"time":4,"i_long":106.66566,"transit":false,"distance":1784,"station_id":"SRP","i_lat":-6.319871,"is_transit":false,"station_name":"Serpong","line":6},{"station_name":"Rawa Buntu","is_transit":false,"line":6,"station_id":"RU","i_lat":-6.314823,"transit":false,"i_long":106.675475,"distance":2413,"time":4},{"distance":4566,"time":6,"station_name":"Sudimara","is_transit":false,"station_id":"SDM","transit":false,"i_lat":-6.296963,"i_long":106.712277,"line":6},{"i_long":106.728916,"is_transit":false,"station_name":"Jurangmangu","line":6,"time":4,"distance":1994,"transit":false,"station_id":"JMU","i_lat":-6.288927},{"is_transit":false,"distance":2179,"i_long":106.74273,"station_id":"PDJ","station_name":"Pondokranji","line":6,"time":3,"transit":false,"i_lat":-6.276362},{"distance":6218,"i_lat":-6.237242,"i_long":106.780334,"station_id":"KBY","station_name":"Kebayoran","line":6,"is_transit":false,"transit":false,"time":8},{"station_name":"Palmerah","line":6,"is_transit":false,"transit":false,"i_lat":-6.207404,"distance":3737,"time":7,"i_long":106.79689,"station_id":"PLM"},{"is_transit":true,"i_lat":-6.185545,"time":6,"station_name":"Tanah Abang","station_id":"THB","line":1,"i_long":106.811091,"distance":3191,"transit":true},{"i_long":106.816351,"station_name":"Karet","i_lat":-6.20132,"time":5,"station_id":"KAT","line":1,"distance":2029,"is_transit":false,"transit":false},{"line":1,"station_name":"Sudirman Baru","station_id":"SUDB","transit":false,"i_lat":-6.201433,"time":1,"i_long":106.819881,"distance":471,"is_transit":false},{"distance":280,"station_id":"SUD","transit":false,"station_name":"Sudirman","is_transit":false,"i_long":106.822649,"i_lat":-6.202263,"line":1,"time":1},{"transit":true,"is_transit":true,"station_name":"Manggarai","station_id":"MRI","i_long":106.84912,"time":4,"distance":3186,"i_lat":-6.209883,"line":2},{"time":4,"line":2,"i_lat":-6.198556,"station_id":"CKI","station_name":"Cikini","distance":1590,"transit":false,"is_transit":false,"i_long":106.840169},{"station_name":"Gondangdia","transit":false,"is_transit":false,"i_lat":-6.186295,"i_long":106.832183,"distance":1750,"station_id":"GDD","time":3,"line":2},{"station_name":"Juanda","station_id":"JUA","i_lat":-6.166716,"line":2,"transit":false,"time":4,"distance":2015,"is_transit":false,"i_long":106.828284},{"transit":false,"i_long":106.827103,"time":2,"is_transit":false,"i_lat":-6.160725,"distance":1149,"station_name":"Sawah Besar","station_id":"SW","line":2}],[{"station_name":"Maja","is_transit":false,"time":0,"distance":0,"line":6,"transit":false,"i_long":106.394373,"i_lat":-6.332307,"station_id":"MJ"},{"line":3,"i_long":106.411216,"is_transit":false,"time":4,"distance":1853,"i_lat":-6.33561,"transit":false,"station_name":"Cikoya","station_id":"CKY"},{"is_transit":false,"station_name":"Tigaraksa","i_long":106.425991,"transit":false,"i_lat":-6.328533,"time":3,"station_id":"TGS","line":6,"distance":2651},{"station_id":"TEJ","i_long":106.460812,"line":6,"is_transit":false,"transit":false,"time":5,"distance":2974,"station_name":"Tenjo","i_lat":-6.327251},{"i_long":106.491338,"time":5,"distance":3902,"is_transit":false,"station_id":"DAR","station_name":"Daru","i_lat":-6.338021,"line":0,"transit":false},{"i_lat":-6.354349,"line":3,"station_name":"Cilejit","transit":false,"station_id":"CJT","i_long":106.508482,"time":6,"distance":2675,"is_transit":false},{"station_name":"Parung Panjang","i_long":106.568863,"time":9,"station_id":"PRP","i_lat":-6.3441410000000005,"is_transit":false,"transit":false,"line":6,"distance":7025},{"line":3,"transit":false,"station_id":"CC","station_name":"Cicayur","i_lat":-6.329547,"i_long":106.617853,"time":8,"is_transit":false,"distance":5968},{"i_lat":-6.32484,"time":4,"station_name":"Cisauk","transit":false,"is_transit":false,"i_long":106.640411,"line":3,"distance":2519,"station_id":"CSK"},{"transit":false,"is_transit":false,"station_id":"SRP","i_lat":-6.319871,"line":6,"station_name":"Serpong","i_long":106.66566,"time":4,"distance":1784},{"line":6,"station_id":"RU","i_long":106.675475,"i_lat":-6.314823,"time":4,"distance":2413,"station_name":"Rawa Buntu","is_transit":false,"transit":false},{"i_long":106.712277,"station_name":"Sudimara","time":6,"distance":4566,"is_transit":false,"station_id":"SDM","i_lat":-6.296963,"line":6,"transit":false},{"is_transit":false,"distance":1994,"station_id":"JMU","line":6,"station_name":"Jurangmangu","i_long":106.728916,"transit":false,"i_lat":-6.288927,"time":4},{"distance":2179,"is_transit":false,"transit":false,"station_name":"Pondokranji","time":3,"line":6,"i_lat":-6.276362,"i_long":106.74273,"station_id":"PDJ"},{"station_name":"Kebayoran","transit":false,"station_id":"KBY","i_long":106.780334,"is_transit":false,"distance":6218,"i_lat":-6.237242,"line":6,"time":8},{"time":7,"i_long":106.79689,"station_name":"Palmerah","is_transit":false,"i_lat":-6.207404,"distance":3737,"line":6,"station_id":"PLM","transit":false},{"distance":3191,"time":6,"i_lat":-6.185545,"is_transit":true,"station_id":"THB","i_long":106.811091,"transit":true,"station_name":"Tanah Abang","line":1},{"i_lat":-6.155215,"distance":3632,"transit":false,"i_long":106.800832,"time":8,"station_id":"DU","line":1,"is_transit":false,"station_name":"Duri"},{"i_long":106.79867,"station_name":"Angke","i_lat":-6.144674,"transit":false,"station_id":"AK","line":1,"distance":1230,"is_transit":false,"time":4},{"is_transit":true,"distance":4102,"station_id":"KPB","i_long":106.826365,"transit":true,"station_name":"Kampung Bandan","i_lat":-6.132549,"line":4,"time":9},{"distance":1444,"station_id":"RJW","is_transit":false,"time":3,"i_long":106.836569,"transit":false,"station_name":"Rajawali","line":11,"i_lat":-6.14505},{"time":5,"distance":1901,"transit":false,"station_name":"Kemayoran","station_id":"KMO","line":11,"i_long":106.839204,"is_transit":false,"i_lat":-6.161728},{"time":4,"i_long":106.84368,"i_lat":-6.174784,"line":11,"station_name":"Pasar Senen","transit":false,"is_transit":false,"station_id":"PSE","distance":1436},{"distance":1567,"transit":false,"i_long":106.850107,"i_lat":-6.185975,"is_transit":false,"time":8,"station_name":"Gang Sentiong","line":11,"station_id":"GST"},{"time":1,"station_id":"KMT","line":11,"station_name":"Kramat","transit":false,"distance":973,"i_lat":-6.193792,"is_transit":false,"i_long":106.855437},{"distance":1829,"i_lat":-6.209188,"station_name":"Pondok Jati","is_transit":false,"time":2,"station_id":"POK","transit":false,"i_long":106.861737,"line":11},{"time":9,"line":1,"i_lat":-6.215091,"transit":true,"is_transit":true,"i_long":106.86807400000001,"station_name":"Jatinegara","station_id":"JNG","distance":1236},{"transit":false,"distance":1377,"time":2,"station_name":"Matraman","i_lat":-6.212485,"station_id":"MTR","line":1,"is_transit":false,"i_long":106.858896},{"i_lat":-6.209883,"i_long":106.84912,"time":2,"distance":1275,"station_name":"Manggarai","is_transit":true,"transit":true,"line":2,"station_id":"MRI"},{"transit":false,"line":2,"is_transit":false,"station_id":"CKI","i_lat":-6.198556,"i_long":106.840169,"station_name":"Cikini","time":4,"distance":1590},{"i_long":106.832183,"transit":false,"station_id":"GDD","is_transit":false,"line":2,"time":3,"distance":1750,"station_name":"Gondangdia","i_lat":-6.186295},{"station_name":"Juanda","line":2,"i_long":106.828284,"station_id":"JUA","is_transit":false,"time":4,"distance":2015,"i_lat":-6.166716,"transit":false},{"station_id":"SW","line":2,"is_transit":false,"i_long":106.827103,"distance":1149,"station_name":"Sawah Besar","time":2,"transit":false,"i_lat":-6.160725}],[{"i_long":106.394373,"time":0,"transit":false,"line":6,"station_id":"MJ","distance":0,"is_transit":false,"i_lat":-6.332307,"station_name":"Maja"},{"line":3,"station_id":"CKY","distance":1853,"i_lat":-6.33561,"station_name":"Cikoya","transit":false,"is_transit":false,"time":4,"i_long":106.411216},{"station_id":"TGS","distance":2651,"time":3,"transit":false,"i_lat":-6.328533,"i_long":106.425991,"line":6,"station_name":"Tigaraksa","is_transit":false},{"time":5,"line":6,"station_name":"Tenjo","i_long":106.460812,"distance":2974,"station_id":"TEJ","is_transit":false,"transit":false,"i_lat":-6.327251},{"line":0,"distance":3902,"is_transit":false,"time":5,"station_id":"DAR","transit":false,"station_name":"Daru","i_long":106.491338,"i_lat":-6.338021},{"i_long":106.508482,"time":6,"transit":false,"i_lat":-6.354349,"station_id":"CJT","station_name":"Cilejit","line":3,"is_transit":false,"distance":2675},{"distance":7025,"station_name":"Parung Panjang","is_transit":false,"i_lat":-6.3441410000000005,"i_long":106.568863,"line":6,"transit":false,"time":9,"station_id":"PRP"},{"time":8,"i_lat":-6.329547,"distance":5968,"transit":false,"station_id":"CC","i_long":106.617853,"is_transit":false,"station_name":"Cicayur","line":3},{"is_transit":false,"time":4,"i_long":106.640411,"distance":2519,"line":3,"transit":false,"station_id":"CSK","i_lat":-6.32484,"station_name":"Cisauk"},{"line":6,"station_id":"SRP","is_transit":false,"distance":1784,"i_lat":-6.319871,"station_name":"Serpong","transit":false,"i_long":106.66566,"time":4},{"i_lat":-6.314823,"distance":2413,"station_name":"Rawa Buntu","is_transit":false,"line":6,"transit":false,"station_id":"RU","i_long":106.675475,"time":4},{"is_transit":false,"transit":false,"time":6,"distance":4566,"station_name":"Sudimara","i_lat":-6.296963,"i_long":106.712277,"line":6,"station_id":"SDM"},{"distance":1994,"time":4,"transit":false,"station_id":"JMU","i_lat":-6.288927,"station_name":"Jurangmangu","line":6,"is_transit":false,"i_long":106.728916},{"time":3,"i_lat":-6.276362,"i_long":106.74273,"is_transit":false,"station_name":"Pondokranji","line":6,"station_id":"PDJ","transit":false,"distance":2179},{"station_name":"Kebayoran","station_id":"KBY","distance":6218,"line":6,"is_transit":false,"time":8,"transit":false,"i_long":106.780334,"i_lat":-6.237242},{"i_lat":-6.207404,"line":6,"i_long":106.79689,"transit":false,"is_transit":false,"time":7,"distance":3737,"station_id":"PLM","station_name":"Palmerah"},{"distance":3191,"i_lat":-6.185545,"is_transit":true,"time":6,"line":1,"i_long":106.811091,"station_name":"Tanah Abang","transit":true,"station_id":"THB"},{"station_name":"Karet","i_lat":-6.20132,"transit":false,"line":1,"time":5,"distance":2029,"station_id":"KAT","i_long":106.816351,"is_transit":false},{"station_id":"SUDB","i_long":106.819881,"time":1,"distance":471,"is_transit":false,"transit":false,"station_name":"Sudirman Baru","i_lat":-6.201433,"line":1},{"time":1,"i_long":106.822649,"i_lat":-6.202263,"line":1,"distance":280,"transit":false,"station_id":"SUD","station_name":"Sudirman","is_transit":false},{"i_lat":-6.209883,"distance":3186,"time":4,"line":2,"station_name":"Manggarai","is_transit":false,"transit":false,"station_id":"MRI","i_long":106.84912},{"distance":1275,"i_long":106.858896,"line":1,"time":2,"station_name":"Matraman","is_transit":false,"station_id":"MTR","i_lat":-6.212485,"transit":false},{"time":8,"station_id":"JNG","is_transit":true,"line":1,"station_name":"Jatinegara","i_long":106.86807400000001,"distance":1377,"i_lat":-6.215091,"transit":true},{"distance":1236,"station_name":"Pondok Jati","time":2,"i_long":106.861737,"transit":false,"is_transit":false,"station_id":"POK","i_lat":-6.209188,"line":11},{"distance":1829,"transit":false,"station_name":"Kramat","is_transit":false,"station_id":"KMT","i_lat":-6.193792,"line":11,"time":2,"i_long":106.855437},{"time":1,"i_long":106.850107,"station_name":"Gang Sentiong","line":11,"i_lat":-6.185975,"distance":973,"station_id":"GST","transit":false,"is_transit":false},{"i_lat":-6.174784,"time":8,"distance":1567,"transit":false,"is_transit":false,"station_id":"PSE","line":11,"station_name":"Pasar Senen","i_long":106.84368},{"station_name":"Kemayoran","time":4,"transit":false,"line":11,"is_transit":false,"station_id":"KMO","distance":1436,"i_long":106.839204,"i_lat":-6.161728},{"line":11,"i_long":106.836569,"i_lat":-6.14505,"station_id":"RJW","time":5,"distance":1901,"station_name":"Rajawali","transit":false,"is_transit":false},{"i_lat":-6.132549,"transit":true,"station_name":"Kampung Bandan","is_transit":true,"i_long":106.826365,"time":3,"line":4,"station_id":"KPB","distance":1444},{"station_name":"Jakarta Kota","time":3,"distance":1364,"line":2,"transit":true,"is_transit":true,"i_long":106.812439,"station_id":"JAKK","i_lat":-6.137569},{"transit":false,"i_long":106.820901,"distance":1264,"time":4,"is_transit":false,"i_lat":-6.141205,"station_id":"JAY","station_name":"Jayakarta","line":2},{"is_transit":false,"station_id":"MGB","line":2,"i_lat":-6.149769,"station_name":"Manggabesar","i_long":106.82482,"transit":false,"distance":1080,"time":2},{"distance":906,"station_id":"SW","is_transit":false,"i_long":106.827103,"time":2,"i_lat":-6.160725,"transit":false,"line":2,"station_name":"Sawah Besar"}]]}