{"data":[[{"line":6,"transit":false,"i_long":106.394373,"time":0,"distance":0,"station_id":"MJ","is_transit":false,"station_name":"Maja","i_lat":-6.332307},{"transit":false,"station_name":"Cikoya","i_lat":-6.33561,"is_transit":false,"time":4,"distance":1853,"i_long":106.411216,"line":3,"station_id":"CKY"},{"station_id":"TGS","time":3,"line":6,"i_long":106.425991,"station_name":"Tigaraksa","i_lat":-6.328533,"distance":2651,"is_transit":false,"transit":false},{"is_transit":false,"time":5,"i_lat":-6.327251,"transit":false,"line":6,"distance":2974,"i_long":106.460812,"station_id":"TEJ","station_name":"Tenjo"},{"station_name":"Daru","distance":3902,"i_lat":-6.338021,"i_long":106.491338,"transit":false,"station_id":"DAR","is_transit":false,"time":5,"line":0},{"is_transit":false,"i_lat":-6.354349,"station_id":"CJT","station_name":"Cilejit","time":6,"line":3,"transit":false,"i_long":106.508482,"distance":2675},{"station_name":"Parung Panjang","distance":7025,"i_lat":-6.3441410000000005,"i_long":106.568863,"is_transit":false,"station_id":"PRP","transit":false,"time":9,"line":6},{"line":3,"transit":false,"station_name":"Cicayur","time":8,"is_transit":false,"i_long":106.617853,"distance":5968,"i_lat":-6.329547,"station_id":"CC"},{"is_transit":false,"station_id":"CSK","line":3,"i_lat":-6.32484,"i_long":106.640411,"time":4,"station_name":"Cisauk","distance":2519,"transit":false},{"is_transit":false,"i_lat":-6.319871,"station_id":"SRP","line":6,"time":4,"transit":false,"i_long":106.66566,"distance":1784,"station_name":"Serpong"},{"station_name":"Rawa Buntu","station_id":"RU","is_transit":false,"transit":false,"i_long":106.675475,"i_lat":-6.314823,"time":4,"distance":2413,"line":6},{"transit":false,"time":6,"distance":4566,"i_lat":-6.296963,"station_name":"Sudimara","i_long":106.712277,"station_id":"SDM","is_transit":false,"line":6},{"i_long":106.728916,"is_transit":false,"station_id":"JMU","station_name":"Jurangmangu","transit":false,"line":6,"time":4,"distance":1994,"i_lat":-6.288927},{"i_long":106.74273,"station_name":"Pondokranji","time":3,"transit":false,"distance":2179,"i_lat":-6.276362,"line":6,"station_id":"PDJ","is_transit":false},{"line":6,"station_id":"KBY","is_transit":false,"distance":6218,"i_lat":-6.237242,"transit":false,"time":8,"station_name":"Kebayoran","i_long":106.780334},{"line":6,"distance":3737,"station_name":"Palmerah","time":7,"i_lat":-6.207404,"i_long":106.79689,"transit":false,"station_id":"PLM","is_transit":false},{"transit":true,"station_name":"Tanah Abang","station_id":"THB","is_transit":true,"time":6,"i_lat":-6.185545,"line":1,"distance":3191,"i_long":106.811091},{"station_id":"DU","line":1,"i_long":106.800832,"is_transit":true,"station_name":"Duri","time":8,"distance":3632,"i_lat":-6.155215,"transit":true},{"station_id":"GGL","time":3,"transit":false,"station_name":"Grogol","i_lat":-6.162021,"is_transit":false,"line":5,"distance":1700,"i_long":106.788277},{"station_name":"Pesing","is_transit":false,"i_long":106.771379,"distance":2036,"line":5,"time":2,"i_lat":-6.161433,"transit":false,"station_id":"PSG"},{"time":2,"distance":1614,"i_long":106.756522,"station_id":"TKO","station_name":"Taman Kota","i_lat":-6.1587309999999995,"line":5,"transit":false,"is_transit":false}],[{"is_transit":false,"station_name":"Maja","line":6,"transit":false,"station_id":"MJ","time":0,"distance":0,"i_lat":-6.332307,"i_long":106.394373},{"time":4,"distance":1853,"i_lat":-6.33561,"station_id":"CKY","transit":false,"station_name":"Cikoya","is_transit":false,"line":3,"i_long":106.411216},{"distance":2651,"i_lat":-6.328533,"line":6,"time":3,"i_long":106.425991,"station_name":"Tigaraksa","transit":false,"is_transit":false,"station_id":"TGS"},{"is_transit":false,"station_id":"TEJ","distance":2974,"i_long":106.460812,"time":5,"station_name":"Tenjo","line":6,"transit":false,"i_lat":-6.327251},{"distance":3902,"i_long":106.491338,"transit":false,"time":5,"line":0,"i_lat":-6.338021,"is_transit":false,"station_name":"Daru","station_id":"DAR"},{"time":6,"transit":false,"i_long":106.508482,"i_lat":-6.354349,"station_name":"Cilejit","is_transit":false,"distance":2675,"station_id":"CJT","line":3},{"transit":false,"station_name":"Parung Panjang","time":9,"distance":7025,"station_id":"PRP","i_lat":-6.3441410000000005,"i_long":106.568863,"line":6,"is_transit":false},{"i_long":106.617853,"distance":5968,"line":3,"i_lat":-6.329547,"transit":false,"station_id":"CC","time":8,"is_transit":false,"station_name":"Cicayur"},{"distance":2519,"station_name":"Cisauk","station_id":"CSK","is_transit":false,"time":4,"line":3,"transit":false,"i_lat":-6.32484,"i_long":106.640411},{"transit":false,"i_long":106.66566,"line":6,"station_name":"Serpong","time":4,"distance":1784,"i_lat":-6.319871,"station_id":"SRP","is_transit":false},{"distance":2413,"i_long":106.675475,"line":6,"i_lat":-6.314823,"is_transit":false,"transit":false,"station_name":"Rawa Buntu","station_id":"RU","time":4},{"line":6,"distance":4566,"station_name":"Sudimara","time":6,"i_lat":-6.296963,"station_id":"SDM","is_transit":false,"i_long":106.712277,"transit":false},{"distance":1994,"is_transit":false,"line":6,"station_name":"Jurangmangu","transit":false,"time":4,"station_id":"JMU","i_lat":-6.288927,"i_long":106.728916},{"time":3,"line":6,"i_lat":-6.276362,"distance":2179,"i_long":106.74273,"station_id":"PDJ","transit":false,"station_name":"Pondokranji","is_transit":false},{"transit":false,"i_lat":-6.237242,"distance":6218,"station_id":"KBY","is_transit":false,"line":6,"station_name":"Kebayoran","i_long":106.780334,"time":8},{"is_transit":false,"i_lat":-6.207404,"i_long":106.79689,"station_id":"PLM","line":6,"transit":false,"station_name":"Palmerah","distance":3737,"time":7},{"station_id":"THB","time":6,"i_lat":-6.185545,"line":1,"is_transit":true,"transit":true,"station_name":"Tanah Abang","i_long":106.811091,"distance":3191},{"is_transit":false,"station_id":"KAT","transit":false,"time":5,"station_name":"Karet","i_lat":-6.20132,"line":1,"distance":2029,"i_long":106.816351},{"time":1,"is_transit":false,"distance":471,"line":1,"i_lat":-6.201433,"i_long":106.819881,"transit":false,"station_name":"Sudirman Baru","station_id":"SUDB"},{"i_long":106.822649,"is_transit":false,"station_name":"Sudirman","time":1,"station_id":"SUD","distance":280,"line":1,"transit":false,"i_lat":-6.202263},{"is_transit":true,"line":2,"station_name":"Manggarai","i_long":106.84912,"time":4,"station_id":"MRI","distance":3186,"transit":true,"i_lat":-6.209883},{"i_long":106.840169,"line":2,"time":4,"transit":false,"station_name":"Cikini","i_lat":-6.198556,"distance":1590,"station_id":"CKI","is_transit":false},{"is_transit":false,"i_long":106.832183,"time":3,"line":2,"transit":false,"distance":1750,"station_name":"Gondangdia","station_id":"GDD","i_lat":-6.186295},{"transit":false,"station_name":"Juanda","station_id":"JUA","is_transit":false,"i_lat":-6.166716,"i_long":106.828284,"line":2,"distance":2015,"time":4},{"i_long":106.827103,"i_lat":-6.160725,"line":2,"distance":1149,"station_name":"Sawah Besar","is_transit":false,"time":2,"transit":false,"station_id":"SW"},{"time":2,"station_name":"Manggabesar","is_transit":false,"i_long":106.82482,"line":2,"distance":906,"i_lat":-6.149769,"transit":false,"station_id":"MGB"},{"distance":1080,"i_lat":-6.141205,"is_transit":false,"station_name":"Jayakarta","transit":false,"time":2,"line":2,"station_id":"JAY","i_long":106.820901},{"transit":true,"i_lat":-6.137569,"line":2,"station_name":"Jakarta Kota","distance":1264,"is_transit":true,"station_id":"JAKK","time":4,"i_long":106.812439},{"line":4,"transit":true,"time":3,"i_lat":-6.132549,"station_id":"KPB","station_name":"Kampung Bandan","i_long":106.826365,"distance":1364,"is_transit":true},{"line":1,"station_id":"AK","is_transit":false,"transit":false,"station_name":"Angke","i_lat":-6.144674,"i_long":106.79867,"time":9,"distance":4102},{"time":4,"i_long":106.800832,"is_transit":true,"line":1,"station_id":"DU","transit":true,"distance":1230,"i_lat":-6.155215,"station_name":"Duri"},{"time":3,"i_lat":-6.162021,"station_id":"GGL","transit":false,"station_name":"Grogol","is_transit":false,"distance":1700,"i_long":106.788277,"line":5},{"distance":2036,"station_id":"PSG","i_lat":-6.161433,"is_transit":false,"i_long":106.771379,"line":5,"station_name":"Pesing","transit":false,"time":2},{"transit":false,"is_transit":false,"i_long":106.756522,"station_id":"TKO","i_lat":-6.1587309999999995,"distance":1614,"station_name":"Taman Kota","time":2,"line":5}],[{"station_id":"MJ","distance":0,"is_transit":false,"line":6,"station_name":"Maja","i_lat":-6.332307,"transit":false,"time":0,"i_long":106.394373},{"station_name":"Cikoya","station_id":"CKY","is_transit":false,"time":4,"i_long":106.411216,"line":3,"distance":1853,"i_lat":-6.33561,"transit":false},{"distance":2651,"is_transit":false,"i_lat":-6.328533,"line":6,"transit":false,"i_long":106.425991,"station_id":"TGS","station_name":"Tigaraksa","time":3},{"station_name":"Tenjo","time":5,"i_lat":-6.327251,"distance":2974,"is_transit":false,"transit":false,"line":6,"station_id":"TEJ","i_long":106.460812},{"i_lat":-6.338021,"line":0,"is_transit":false,"distance":3902,"i_long":106.491338,"station_name":"Daru","transit":false,"time":5,"station_id":"DAR"},{"station_id":"CJT","i_long":106.508482,"station_name":"Cilejit","time":6,"distance":2675,"transit":false,"is_transit":false,"i_lat":-6.354349,"line":3},{"line":6,"distance":7025,"station_id":"PRP","transit":false,"station_name":"Parung Panjang","i_lat":-6.3441410000000005,"is_transit":false,"i_long":106.568863,"time":9},{"i_lat":-6.329547,"transit":false,"line":3,"is_transit":false,"time":8,"i_long":106.617853,"distance":5968,"station_id":"CC","station_name":"Cicayur"},{"is_transit":false,"station_name":"Cisauk","time":4,"transit":false,"line":3,"i_lat":-6.32484,"distance":2519,"station_id":"CSK","i_long":106.640411},{"station_name":"Serpong","i_lat":-6.319871,"i_long":106.66566,"line":6,"station_id":"SRP","time":4,"transit":false,"is_transit":false,"distance":1784},{"time":4,"distance":2413,"station_name":"Rawa Buntu","transit":false,"station_id":"RU","line":6,"i_lat":-6.314823,"is_transit":false,"i_long":106.675475},{"station_id":"SDM","station_name":"Sudimara","i_long":106.712277,"time":6,"is_transit":false,"distance":4566,"i_lat":-6.296963,"transit":false,"line":6},{"station_name":"Jurangmangu","is_transit":false,"i_long":106.728916,"distance":1994,"i_lat":-6.288927,"line":6,"transit":false,"time":4,"station_id":"JMU"},{"time":3,"station_name":"Pondokranji","distance":2179,"transit":false,"station_id":"PDJ","is_transit":false,"i_lat":-6.276362,"i_long":106.74273,"line":6},{"i_lat":-6.237242,"line":6,"distance":6218,"station_name":"Kebayoran","i_long":106.780334,"transit":false,"station_id":"KBY","time":8,"is_transit":false},{"time":7,"transit":false,"distance":3737,"is_transit":false,"i_long":106.79689,"station_id":"PLM","station_name":"Palmerah","line":6,"i_lat":-6.207404},{"transit":true,"station_id":"THB","i_lat":-6.185545,"line":1,"time":6,"distance":3191,"is_transit":true,"station_name":"Tanah Abang","i_long":106.811091},{"time":5,"i_long":106.816351,"transit":false,"station_name":"Karet","distance":2029,"station_id":"KAT","i_lat":-6.20132,"line":1,"is_transit":false},{"is_transit":false,"time":1,"transit":false,"distance":471,"station_id":"SUDB","station_name":"Sudirman Baru","i_lat":-6.201433,"i_long":106.819881,"line":1},{"time":1,"station_id":"SUD","i_lat":-6.202263,"i_long":106.822649,"station_name":"Sudirman","transit":false,"distance":280,"is_transit":false,"line":1},{"distance":3186,"transit":false,"i_long":106.84912,"i_lat":-6.209883,"station_name":"Manggarai","line":2,"station_id":"MRI","is_transit":false,"time":4},{"time":2,"i_long":106.858896,"station_name":"Matraman","transit":false,"line":1,"distance":1275,"i_lat":-6.212485,"station_id":"MTR","is_transit":false},{"time":8,"distance":1377,"line":1,"transit":true,"station_name":"Jatinegara","i_long":106.86807400000001,"station_id":"JNG","i_lat":-6.215091,"is_transit":true},{"transit":false,"line":11,"time":2,"i_lat":-6.209188,"station_id":"POK","distance":1236,"is_transit":false,"station_name":"Pondok Jati","i_long":106.861737},{"i_long":106.855437,"station_id":"KMT","time":2,"i_lat":-6.193792,"distance":1829,"line":11,"transit":false,"station_name":"Kramat","is_transit":false},{"i_long":106.850107,"distance":973,"station_id":"GST","is_transit":false,"transit":false,"station_name":"Gang Sentiong","i_lat":-6.185975,"line":11,"time":1},{"i_lat":-6.174784,"station_name":"Pasar Senen","transit":false,"station_id":"PSE","time":8,"i_long":106.84368,"is_transit":false,"distance":1567,"line":11},{"i_long":106.839204,"time":4,"is_transit":false,"line":11,"station_id":"KMO","distance":1436,"i_lat":-6.161728,"transit":false,"station_name":"Kemayoran"},{"line":11,"distance":1901,"station_name":"Rajawali","transit":false,"is_transit":false,"station_id":"RJW","i_lat":-6.14505,"time":5,"i_long":106.836569},{"i_lat":-6.132549,"is_transit":true,"line":4,"i_long":106.826365,"transit":true,"time":3,"station_name":"Kampung Bandan","station_id":"KPB","distance":1444},{"transit":false,"station_id":"AK","is_transit":false,"line":1,"i_lat":-6.144674,"station_name":"Angke","i_long":106.79867,"time":9,"distance":4102},{"i_long":106.800832,"line":1,"station_name":"Duri","time":4,"transit":true,"distance":1230,"i_lat":-6.155215,"station_id":"DU","is_transit":true},{"i_long":106.788277,"i_lat":-6.162021,"station_name":"Grogol","line":5,"station_id":"GGL","transit":false,"time":3,"is_transit":false,"distance":1700},{"station_id":"PSG","time":2,"station_name":"Pesing","distance":2036,"i_lat":-6.161433,"i_long":106.771379,"line":5,"transit":false,"is_transit":false},{"station_id":"TKO","time":2,"i_long":106.756522,"transit":false,"station_name":"Taman Kota","i_lat":-6.1587309999999995,"is_transit":false,"distance":1614,"line":5}]]}