{"data":[[{"i_lat":-6.332307,"station_name":"Maja","time":0,"transit":false,"station_id":"MJ","distance":0,"i_long":106.394373,"is_transit":false,"line":6},{"distance":1853,"transit":false,"time":4,"station_id":"CKY","is_transit":false,"station_name":"Cikoya","line":0,"i_lat":-6.33561,"i_long":106.411216},{"is_transit":false,"distance":2651,"i_lat":-6.328533,"station_name":"Tigaraksa","station_id":"TGS","transit":false,"i_long":106.425991,"time":3,"line":6},{"time":5,"transit":false,"i_lat":-6.327251,"i_long":106.460812,"station_name":"Tenjo","station_id":"TEJ","is_transit":false,"line":6,"distance":2974},{"transit":false,"station_id":"DAR","i_long":106.491338,"time":5,"distance":3902,"is_transit":false,"station_name":"Daru","i_lat":-6.338021,"line":0},{"station_name":"Cilejit","is_transit":false,"i_long":106.508482,"distance":2675,"time":6,"station_id":"CJT","i_lat":-6.354349,"transit":false,"line":0},{"i_long":106.568863,"distance":7025,"i_lat":-6.3441410000000005,"station_name":"Parung Panjang","time":9,"station_id":"PRP","transit":false,"is_transit":false,"line":6},{"station_id":"CC","is_transit":false,"time":8,"transit":false,"i_lat":-6.329547,"i_long":106.617853,"station_name":"Cicayur","distance":5968,"line":0},{"i_lat":-6.32484,"distance":2519,"time":4,"transit":false,"line":0,"i_long":106.640411,"station_id":"CSK","station_name":"Cisauk","is_transit":false},{"distance":1784,"time":4,"transit":false,"is_transit":false,"i_lat":-6.319871,"station_name":"Serpong","i_long":106.66566,"line":6,"station_id":"SRP"},{"line":6,"distance":2413,"i_long":106.675475,"i_lat":-6.314823,"station_name":"Rawa Buntu","station_id":"RU","is_transit":false,"time":4,"transit":false},{"transit":false,"i_lat":-6.296963,"i_long":106.712277,"distance":4566,"line":6,"station_id":"SDM","is_transit":false,"time":6,"station_name":"Sudimara"},{"time":4,"station_id":"JMU","transit":false,"distance":1994,"line":6,"i_lat":-6.288927,"i_long":106.728916,"is_transit":false,"station_name":"Jurangmangu"},{"time":3,"station_id":"PDJ","i_long":106.74273,"i_lat":-6.276362,"transit":false,"line":6,"station_name":"Pondokranji","is_transit":false,"distance":2179},{"station_name":"Kebayoran","is_transit":false,"time":8,"i_lat":-6.237242,"transit":false,"station_id":"KBY","distance":6218,"line":6,"i_long":106.780334},{"line":6,"time":7,"transit":false,"i_long":106.79689,"station_name":"Palmerah","station_id":"PLM","i_lat":-6.207404,"is_transit":false,"distance":3737},{"station_name":"Tanah Abang","transit":true,"time":6,"i_lat":-6.185545,"is_transit":true,"station_id":"THB","distance":3191,"i_long":106.811091,"line":1},{"time":8,"transit":true,"line":1,"station_name":"Duri","distance":3632,"station_id":"DU","i_long":106.800832,"is_transit":true,"i_lat":-6.155215},{"station_id":"GGL","time":3,"station_name":"Grogol","distance":1700,"transit":false,"i_lat":-6.162021,"is_transit":false,"i_long":106.788277,"line":5},{"is_transit":false,"i_lat":-6.161433,"i_long":106.771379,"line":5,"distance":2036,"station_name":"Pesing","time":2,"transit":false,"station_id":"PSG"},{"i_long":106.756522,"station_name":"Taman Kota","station_id":"TKO","transit":false,"distance":1614,"line":5,"is_transit":false,"i_lat":-6.1587309999999995,"time":2}],[{"transit":false,"i_lat":-6.332307,"station_id":"MJ","time":0,"distance":0,"i_long":106.394373,"is_transit":false,"line":6,"station_name":"Maja"},{"time":4,"line":0,"station_name":"Cikoya","is_transit":false,"i_lat":-6.33561,"station_id":"CKY","i_long":106.411216,"transit":false,"distance":1853},{"i_long":106.425991,"i_lat":-6.328533,"is_transit":false,"station_id":"TGS","time":3,"line":6,"distance":2651,"transit":false,"station_name":"Tigaraksa"},{"station_id":"TEJ","line":6,"station_name":"Tenjo","is_transit":false,"transit":false,"time":5,"i_long":106.460812,"distance":2974,"i_lat":-6.327251},{"distance":3902,"i_long":106.491338,"line":0,"station_name":"Daru","transit":false,"is_transit":false,"station_id":"DAR","time":5,"i_lat":-6.338021},{"transit":false,"time":6,"station_id":"CJT","i_long":106.508482,"is_transit":false,"i_lat":-6.354349,"station_name":"Cilejit","distance":2675,"line":0},{"i_long":106.568863,"station_id":"PRP","is_transit":false,"time":9,"line":6,"transit":false,"i_lat":-6.3441410000000005,"distance":7025,"station_name":"Parung Panjang"},{"station_name":"Cicayur","transit":false,"is_transit":false,"i_lat":-6.329547,"i_long":106.617853,"time":8,"line":0,"station_id":"CC","distance":5968},{"line":0,"time":4,"transit":false,"i_lat":-6.32484,"station_id":"CSK","station_name":"Cisauk","is_transit":false,"distance":2519,"i_long":106.640411},{"transit":false,"distance":1784,"time":4,"station_name":"Serpong","line":6,"i_lat":-6.319871,"is_transit":false,"i_long":106.66566,"station_id":"SRP"},{"station_name":"Rawa Buntu","i_long":106.675475,"time":4,"i_lat":-6.314823,"distance":2413,"line":6,"station_id":"RU","transit":false,"is_transit":false},{"is_transit":false,"station_id":"SDM","line":6,"station_name":"Sudimara","time":6,"i_lat":-6.296963,"distance":4566,"transit":false,"i_long":106.712277},{"station_name":"Jurangmangu","time":4,"transit":false,"is_transit":false,"i_lat":-6.288927,"i_long":106.728916,"station_id":"JMU","line":6,"distance":1994},{"station_id":"PDJ","transit":false,"distance":2179,"station_name":"Pondokranji","i_long":106.74273,"is_transit":false,"time":3,"line":6,"i_lat":-6.276362},{"station_name":"Kebayoran","transit":false,"i_lat":-6.237242,"line":6,"i_long":106.780334,"is_transit":false,"time":8,"station_id":"KBY","distance":6218},{"distance":3737,"is_transit":false,"i_lat":-6.207404,"i_long":106.79689,"station_name":"Palmerah","station_id":"PLM","time":7,"line":6,"transit":false},{"station_name":"Tanah Abang","time":6,"is_transit":true,"distance":3191,"i_long":106.811091,"transit":true,"i_lat":-6.185545,"line":1,"station_id":"THB"},{"station_name":"Karet","station_id":"KAT","distance":2029,"time":5,"transit":false,"i_lat":-6.20132,"is_transit":false,"line":1,"i_long":106.816351},{"is_transit":false,"transit":false,"i_long":106.819881,"station_id":"SUDB","distance":471,"station_name":"Sudirman Baru","i_lat":-6.201433,"line":1,"time":1},{"is_transit":false,"station_id":"SUD","i_long":106.822649,"station_name":"Sudirman","time":1,"line":1,"distance":280,"i_lat":-6.202263,"transit":false},{"line":0,"station_name":"Manggarai","distance":3186,"i_long":106.84912,"is_transit":true,"time":4,"transit":true,"i_lat":-6.209883,"station_id":"MRI"},{"transit":false,"line":0,"station_name":"Cikini","distance":1590,"station_id":"CKI","is_transit":false,"i_lat":-6.198556,"time":4,"i_long":106.840169},{"is_transit":false,"station_name":"Gondangdia","i_long":106.832183,"station_id":"GDD","i_lat":-6.186295,"transit":false,"distance":1750,"line":2,"time":3},{"line":2,"time":4,"distance":2015,"station_name":"Juanda","i_lat":-6.166716,"station_id":"JUA","is_transit":false,"transit":false,"i_long":106.828284},{"station_id":"SW","distance":1149,"line":2,"is_transit":false,"transit":false,"i_long":106.827103,"station_name":"Sawah Besar","i_lat":-6.160725,"time":2},{"station_name":"Manggabesar","station_id":"MGB","transit":false,"line":2,"distance":906,"i_long":106.82482,"time":2,"is_transit":false,"i_lat":-6.149769},{"distance":1080,"time":2,"is_transit":false,"i_lat":-6.141205,"station_name":"Jayakarta","station_id":"JAY","line":7,"transit":false,"i_long":106.820901},{"transit":true,"station_id":"JAKK","time":4,"station_name":"Jakarta Kota","distance":1264,"is_transit":true,"i_long":106.812439,"line":0,"i_lat":-6.137569},{"station_id":"KPB","station_name":"Kampung Bandan","i_long":106.826365,"i_lat":-6.132549,"line":0,"is_transit":true,"time":3,"distance":1364,"transit":false},{"transit":false,"i_lat":-6.144674,"is_transit":false,"time":9,"station_id":"AK","distance":4102,"i_long":106.79867,"line":0,"station_name":"Angke"},{"station_id":"DU","i_long":106.800832,"line":1,"distance":1230,"i_lat":-6.155215,"transit":true,"is_transit":true,"station_name":"Duri","time":4},{"transit":false,"station_name":"Grogol","time":3,"i_long":106.788277,"is_transit":false,"line":5,"station_id":"GGL","distance":1700,"i_lat":-6.162021},{"station_id":"PSG","transit":false,"i_lat":-6.161433,"is_transit":false,"i_long":106.771379,"line":5,"station_name":"Pesing","time":2,"distance":2036},{"line":5,"is_transit":false,"station_name":"Taman Kota","transit":false,"i_lat":-6.1587309999999995,"station_id":"TKO","distance":1614,"time":2,"i_long":106.756522}],[{"station_name":"Maja","distance":0,"transit":false,"i_lat":-6.332307,"line":6,"time":0,"i_long":106.394373,"station_id":"MJ","is_transit":false},{"i_lat":-6.33561,"distance":1853,"is_transit":false,"line":0,"station_id":"CKY","transit":false,"station_name":"Cikoya","i_long":106.411216,"time":4},{"i_long":106.425991,"distance":2651,"i_lat":-6.328533,"time":3,"transit":false,"line":6,"station_id":"TGS","is_transit":false,"station_name":"Tigaraksa"},{"transit":false,"station_name":"Tenjo","distance":2974,"line":6,"i_lat":-6.327251,"station_id":"TEJ","i_long":106.460812,"time":5,"is_transit":false},{"is_transit":false,"line":0,"i_long":106.491338,"transit":false,"time":5,"station_name":"Daru","distance":3902,"i_lat":-6.338021,"station_id":"DAR"},{"time":6,"station_name":"Cilejit","station_id":"CJT","is_transit":false,"transit":false,"i_lat":-6.354349,"distance":2675,"line":0,"i_long":106.508482},{"transit":false,"station_name":"Parung Panjang","station_id":"PRP","distance":7025,"line":6,"i_lat":-6.3441410000000005,"is_transit":false,"i_long":106.568863,"time":9},{"i_lat":-6.329547,"is_transit":false,"station_name":"Cicayur","i_long":106.617853,"station_id":"CC","distance":5968,"line":0,"time":8,"transit":false},{"transit":false,"station_id":"CSK","distance":2519,"station_name":"Cisauk","time":4,"is_transit":false,"line":0,"i_lat":-6.32484,"i_long":106.640411},{"transit":false,"station_id":"SRP","is_transit":false,"line":6,"time":4,"distance":1784,"station_name":"Serpong","i_long":106.66566,"i_lat":-6.319871},{"transit":false,"is_transit":false,"distance":2413,"station_id":"RU","time":4,"i_long":106.675475,"i_lat":-6.314823,"line":6,"station_name":"Rawa Buntu"},{"i_long":106.712277,"station_id":"SDM","is_transit":false,"transit":false,"line":6,"time":6,"station_name":"Sudimara","distance":4566,"i_lat":-6.296963},{"time":4,"transit":false,"station_id":"JMU","is_transit":false,"distance":1994,"line":6,"station_name":"Jurangmangu","i_lat":-6.288927,"i_long":106.728916},{"time":3,"transit":false,"i_long":106.74273,"is_transit":false,"line":6,"i_lat":-6.276362,"distance":2179,"station_name":"Pondokranji","station_id":"PDJ"},{"i_lat":-6.237242,"distance":6218,"station_name":"Kebayoran","line":6,"is_transit":false,"station_id":"KBY","time":8,"transit":false,"i_long":106.780334},{"distance":3737,"i_long":106.79689,"station_name":"Palmerah","station_id":"PLM","transit":false,"i_lat":-6.207404,"time":7,"is_transit":false,"line":6},{"is_transit":true,"transit":true,"time":6,"station_id":"THB","station_name":"Tanah Abang","distance":3191,"i_long":106.811091,"i_lat":-6.185545,"line":1},{"line":1,"distance":2029,"is_transit":false,"station_name":"Karet","i_long":106.816351,"transit":false,"time":5,"station_id":"KAT","i_lat":-6.20132},{"line":1,"station_name":"Sudirman Baru","time":1,"station_id":"SUDB","is_transit":false,"transit":false,"i_lat":-6.201433,"i_long":106.819881,"distance":471},{"station_name":"Sudirman","is_transit":false,"distance":280,"transit":false,"i_lat":-6.202263,"line":1,"time":1,"i_long":106.822649,"station_id":"SUD"},{"i_lat":-6.209883,"distance":3186,"transit":false,"is_transit":true,"station_name":"Manggarai","i_long":106.84912,"line":0,"station_id":"MRI","time":4},{"time":2,"i_long":106.858896,"station_name":"Matraman","station_id":"MTR","transit":false,"distance":1275,"i_lat":-6.212485,"is_transit":false,"line":1},{"i_long":106.86807400000001,"distance":1377,"i_lat":-6.215091,"line":0,"station_id":"JNG","is_transit":true,"time":8,"transit":true,"station_name":"Jatinegara"},{"i_lat":-6.209188,"station_id":"POK","time":2,"station_name":"Pondok Jati","i_long":106.861737,"line":11,"is_transit":false,"transit":false,"distance":1236},{"distance":1829,"station_id":"KMT","i_long":106.855437,"line":11,"transit":false,"i_lat":-6.193792,"time":2,"station_name":"Kramat","is_transit":false},{"transit":false,"distance":973,"i_lat":-6.185975,"i_long":106.850107,"is_transit":false,"time":1,"line":11,"station_id":"GST","station_name":"Gang Sentiong"},{"distance":1567,"station_id":"PSE","station_name":"Pasar Senen","time":8,"i_lat":-6.174784,"i_long":106.84368,"line":11,"is_transit":false,"transit":false},{"line":11,"i_lat":-6.161728,"time":4,"is_transit":false,"station_id":"KMO","i_long":106.839204,"distance":1436,"station_name":"Kemayoran","transit":false},{"transit":false,"station_name":"Rajawali","line":11,"station_id":"RJW","time":5,"distance":1901,"i_long":106.836569,"i_lat":-6.14505,"is_transit":false},{"line":0,"station_name":"Kampung Bandan","i_long":106.826365,"i_lat":-6.132549,"station_id":"KPB","transit":true,"is_transit":true,"time":3,"distance":1444},{"time":9,"distance":4102,"i_lat":-6.144674,"i_long":106.79867,"station_name":"Angke","station_id":"AK","line":0,"is_transit":false,"transit":false},{"station_name":"Duri","station_id":"DU","distance":1230,"time":4,"is_transit":true,"line":1,"i_lat":-6.155215,"i_long":106.800832,"transit":true},{"station_id":"GGL","is_transit":false,"time":3,"i_lat":-6.162021,"i_long":106.788277,"station_name":"Grogol","transit":false,"distance":1700,"line":5},{"station_id":"PSG","time":2,"station_name":"Pesing","transit":false,"i_lat":-6.161433,"is_transit":false,"distance":2036,"i_long":106.771379,"line":5},{"i_long":106.756522,"is_transit":false,"station_name":"Taman Kota","station_id":"TKO","time":2,"distance":1614,"line":5,"i_lat":-6.1587309999999995,"transit":false}]]}