{"data":[[{"line":6,"transit":false,"is_transit":false,"i_lat":-6.332307,"i_long":106.394373,"station_name":"Maja","station_id":"MJ","time":0,"distance":0},{"station_name":"Cikoya","station_id":"CKY","i_long":106.411216,"transit":false,"is_transit":false,"i_lat":-6.33561,"time":4,"distance":1853,"line":3},{"station_name":"Tigaraksa","is_transit":false,"transit":false,"i_long":106.425991,"i_lat":-6.328533,"time":3,"station_id":"TGS","line":6,"distance":2651},{"time":5,"line":6,"station_id":"TEJ","i_lat":-6.327251,"transit":false,"i_long":106.460812,"distance":2974,"station_name":"Tenjo","is_transit":false},{"station_id":"DAR","distance":3902,"is_transit":false,"transit":false,"i_long":106.491338,"line":0,"station_name":"Daru","time":5,"i_lat":-6.338021},{"station_name":"Cilejit","time":6,"is_transit":false,"i_long":106.508482,"station_id":"CJT","distance":2675,"i_lat":-6.354349,"transit":false,"line":3},{"distance":7025,"station_id":"PRP","time":9,"transit":false,"line":6,"i_long":106.568863,"is_transit":false,"station_name":"Parung Panjang","i_lat":-6.3441410000000005},{"line":3,"station_id":"CC","transit":false,"station_name":"Cicayur","is_transit":false,"time":8,"i_lat":-6.329547,"i_long":106.617853,"distance":5968},{"station_name":"Cisauk","is_transit":false,"time":4,"i_lat":-6.32484,"line":3,"transit":false,"i_long":106.640411,"distance":2519,"station_id":"CSK"},{"station_name":"Serpong","distance":1784,"i_lat":-6.319871,"line":6,"time":4,"is_transit":false,"station_id":"SRP","transit":false,"i_long":106.66566},{"transit":false,"is_transit":false,"line":6,"station_id":"RU","i_long":106.675475,"station_name":"Rawa Buntu","time":4,"distance":2413,"i_lat":-6.314823},{"distance":4566,"transit":false,"is_transit":false,"station_id":"SDM","i_long":106.712277,"i_lat":-6.296963,"station_name":"Sudimara","line":6,"time":6},{"distance":1994,"i_lat":-6.288927,"station_id":"JMU","transit":false,"station_name":"Jurangmangu","is_transit":false,"time":4,"line":6,"i_long":106.728916},{"time":3,"distance":2179,"i_long":106.74273,"station_name":"Pondokranji","transit":false,"i_lat":-6.276362,"line":6,"is_transit":false,"station_id":"PDJ"},{"line":6,"transit":false,"distance":6218,"time":8,"i_lat":-6.237242,"station_id":"KBY","station_name":"Kebayoran","is_transit":false,"i_long":106.780334},{"i_long":106.79689,"transit":false,"is_transit":false,"station_name":"Palmerah","distance":3737,"i_lat":-6.207404,"time":7,"station_id":"PLM","line":6},{"i_long":106.811091,"transit":true,"time":6,"distance":3191,"is_transit":true,"station_id":"THB","i_lat":-6.185545,"station_name":"Tanah Abang","line":1},{"i_long":106.800832,"distance":3632,"i_lat":-6.155215,"is_transit":true,"station_id":"DU","time":8,"line":1,"station_name":"Duri","transit":true},{"station_id":"GRG","line":5,"transit":false,"station_name":"Grogol","distance":1700,"i_lat":-6.162021,"i_long":106.788277,"time":3,"is_transit":false},{"transit":false,"station_id":"PSG","is_transit":false,"time":2,"i_lat":-6.161433,"distance":2036,"station_name":"Pesing","i_long":106.771379,"line":5},{"station_name":"Taman Kota","i_lat":-6.1587309999999995,"transit":false,"i_long":106.756522,"line":5,"is_transit":false,"distance":1614,"time":2,"station_id":"TKO"}],[{"transit":false,"station_id":"MJ","distance":0,"i_long":106.394373,"i_lat":-6.332307,"time":0,"line":6,"is_transit":false,"station_name":"Maja"},{"station_id":"CKY","i_lat":-6.33561,"time":4,"is_transit":false,"transit":false,"i_long":106.411216,"station_name":"Cikoya","line":3,"distance":1853},{"line":6,"is_transit":false,"station_id":"TGS","transit":false,"i_lat":-6.328533,"time":3,"distance":2651,"i_long":106.425991,"station_name":"Tigaraksa"},{"station_name":"Tenjo","time":5,"i_lat":-6.327251,"line":6,"is_transit":false,"i_long":106.460812,"station_id":"TEJ","distance":2974,"transit":false},{"i_lat":-6.338021,"distance":3902,"station_id":"DAR","station_name":"Daru","i_long":106.491338,"is_transit":false,"transit":false,"time":5,"line":0},{"i_long":106.508482,"i_lat":-6.354349,"line":3,"station_id":"CJT","is_transit":false,"distance":2675,"station_name":"Cilejit","time":6,"transit":false},{"line":6,"distance":7025,"i_lat":-6.3441410000000005,"transit":false,"time":9,"i_long":106.568863,"station_name":"Parung Panjang","is_transit":false,"station_id":"PRP"},{"is_transit":false,"distance":5968,"line":3,"transit":false,"station_id":"CC","station_name":"Cicayur","i_long":106.617853,"time":8,"i_lat":-6.329547},{"i_lat":-6.32484,"time":4,"is_transit":false,"line":3,"station_id":"CSK","station_name":"Cisauk","i_long":106.640411,"transit":false,"distance":2519},{"transit":false,"station_name":"Serpong","i_lat":-6.319871,"is_transit":false,"station_id":"SRP","line":6,"time":4,"i_long":106.66566,"distance":1784},{"station_id":"RU","is_transit":false,"i_lat":-6.314823,"distance":2413,"i_long":106.675475,"line":6,"station_name":"Rawa Buntu","time":4,"transit":false},{"i_long":106.712277,"distance":4566,"transit":false,"line":6,"station_id":"SDM","station_name":"Sudimara","time":6,"is_transit":false,"i_lat":-6.296963},{"distance":1994,"i_lat":-6.288927,"i_long":106.728916,"line":6,"station_name":"Jurangmangu","is_transit":false,"station_id":"JMU","transit":false,"time":4},{"is_transit":false,"distance":2179,"i_long":106.74273,"line":6,"station_name":"Pondokranji","transit":false,"station_id":"PDJ","time":3,"i_lat":-6.276362},{"transit":false,"i_long":106.780334,"station_id":"KBY","station_name":"Kebayoran","time":8,"line":6,"distance":6218,"i_lat":-6.237242,"is_transit":false},{"i_lat":-6.207404,"line":6,"time":7,"is_transit":false,"transit":false,"station_id":"PLM","i_long":106.79689,"station_name":"Palmerah","distance":3737},{"line":1,"transit":true,"station_id":"THB","i_long":106.811091,"is_transit":true,"station_name":"Tanah Abang","time":6,"distance":3191,"i_lat":-6.185545},{"i_long":106.816351,"i_lat":-6.20132,"line":1,"station_id":"KAT","time":5,"distance":2029,"transit":false,"station_name":"Karet","is_transit":false},{"station_name":"Sudirman Baru","distance":471,"line":1,"station_id":"SUDB","transit":false,"is_transit":false,"i_lat":-6.201433,"i_long":106.819881,"time":1},{"line":1,"transit":false,"is_transit":false,"station_name":"Sudirman","station_id":"SUD","i_lat":-6.202263,"distance":280,"i_long":106.822649,"time":1},{"is_transit":true,"i_lat":-6.209883,"station_id":"MRI","time":4,"station_name":"Manggarai","transit":true,"distance":3186,"i_long":106.84912,"line":2},{"station_id":"CKI","station_name":"Cikini","i_lat":-6.198556,"is_transit":false,"transit":false,"i_long":106.840169,"line":2,"distance":1590,"time":4},{"is_transit":false,"station_name":"Gondangdia","time":3,"i_lat":-6.186295,"distance":1750,"station_id":"GDD","line":2,"i_long":106.832183,"transit":false},{"time":4,"distance":2015,"line":2,"is_transit":false,"transit":false,"station_id":"JUA","i_long":106.828284,"i_lat":-6.166716,"station_name":"Juanda"},{"station_id":"SW","distance":1149,"station_name":"Sawah Besar","is_transit":false,"time":2,"i_long":106.827103,"transit":false,"i_lat":-6.160725,"line":2},{"line":2,"station_name":"Manggabesar","station_id":"MGB","i_long":106.82482,"time":2,"transit":false,"distance":906,"i_lat":-6.149769,"is_transit":false},{"i_lat":-6.141205,"i_long":106.820901,"distance":1080,"line":2,"station_name":"Jayakarta","is_transit":false,"transit":false,"station_id":"JAY","time":2},{"i_lat":-6.137569,"i_long":106.812439,"time":4,"is_transit":true,"station_name":"Jakarta Kota","line":2,"station_id":"JAKK","distance":1264,"transit":true},{"is_transit":true,"station_name":"Kampung Bandan","time":3,"i_lat":-6.132549,"distance":1364,"transit":true,"station_id":"KPB","i_long":106.826365,"line":4},{"station_name":"Angke","transit":false,"is_transit":false,"station_id":"AK","i_long":106.79867,"time":9,"distance":4102,"line":1,"i_lat":-6.144674},{"line":1,"transit":true,"station_id":"DU","station_name":"Duri","time":4,"is_transit":true,"i_long":106.800832,"i_lat":-6.155215,"distance":1230},{"line":5,"station_name":"Grogol","is_transit":false,"station_id":"GRG","distance":1700,"i_long":106.788277,"time":3,"i_lat":-6.162021,"transit":false},{"line":5,"transit":false,"station_id":"PSG","station_name":"Pesing","time":2,"is_transit":false,"distance":2036,"i_lat":-6.161433,"i_long":106.771379},{"station_name":"Taman Kota","i_long":106.756522,"time":2,"distance":1614,"station_id":"TKO","transit":false,"line":5,"is_transit":false,"i_lat":-6.1587309999999995}],[{"i_lat":-6.332307,"transit":false,"station_name":"Maja","i_long":106.394373,"station_id":"MJ","distance":0,"time":0,"line":6,"is_transit":false},{"i_lat":-6.33561,"station_id":"CKY","station_name":"Cikoya","line":3,"i_long":106.411216,"transit":false,"is_transit":false,"distance":1853,"time":4},{"transit":false,"time":3,"distance":2651,"i_long":106.425991,"station_name":"Tigaraksa","station_id":"TGS","i_lat":-6.328533,"line":6,"is_transit":false},{"transit":false,"station_id":"TEJ","station_name":"Tenjo","line":6,"is_transit":false,"i_long":106.460812,"distance":2974,"time":5,"i_lat":-6.327251},{"i_long":106.491338,"station_id":"DAR","is_transit":false,"line":0,"distance":3902,"transit":false,"station_name":"Daru","time":5,"i_lat":-6.338021},{"i_lat":-6.354349,"i_long":106.508482,"station_id":"CJT","station_name":"Cilejit","line":3,"is_transit":false,"distance":2675,"time":6,"transit":false},{"station_id":"PRP","time":9,"i_lat":-6.3441410000000005,"i_long":106.568863,"transit":false,"line":6,"station_name":"Parung Panjang","is_transit":false,"distance":7025},{"is_transit":false,"i_long":106.617853,"line":3,"station_id":"CC","station_name":"Cicayur","distance":5968,"transit":false,"i_lat":-6.329547,"time":8},{"transit":false,"line":3,"station_name":"Cisauk","i_long":106.640411,"is_transit":false,"station_id":"CSK","time":4,"i_lat":-6.32484,"distance":2519},{"station_name":"Serpong","transit":false,"time":4,"distance":1784,"i_lat":-6.319871,"i_long":106.66566,"line":6,"station_id":"SRP","is_transit":false},{"is_transit":false,"i_lat":-6.314823,"station_id":"RU","station_name":"Rawa Buntu","time":4,"i_long":106.675475,"line":6,"distance":2413,"transit":false},{"i_long":106.712277,"station_id":"SDM","is_transit":false,"transit":false,"i_lat":-6.296963,"station_name":"Sudimara","time":6,"line":6,"distance":4566},{"transit":false,"line":6,"time":4,"i_lat":-6.288927,"distance":1994,"station_name":"Jurangmangu","station_id":"JMU","is_transit":false,"i_long":106.728916},{"station_name":"Pondokranji","line":6,"distance":2179,"station_id":"PDJ","i_long":106.74273,"transit":false,"time":3,"i_lat":-6.276362,"is_transit":false},{"station_id":"KBY","line":6,"is_transit":false,"station_name":"Kebayoran","distance":6218,"transit":false,"i_lat":-6.237242,"i_long":106.780334,"time":8},{"line":6,"is_transit":false,"station_id":"PLM","station_name":"Palmerah","transit":false,"distance":3737,"time":7,"i_lat":-6.207404,"i_long":106.79689},{"is_transit":true,"transit":true,"distance":3191,"i_lat":-6.185545,"i_long":106.811091,"line":1,"time":6,"station_id":"THB","station_name":"Tanah Abang"},{"distance":2029,"station_id":"KAT","i_lat":-6.20132,"is_transit":false,"transit":false,"station_name":"Karet","i_long":106.816351,"line":1,"time":5},{"transit":false,"station_name":"Sudirman Baru","i_lat":-6.201433,"i_long":106.819881,"station_id":"SUDB","time":1,"line":1,"is_transit":false,"distance":471},{"station_name":"Sudirman","time":1,"transit":false,"distance":280,"i_lat":-6.202263,"station_id":"SUD","is_transit":false,"line":1,"i_long":106.822649},{"distance":3186,"transit":false,"station_id":"MRI","is_transit":false,"i_lat":-6.209883,"station_name":"Manggarai","time":4,"line":2,"i_long":106.84912},{"station_id":"MTR","time":2,"station_name":"Matraman","transit":false,"i_lat":-6.212485,"line":1,"i_long":106.858896,"distance":1275,"is_transit":false},{"i_lat":-6.215091,"transit":true,"station_id":"JNG","distance":1377,"time":8,"is_transit":true,"i_long":106.86807400000001,"line":1,"station_name":"Jatinegara"},{"time":2,"distance":1236,"i_lat":-6.209188,"station_name":"Pondok Jati","transit":false,"station_id":"POK","i_long":106.861737,"line":11,"is_transit":false},{"line":11,"is_transit":false,"time":2,"distance":1829,"station_name":"Kramat","i_long":106.855437,"i_lat":-6.193792,"station_id":"KMT","transit":false},{"i_long":106.850107,"is_transit":false,"line":11,"station_name":"Gang Sentiong","distance":973,"i_lat":-6.185975,"station_id":"GST","transit":false,"time":1},{"station_name":"Pasar Senen","transit":false,"is_transit":false,"i_long":106.84368,"station_id":"PSE","time":8,"line":11,"distance":1567,"i_lat":-6.174784},{"is_transit":false,"station_name":"Kemayoran","i_lat":-6.161728,"time":4,"i_long":106.839204,"transit":false,"station_id":"KMO","distance":1436,"line":11},{"line":11,"station_id":"RJW","i_long":106.836569,"time":5,"distance":1901,"i_lat":-6.14505,"is_transit":false,"transit":false,"station_name":"Rajawali"},{"transit":true,"station_name":"Kampung Bandan","i_lat":-6.132549,"is_transit":true,"i_long":106.826365,"station_id":"KPB","distance":1444,"line":4,"time":3},{"i_long":106.79867,"i_lat":-6.144674,"distance":4102,"station_name":"Angke","transit":false,"time":9,"line":1,"is_transit":false,"station_id":"AK"},{"station_name":"Duri","line":1,"is_transit":true,"distance":1230,"i_lat":-6.155215,"time":4,"i_long":106.800832,"transit":true,"station_id":"DU"},{"i_lat":-6.162021,"transit":false,"station_id":"GRG","distance":1700,"i_long":106.788277,"line":5,"time":3,"is_transit":false,"station_name":"Grogol"},{"line":5,"time":2,"i_lat":-6.161433,"is_transit":false,"transit":false,"station_id":"PSG","i_long":106.771379,"distance":2036,"station_name":"Pesing"},{"i_long":106.756522,"station_id":"TKO","time":2,"station_name":"Taman Kota","line":5,"transit":false,"is_transit":false,"distance":1614,"i_lat":-6.1587309999999995}]]}