{"data":[[{"i_lat":-6.332307,"distance":0,"is_transit":false,"transit":false,"time":0,"i_long":106.394373,"line":6,"station_name":"Maja","station_id":"MJ"},{"is_transit":false,"time":4,"i_long":106.411216,"transit":false,"i_lat":-6.33561,"distance":1853,"station_name":"Cikoya","station_id":"CKY","line":3},{"station_id":"TGS","i_lat":-6.328533,"station_name":"Tigaraksa","is_transit":false,"transit":false,"time":3,"i_long":106.425991,"distance":2651,"line":6},{"line":6,"is_transit":false,"time":5,"distance":2974,"i_long":106.460812,"i_lat":-6.327251,"transit":false,"station_name":"Tenjo","station_id":"TEJ"},{"i_long":106.491338,"distance":3902,"transit":false,"station_name":"Daru","i_lat":-6.338021,"line":0,"is_transit":false,"time":5,"station_id":"DAR"},{"is_transit":false,"station_name":"Cilejit","i_lat":-6.354349,"i_long":106.508482,"distance":2675,"station_id":"CJT","time":6,"line":3,"transit":false},{"station_id":"PRP","i_long":106.568863,"i_lat":-6.3441410000000005,"is_transit":false,"line":6,"time":9,"transit":false,"station_name":"Parung Panjang","distance":7025},{"is_transit":false,"station_name":"Cicayur","station_id":"CC","time":8,"i_lat":-6.329547,"distance":5968,"line":3,"transit":false,"i_long":106.617853},{"time":4,"distance":2519,"i_lat":-6.32484,"transit":false,"station_name":"Cisauk","i_long":106.640411,"is_transit":false,"line":3,"station_id":"CSK"},{"transit":false,"line":6,"i_lat":-6.319871,"distance":1784,"i_long":106.66566,"station_id":"SRP","is_transit":false,"time":4,"station_name":"Serpong"},{"line":6,"station_id":"RU","i_lat":-6.314823,"distance":2413,"station_name":"Rawa Buntu","i_long":106.675475,"is_transit":false,"transit":false,"time":4},{"time":6,"i_long":106.712277,"line":6,"station_name":"Sudimara","station_id":"SDM","is_transit":false,"i_lat":-6.296963,"transit":false,"distance":4566},{"transit":false,"distance":1994,"station_id":"JMU","i_lat":-6.288927,"line":6,"station_name":"Jurangmangu","i_long":106.728916,"is_transit":false,"time":4},{"i_long":106.74273,"line":6,"transit":false,"distance":2179,"i_lat":-6.276362,"station_name":"Pondokranji","is_transit":false,"time":3,"station_id":"PDJ"},{"transit":false,"time":8,"distance":6218,"i_lat":-6.237242,"is_transit":false,"i_long":106.780334,"line":6,"station_id":"KBY","station_name":"Kebayoran"},{"station_id":"PLM","station_name":"Palmerah","time":7,"line":6,"i_long":106.79689,"transit":false,"is_transit":false,"distance":3737,"i_lat":-6.207404},{"distance":3191,"time":6,"station_id":"THB","is_transit":true,"i_long":106.811091,"i_lat":-6.185545,"line":1,"transit":true,"station_name":"Tanah Abang"},{"is_transit":true,"station_name":"Duri","station_id":"DU","line":1,"i_lat":-6.155215,"time":8,"distance":3632,"i_long":106.800832,"transit":true},{"i_long":106.788277,"is_transit":false,"line":5,"i_lat":-6.162021,"station_name":"Grogol","station_id":"GGL","transit":false,"time":3,"distance":1700},{"station_id":"PSG","station_name":"Pesing","transit":false,"time":2,"is_transit":false,"i_long":106.771379,"distance":2036,"line":5,"i_lat":-6.161433},{"line":5,"time":2,"station_name":"Taman Kota","is_transit":false,"transit":false,"station_id":"TKO","i_long":106.756522,"distance":1614,"i_lat":-6.1587309999999995},{"time":2,"is_transit":false,"transit":false,"distance":2334,"i_lat":-6.159876,"line":5,"station_id":"BOI","station_name":"Bojongindah","i_long":106.737035},{"station_name":"Rawa Buaya","i_long":106.723064,"distance":1152,"transit":false,"i_lat":-6.162758,"time":4,"station_id":"RW","is_transit":false,"line":5},{"i_long":106.701612,"transit":false,"station_name":"Kalideres","station_id":"KDS","time":3,"distance":2504,"i_lat":-6.166068,"is_transit":false,"line":5},{"station_name":"Poris","distance":2548,"line":5,"transit":false,"i_long":106.679458,"is_transit":false,"i_lat":-6.169933,"station_id":"PI","time":3},{"i_lat":-6.171811,"is_transit":false,"transit":false,"station_id":"BPR","time":3,"i_long":106.665036,"line":5,"distance":1834,"station_name":"Batuceper"},{"distance":2028,"line":5,"station_name":"Tanah Tinggi","station_id":"TTI","time":3,"is_transit":false,"i_long":106.64657,"i_lat":-6.17331,"transit":false}],[{"time":0,"i_long":106.394373,"distance":0,"line":6,"i_lat":-6.332307,"station_id":"MJ","is_transit":false,"station_name":"Maja","transit":false},{"line":3,"time":4,"i_lat":-6.33561,"station_name":"Cikoya","transit":false,"station_id":"CKY","is_transit":false,"distance":1853,"i_long":106.411216},{"line":6,"station_name":"Tigaraksa","transit":false,"is_transit":false,"station_id":"TGS","time":3,"distance":2651,"i_lat":-6.328533,"i_long":106.425991},{"station_id":"TEJ","distance":2974,"station_name":"Tenjo","is_transit":false,"i_lat":-6.327251,"i_long":106.460812,"time":5,"transit":false,"line":6},{"station_name":"Daru","is_transit":false,"time":5,"i_long":106.491338,"station_id":"DAR","distance":3902,"transit":false,"line":0,"i_lat":-6.338021},{"station_name":"Cilejit","i_lat":-6.354349,"time":6,"i_long":106.508482,"is_transit":false,"distance":2675,"line":3,"transit":false,"station_id":"CJT"},{"station_id":"PRP","time":9,"i_lat":-6.3441410000000005,"station_name":"Parung Panjang","is_transit":false,"line":6,"i_long":106.568863,"distance":7025,"transit":false},{"i_lat":-6.329547,"transit":false,"station_name":"Cicayur","is_transit":false,"line":3,"time":8,"station_id":"CC","distance":5968,"i_long":106.617853},{"line":3,"distance":2519,"station_id":"CSK","is_transit":false,"i_lat":-6.32484,"station_name":"Cisauk","transit":false,"i_long":106.640411,"time":4},{"station_name":"Serpong","distance":1784,"line":6,"i_long":106.66566,"i_lat":-6.319871,"station_id":"SRP","time":4,"is_transit":false,"transit":false},{"station_id":"RU","i_lat":-6.314823,"line":6,"time":4,"station_name":"Rawa Buntu","is_transit":false,"distance":2413,"transit":false,"i_long":106.675475},{"transit":false,"i_long":106.712277,"is_transit":false,"distance":4566,"station_name":"Sudimara","station_id":"SDM","time":6,"i_lat":-6.296963,"line":6},{"time":4,"line":6,"is_transit":false,"transit":false,"distance":1994,"i_lat":-6.288927,"i_long":106.728916,"station_id":"JMU","station_name":"Jurangmangu"},{"station_id":"PDJ","transit":false,"time":3,"i_lat":-6.276362,"station_name":"Pondokranji","distance":2179,"is_transit":false,"i_long":106.74273,"line":6},{"i_long":106.780334,"station_id":"KBY","distance":6218,"transit":false,"line":6,"station_name":"Kebayoran","is_transit":false,"time":8,"i_lat":-6.237242},{"station_id":"PLM","time":7,"i_lat":-6.207404,"line":6,"i_long":106.79689,"station_name":"Palmerah","is_transit":false,"transit":false,"distance":3737},{"distance":3191,"i_long":106.811091,"line":1,"is_transit":true,"time":6,"i_lat":-6.185545,"transit":true,"station_name":"Tanah Abang","station_id":"THB"},{"transit":false,"distance":2029,"station_id":"KAT","time":5,"i_lat":-6.20132,"line":1,"station_name":"Karet","i_long":106.816351,"is_transit":false},{"distance":471,"line":1,"i_long":106.819881,"time":1,"i_lat":-6.201433,"station_id":"SUDB","is_transit":false,"transit":false,"station_name":"Sudirman Baru"},{"time":1,"station_name":"Sudirman","is_transit":false,"i_lat":-6.202263,"i_long":106.822649,"line":1,"station_id":"SUD","transit":false,"distance":280},{"transit":true,"i_lat":-6.209883,"time":4,"station_name":"Manggarai","station_id":"MRI","is_transit":true,"line":2,"distance":3186,"i_long":106.84912},{"i_lat":-6.198556,"station_name":"Cikini","distance":1590,"station_id":"CKI","is_transit":false,"transit":false,"i_long":106.840169,"line":2,"time":4},{"line":2,"distance":1750,"station_id":"GDD","transit":false,"i_lat":-6.186295,"i_long":106.832183,"is_transit":false,"station_name":"Gondangdia","time":3},{"line":2,"i_long":106.828284,"i_lat":-6.166716,"station_id":"JUA","is_transit":false,"time":4,"distance":2015,"transit":false,"station_name":"Juanda"},{"station_name":"Sawah Besar","i_lat":-6.160725,"is_transit":false,"transit":false,"i_long":106.827103,"distance":1149,"time":2,"line":2,"station_id":"SW"},{"station_id":"MGB","distance":906,"station_name":"Manggabesar","i_long":106.82482,"time":2,"line":2,"transit":false,"is_transit":false,"i_lat":-6.149769},{"i_lat":-6.141205,"station_name":"Jayakarta","transit":false,"i_long":106.820901,"time":2,"is_transit":false,"distance":1080,"station_id":"JAY","line":2},{"transit":true,"i_long":106.812439,"time":4,"line":2,"is_transit":true,"station_id":"JAKK","station_name":"Jakarta Kota","distance":1264,"i_lat":-6.137569},{"is_transit":true,"station_id":"KPB","station_name":"Kampung Bandan","time":3,"i_lat":-6.132549,"i_long":106.826365,"transit":true,"distance":1364,"line":4},{"i_long":106.79867,"line":1,"time":9,"is_transit":false,"station_name":"Angke","transit":false,"distance":4102,"i_lat":-6.144674,"station_id":"AK"},{"transit":true,"station_id":"DU","i_long":106.800832,"line":1,"is_transit":true,"time":4,"station_name":"Duri","i_lat":-6.155215,"distance":1230},{"distance":1700,"time":3,"station_name":"Grogol","transit":false,"is_transit":false,"line":5,"station_id":"GGL","i_long":106.788277,"i_lat":-6.162021},{"time":2,"is_transit":false,"station_name":"Pesing","distance":2036,"station_id":"PSG","i_long":106.771379,"line":5,"i_lat":-6.161433,"transit":false},{"distance":1614,"i_long":106.756522,"i_lat":-6.1587309999999995,"station_name":"Taman Kota","is_transit":false,"station_id":"TKO","transit":false,"time":2,"line":5},{"station_name":"Bojongindah","is_transit":false,"time":2,"distance":2334,"transit":false,"i_lat":-6.159876,"line":5,"station_id":"BOI","i_long":106.737035},{"distance":1152,"time":4,"station_name":"Rawa Buaya","transit":false,"is_transit":false,"i_long":106.723064,"line":5,"station_id":"RW","i_lat":-6.162758},{"transit":false,"i_lat":-6.166068,"time":3,"station_id":"KDS","is_transit":false,"i_long":106.701612,"line":5,"station_name":"Kalideres","distance":2504},{"is_transit":false,"station_name":"Poris","line":5,"i_lat":-6.169933,"distance":2548,"i_long":106.679458,"station_id":"PI","time":3,"transit":false},{"transit":false,"i_long":106.665036,"i_lat":-6.171811,"time":3,"line":5,"is_transit":false,"station_name":"Batuceper","station_id":"BPR","distance":1834},{"time":3,"transit":false,"station_name":"Tanah Tinggi","station_id":"TTI","distance":2028,"line":5,"i_lat":-6.17331,"is_transit":false,"i_long":106.64657}],[{"transit":false,"i_lat":-6.332307,"is_transit":false,"station_name":"Maja","station_id":"MJ","time":0,"distance":0,"i_long":106.394373,"line":6},{"time":4,"station_id":"CKY","i_lat":-6.33561,"transit":false,"line":3,"station_name":"Cikoya","is_transit":false,"distance":1853,"i_long":106.411216},{"distance":2651,"i_long":106.425991,"is_transit":false,"line":6,"time":3,"i_lat":-6.328533,"transit":false,"station_id":"TGS","station_name":"Tigaraksa"},{"is_transit":false,"transit":false,"line":6,"time":5,"i_lat":-6.327251,"station_name":"Tenjo","station_id":"TEJ","distance":2974,"i_long":106.460812},{"i_lat":-6.338021,"station_id":"DAR","transit":false,"line":0,"is_transit":false,"time":5,"i_long":106.491338,"distance":3902,"station_name":"Daru"},{"transit":false,"is_transit":false,"i_lat":-6.354349,"i_long":106.508482,"station_id":"CJT","distance":2675,"station_name":"Cilejit","time":6,"line":3},{"is_transit":false,"time":9,"i_long":106.568863,"line":6,"transit":false,"i_lat":-6.3441410000000005,"station_name":"Parung Panjang","distance":7025,"station_id":"PRP"},{"transit":false,"line":3,"station_id":"CC","is_transit":false,"time":8,"i_long":106.617853,"station_name":"Cicayur","distance":5968,"i_lat":-6.329547},{"is_transit":false,"transit":false,"station_name":"Cisauk","i_lat":-6.32484,"station_id":"CSK","distance":2519,"time":4,"line":3,"i_long":106.640411},{"transit":false,"i_lat":-6.319871,"distance":1784,"is_transit":false,"station_id":"SRP","time":4,"i_long":106.66566,"station_name":"Serpong","line":6},{"is_transit":false,"i_long":106.675475,"line":6,"station_id":"RU","time":4,"i_lat":-6.314823,"distance":2413,"transit":false,"station_name":"Rawa Buntu"},{"time":6,"transit":false,"i_long":106.712277,"station_id":"SDM","station_name":"Sudimara","distance":4566,"line":6,"i_lat":-6.296963,"is_transit":false},{"station_id":"JMU","time":4,"distance":1994,"is_transit":false,"station_name":"Jurangmangu","i_long":106.728916,"line":6,"transit":false,"i_lat":-6.288927},{"transit":false,"time":3,"i_lat":-6.276362,"distance":2179,"station_id":"PDJ","station_name":"Pondokranji","line":6,"i_long":106.74273,"is_transit":false},{"station_id":"KBY","transit":false,"station_name":"Kebayoran","i_long":106.780334,"is_transit":false,"time":8,"i_lat":-6.237242,"line":6,"distance":6218},{"i_lat":-6.207404,"station_id":"PLM","distance":3737,"is_transit":false,"transit":false,"line":6,"i_long":106.79689,"time":7,"station_name":"Palmerah"},{"i_long":106.811091,"station_name":"Tanah Abang","is_transit":true,"distance":3191,"line":1,"time":6,"i_lat":-6.185545,"station_id":"THB","transit":true},{"time":5,"is_transit":false,"station_name":"Karet","transit":false,"distance":2029,"i_lat":-6.20132,"i_long":106.816351,"station_id":"KAT","line":1},{"transit":false,"station_id":"SUDB","time":1,"is_transit":false,"distance":471,"i_lat":-6.201433,"station_name":"Sudirman Baru","i_long":106.819881,"line":1},{"i_lat":-6.202263,"i_long":106.822649,"time":1,"station_id":"SUD","line":1,"distance":280,"is_transit":false,"transit":false,"station_name":"Sudirman"},{"i_long":106.84912,"station_name":"Manggarai","line":2,"distance":3186,"is_transit":false,"transit":false,"time":4,"i_lat":-6.209883,"station_id":"MRI"},{"station_name":"Matraman","transit":false,"station_id":"MTR","is_transit":false,"time":2,"line":1,"i_lat":-6.212485,"distance":1275,"i_long":106.858896},{"is_transit":true,"distance":1377,"i_long":106.86807400000001,"station_id":"JNG","station_name":"Jatinegara","i_lat":-6.215091,"transit":true,"time":8,"line":1},{"i_lat":-6.209188,"station_name":"Pondok Jati","transit":false,"line":11,"distance":1236,"is_transit":false,"i_long":106.861737,"time":2,"station_id":"POK"},{"time":2,"station_name":"Kramat","station_id":"KMT","is_transit":false,"transit":false,"distance":1829,"i_lat":-6.193792,"i_long":106.855437,"line":11},{"station_name":"Gang Sentiong","is_transit":false,"station_id":"GST","time":1,"distance":973,"i_long":106.850107,"line":11,"transit":false,"i_lat":-6.185975},{"distance":1567,"is_transit":false,"i_long":106.84368,"line":11,"station_name":"Pasar Senen","station_id":"PSE","time":8,"i_lat":-6.174784,"transit":false},{"distance":1436,"i_long":106.839204,"line":11,"is_transit":false,"time":4,"i_lat":-6.161728,"station_id":"KMO","station_name":"Kemayoran","transit":false},{"time":5,"station_name":"Rajawali","station_id":"RJW","i_lat":-6.14505,"transit":false,"distance":1901,"is_transit":false,"i_long":106.836569,"line":11},{"is_transit":true,"transit":true,"i_long":106.826365,"distance":1444,"station_id":"KPB","time":3,"line":4,"i_lat":-6.132549,"station_name":"Kampung Bandan"},{"i_long":106.79867,"i_lat":-6.144674,"distance":4102,"station_name":"Angke","is_transit":false,"line":1,"transit":false,"station_id":"AK","time":9},{"line":1,"i_lat":-6.155215,"distance":1230,"i_long":106.800832,"is_transit":true,"station_name":"Duri","time":4,"transit":true,"station_id":"DU"},{"time":3,"station_id":"GGL","is_transit":false,"station_name":"Grogol","distance":1700,"i_lat":-6.162021,"transit":false,"i_long":106.788277,"line":5},{"is_transit":false,"distance":2036,"line":5,"i_long":106.771379,"time":2,"i_lat":-6.161433,"transit":false,"station_name":"Pesing","station_id":"PSG"},{"station_id":"TKO","i_long":106.756522,"distance":1614,"station_name":"Taman Kota","is_transit":false,"i_lat":-6.1587309999999995,"line":5,"transit":false,"time":2},{"transit":false,"station_id":"BOI","distance":2334,"i_long":106.737035,"i_lat":-6.159876,"line":5,"is_transit":false,"time":2,"station_name":"Bojongindah"},{"line":5,"i_lat":-6.162758,"transit":false,"station_id":"RW","time":4,"station_name":"Rawa Buaya","distance":1152,"is_transit":false,"i_long":106.723064},{"time":3,"i_long":106.701612,"distance":2504,"transit":false,"station_id":"KDS","line":5,"i_lat":-6.166068,"is_transit":false,"station_name":"Kalideres"},{"i_lat":-6.169933,"station_id":"PI","transit":false,"time":3,"distance":2548,"i_long":106.679458,"line":5,"station_name":"Poris","is_transit":false},{"station_id":"BPR","transit":false,"station_name":"Batuceper","is_transit":false,"i_long":106.665036,"distance":1834,"i_lat":-6.171811,"time":3,"line":5},{"distance":2028,"i_long":106.64657,"line":5,"transit":false,"i_lat":-6.17331,"station_name":"Tanah Tinggi","time":3,"station_id":"TTI","is_transit":false}]]}