{"data":[[{"i_lat":-6.332307,"i_long":106.394373,"transit":false,"distance":0,"line":6,"station_id":"MJ","is_transit":false,"station_name":"Maja","time":0},{"station_id":"CKY","distance":1853,"is_transit":false,"i_lat":-6.33561,"i_long":106.411216,"transit":false,"line":3,"station_name":"Cikoya","time":4},{"is_transit":false,"i_long":106.425991,"line":6,"station_name":"Tigaraksa","transit":false,"station_id":"TGS","i_lat":-6.328533,"time":3,"distance":2651},{"station_id":"TEJ","time":5,"i_lat":-6.327251,"i_long":106.460812,"station_name":"Tenjo","distance":2974,"line":6,"is_transit":false,"transit":false},{"distance":3902,"is_transit":false,"time":5,"transit":false,"station_name":"Daru","station_id":"DAR","i_lat":-6.338021,"line":0,"i_long":106.491338},{"distance":2675,"station_id":"CJT","i_long":106.508482,"station_name":"Cilejit","i_lat":-6.354349,"time":6,"line":3,"transit":false,"is_transit":false},{"time":9,"distance":7025,"i_lat":-6.3441410000000005,"line":6,"station_id":"PRP","station_name":"Parung Panjang","i_long":106.568863,"transit":false,"is_transit":false},{"transit":false,"i_long":106.617853,"station_id":"CC","is_transit":false,"station_name":"Cicayur","line":3,"distance":5968,"i_lat":-6.329547,"time":8},{"line":3,"station_id":"CSK","time":4,"station_name":"Cisauk","is_transit":false,"i_long":106.640411,"distance":2519,"transit":false,"i_lat":-6.32484},{"is_transit":false,"station_id":"SRP","station_name":"Serpong","i_lat":-6.319871,"i_long":106.66566,"time":4,"distance":1784,"transit":false,"line":6},{"distance":2413,"time":4,"transit":false,"is_transit":false,"line":6,"station_name":"Rawa Buntu","station_id":"RU","i_lat":-6.314823,"i_long":106.675475},{"transit":false,"time":6,"distance":4566,"is_transit":false,"i_long":106.712277,"station_name":"Sudimara","line":6,"station_id":"SDM","i_lat":-6.296963},{"time":4,"is_transit":false,"line":6,"i_lat":-6.288927,"distance":1994,"transit":false,"station_name":"Jurangmangu","i_long":106.728916,"station_id":"JMU"},{"time":3,"station_name":"Pondokranji","distance":2179,"i_lat":-6.276362,"line":6,"station_id":"PDJ","is_transit":false,"transit":false,"i_long":106.74273},{"transit":false,"station_name":"Kebayoran","station_id":"KBY","i_long":106.780334,"line":6,"i_lat":-6.237242,"is_transit":false,"time":8,"distance":6218},{"time":7,"station_id":"PLM","i_long":106.79689,"station_name":"Palmerah","is_transit":false,"distance":3737,"transit":false,"i_lat":-6.207404,"line":6},{"transit":true,"station_id":"THB","time":6,"line":1,"i_lat":-6.185545,"distance":3191,"i_long":106.811091,"is_transit":true,"station_name":"Tanah Abang"},{"transit":true,"line":1,"i_lat":-6.155215,"station_name":"Duri","is_transit":true,"i_long":106.800832,"time":8,"distance":3632,"station_id":"DU"},{"time":3,"distance":1700,"transit":false,"station_id":"GGL","i_long":106.788277,"line":5,"i_lat":-6.162021,"is_transit":false,"station_name":"Grogol"},{"distance":2036,"transit":false,"i_long":106.771379,"time":2,"station_name":"Pesing","line":5,"is_transit":false,"i_lat":-6.161433,"station_id":"PSG"},{"station_name":"Taman Kota","distance":1614,"transit":false,"is_transit":false,"station_id":"TKO","i_lat":-6.1587309999999995,"time":2,"i_long":106.756522,"line":5}],[{"distance":0,"transit":false,"line":6,"station_name":"Maja","i_long":106.394373,"is_transit":false,"i_lat":-6.332307,"time":0,"station_id":"MJ"},{"station_name":"Cikoya","transit":false,"is_transit":false,"i_lat":-6.33561,"station_id":"CKY","time":4,"i_long":106.411216,"line":3,"distance":1853},{"station_id":"TGS","station_name":"Tigaraksa","transit":false,"time":3,"i_lat":-6.328533,"distance":2651,"line":6,"is_transit":false,"i_long":106.425991},{"distance":2974,"transit":false,"time":5,"station_id":"TEJ","line":6,"i_long":106.460812,"i_lat":-6.327251,"station_name":"Tenjo","is_transit":false},{"transit":false,"time":5,"line":0,"is_transit":false,"station_name":"Daru","station_id":"DAR","distance":3902,"i_lat":-6.338021,"i_long":106.491338},{"line":3,"i_lat":-6.354349,"distance":2675,"time":6,"station_name":"Cilejit","i_long":106.508482,"transit":false,"is_transit":false,"station_id":"CJT"},{"distance":7025,"i_long":106.568863,"line":6,"time":9,"station_id":"PRP","is_transit":false,"i_lat":-6.3441410000000005,"station_name":"Parung Panjang","transit":false},{"station_name":"Cicayur","is_transit":false,"distance":5968,"station_id":"CC","time":8,"transit":false,"line":3,"i_lat":-6.329547,"i_long":106.617853},{"station_name":"Cisauk","time":4,"is_transit":false,"station_id":"CSK","i_lat":-6.32484,"i_long":106.640411,"distance":2519,"transit":false,"line":3},{"line":6,"time":4,"station_id":"SRP","i_long":106.66566,"i_lat":-6.319871,"station_name":"Serpong","is_transit":false,"transit":false,"distance":1784},{"is_transit":false,"distance":2413,"i_lat":-6.314823,"transit":false,"station_name":"Rawa Buntu","station_id":"RU","time":4,"i_long":106.675475,"line":6},{"transit":false,"is_transit":false,"line":6,"station_id":"SDM","i_long":106.712277,"station_name":"Sudimara","time":6,"i_lat":-6.296963,"distance":4566},{"station_name":"Jurangmangu","transit":false,"is_transit":false,"i_lat":-6.288927,"i_long":106.728916,"line":6,"distance":1994,"station_id":"JMU","time":4},{"station_id":"PDJ","is_transit":false,"line":6,"transit":false,"time":3,"i_long":106.74273,"distance":2179,"station_name":"Pondokranji","i_lat":-6.276362},{"i_long":106.780334,"station_name":"Kebayoran","station_id":"KBY","distance":6218,"transit":false,"is_transit":false,"line":6,"i_lat":-6.237242,"time":8},{"station_name":"Palmerah","i_lat":-6.207404,"is_transit":false,"line":6,"time":7,"distance":3737,"transit":false,"station_id":"PLM","i_long":106.79689},{"time":6,"distance":3191,"station_name":"Tanah Abang","is_transit":true,"i_long":106.811091,"transit":true,"station_id":"THB","i_lat":-6.185545,"line":1},{"i_lat":-6.20132,"station_id":"KAT","distance":2029,"time":5,"station_name":"Karet","is_transit":false,"i_long":106.816351,"transit":false,"line":1},{"transit":false,"time":1,"distance":471,"is_transit":false,"station_name":"Sudirman Baru","i_long":106.819881,"line":1,"station_id":"SUDB","i_lat":-6.201433},{"i_lat":-6.202263,"distance":280,"station_id":"SUD","is_transit":false,"transit":false,"time":1,"i_long":106.822649,"station_name":"Sudirman","line":1},{"station_name":"Manggarai","time":4,"transit":true,"station_id":"MRI","is_transit":true,"line":2,"i_long":106.84912,"distance":3186,"i_lat":-6.209883},{"line":2,"station_id":"CKI","time":4,"distance":1590,"transit":false,"is_transit":false,"i_lat":-6.198556,"i_long":106.840169,"station_name":"Cikini"},{"station_name":"Gondangdia","i_lat":-6.186295,"time":3,"i_long":106.832183,"line":2,"station_id":"GDD","is_transit":false,"transit":false,"distance":1750},{"transit":false,"i_long":106.828284,"station_name":"Juanda","line":2,"station_id":"JUA","distance":2015,"time":4,"is_transit":false,"i_lat":-6.166716},{"is_transit":false,"transit":false,"line":2,"time":2,"i_lat":-6.160725,"distance":1149,"i_long":106.827103,"station_name":"Sawah Besar","station_id":"SW"},{"line":2,"distance":906,"is_transit":false,"i_long":106.82482,"station_name":"Manggabesar","time":2,"i_lat":-6.149769,"transit":false,"station_id":"MGB"},{"i_long":106.820901,"line":2,"is_transit":false,"time":2,"station_name":"Jayakarta","transit":false,"station_id":"JAY","i_lat":-6.141205,"distance":1080},{"is_transit":true,"station_name":"Jakarta Kota","time":4,"line":2,"i_lat":-6.137569,"i_long":106.812439,"distance":1264,"transit":true,"station_id":"JAKK"},{"transit":true,"distance":1364,"i_long":106.826365,"station_id":"KPB","station_name":"Kampung Bandan","line":4,"time":3,"i_lat":-6.132549,"is_transit":true},{"distance":4102,"time":9,"transit":false,"i_lat":-6.144674,"is_transit":false,"station_id":"AK","line":1,"i_long":106.79867,"station_name":"Angke"},{"line":1,"transit":true,"station_name":"Duri","i_long":106.800832,"i_lat":-6.155215,"station_id":"DU","is_transit":true,"time":4,"distance":1230},{"station_name":"Grogol","transit":false,"line":5,"distance":1700,"station_id":"GGL","i_lat":-6.162021,"time":3,"i_long":106.788277,"is_transit":false},{"station_id":"PSG","line":5,"time":2,"i_long":106.771379,"is_transit":false,"distance":2036,"transit":false,"i_lat":-6.161433,"station_name":"Pesing"},{"i_lat":-6.1587309999999995,"station_id":"TKO","station_name":"Taman Kota","is_transit":false,"distance":1614,"transit":false,"time":2,"i_long":106.756522,"line":5}],[{"i_lat":-6.332307,"distance":0,"transit":false,"i_long":106.394373,"line":6,"station_name":"Maja","station_id":"MJ","time":0,"is_transit":false},{"is_transit":false,"time":4,"station_id":"CKY","station_name":"Cikoya","transit":false,"distance":1853,"i_lat":-6.33561,"line":3,"i_long":106.411216},{"transit":false,"is_transit":false,"i_long":106.425991,"distance":2651,"i_lat":-6.328533,"time":3,"station_id":"TGS","line":6,"station_name":"Tigaraksa"},{"distance":2974,"is_transit":false,"transit":false,"i_long":106.460812,"line":6,"time":5,"station_name":"Tenjo","station_id":"TEJ","i_lat":-6.327251},{"station_name":"Daru","transit":false,"station_id":"DAR","i_lat":-6.338021,"line":0,"i_long":106.491338,"distance":3902,"time":5,"is_transit":false},{"distance":2675,"transit":false,"time":6,"i_lat":-6.354349,"i_long":106.508482,"station_id":"CJT","line":3,"station_name":"Cilejit","is_transit":false},{"transit":false,"time":9,"i_lat":-6.3441410000000005,"station_id":"PRP","i_long":106.568863,"is_transit":false,"line":6,"distance":7025,"station_name":"Parung Panjang"},{"i_lat":-6.329547,"transit":false,"time":8,"station_id":"CC","distance":5968,"is_transit":false,"line":3,"i_long":106.617853,"station_name":"Cicayur"},{"station_name":"Cisauk","is_transit":false,"line":3,"time":4,"transit":false,"station_id":"CSK","i_long":106.640411,"i_lat":-6.32484,"distance":2519},{"is_transit":false,"time":4,"i_lat":-6.319871,"i_long":106.66566,"distance":1784,"line":6,"station_name":"Serpong","transit":false,"station_id":"SRP"},{"transit":false,"station_id":"RU","line":6,"station_name":"Rawa Buntu","time":4,"distance":2413,"i_lat":-6.314823,"i_long":106.675475,"is_transit":false},{"distance":4566,"station_id":"SDM","is_transit":false,"time":6,"station_name":"Sudimara","transit":false,"i_lat":-6.296963,"i_long":106.712277,"line":6},{"transit":false,"distance":1994,"time":4,"is_transit":false,"i_long":106.728916,"i_lat":-6.288927,"line":6,"station_name":"Jurangmangu","station_id":"JMU"},{"distance":2179,"i_lat":-6.276362,"is_transit":false,"transit":false,"station_name":"Pondokranji","time":3,"i_long":106.74273,"station_id":"PDJ","line":6},{"i_long":106.780334,"time":8,"distance":6218,"station_id":"KBY","transit":false,"i_lat":-6.237242,"is_transit":false,"line":6,"station_name":"Kebayoran"},{"transit":false,"time":7,"i_long":106.79689,"station_id":"PLM","is_transit":false,"station_name":"Palmerah","i_lat":-6.207404,"line":6,"distance":3737},{"transit":true,"line":1,"distance":3191,"station_name":"Tanah Abang","i_long":106.811091,"is_transit":true,"station_id":"THB","i_lat":-6.185545,"time":6},{"i_long":106.816351,"line":1,"transit":false,"station_name":"Karet","station_id":"KAT","time":5,"i_lat":-6.20132,"is_transit":false,"distance":2029},{"i_long":106.819881,"station_id":"SUDB","station_name":"Sudirman Baru","is_transit":false,"transit":false,"distance":471,"i_lat":-6.201433,"line":1,"time":1},{"i_long":106.822649,"time":1,"transit":false,"station_name":"Sudirman","station_id":"SUD","distance":280,"i_lat":-6.202263,"is_transit":false,"line":1},{"time":4,"i_long":106.84912,"transit":false,"line":2,"i_lat":-6.209883,"station_id":"MRI","distance":3186,"station_name":"Manggarai","is_transit":false},{"i_lat":-6.212485,"line":1,"i_long":106.858896,"is_transit":false,"time":2,"station_id":"MTR","station_name":"Matraman","transit":false,"distance":1275},{"transit":true,"station_id":"JNG","i_lat":-6.215091,"time":8,"line":1,"distance":1377,"station_name":"Jatinegara","i_long":106.86807400000001,"is_transit":true},{"time":2,"i_lat":-6.209188,"transit":false,"is_transit":false,"station_id":"POK","i_long":106.861737,"line":11,"station_name":"Pondok Jati","distance":1236},{"transit":false,"station_id":"KMT","is_transit":false,"station_name":"Kramat","time":2,"distance":1829,"i_lat":-6.193792,"i_long":106.855437,"line":11},{"transit":false,"station_name":"Gang Sentiong","time":1,"is_transit":false,"i_lat":-6.185975,"distance":973,"station_id":"GST","i_long":106.850107,"line":11},{"distance":1567,"transit":false,"i_lat":-6.174784,"is_transit":false,"station_name":"Pasar Senen","i_long":106.84368,"time":8,"station_id":"PSE","line":11},{"station_name":"Kemayoran","distance":1436,"is_transit":false,"i_lat":-6.161728,"i_long":106.839204,"line":11,"transit":false,"station_id":"KMO","time":4},{"station_id":"RJW","i_long":106.836569,"distance":1901,"station_name":"Rajawali","time":5,"i_lat":-6.14505,"line":11,"is_transit":false,"transit":false},{"is_transit":true,"i_lat":-6.132549,"station_name":"Kampung Bandan","transit":true,"time":3,"i_long":106.826365,"distance":1444,"station_id":"KPB","line":4},{"is_transit":false,"transit":false,"station_id":"AK","line":1,"station_name":"Angke","i_lat":-6.144674,"distance":4102,"time":9,"i_long":106.79867},{"distance":1230,"time":4,"i_long":106.800832,"line":1,"i_lat":-6.155215,"transit":true,"station_id":"DU","station_name":"Duri","is_transit":true},{"time":3,"i_long":106.788277,"station_id":"GGL","line":5,"station_name":"Grogol","distance":1700,"is_transit":false,"transit":false,"i_lat":-6.162021},{"i_lat":-6.161433,"transit":false,"time":2,"line":5,"is_transit":false,"distance":2036,"station_name":"Pesing","station_id":"PSG","i_long":106.771379},{"transit":false,"i_long":106.756522,"station_name":"Taman Kota","line":5,"time":2,"distance":1614,"is_transit":false,"i_lat":-6.1587309999999995,"station_id":"TKO"}]]}