{"data":[[{"is_transit":false,"transit":false,"station_id":"MJ","line":6,"station_name":"Maja","i_lat":-6.332307,"i_long":106.394373,"distance":0,"time":0},{"transit":false,"station_id":"CKY","is_transit":false,"i_long":106.411216,"i_lat":-6.33561,"time":4,"station_name":"Cikoya","distance":1853,"line":3},{"station_id":"TGS","time":3,"transit":false,"distance":2651,"i_long":106.425991,"line":6,"is_transit":false,"station_name":"Tigaraksa","i_lat":-6.328533},{"line":6,"station_id":"TEJ","i_long":106.460812,"station_name":"Tenjo","distance":2974,"transit":false,"is_transit":false,"time":5,"i_lat":-6.327251},{"i_long":106.491338,"transit":false,"time":5,"i_lat":-6.338021,"station_name":"Daru","station_id":"DAR","line":0,"is_transit":false,"distance":3902},{"time":6,"transit":false,"station_name":"Cilejit","station_id":"CJT","is_transit":false,"distance":2675,"i_lat":-6.354349,"i_long":106.508482,"line":3},{"station_id":"PRP","is_transit":false,"distance":7025,"i_long":106.568863,"line":6,"i_lat":-6.3441410000000005,"time":9,"station_name":"Parung Panjang","transit":false},{"time":8,"line":3,"i_long":106.617853,"is_transit":false,"station_name":"Cicayur","distance":5968,"station_id":"CC","transit":false,"i_lat":-6.329547},{"time":4,"station_name":"Cisauk","i_long":106.640411,"station_id":"CSK","transit":false,"is_transit":false,"distance":2519,"i_lat":-6.32484,"line":3},{"distance":1784,"station_id":"SRP","station_name":"Serpong","time":4,"is_transit":false,"line":6,"transit":false,"i_lat":-6.319871,"i_long":106.66566},{"station_id":"RU","time":4,"is_transit":false,"i_lat":-6.314823,"station_name":"Rawa Buntu","transit":false,"distance":2413,"i_long":106.675475,"line":6},{"station_name":"Sudimara","is_transit":false,"time":6,"distance":4566,"transit":false,"i_long":106.712277,"station_id":"SDM","i_lat":-6.296963,"line":6},{"line":6,"station_id":"JMU","distance":1994,"i_lat":-6.288927,"is_transit":false,"station_name":"Jurangmangu","i_long":106.728916,"transit":false,"time":4},{"time":3,"i_long":106.74273,"distance":2179,"transit":false,"station_name":"Pondokranji","i_lat":-6.276362,"is_transit":false,"station_id":"PDJ","line":6},{"time":8,"i_long":106.780334,"station_name":"Kebayoran","is_transit":false,"line":6,"distance":6218,"i_lat":-6.237242,"station_id":"KBY","transit":false},{"line":6,"transit":false,"station_id":"PLM","is_transit":false,"i_long":106.79689,"distance":3737,"time":7,"station_name":"Palmerah","i_lat":-6.207404},{"station_id":"THB","line":1,"time":6,"station_name":"Tanah Abang","i_long":106.811091,"distance":3191,"transit":true,"i_lat":-6.185545,"is_transit":true},{"distance":2029,"transit":false,"time":5,"i_long":106.816351,"line":1,"i_lat":-6.20132,"station_name":"Karet","is_transit":false,"station_id":"KAT"},{"i_long":106.819881,"time":1,"line":1,"station_id":"SUDB","station_name":"Sudirman Baru","distance":471,"i_lat":-6.201433,"is_transit":false,"transit":false},{"station_name":"Sudirman","station_id":"SUD","i_lat":-6.202263,"time":1,"distance":280,"line":1,"transit":false,"i_long":106.822649,"is_transit":false},{"is_transit":false,"i_long":106.84912,"line":2,"station_id":"MRI","time":4,"transit":false,"station_name":"Manggarai","distance":3186,"i_lat":-6.209883},{"distance":1275,"time":2,"transit":false,"station_id":"MTR","is_transit":false,"line":1,"station_name":"Matraman","i_lat":-6.212485,"i_long":106.858896},{"is_transit":false,"transit":false,"station_name":"Jatinegara","station_id":"JNG","i_long":106.86807400000001,"i_lat":-6.215091,"distance":1377,"time":8,"line":1},{"is_transit":false,"transit":false,"station_name":"Klender","line":1,"station_id":"KLD","distance":3395,"i_long":106.899548,"i_lat":-6.2135,"time":3},{"station_name":"Buaran","station_id":"BUA","is_transit":false,"time":2,"i_lat":-6.215568,"transit":false,"line":1,"i_long":106.922662,"distance":3100},{"time":1,"station_name":"Klenderbaru","i_long":106.939679,"station_id":"KLDB","i_lat":-6.217455,"is_transit":false,"distance":1305,"transit":false,"line":1},{"i_lat":-6.219053,"station_name":"Cakung","station_id":"CUK","transit":false,"time":8,"distance":1385,"i_long":106.951283,"line":1,"is_transit":false},{"i_lat":-6.224515,"station_id":"KRI","is_transit":false,"distance":3097,"line":1,"i_long":106.977657,"transit":false,"time":3,"station_name":"Kranji"},{"i_long":106.997013,"transit":false,"station_name":"Bekasi","is_transit":false,"time":4,"distance":2520,"station_id":"BKS","i_lat":-6.236616,"line":1},{"time":2,"station_name":"Bekasi Timur","station_id":"BKST","is_transit":false,"line":1,"distance":2368,"i_lat":-6.248029,"i_long":107.016735,"transit":false},{"i_long":107.055722,"station_id":"TB","station_name":"Tambun","is_transit":false,"line":1,"transit":false,"distance":4460,"i_lat":-6.258864,"time":7}],[{"station_name":"Maja","station_id":"MJ","is_transit":false,"transit":false,"i_long":106.394373,"line":6,"time":0,"distance":0,"i_lat":-6.332307},{"station_name":"Cikoya","station_id":"CKY","line":3,"time":4,"distance":1853,"i_lat":-6.33561,"i_long":106.411216,"is_transit":false,"transit":false},{"transit":false,"station_name":"Tigaraksa","i_long":106.425991,"station_id":"TGS","time":3,"i_lat":-6.328533,"is_transit":false,"line":6,"distance":2651},{"distance":2974,"station_id":"TEJ","line":6,"i_long":106.460812,"station_name":"Tenjo","time":5,"transit":false,"i_lat":-6.327251,"is_transit":false},{"time":5,"is_transit":false,"station_name":"Daru","i_long":106.491338,"line":0,"transit":false,"station_id":"DAR","distance":3902,"i_lat":-6.338021},{"station_name":"Cilejit","station_id":"CJT","distance":2675,"is_transit":false,"time":6,"i_lat":-6.354349,"transit":false,"i_long":106.508482,"line":3},{"i_long":106.568863,"time":9,"line":6,"transit":false,"i_lat":-6.3441410000000005,"station_id":"PRP","is_transit":false,"distance":7025,"station_name":"Parung Panjang"},{"station_id":"CC","i_long":106.617853,"transit":false,"is_transit":false,"time":8,"distance":5968,"i_lat":-6.329547,"line":3,"station_name":"Cicayur"},{"line":3,"time":4,"is_transit":false,"distance":2519,"station_name":"Cisauk","station_id":"CSK","transit":false,"i_lat":-6.32484,"i_long":106.640411},{"transit":false,"station_name":"Serpong","i_lat":-6.319871,"time":4,"station_id":"SRP","distance":1784,"i_long":106.66566,"is_transit":false,"line":6},{"i_lat":-6.314823,"distance":2413,"i_long":106.675475,"line":6,"is_transit":false,"transit":false,"station_name":"Rawa Buntu","station_id":"RU","time":4},{"time":6,"i_lat":-6.296963,"is_transit":false,"line":6,"i_long":106.712277,"station_id":"SDM","distance":4566,"transit":false,"station_name":"Sudimara"},{"station_name":"Jurangmangu","distance":1994,"i_long":106.728916,"i_lat":-6.288927,"line":6,"transit":false,"station_id":"JMU","is_transit":false,"time":4},{"station_name":"Pondokranji","is_transit":false,"time":3,"line":6,"distance":2179,"station_id":"PDJ","i_lat":-6.276362,"transit":false,"i_long":106.74273},{"station_name":"Kebayoran","time":8,"i_lat":-6.237242,"is_transit":false,"transit":false,"station_id":"KBY","i_long":106.780334,"distance":6218,"line":6},{"line":6,"is_transit":false,"time":7,"station_id":"PLM","transit":false,"distance":3737,"i_lat":-6.207404,"i_long":106.79689,"station_name":"Palmerah"},{"transit":true,"station_id":"THB","is_transit":true,"time":6,"i_long":106.811091,"station_name":"Tanah Abang","i_lat":-6.185545,"line":1,"distance":3191},{"station_id":"DU","transit":false,"line":1,"station_name":"Duri","distance":3632,"i_long":106.800832,"is_transit":false,"time":8,"i_lat":-6.155215},{"i_long":106.79867,"is_transit":false,"time":4,"station_id":"AK","line":1,"distance":1230,"transit":false,"i_lat":-6.144674,"station_name":"Angke"},{"i_lat":-6.132549,"distance":4102,"station_id":"KPB","transit":true,"is_transit":true,"line":4,"i_long":106.826365,"time":9,"station_name":"Kampung Bandan"},{"i_lat":-6.14505,"station_name":"Rajawali","transit":false,"is_transit":false,"distance":1444,"station_id":"RJW","i_long":106.836569,"line":11,"time":3},{"station_name":"Kemayoran","distance":1901,"i_lat":-6.161728,"i_long":106.839204,"time":5,"station_id":"KMO","is_transit":false,"line":11,"transit":false},{"line":11,"transit":false,"is_transit":false,"station_id":"PSE","station_name":"Pasar Senen","distance":1436,"time":4,"i_lat":-6.174784,"i_long":106.84368},{"line":11,"time":8,"station_id":"GST","i_lat":-6.185975,"distance":1567,"station_name":"Gang Sentiong","is_transit":false,"transit":false,"i_long":106.850107},{"station_id":"KMT","i_long":106.855437,"is_transit":false,"line":11,"time":1,"transit":false,"station_name":"Kramat","distance":973,"i_lat":-6.193792},{"station_name":"Pondok Jati","time":2,"line":11,"is_transit":false,"station_id":"POK","i_lat":-6.209188,"transit":false,"distance":1829,"i_long":106.861737},{"station_name":"Jatinegara","line":1,"i_lat":-6.215091,"transit":true,"is_transit":true,"distance":1236,"time":9,"station_id":"JNG","i_long":106.86807400000001},{"i_long":106.899548,"transit":false,"line":1,"i_lat":-6.2135,"station_name":"Klender","is_transit":false,"distance":3395,"time":3,"station_id":"KLD"},{"distance":3100,"i_long":106.922662,"station_name":"Buaran","line":1,"transit":false,"time":2,"station_id":"BUA","is_transit":false,"i_lat":-6.215568},{"station_id":"KLDB","station_name":"Klenderbaru","distance":1305,"transit":false,"line":1,"i_long":106.939679,"i_lat":-6.217455,"time":1,"is_transit":false},{"station_id":"CUK","is_transit":false,"i_lat":-6.219053,"time":8,"station_name":"Cakung","i_long":106.951283,"line":1,"transit":false,"distance":1385},{"line":1,"time":3,"station_name":"Kranji","is_transit":false,"i_lat":-6.224515,"transit":false,"station_id":"KRI","distance":3097,"i_long":106.977657},{"i_long":106.997013,"line":1,"station_name":"Bekasi","transit":false,"distance":2520,"time":4,"is_transit":false,"station_id":"BKS","i_lat":-6.236616},{"transit":false,"distance":2368,"station_name":"Bekasi Timur","i_lat":-6.248029,"time":2,"i_long":107.016735,"line":1,"station_id":"BKST","is_transit":false},{"station_name":"Tambun","distance":4460,"i_long":107.055722,"time":7,"station_id":"TB","i_lat":-6.258864,"transit":false,"line":1,"is_transit":false}],[{"i_lat":-6.332307,"line":6,"is_transit":false,"i_long":106.394373,"time":0,"distance":0,"station_id":"MJ","station_name":"Maja","transit":false},{"station_name":"Cikoya","transit":false,"distance":1853,"i_long":106.411216,"i_lat":-6.33561,"station_id":"CKY","line":3,"time":4,"is_transit":false},{"transit":false,"station_name":"Tigaraksa","i_lat":-6.328533,"line":6,"station_id":"TGS","is_transit":false,"time":3,"distance":2651,"i_long":106.425991},{"is_transit":false,"i_lat":-6.327251,"time":5,"station_id":"TEJ","transit":false,"distance":2974,"station_name":"Tenjo","i_long":106.460812,"line":6},{"distance":3902,"i_long":106.491338,"station_id":"DAR","transit":false,"time":5,"i_lat":-6.338021,"line":0,"station_name":"Daru","is_transit":false},{"i_lat":-6.354349,"distance":2675,"i_long":106.508482,"time":6,"line":3,"station_name":"Cilejit","is_transit":false,"transit":false,"station_id":"CJT"},{"transit":false,"time":9,"distance":7025,"i_lat":-6.3441410000000005,"station_id":"PRP","line":6,"i_long":106.568863,"is_transit":false,"station_name":"Parung Panjang"},{"transit":false,"station_name":"Cicayur","time":8,"is_transit":false,"distance":5968,"i_lat":-6.329547,"i_long":106.617853,"line":3,"station_id":"CC"},{"i_lat":-6.32484,"transit":false,"station_name":"Cisauk","time":4,"is_transit":false,"distance":2519,"station_id":"CSK","i_long":106.640411,"line":3},{"distance":1784,"i_long":106.66566,"time":4,"line":6,"i_lat":-6.319871,"station_name":"Serpong","station_id":"SRP","transit":false,"is_transit":false},{"i_long":106.675475,"is_transit":false,"line":6,"transit":false,"distance":2413,"i_lat":-6.314823,"station_id":"RU","station_name":"Rawa Buntu","time":4},{"station_name":"Sudimara","is_transit":false,"distance":4566,"i_long":106.712277,"i_lat":-6.296963,"time":6,"station_id":"SDM","line":6,"transit":false},{"time":4,"i_lat":-6.288927,"transit":false,"distance":1994,"i_long":106.728916,"station_name":"Jurangmangu","station_id":"JMU","is_transit":false,"line":6},{"distance":2179,"time":3,"transit":false,"station_name":"Pondokranji","i_lat":-6.276362,"station_id":"PDJ","is_transit":false,"i_long":106.74273,"line":6},{"i_lat":-6.237242,"line":6,"time":8,"distance":6218,"transit":false,"is_transit":false,"station_name":"Kebayoran","i_long":106.780334,"station_id":"KBY"},{"station_id":"PLM","is_transit":false,"time":7,"transit":false,"i_long":106.79689,"line":6,"i_lat":-6.207404,"station_name":"Palmerah","distance":3737},{"is_transit":true,"time":6,"i_lat":-6.185545,"transit":true,"station_name":"Tanah Abang","station_id":"THB","i_long":106.811091,"line":1,"distance":3191},{"time":8,"transit":false,"station_id":"DU","is_transit":false,"line":1,"station_name":"Duri","distance":3632,"i_lat":-6.155215,"i_long":106.800832},{"line":1,"distance":1230,"transit":false,"i_long":106.79867,"station_id":"AK","station_name":"Angke","is_transit":false,"time":4,"i_lat":-6.144674},{"i_long":106.826365,"line":4,"transit":true,"i_lat":-6.132549,"is_transit":true,"station_id":"KPB","distance":4102,"time":9,"station_name":"Kampung Bandan"},{"station_name":"Jakarta Kota","station_id":"JAKK","transit":true,"is_transit":true,"time":3,"distance":1364,"i_long":106.812439,"line":2,"i_lat":-6.137569},{"station_id":"JAY","time":4,"i_long":106.820901,"transit":false,"distance":1264,"is_transit":false,"station_name":"Jayakarta","i_lat":-6.141205,"line":2},{"is_transit":false,"i_lat":-6.149769,"transit":false,"i_long":106.82482,"distance":1080,"station_id":"MGB","line":2,"station_name":"Manggabesar","time":2},{"transit":false,"time":2,"station_id":"SW","station_name":"Sawah Besar","distance":906,"i_long":106.827103,"i_lat":-6.160725,"line":2,"is_transit":false},{"station_id":"JUA","is_transit":false,"i_long":106.828284,"i_lat":-6.166716,"line":2,"time":2,"transit":false,"distance":1149,"station_name":"Juanda"},{"is_transit":false,"line":2,"station_name":"Gondangdia","distance":2015,"transit":false,"i_long":106.832183,"time":4,"station_id":"GDD","i_lat":-6.186295},{"transit":false,"time":3,"is_transit":false,"i_long":106.840169,"line":2,"distance":1750,"i_lat":-6.198556,"station_id":"CKI","station_name":"Cikini"},{"distance":1590,"time":4,"transit":true,"i_long":106.84912,"station_name":"Manggarai","is_transit":true,"line":2,"station_id":"MRI","i_lat":-6.209883},{"station_id":"MTR","transit":false,"station_name":"Matraman","line":1,"is_transit":false,"i_lat":-6.212485,"i_long":106.858896,"distance":1275,"time":2},{"transit":false,"station_name":"Jatinegara","station_id":"JNG","is_transit":false,"time":8,"distance":1377,"i_lat":-6.215091,"line":1,"i_long":106.86807400000001},{"transit":false,"is_transit":false,"line":1,"station_name":"Klender","distance":3395,"time":3,"i_lat":-6.2135,"station_id":"KLD","i_long":106.899548},{"transit":false,"line":1,"station_id":"BUA","time":2,"distance":3100,"i_long":106.922662,"station_name":"Buaran","is_transit":false,"i_lat":-6.215568},{"line":1,"transit":false,"station_id":"KLDB","time":1,"station_name":"Klenderbaru","is_transit":false,"i_lat":-6.217455,"i_long":106.939679,"distance":1305},{"station_name":"Cakung","station_id":"CUK","distance":1385,"is_transit":false,"i_lat":-6.219053,"transit":false,"time":8,"i_long":106.951283,"line":1},{"station_name":"Kranji","line":1,"transit":false,"station_id":"KRI","time":3,"distance":3097,"i_lat":-6.224515,"is_transit":false,"i_long":106.977657},{"transit":false,"time":4,"station_id":"BKS","distance":2520,"i_lat":-6.236616,"is_transit":false,"i_long":106.997013,"station_name":"Bekasi","line":1},{"is_transit":false,"station_name":"Bekasi Timur","time":2,"i_lat":-6.248029,"distance":2368,"transit":false,"line":1,"station_id":"BKST","i_long":107.016735},{"i_long":107.055722,"is_transit":false,"station_id":"TB","transit":false,"distance":4460,"station_name":"Tambun","time":7,"i_lat":-6.258864,"line":1}],[{"station_name":"Maja","line":6,"i_lat":-6.332307,"distance":0,"i_long":106.394373,"station_id":"MJ","is_transit":false,"time":0,"transit":false},{"line":3,"time":4,"station_id":"CKY","distance":1853,"i_long":106.411216,"transit":false,"is_transit":false,"station_name":"Cikoya","i_lat":-6.33561},{"i_lat":-6.328533,"time":3,"is_transit":false,"station_id":"TGS","distance":2651,"i_long":106.425991,"line":6,"station_name":"Tigaraksa","transit":false},{"station_id":"TEJ","i_long":106.460812,"transit":false,"time":5,"is_transit":false,"i_lat":-6.327251,"station_name":"Tenjo","distance":2974,"line":6},{"station_name":"Daru","time":5,"is_transit":false,"distance":3902,"line":0,"i_long":106.491338,"station_id":"DAR","i_lat":-6.338021,"transit":false},{"i_lat":-6.354349,"transit":false,"station_name":"Cilejit","distance":2675,"time":6,"station_id":"CJT","i_long":106.508482,"line":3,"is_transit":false},{"line":6,"is_transit":false,"i_long":106.568863,"i_lat":-6.3441410000000005,"transit":false,"time":9,"station_id":"PRP","distance":7025,"station_name":"Parung Panjang"},{"station_id":"CC","i_long":106.617853,"transit":false,"i_lat":-6.329547,"station_name":"Cicayur","line":3,"time":8,"is_transit":false,"distance":5968},{"line":3,"is_transit":false,"station_name":"Cisauk","station_id":"CSK","transit":false,"distance":2519,"time":4,"i_lat":-6.32484,"i_long":106.640411},{"line":6,"transit":false,"distance":1784,"station_name":"Serpong","i_lat":-6.319871,"i_long":106.66566,"is_transit":false,"station_id":"SRP","time":4},{"station_id":"RU","time":4,"transit":false,"is_transit":false,"i_long":106.675475,"line":6,"station_name":"Rawa Buntu","distance":2413,"i_lat":-6.314823},{"transit":false,"line":6,"is_transit":false,"station_name":"Sudimara","i_long":106.712277,"time":6,"distance":4566,"station_id":"SDM","i_lat":-6.296963},{"i_lat":-6.288927,"line":6,"station_name":"Jurangmangu","transit":false,"distance":1994,"i_long":106.728916,"station_id":"JMU","time":4,"is_transit":false},{"i_long":106.74273,"time":3,"line":6,"distance":2179,"station_id":"PDJ","is_transit":false,"station_name":"Pondokranji","transit":false,"i_lat":-6.276362},{"i_lat":-6.237242,"transit":false,"time":8,"i_long":106.780334,"station_id":"KBY","distance":6218,"is_transit":false,"line":6,"station_name":"Kebayoran"},{"is_transit":false,"time":7,"transit":false,"station_name":"Palmerah","station_id":"PLM","distance":3737,"i_long":106.79689,"line":6,"i_lat":-6.207404},{"line":1,"i_lat":-6.185545,"transit":true,"station_name":"Tanah Abang","distance":3191,"time":6,"i_long":106.811091,"station_id":"THB","is_transit":true},{"i_lat":-6.20132,"station_name":"Karet","is_transit":false,"distance":2029,"line":1,"station_id":"KAT","i_long":106.816351,"time":5,"transit":false},{"time":1,"distance":471,"station_id":"SUDB","transit":false,"i_long":106.819881,"i_lat":-6.201433,"is_transit":false,"line":1,"station_name":"Sudirman Baru"},{"transit":false,"station_id":"SUD","time":1,"line":1,"is_transit":false,"distance":280,"i_lat":-6.202263,"station_name":"Sudirman","i_long":106.822649},{"station_name":"Manggarai","i_lat":-6.209883,"transit":true,"i_long":106.84912,"station_id":"MRI","is_transit":true,"distance":3186,"line":2,"time":4},{"transit":false,"station_id":"CKI","time":4,"i_lat":-6.198556,"station_name":"Cikini","is_transit":false,"distance":1590,"i_long":106.840169,"line":2},{"i_long":106.832183,"line":2,"is_transit":false,"transit":false,"i_lat":-6.186295,"station_id":"GDD","distance":1750,"station_name":"Gondangdia","time":3},{"station_id":"JUA","station_name":"Juanda","i_lat":-6.166716,"i_long":106.828284,"transit":false,"is_transit":false,"time":4,"line":2,"distance":2015},{"transit":false,"time":2,"i_lat":-6.160725,"line":2,"station_name":"Sawah Besar","station_id":"SW","is_transit":false,"distance":1149,"i_long":106.827103},{"transit":false,"station_id":"MGB","is_transit":false,"time":2,"distance":906,"i_lat":-6.149769,"i_long":106.82482,"line":2,"station_name":"Manggabesar"},{"is_transit":false,"time":2,"i_lat":-6.141205,"station_name":"Jayakarta","distance":1080,"line":2,"i_long":106.820901,"station_id":"JAY","transit":false},{"distance":1264,"line":2,"station_name":"Jakarta Kota","is_transit":true,"transit":true,"station_id":"JAKK","time":4,"i_lat":-6.137569,"i_long":106.812439},{"i_lat":-6.132549,"i_long":106.826365,"time":3,"transit":true,"station_id":"KPB","is_transit":true,"distance":1364,"station_name":"Kampung Bandan","line":4},{"line":11,"i_long":106.836569,"is_transit":false,"station_id":"RJW","station_name":"Rajawali","distance":1444,"i_lat":-6.14505,"transit":false,"time":3},{"line":11,"distance":1901,"i_long":106.839204,"transit":false,"is_transit":false,"station_name":"Kemayoran","time":5,"i_lat":-6.161728,"station_id":"KMO"},{"is_transit":false,"station_id":"PSE","line":11,"i_long":106.84368,"time":4,"distance":1436,"i_lat":-6.174784,"station_name":"Pasar Senen","transit":false},{"is_transit":false,"transit":false,"station_name":"Gang Sentiong","station_id":"GST","distance":1567,"i_lat":-6.185975,"line":11,"time":8,"i_long":106.850107},{"is_transit":false,"transit":false,"station_name":"Kramat","i_long":106.855437,"line":11,"station_id":"KMT","i_lat":-6.193792,"distance":973,"time":1},{"distance":1829,"transit":false,"i_long":106.861737,"station_name":"Pondok Jati","i_lat":-6.209188,"time":2,"is_transit":false,"line":11,"station_id":"POK"},{"time":9,"station_id":"JNG","distance":1236,"is_transit":true,"i_long":106.86807400000001,"station_name":"Jatinegara","i_lat":-6.215091,"line":1,"transit":true},{"line":1,"i_long":106.899548,"time":3,"station_id":"KLD","i_lat":-6.2135,"transit":false,"station_name":"Klender","is_transit":false,"distance":3395},{"is_transit":false,"distance":3100,"i_long":106.922662,"transit":false,"station_name":"Buaran","station_id":"BUA","time":2,"i_lat":-6.215568,"line":1},{"transit":false,"time":1,"distance":1305,"line":1,"is_transit":false,"station_name":"Klenderbaru","i_long":106.939679,"station_id":"KLDB","i_lat":-6.217455},{"time":8,"distance":1385,"station_name":"Cakung","line":1,"station_id":"CUK","i_long":106.951283,"i_lat":-6.219053,"transit":false,"is_transit":false},{"is_transit":false,"i_long":106.977657,"transit":false,"station_id":"KRI","line":1,"station_name":"Kranji","time":3,"distance":3097,"i_lat":-6.224515},{"i_lat":-6.236616,"station_name":"Bekasi","distance":2520,"i_long":106.997013,"is_transit":false,"line":1,"time":4,"transit":false,"station_id":"BKS"},{"is_transit":false,"station_name":"Bekasi Timur","transit":false,"distance":2368,"i_lat":-6.248029,"time":2,"station_id":"BKST","i_long":107.016735,"line":1},{"time":7,"station_id":"TB","distance":4460,"station_name":"Tambun","transit":false,"is_transit":false,"i_lat":-6.258864,"i_long":107.055722,"line":1}]]}