{"data":[[{"i_lat":-6.332307,"transit":false,"station_name":"Maja","i_long":106.394373,"distance":0,"time":0,"station_id":"MJ","is_transit":false,"line":6},{"line":3,"i_lat":-6.33561,"station_name":"Cikoya","distance":1853,"is_transit":false,"time":4,"station_id":"CKY","i_long":106.411216,"transit":false},{"is_transit":false,"i_lat":-6.328533,"line":6,"i_long":106.425991,"station_name":"Tigaraksa","transit":false,"time":3,"station_id":"TGS","distance":2651},{"transit":false,"i_lat":-6.327251,"time":5,"line":6,"i_long":106.460812,"is_transit":false,"station_id":"TEJ","station_name":"Tenjo","distance":2974},{"time":5,"line":0,"station_name":"Daru","station_id":"DAR","is_transit":false,"distance":3902,"i_long":106.491338,"i_lat":-6.338021,"transit":false},{"line":3,"i_long":106.508482,"distance":2675,"station_id":"CJT","is_transit":false,"transit":false,"i_lat":-6.354349,"station_name":"Cilejit","time":6},{"i_long":106.568863,"i_lat":-6.3441410000000005,"station_name":"Parung Panjang","distance":7025,"line":6,"station_id":"PRP","time":9,"transit":false,"is_transit":false},{"line":3,"transit":false,"station_id":"CC","station_name":"Cicayur","i_lat":-6.329547,"distance":5968,"time":8,"is_transit":false,"i_long":106.617853},{"transit":false,"station_name":"Cisauk","i_lat":-6.32484,"station_id":"CSK","distance":2519,"i_long":106.640411,"is_transit":false,"time":4,"line":3},{"line":6,"i_long":106.66566,"station_name":"Serpong","station_id":"SRP","i_lat":-6.319871,"transit":false,"is_transit":false,"time":4,"distance":1784},{"station_name":"Rawa Buntu","station_id":"RU","time":4,"i_lat":-6.314823,"i_long":106.675475,"distance":2413,"is_transit":false,"line":6,"transit":false},{"is_transit":false,"station_name":"Sudimara","distance":4566,"i_long":106.712277,"line":6,"time":6,"i_lat":-6.296963,"transit":false,"station_id":"SDM"},{"i_lat":-6.288927,"transit":false,"line":6,"i_long":106.728916,"station_id":"JMU","station_name":"Jurangmangu","distance":1994,"time":4,"is_transit":false},{"station_id":"PDJ","line":6,"transit":false,"i_long":106.74273,"distance":2179,"time":3,"is_transit":false,"station_name":"Pondokranji","i_lat":-6.276362},{"time":8,"distance":6218,"i_long":106.780334,"line":6,"is_transit":false,"station_id":"KBY","station_name":"Kebayoran","transit":false,"i_lat":-6.237242},{"station_id":"PLM","is_transit":false,"i_long":106.79689,"i_lat":-6.207404,"station_name":"Palmerah","time":7,"distance":3737,"transit":false,"line":6},{"time":6,"transit":true,"station_id":"THB","distance":3191,"i_lat":-6.185545,"i_long":106.811091,"is_transit":true,"line":1,"station_name":"Tanah Abang"},{"station_id":"KAT","transit":false,"station_name":"Karet","i_long":106.816351,"is_transit":false,"time":5,"line":1,"i_lat":-6.20132,"distance":2029},{"line":1,"transit":false,"distance":471,"station_id":"SUDB","time":1,"is_transit":false,"station_name":"Sudirman Baru","i_long":106.819881,"i_lat":-6.201433},{"transit":false,"station_name":"Sudirman","i_lat":-6.202263,"is_transit":false,"time":1,"station_id":"SUD","distance":280,"line":1,"i_long":106.822649},{"is_transit":false,"transit":false,"station_name":"Manggarai","time":4,"line":2,"station_id":"MRI","i_lat":-6.209883,"i_long":106.84912,"distance":3186},{"station_id":"MTR","line":1,"station_name":"Matraman","i_long":106.858896,"distance":1275,"is_transit":false,"time":2,"i_lat":-6.212485,"transit":false},{"distance":1377,"i_lat":-6.215091,"line":1,"station_id":"JNG","transit":false,"is_transit":false,"station_name":"Jatinegara","i_long":106.86807400000001,"time":8},{"i_lat":-6.2135,"station_id":"KLD","is_transit":false,"station_name":"Klender","distance":3395,"i_long":106.899548,"time":3,"line":1,"transit":false},{"i_lat":-6.215568,"i_long":106.922662,"line":1,"is_transit":false,"station_name":"Buaran","transit":false,"distance":3100,"station_id":"BUA","time":2},{"i_lat":-6.217455,"transit":false,"line":1,"is_transit":false,"time":1,"distance":1305,"i_long":106.939679,"station_id":"KLDB","station_name":"Klenderbaru"},{"distance":1385,"station_id":"CUK","i_lat":-6.219053,"line":1,"station_name":"Cakung","is_transit":false,"time":8,"transit":false,"i_long":106.951283},{"i_lat":-6.224515,"i_long":106.977657,"transit":false,"time":3,"station_id":"KRI","station_name":"Kranji","line":1,"distance":3097,"is_transit":false},{"transit":false,"i_long":106.997013,"station_id":"BKS","time":4,"line":1,"distance":2520,"is_transit":false,"station_name":"Bekasi","i_lat":-6.236616},{"transit":false,"line":1,"station_id":"BKST","is_transit":false,"i_long":107.016735,"distance":2368,"time":2,"i_lat":-6.248029,"station_name":"Bekasi Timur"},{"time":7,"station_name":"Tambun","i_lat":-6.258864,"is_transit":false,"transit":false,"i_long":107.055722,"station_id":"TB","distance":4460,"line":1}],[{"time":0,"i_long":106.394373,"station_id":"MJ","transit":false,"distance":0,"is_transit":false,"i_lat":-6.332307,"station_name":"Maja","line":6},{"i_lat":-6.33561,"i_long":106.411216,"distance":1853,"station_id":"CKY","line":3,"is_transit":false,"station_name":"Cikoya","time":4,"transit":false},{"i_long":106.425991,"station_id":"TGS","is_transit":false,"transit":false,"line":6,"distance":2651,"time":3,"i_lat":-6.328533,"station_name":"Tigaraksa"},{"transit":false,"i_long":106.460812,"distance":2974,"time":5,"line":6,"is_transit":false,"station_name":"Tenjo","station_id":"TEJ","i_lat":-6.327251},{"i_long":106.491338,"line":0,"station_id":"DAR","i_lat":-6.338021,"is_transit":false,"time":5,"station_name":"Daru","distance":3902,"transit":false},{"is_transit":false,"distance":2675,"time":6,"station_id":"CJT","transit":false,"line":3,"i_long":106.508482,"station_name":"Cilejit","i_lat":-6.354349},{"i_lat":-6.3441410000000005,"distance":7025,"is_transit":false,"station_name":"Parung Panjang","transit":false,"time":9,"line":6,"station_id":"PRP","i_long":106.568863},{"station_name":"Cicayur","distance":5968,"transit":false,"line":3,"station_id":"CC","is_transit":false,"time":8,"i_lat":-6.329547,"i_long":106.617853},{"station_name":"Cisauk","time":4,"transit":false,"i_lat":-6.32484,"station_id":"CSK","line":3,"is_transit":false,"i_long":106.640411,"distance":2519},{"station_id":"SRP","distance":1784,"station_name":"Serpong","i_lat":-6.319871,"line":6,"is_transit":false,"time":4,"i_long":106.66566,"transit":false},{"distance":2413,"is_transit":false,"line":6,"i_long":106.675475,"station_id":"RU","station_name":"Rawa Buntu","transit":false,"time":4,"i_lat":-6.314823},{"time":6,"distance":4566,"i_long":106.712277,"station_name":"Sudimara","line":6,"transit":false,"i_lat":-6.296963,"station_id":"SDM","is_transit":false},{"i_long":106.728916,"i_lat":-6.288927,"station_name":"Jurangmangu","is_transit":false,"line":6,"distance":1994,"time":4,"transit":false,"station_id":"JMU"},{"i_lat":-6.276362,"line":6,"is_transit":false,"station_id":"PDJ","transit":false,"station_name":"Pondokranji","i_long":106.74273,"time":3,"distance":2179},{"time":8,"i_lat":-6.237242,"line":6,"transit":false,"distance":6218,"i_long":106.780334,"station_name":"Kebayoran","station_id":"KBY","is_transit":false},{"line":6,"time":7,"is_transit":false,"distance":3737,"i_long":106.79689,"station_id":"PLM","transit":false,"station_name":"Palmerah","i_lat":-6.207404},{"i_lat":-6.185545,"station_id":"THB","station_name":"Tanah Abang","distance":3191,"is_transit":true,"i_long":106.811091,"line":1,"time":6,"transit":true},{"i_lat":-6.155215,"station_name":"Duri","transit":false,"is_transit":false,"station_id":"DU","distance":3632,"time":8,"line":1,"i_long":106.800832},{"i_lat":-6.144674,"i_long":106.79867,"station_name":"Angke","line":1,"time":4,"distance":1230,"is_transit":false,"transit":false,"station_id":"AK"},{"i_lat":-6.132549,"i_long":106.826365,"time":9,"station_id":"KPB","is_transit":true,"station_name":"Kampung Bandan","line":4,"transit":true,"distance":4102},{"line":11,"distance":1444,"station_name":"Rajawali","transit":false,"is_transit":false,"i_lat":-6.14505,"time":3,"i_long":106.836569,"station_id":"RJW"},{"i_long":106.839204,"is_transit":false,"time":5,"station_id":"KMO","line":11,"i_lat":-6.161728,"distance":1901,"transit":false,"station_name":"Kemayoran"},{"time":4,"i_long":106.84368,"i_lat":-6.174784,"station_id":"PSE","station_name":"Pasar Senen","distance":1436,"transit":false,"is_transit":false,"line":11},{"distance":1567,"is_transit":false,"station_name":"Gang Sentiong","time":8,"transit":false,"i_lat":-6.185975,"i_long":106.850107,"line":11,"station_id":"GST"},{"is_transit":false,"station_id":"KMT","distance":973,"time":1,"i_long":106.855437,"line":11,"transit":false,"station_name":"Kramat","i_lat":-6.193792},{"distance":1829,"station_name":"Pondok Jati","i_lat":-6.209188,"is_transit":false,"i_long":106.861737,"line":11,"time":2,"transit":false,"station_id":"POK"},{"transit":true,"distance":1236,"i_long":106.86807400000001,"is_transit":true,"station_name":"Jatinegara","station_id":"JNG","time":9,"i_lat":-6.215091,"line":1},{"distance":3395,"station_name":"Klender","line":1,"is_transit":false,"time":3,"i_lat":-6.2135,"station_id":"KLD","transit":false,"i_long":106.899548},{"is_transit":false,"distance":3100,"time":2,"transit":false,"line":1,"station_id":"BUA","i_lat":-6.215568,"station_name":"Buaran","i_long":106.922662},{"i_lat":-6.217455,"transit":false,"time":1,"line":1,"distance":1305,"is_transit":false,"station_name":"Klenderbaru","station_id":"KLDB","i_long":106.939679},{"station_id":"CUK","station_name":"Cakung","is_transit":false,"i_lat":-6.219053,"transit":false,"i_long":106.951283,"line":1,"distance":1385,"time":8},{"distance":3097,"i_lat":-6.224515,"line":1,"transit":false,"time":3,"station_id":"KRI","is_transit":false,"i_long":106.977657,"station_name":"Kranji"},{"transit":false,"station_id":"BKS","is_transit":false,"i_long":106.997013,"time":4,"line":1,"station_name":"Bekasi","i_lat":-6.236616,"distance":2520},{"station_id":"BKST","is_transit":false,"time":2,"i_lat":-6.248029,"i_long":107.016735,"transit":false,"station_name":"Bekasi Timur","line":1,"distance":2368},{"station_name":"Tambun","i_lat":-6.258864,"line":1,"is_transit":false,"distance":4460,"transit":false,"station_id":"TB","time":7,"i_long":107.055722}],[{"distance":0,"time":0,"is_transit":false,"line":6,"station_name":"Maja","station_id":"MJ","transit":false,"i_long":106.394373,"i_lat":-6.332307},{"i_lat":-6.33561,"station_id":"CKY","line":3,"i_long":106.411216,"time":4,"is_transit":false,"station_name":"Cikoya","distance":1853,"transit":false},{"i_lat":-6.328533,"transit":false,"station_id":"TGS","line":6,"station_name":"Tigaraksa","time":3,"distance":2651,"is_transit":false,"i_long":106.425991},{"is_transit":false,"transit":false,"station_name":"Tenjo","distance":2974,"time":5,"station_id":"TEJ","line":6,"i_lat":-6.327251,"i_long":106.460812},{"time":5,"is_transit":false,"station_name":"Daru","i_lat":-6.338021,"transit":false,"station_id":"DAR","line":0,"distance":3902,"i_long":106.491338},{"distance":2675,"i_long":106.508482,"line":3,"time":6,"station_name":"Cilejit","i_lat":-6.354349,"transit":false,"station_id":"CJT","is_transit":false},{"is_transit":false,"distance":7025,"line":6,"i_lat":-6.3441410000000005,"i_long":106.568863,"time":9,"station_name":"Parung Panjang","station_id":"PRP","transit":false},{"distance":5968,"i_long":106.617853,"transit":false,"i_lat":-6.329547,"is_transit":false,"line":3,"time":8,"station_name":"Cicayur","station_id":"CC"},{"station_name":"Cisauk","time":4,"i_long":106.640411,"line":3,"station_id":"CSK","distance":2519,"transit":false,"i_lat":-6.32484,"is_transit":false},{"i_lat":-6.319871,"station_id":"SRP","distance":1784,"is_transit":false,"station_name":"Serpong","transit":false,"line":6,"i_long":106.66566,"time":4},{"transit":false,"distance":2413,"is_transit":false,"station_name":"Rawa Buntu","time":4,"line":6,"i_lat":-6.314823,"i_long":106.675475,"station_id":"RU"},{"line":6,"i_lat":-6.296963,"distance":4566,"i_long":106.712277,"station_name":"Sudimara","is_transit":false,"transit":false,"time":6,"station_id":"SDM"},{"distance":1994,"station_name":"Jurangmangu","is_transit":false,"i_long":106.728916,"line":6,"i_lat":-6.288927,"transit":false,"time":4,"station_id":"JMU"},{"line":6,"i_long":106.74273,"time":3,"transit":false,"station_name":"Pondokranji","is_transit":false,"distance":2179,"i_lat":-6.276362,"station_id":"PDJ"},{"transit":false,"is_transit":false,"time":8,"line":6,"station_id":"KBY","station_name":"Kebayoran","i_long":106.780334,"i_lat":-6.237242,"distance":6218},{"i_lat":-6.207404,"i_long":106.79689,"is_transit":false,"line":6,"station_id":"PLM","distance":3737,"station_name":"Palmerah","time":7,"transit":false},{"station_id":"THB","distance":3191,"i_lat":-6.185545,"line":1,"is_transit":true,"i_long":106.811091,"time":6,"station_name":"Tanah Abang","transit":true},{"transit":false,"distance":3632,"is_transit":false,"i_lat":-6.155215,"i_long":106.800832,"line":1,"time":8,"station_name":"Duri","station_id":"DU"},{"transit":false,"station_name":"Angke","time":4,"distance":1230,"station_id":"AK","i_long":106.79867,"i_lat":-6.144674,"is_transit":false,"line":1},{"is_transit":true,"transit":true,"i_lat":-6.132549,"i_long":106.826365,"station_name":"Kampung Bandan","time":9,"distance":4102,"station_id":"KPB","line":4},{"time":3,"station_id":"JAKK","i_lat":-6.137569,"distance":1364,"line":2,"station_name":"Jakarta Kota","i_long":106.812439,"transit":true,"is_transit":true},{"line":2,"is_transit":false,"i_lat":-6.141205,"time":4,"station_name":"Jayakarta","distance":1264,"station_id":"JAY","i_long":106.820901,"transit":false},{"is_transit":false,"station_id":"MGB","i_lat":-6.149769,"i_long":106.82482,"station_name":"Manggabesar","line":2,"transit":false,"distance":1080,"time":2},{"transit":false,"station_id":"SW","station_name":"Sawah Besar","time":2,"i_lat":-6.160725,"is_transit":false,"i_long":106.827103,"line":2,"distance":906},{"distance":1149,"i_lat":-6.166716,"i_long":106.828284,"line":2,"is_transit":false,"time":2,"station_name":"Juanda","station_id":"JUA","transit":false},{"time":4,"i_long":106.832183,"station_name":"Gondangdia","line":2,"transit":false,"station_id":"GDD","i_lat":-6.186295,"distance":2015,"is_transit":false},{"distance":1750,"is_transit":false,"i_lat":-6.198556,"station_name":"Cikini","time":3,"i_long":106.840169,"station_id":"CKI","line":2,"transit":false},{"line":2,"time":4,"i_long":106.84912,"station_id":"MRI","transit":true,"is_transit":true,"distance":1590,"station_name":"Manggarai","i_lat":-6.209883},{"i_long":106.858896,"station_id":"MTR","i_lat":-6.212485,"line":1,"station_name":"Matraman","distance":1275,"is_transit":false,"time":2,"transit":false},{"station_name":"Jatinegara","distance":1377,"i_long":106.86807400000001,"line":1,"time":8,"is_transit":false,"station_id":"JNG","i_lat":-6.215091,"transit":false},{"i_long":106.899548,"time":3,"transit":false,"i_lat":-6.2135,"is_transit":false,"line":1,"distance":3395,"station_name":"Klender","station_id":"KLD"},{"distance":3100,"line":1,"time":2,"i_long":106.922662,"station_name":"Buaran","is_transit":false,"station_id":"BUA","transit":false,"i_lat":-6.215568},{"station_name":"Klenderbaru","station_id":"KLDB","i_lat":-6.217455,"line":1,"transit":false,"is_transit":false,"distance":1305,"time":1,"i_long":106.939679},{"transit":false,"station_name":"Cakung","time":8,"distance":1385,"i_lat":-6.219053,"i_long":106.951283,"station_id":"CUK","line":1,"is_transit":false},{"transit":false,"i_long":106.977657,"line":1,"time":3,"distance":3097,"station_id":"KRI","i_lat":-6.224515,"station_name":"Kranji","is_transit":false},{"station_id":"BKS","i_long":106.997013,"distance":2520,"time":4,"is_transit":false,"line":1,"station_name":"Bekasi","i_lat":-6.236616,"transit":false},{"station_name":"Bekasi Timur","i_lat":-6.248029,"i_long":107.016735,"station_id":"BKST","distance":2368,"line":1,"time":2,"transit":false,"is_transit":false},{"station_name":"Tambun","transit":false,"time":7,"i_lat":-6.258864,"distance":4460,"is_transit":false,"i_long":107.055722,"line":1,"station_id":"TB"}],[{"station_name":"Maja","distance":0,"line":6,"i_lat":-6.332307,"transit":false,"station_id":"MJ","i_long":106.394373,"is_transit":false,"time":0},{"i_long":106.411216,"time":4,"distance":1853,"transit":false,"i_lat":-6.33561,"line":3,"is_transit":false,"station_name":"Cikoya","station_id":"CKY"},{"time":3,"station_name":"Tigaraksa","station_id":"TGS","i_lat":-6.328533,"distance":2651,"transit":false,"i_long":106.425991,"line":6,"is_transit":false},{"transit":false,"station_name":"Tenjo","line":6,"station_id":"TEJ","distance":2974,"i_long":106.460812,"i_lat":-6.327251,"is_transit":false,"time":5},{"line":0,"station_id":"DAR","distance":3902,"is_transit":false,"time":5,"transit":false,"i_long":106.491338,"station_name":"Daru","i_lat":-6.338021},{"station_id":"CJT","line":3,"i_long":106.508482,"transit":false,"station_name":"Cilejit","time":6,"i_lat":-6.354349,"is_transit":false,"distance":2675},{"i_long":106.568863,"transit":false,"time":9,"distance":7025,"station_id":"PRP","station_name":"Parung Panjang","is_transit":false,"i_lat":-6.3441410000000005,"line":6},{"i_lat":-6.329547,"i_long":106.617853,"station_id":"CC","distance":5968,"is_transit":false,"time":8,"transit":false,"station_name":"Cicayur","line":3},{"is_transit":false,"distance":2519,"time":4,"line":3,"i_long":106.640411,"station_id":"CSK","station_name":"Cisauk","transit":false,"i_lat":-6.32484},{"station_name":"Serpong","station_id":"SRP","i_lat":-6.319871,"line":6,"transit":false,"time":4,"is_transit":false,"i_long":106.66566,"distance":1784},{"is_transit":false,"distance":2413,"transit":false,"station_id":"RU","line":6,"i_lat":-6.314823,"i_long":106.675475,"station_name":"Rawa Buntu","time":4},{"line":6,"distance":4566,"station_name":"Sudimara","i_long":106.712277,"i_lat":-6.296963,"time":6,"transit":false,"station_id":"SDM","is_transit":false},{"is_transit":false,"station_name":"Jurangmangu","i_lat":-6.288927,"station_id":"JMU","line":6,"distance":1994,"time":4,"transit":false,"i_long":106.728916},{"is_transit":false,"station_name":"Pondokranji","time":3,"i_long":106.74273,"station_id":"PDJ","line":6,"distance":2179,"i_lat":-6.276362,"transit":false},{"line":6,"distance":6218,"transit":false,"station_id":"KBY","is_transit":false,"time":8,"i_lat":-6.237242,"i_long":106.780334,"station_name":"Kebayoran"},{"transit":false,"station_id":"PLM","is_transit":false,"i_long":106.79689,"station_name":"Palmerah","i_lat":-6.207404,"distance":3737,"time":7,"line":6},{"line":1,"distance":3191,"station_id":"THB","is_transit":true,"i_lat":-6.185545,"i_long":106.811091,"transit":true,"station_name":"Tanah Abang","time":6},{"i_long":106.816351,"station_id":"KAT","i_lat":-6.20132,"station_name":"Karet","transit":false,"distance":2029,"time":5,"is_transit":false,"line":1},{"i_long":106.819881,"transit":false,"distance":471,"is_transit":false,"time":1,"line":1,"station_id":"SUDB","station_name":"Sudirman Baru","i_lat":-6.201433},{"time":1,"i_long":106.822649,"is_transit":false,"line":1,"i_lat":-6.202263,"transit":false,"station_name":"Sudirman","distance":280,"station_id":"SUD"},{"station_id":"MRI","station_name":"Manggarai","is_transit":true,"distance":3186,"time":4,"line":2,"transit":true,"i_long":106.84912,"i_lat":-6.209883},{"is_transit":false,"time":4,"station_id":"CKI","transit":false,"i_lat":-6.198556,"distance":1590,"station_name":"Cikini","i_long":106.840169,"line":2},{"transit":false,"station_name":"Gondangdia","station_id":"GDD","is_transit":false,"distance":1750,"i_long":106.832183,"line":2,"time":3,"i_lat":-6.186295},{"station_id":"JUA","distance":2015,"i_lat":-6.166716,"is_transit":false,"transit":false,"time":4,"line":2,"station_name":"Juanda","i_long":106.828284},{"station_name":"Sawah Besar","i_lat":-6.160725,"time":2,"line":2,"i_long":106.827103,"distance":1149,"transit":false,"is_transit":false,"station_id":"SW"},{"distance":906,"time":2,"i_long":106.82482,"station_id":"MGB","transit":false,"is_transit":false,"station_name":"Manggabesar","i_lat":-6.149769,"line":2},{"i_long":106.820901,"station_id":"JAY","i_lat":-6.141205,"time":2,"station_name":"Jayakarta","line":2,"transit":false,"is_transit":false,"distance":1080},{"station_id":"JAKK","time":4,"transit":true,"line":2,"is_transit":true,"station_name":"Jakarta Kota","i_lat":-6.137569,"i_long":106.812439,"distance":1264},{"i_long":106.826365,"transit":true,"station_id":"KPB","i_lat":-6.132549,"distance":1364,"time":3,"is_transit":true,"line":4,"station_name":"Kampung Bandan"},{"time":3,"transit":false,"i_lat":-6.14505,"i_long":106.836569,"line":11,"is_transit":false,"station_name":"Rajawali","station_id":"RJW","distance":1444},{"station_id":"KMO","distance":1901,"i_long":106.839204,"time":5,"transit":false,"i_lat":-6.161728,"station_name":"Kemayoran","is_transit":false,"line":11},{"transit":false,"distance":1436,"i_lat":-6.174784,"station_name":"Pasar Senen","i_long":106.84368,"time":4,"station_id":"PSE","is_transit":false,"line":11},{"time":8,"is_transit":false,"i_long":106.850107,"distance":1567,"transit":false,"station_name":"Gang Sentiong","station_id":"GST","i_lat":-6.185975,"line":11},{"station_name":"Kramat","i_long":106.855437,"i_lat":-6.193792,"distance":973,"time":1,"is_transit":false,"transit":false,"station_id":"KMT","line":11},{"station_id":"POK","is_transit":false,"transit":false,"station_name":"Pondok Jati","time":2,"line":11,"distance":1829,"i_lat":-6.209188,"i_long":106.861737},{"i_long":106.86807400000001,"time":9,"line":1,"transit":true,"distance":1236,"station_name":"Jatinegara","station_id":"JNG","i_lat":-6.215091,"is_transit":true},{"station_name":"Klender","distance":3395,"time":3,"line":1,"transit":false,"station_id":"KLD","i_lat":-6.2135,"i_long":106.899548,"is_transit":false},{"line":1,"station_id":"BUA","is_transit":false,"time":2,"station_name":"Buaran","i_lat":-6.215568,"distance":3100,"i_long":106.922662,"transit":false},{"time":1,"line":1,"station_id":"KLDB","i_lat":-6.217455,"is_transit":false,"i_long":106.939679,"distance":1305,"transit":false,"station_name":"Klenderbaru"},{"transit":false,"station_id":"CUK","station_name":"Cakung","i_long":106.951283,"is_transit":false,"line":1,"distance":1385,"time":8,"i_lat":-6.219053},{"line":1,"i_lat":-6.224515,"distance":3097,"time":3,"station_name":"Kranji","transit":false,"is_transit":false,"i_long":106.977657,"station_id":"KRI"},{"distance":2520,"i_long":106.997013,"is_transit":false,"time":4,"station_name":"Bekasi","i_lat":-6.236616,"station_id":"BKS","line":1,"transit":false},{"station_name":"Bekasi Timur","i_long":107.016735,"transit":false,"i_lat":-6.248029,"line":1,"distance":2368,"time":2,"is_transit":false,"station_id":"BKST"},{"transit":false,"station_id":"TB","time":7,"i_lat":-6.258864,"distance":4460,"is_transit":false,"i_long":107.055722,"line":1,"station_name":"Tambun"}]]}