{"data":[[{"i_long":106.394373,"distance":0,"i_lat":-6.332307,"station_name":"Maja","transit":false,"station_id":"MJ","line":6,"is_transit":false,"time":0},{"transit":false,"station_id":"CKY","time":4,"is_transit":false,"i_long":106.411216,"line":0,"station_name":"Cikoya","distance":1853,"i_lat":-6.33561},{"i_lat":-6.328533,"station_id":"TGS","line":6,"transit":false,"time":3,"distance":2651,"i_long":106.425991,"station_name":"Tigaraksa","is_transit":false},{"time":5,"is_transit":false,"distance":2974,"station_id":"TEJ","transit":false,"i_lat":-6.327251,"station_name":"Tenjo","line":6,"i_long":106.460812},{"station_id":"DAR","distance":3902,"station_name":"Daru","i_long":106.491338,"line":0,"is_transit":false,"time":5,"transit":false,"i_lat":-6.338021},{"is_transit":false,"station_id":"CJT","transit":false,"i_long":106.508482,"line":0,"distance":2675,"i_lat":-6.354349,"station_name":"Cilejit","time":6},{"transit":false,"time":9,"station_name":"Parung Panjang","i_lat":-6.3441410000000005,"i_long":106.568863,"is_transit":false,"station_id":"PRP","line":6,"distance":7025},{"i_lat":-6.329547,"line":0,"station_id":"CC","is_transit":false,"distance":5968,"i_long":106.617853,"time":8,"station_name":"Cicayur","transit":false},{"time":4,"station_name":"Cisauk","is_transit":false,"line":0,"station_id":"CSK","transit":false,"i_long":106.640411,"i_lat":-6.32484,"distance":2519},{"time":4,"i_lat":-6.319871,"station_id":"SRP","distance":1784,"station_name":"Serpong","is_transit":false,"line":6,"i_long":106.66566,"transit":false},{"i_lat":-6.314823,"line":6,"is_transit":false,"time":4,"distance":2413,"transit":false,"i_long":106.675475,"station_name":"Rawa Buntu","station_id":"RU"},{"line":6,"transit":false,"i_lat":-6.296963,"station_name":"Sudimara","station_id":"SDM","time":6,"distance":4566,"i_long":106.712277,"is_transit":false},{"i_lat":-6.288927,"i_long":106.728916,"time":4,"transit":false,"line":6,"station_name":"Jurangmangu","station_id":"JMU","is_transit":false,"distance":1994},{"transit":false,"station_id":"PDJ","is_transit":false,"distance":2179,"i_lat":-6.276362,"line":6,"station_name":"Pondokranji","i_long":106.74273,"time":3},{"is_transit":false,"i_long":106.780334,"line":6,"time":8,"i_lat":-6.237242,"station_name":"Kebayoran","distance":6218,"station_id":"KBY","transit":false},{"distance":3737,"i_lat":-6.207404,"station_name":"Palmerah","is_transit":false,"station_id":"PLM","time":7,"i_long":106.79689,"line":6,"transit":false},{"time":6,"distance":3191,"i_long":106.811091,"station_id":"THB","station_name":"Tanah Abang","i_lat":-6.185545,"line":1,"is_transit":true,"transit":true},{"line":1,"station_id":"DU","time":8,"i_lat":-6.155215,"distance":3632,"is_transit":true,"station_name":"Duri","transit":true,"i_long":106.800832},{"time":3,"distance":1700,"station_id":"GGL","is_transit":false,"i_lat":-6.162021,"station_name":"Grogol","i_long":106.788277,"line":5,"transit":false},{"transit":false,"i_lat":-6.161433,"time":2,"i_long":106.771379,"is_transit":false,"distance":2036,"station_id":"PSG","line":5,"station_name":"Pesing"},{"distance":1614,"station_id":"TKO","station_name":"Taman Kota","transit":false,"time":2,"i_lat":-6.1587309999999995,"i_long":106.756522,"line":5,"is_transit":false},{"station_id":"BOI","time":2,"station_name":"Bojongindah","line":0,"is_transit":false,"transit":false,"distance":2334,"i_long":106.737035,"i_lat":-6.159876},{"station_name":"Rawa Buaya","station_id":"RW","time":4,"distance":1152,"transit":false,"i_long":106.723064,"line":5,"is_transit":false,"i_lat":-6.162758},{"i_long":106.701612,"station_name":"Kalideres","time":3,"is_transit":false,"i_lat":-6.166068,"distance":2504,"station_id":"KDS","line":5,"transit":false},{"line":5,"distance":2548,"time":3,"transit":false,"station_id":"PI","is_transit":false,"i_lat":-6.169933,"i_long":106.679458,"station_name":"Poris"},{"i_long":106.665036,"station_name":"Batuceper","transit":false,"line":0,"station_id":"BPR","is_transit":false,"time":3,"distance":1834,"i_lat":-6.171811},{"station_name":"Tanah Tinggi","is_transit":false,"i_lat":-6.17331,"line":5,"transit":false,"time":3,"i_long":106.64657,"station_id":"TTI","distance":2028}],[{"distance":0,"is_transit":false,"station_name":"Maja","time":0,"station_id":"MJ","transit":false,"i_long":106.394373,"line":6,"i_lat":-6.332307},{"i_long":106.411216,"distance":1853,"i_lat":-6.33561,"is_transit":false,"transit":false,"time":4,"station_id":"CKY","station_name":"Cikoya","line":0},{"distance":2651,"i_long":106.425991,"station_name":"Tigaraksa","station_id":"TGS","transit":false,"time":3,"is_transit":false,"line":6,"i_lat":-6.328533},{"station_name":"Tenjo","station_id":"TEJ","distance":2974,"transit":false,"is_transit":false,"i_long":106.460812,"i_lat":-6.327251,"time":5,"line":6},{"station_name":"Daru","is_transit":false,"time":5,"i_lat":-6.338021,"line":0,"distance":3902,"transit":false,"i_long":106.491338,"station_id":"DAR"},{"station_name":"Cilejit","station_id":"CJT","time":6,"transit":false,"distance":2675,"is_transit":false,"i_long":106.508482,"i_lat":-6.354349,"line":0},{"station_name":"Parung Panjang","time":9,"is_transit":false,"i_lat":-6.3441410000000005,"distance":7025,"station_id":"PRP","i_long":106.568863,"line":6,"transit":false},{"i_lat":-6.329547,"line":0,"i_long":106.617853,"station_id":"CC","station_name":"Cicayur","distance":5968,"transit":false,"is_transit":false,"time":8},{"i_lat":-6.32484,"i_long":106.640411,"station_name":"Cisauk","is_transit":false,"line":0,"station_id":"CSK","distance":2519,"time":4,"transit":false},{"station_name":"Serpong","transit":false,"i_long":106.66566,"time":4,"distance":1784,"station_id":"SRP","i_lat":-6.319871,"line":6,"is_transit":false},{"distance":2413,"time":4,"station_name":"Rawa Buntu","i_lat":-6.314823,"transit":false,"is_transit":false,"station_id":"RU","i_long":106.675475,"line":6},{"i_long":106.712277,"distance":4566,"line":6,"time":6,"station_name":"Sudimara","station_id":"SDM","is_transit":false,"transit":false,"i_lat":-6.296963},{"line":6,"station_id":"JMU","time":4,"station_name":"Jurangmangu","i_lat":-6.288927,"is_transit":false,"i_long":106.728916,"distance":1994,"transit":false},{"i_lat":-6.276362,"station_id":"PDJ","time":3,"is_transit":false,"i_long":106.74273,"transit":false,"line":6,"station_name":"Pondokranji","distance":2179},{"distance":6218,"time":8,"station_id":"KBY","i_lat":-6.237242,"transit":false,"i_long":106.780334,"line":6,"station_name":"Kebayoran","is_transit":false},{"is_transit":false,"station_id":"PLM","time":7,"transit":false,"line":6,"station_name":"Palmerah","i_lat":-6.207404,"i_long":106.79689,"distance":3737},{"time":6,"distance":3191,"transit":true,"is_transit":true,"line":1,"station_name":"Tanah Abang","i_lat":-6.185545,"station_id":"THB","i_long":106.811091},{"i_lat":-6.20132,"transit":false,"is_transit":false,"station_id":"KAT","i_long":106.816351,"station_name":"Karet","line":1,"distance":2029,"time":5},{"station_id":"SUDB","station_name":"Sudirman Baru","transit":false,"line":1,"distance":471,"is_transit":false,"i_lat":-6.201433,"time":1,"i_long":106.819881},{"i_lat":-6.202263,"line":1,"station_name":"Sudirman","time":1,"is_transit":false,"station_id":"SUD","distance":280,"i_long":106.822649,"transit":false},{"is_transit":true,"distance":3186,"line":0,"station_name":"Manggarai","transit":true,"i_long":106.84912,"time":4,"i_lat":-6.209883,"station_id":"MRI"},{"line":0,"is_transit":false,"distance":1590,"station_id":"CKI","transit":false,"i_long":106.840169,"station_name":"Cikini","time":4,"i_lat":-6.198556},{"i_lat":-6.186295,"i_long":106.832183,"station_id":"GDD","time":3,"line":2,"is_transit":false,"station_name":"Gondangdia","transit":false,"distance":1750},{"i_lat":-6.166716,"station_name":"Juanda","i_long":106.828284,"line":2,"is_transit":false,"distance":2015,"station_id":"JUA","time":4,"transit":false},{"station_id":"SW","is_transit":false,"line":2,"transit":false,"station_name":"Sawah Besar","distance":1149,"i_lat":-6.160725,"i_long":106.827103,"time":2},{"distance":906,"i_lat":-6.149769,"station_name":"Manggabesar","time":2,"line":2,"is_transit":false,"station_id":"MGB","transit":false,"i_long":106.82482},{"line":7,"station_id":"JAY","i_lat":-6.141205,"transit":false,"is_transit":false,"i_long":106.820901,"time":2,"distance":1080,"station_name":"Jayakarta"},{"transit":true,"i_long":106.812439,"station_id":"JAKK","distance":1264,"line":0,"i_lat":-6.137569,"station_name":"Jakarta Kota","is_transit":true,"time":4},{"i_lat":-6.132549,"line":0,"is_transit":true,"i_long":106.826365,"station_name":"Kampung Bandan","time":3,"distance":1364,"station_id":"KPB","transit":false},{"distance":4102,"station_id":"AK","station_name":"Angke","i_lat":-6.144674,"time":9,"i_long":106.79867,"line":0,"transit":false,"is_transit":false},{"line":1,"transit":true,"station_name":"Duri","i_lat":-6.155215,"is_transit":true,"station_id":"DU","i_long":106.800832,"time":4,"distance":1230},{"i_lat":-6.162021,"station_id":"GGL","i_long":106.788277,"line":5,"time":3,"is_transit":false,"distance":1700,"station_name":"Grogol","transit":false},{"station_id":"PSG","i_long":106.771379,"i_lat":-6.161433,"line":5,"station_name":"Pesing","time":2,"transit":false,"distance":2036,"is_transit":false},{"is_transit":false,"time":2,"transit":false,"i_long":106.756522,"line":5,"distance":1614,"station_name":"Taman Kota","i_lat":-6.1587309999999995,"station_id":"TKO"},{"station_id":"BOI","distance":2334,"is_transit":false,"transit":false,"line":0,"i_long":106.737035,"station_name":"Bojongindah","i_lat":-6.159876,"time":2},{"i_long":106.723064,"time":4,"transit":false,"i_lat":-6.162758,"distance":1152,"station_name":"Rawa Buaya","line":5,"is_transit":false,"station_id":"RW"},{"station_name":"Kalideres","distance":2504,"time":3,"i_lat":-6.166068,"line":5,"is_transit":false,"station_id":"KDS","i_long":106.701612,"transit":false},{"station_id":"PI","i_lat":-6.169933,"station_name":"Poris","transit":false,"i_long":106.679458,"distance":2548,"is_transit":false,"time":3,"line":5},{"i_lat":-6.171811,"time":3,"station_id":"BPR","distance":1834,"transit":false,"station_name":"Batuceper","is_transit":false,"i_long":106.665036,"line":0},{"line":5,"time":3,"transit":false,"i_lat":-6.17331,"station_id":"TTI","is_transit":false,"station_name":"Tanah Tinggi","distance":2028,"i_long":106.64657}],[{"station_id":"MJ","time":0,"is_transit":false,"distance":0,"transit":false,"station_name":"Maja","i_long":106.394373,"i_lat":-6.332307,"line":6},{"i_lat":-6.33561,"line":0,"station_id":"CKY","transit":false,"i_long":106.411216,"distance":1853,"station_name":"Cikoya","is_transit":false,"time":4},{"distance":2651,"transit":false,"line":6,"station_id":"TGS","station_name":"Tigaraksa","i_lat":-6.328533,"i_long":106.425991,"is_transit":false,"time":3},{"i_lat":-6.327251,"distance":2974,"line":6,"transit":false,"is_transit":false,"time":5,"station_id":"TEJ","station_name":"Tenjo","i_long":106.460812},{"time":5,"line":0,"is_transit":false,"i_lat":-6.338021,"distance":3902,"transit":false,"station_id":"DAR","station_name":"Daru","i_long":106.491338},{"station_id":"CJT","is_transit":false,"distance":2675,"i_long":106.508482,"i_lat":-6.354349,"time":6,"transit":false,"station_name":"Cilejit","line":0},{"station_id":"PRP","is_transit":false,"distance":7025,"line":6,"i_long":106.568863,"i_lat":-6.3441410000000005,"transit":false,"time":9,"station_name":"Parung Panjang"},{"station_id":"CC","i_lat":-6.329547,"time":8,"is_transit":false,"i_long":106.617853,"transit":false,"line":0,"station_name":"Cicayur","distance":5968},{"time":4,"station_id":"CSK","transit":false,"is_transit":false,"distance":2519,"line":0,"station_name":"Cisauk","i_lat":-6.32484,"i_long":106.640411},{"i_long":106.66566,"distance":1784,"transit":false,"time":4,"i_lat":-6.319871,"is_transit":false,"station_name":"Serpong","station_id":"SRP","line":6},{"i_long":106.675475,"station_name":"Rawa Buntu","station_id":"RU","is_transit":false,"distance":2413,"i_lat":-6.314823,"transit":false,"line":6,"time":4},{"line":6,"station_name":"Sudimara","is_transit":false,"distance":4566,"i_lat":-6.296963,"time":6,"station_id":"SDM","transit":false,"i_long":106.712277},{"is_transit":false,"i_long":106.728916,"station_id":"JMU","time":4,"distance":1994,"transit":false,"station_name":"Jurangmangu","i_lat":-6.288927,"line":6},{"station_id":"PDJ","station_name":"Pondokranji","distance":2179,"is_transit":false,"time":3,"i_lat":-6.276362,"i_long":106.74273,"line":6,"transit":false},{"time":8,"line":6,"distance":6218,"transit":false,"is_transit":false,"station_name":"Kebayoran","station_id":"KBY","i_lat":-6.237242,"i_long":106.780334},{"distance":3737,"transit":false,"i_lat":-6.207404,"time":7,"i_long":106.79689,"station_name":"Palmerah","line":6,"station_id":"PLM","is_transit":false},{"is_transit":true,"station_name":"Tanah Abang","distance":3191,"line":1,"station_id":"THB","time":6,"i_lat":-6.185545,"transit":true,"i_long":106.811091},{"i_lat":-6.20132,"line":1,"station_name":"Karet","i_long":106.816351,"is_transit":false,"station_id":"KAT","time":5,"transit":false,"distance":2029},{"station_name":"Sudirman Baru","transit":false,"i_lat":-6.201433,"distance":471,"is_transit":false,"i_long":106.819881,"line":1,"station_id":"SUDB","time":1},{"time":1,"distance":280,"transit":false,"station_id":"SUD","i_lat":-6.202263,"station_name":"Sudirman","i_long":106.822649,"line":1,"is_transit":false},{"is_transit":true,"i_lat":-6.209883,"station_name":"Manggarai","time":4,"line":0,"distance":3186,"station_id":"MRI","transit":false,"i_long":106.84912},{"time":2,"is_transit":false,"i_lat":-6.212485,"distance":1275,"i_long":106.858896,"transit":false,"line":1,"station_name":"Matraman","station_id":"MTR"},{"i_lat":-6.215091,"i_long":106.86807400000001,"distance":1377,"is_transit":true,"station_name":"Jatinegara","transit":true,"line":0,"station_id":"JNG","time":8},{"station_name":"Pondok Jati","station_id":"POK","transit":false,"distance":1236,"is_transit":false,"i_long":106.861737,"line":11,"time":2,"i_lat":-6.209188},{"distance":1829,"time":2,"transit":false,"line":11,"i_lat":-6.193792,"station_id":"KMT","is_transit":false,"station_name":"Kramat","i_long":106.855437},{"transit":false,"i_lat":-6.185975,"station_name":"Gang Sentiong","distance":973,"is_transit":false,"time":1,"station_id":"GST","i_long":106.850107,"line":11},{"line":11,"time":8,"transit":false,"is_transit":false,"i_lat":-6.174784,"station_name":"Pasar Senen","station_id":"PSE","distance":1567,"i_long":106.84368},{"distance":1436,"i_long":106.839204,"is_transit":false,"station_id":"KMO","i_lat":-6.161728,"time":4,"station_name":"Kemayoran","transit":false,"line":11},{"is_transit":false,"station_id":"RJW","time":5,"transit":false,"i_lat":-6.14505,"station_name":"Rajawali","i_long":106.836569,"distance":1901,"line":11},{"i_lat":-6.132549,"distance":1444,"i_long":106.826365,"time":3,"line":0,"station_name":"Kampung Bandan","station_id":"KPB","is_transit":true,"transit":true},{"i_lat":-6.144674,"station_id":"AK","is_transit":false,"station_name":"Angke","time":9,"transit":false,"i_long":106.79867,"line":0,"distance":4102},{"transit":true,"distance":1230,"is_transit":true,"station_name":"Duri","i_lat":-6.155215,"i_long":106.800832,"line":1,"station_id":"DU","time":4},{"distance":1700,"is_transit":false,"transit":false,"i_lat":-6.162021,"station_name":"Grogol","time":3,"station_id":"GGL","i_long":106.788277,"line":5},{"i_long":106.771379,"i_lat":-6.161433,"line":5,"is_transit":false,"time":2,"station_id":"PSG","station_name":"Pesing","distance":2036,"transit":false},{"time":2,"is_transit":false,"line":5,"transit":false,"station_name":"Taman Kota","i_lat":-6.1587309999999995,"i_long":106.756522,"station_id":"TKO","distance":1614},{"i_lat":-6.159876,"station_id":"BOI","distance":2334,"station_name":"Bojongindah","transit":false,"is_transit":false,"i_long":106.737035,"time":2,"line":0},{"line":5,"distance":1152,"i_long":106.723064,"station_id":"RW","i_lat":-6.162758,"time":4,"transit":false,"is_transit":false,"station_name":"Rawa Buaya"},{"i_lat":-6.166068,"time":3,"i_long":106.701612,"distance":2504,"station_name":"Kalideres","station_id":"KDS","transit":false,"line":5,"is_transit":false},{"station_id":"PI","i_lat":-6.169933,"distance":2548,"transit":false,"time":3,"is_transit":false,"line":5,"station_name":"Poris","i_long":106.679458},{"station_id":"BPR","i_long":106.665036,"time":3,"distance":1834,"line":0,"transit":false,"i_lat":-6.171811,"is_transit":false,"station_name":"Batuceper"},{"station_id":"TTI","i_long":106.64657,"time":3,"i_lat":-6.17331,"line":5,"station_name":"Tanah Tinggi","distance":2028,"is_transit":false,"transit":false}]]}