{"data":[[{"time":0,"distance":0,"transit":false,"is_transit":false,"i_lat":-6.332307,"station_id":"MJ","line":6,"station_name":"Maja","i_long":106.394373},{"line":3,"time":4,"station_id":"CKY","is_transit":false,"distance":1853,"i_long":106.411216,"i_lat":-6.33561,"transit":false,"station_name":"Cikoya"},{"line":6,"distance":2651,"time":3,"i_lat":-6.328533,"station_id":"TGS","station_name":"Tigaraksa","transit":false,"i_long":106.425991,"is_transit":false},{"is_transit":false,"distance":2974,"station_id":"TEJ","i_long":106.460812,"line":6,"time":5,"transit":false,"i_lat":-6.327251,"station_name":"Tenjo"},{"time":5,"is_transit":false,"transit":false,"i_lat":-6.338021,"i_long":106.491338,"line":0,"distance":3902,"station_id":"DAR","station_name":"Daru"},{"i_lat":-6.354349,"station_name":"Cilejit","i_long":106.508482,"distance":2675,"station_id":"CJT","line":3,"time":6,"is_transit":false,"transit":false},{"is_transit":false,"time":9,"station_name":"Parung Panjang","i_long":106.568863,"distance":7025,"line":6,"transit":false,"i_lat":-6.3441410000000005,"station_id":"PRP"},{"station_id":"CC","transit":false,"i_long":106.617853,"line":3,"distance":5968,"is_transit":false,"station_name":"Cicayur","time":8,"i_lat":-6.329547},{"station_id":"CSK","i_lat":-6.32484,"line":3,"is_transit":false,"time":4,"i_long":106.640411,"station_name":"Cisauk","transit":false,"distance":2519},{"transit":false,"line":6,"is_transit":false,"i_lat":-6.319871,"i_long":106.66566,"station_name":"Serpong","station_id":"SRP","time":4,"distance":1784},{"station_id":"RU","line":6,"transit":false,"i_lat":-6.314823,"time":4,"i_long":106.675475,"is_transit":false,"station_name":"Rawa Buntu","distance":2413},{"station_name":"Sudimara","line":6,"transit":false,"station_id":"SDM","i_lat":-6.296963,"time":6,"i_long":106.712277,"is_transit":false,"distance":4566},{"transit":false,"station_name":"Jurangmangu","line":6,"station_id":"JMU","is_transit":false,"time":4,"i_lat":-6.288927,"distance":1994,"i_long":106.728916},{"station_id":"PDJ","time":3,"is_transit":false,"station_name":"Pondokranji","line":6,"i_lat":-6.276362,"i_long":106.74273,"distance":2179,"transit":false},{"distance":6218,"line":6,"transit":false,"time":8,"station_name":"Kebayoran","i_long":106.780334,"is_transit":false,"station_id":"KBY","i_lat":-6.237242},{"i_lat":-6.207404,"time":7,"station_name":"Palmerah","transit":false,"is_transit":false,"distance":3737,"station_id":"PLM","i_long":106.79689,"line":6},{"line":1,"station_name":"Tanah Abang","transit":true,"time":6,"i_lat":-6.185545,"distance":3191,"station_id":"THB","is_transit":true,"i_long":106.811091},{"i_lat":-6.155215,"is_transit":true,"distance":3632,"i_long":106.800832,"station_name":"Duri","transit":true,"station_id":"DU","line":1,"time":8},{"station_id":"GGL","i_long":106.788277,"i_lat":-6.162021,"station_name":"Grogol","is_transit":false,"distance":1700,"line":5,"transit":false,"time":3},{"time":2,"transit":false,"is_transit":false,"station_id":"PSG","distance":2036,"i_lat":-6.161433,"line":5,"station_name":"Pesing","i_long":106.771379},{"i_long":106.756522,"transit":false,"line":5,"is_transit":false,"station_name":"Taman Kota","station_id":"TKO","distance":1614,"time":2,"i_lat":-6.1587309999999995},{"i_long":106.737035,"distance":2334,"station_id":"BOI","i_lat":-6.159876,"time":2,"line":5,"is_transit":false,"transit":false,"station_name":"Bojongindah"},{"time":4,"line":5,"i_long":106.723064,"station_name":"Rawa Buaya","i_lat":-6.162758,"transit":false,"distance":1152,"station_id":"RW","is_transit":false},{"is_transit":false,"station_id":"KDS","i_lat":-6.166068,"time":3,"transit":false,"i_long":106.701612,"station_name":"Kalideres","distance":2504,"line":5},{"station_id":"PI","transit":false,"distance":2548,"i_lat":-6.169933,"line":5,"station_name":"Poris","time":3,"is_transit":false,"i_long":106.679458},{"i_lat":-6.171811,"i_long":106.665036,"is_transit":false,"time":3,"station_name":"Batuceper","line":5,"distance":1834,"transit":false,"station_id":"BPR"},{"time":3,"station_id":"TTI","distance":2028,"i_lat":-6.17331,"transit":false,"station_name":"Tanah Tinggi","is_transit":false,"line":5,"i_long":106.64657}],[{"is_transit":false,"transit":false,"line":6,"time":0,"station_name":"Maja","station_id":"MJ","distance":0,"i_lat":-6.332307,"i_long":106.394373},{"i_long":106.411216,"station_name":"Cikoya","station_id":"CKY","transit":false,"time":4,"i_lat":-6.33561,"line":3,"distance":1853,"is_transit":false},{"i_long":106.425991,"station_name":"Tigaraksa","line":6,"station_id":"TGS","time":3,"distance":2651,"transit":false,"is_transit":false,"i_lat":-6.328533},{"i_lat":-6.327251,"is_transit":false,"transit":false,"i_long":106.460812,"line":6,"station_name":"Tenjo","distance":2974,"time":5,"station_id":"TEJ"},{"time":5,"distance":3902,"i_lat":-6.338021,"is_transit":false,"transit":false,"station_name":"Daru","i_long":106.491338,"station_id":"DAR","line":0},{"i_long":106.508482,"is_transit":false,"station_name":"Cilejit","distance":2675,"time":6,"station_id":"CJT","transit":false,"i_lat":-6.354349,"line":3},{"distance":7025,"transit":false,"station_id":"PRP","i_long":106.568863,"time":9,"i_lat":-6.3441410000000005,"line":6,"is_transit":false,"station_name":"Parung Panjang"},{"distance":5968,"i_long":106.617853,"line":3,"transit":false,"i_lat":-6.329547,"station_name":"Cicayur","time":8,"station_id":"CC","is_transit":false},{"i_long":106.640411,"line":3,"station_name":"Cisauk","station_id":"CSK","transit":false,"is_transit":false,"time":4,"i_lat":-6.32484,"distance":2519},{"station_id":"SRP","i_long":106.66566,"i_lat":-6.319871,"line":6,"time":4,"transit":false,"distance":1784,"station_name":"Serpong","is_transit":false},{"is_transit":false,"time":4,"i_long":106.675475,"i_lat":-6.314823,"station_id":"RU","transit":false,"line":6,"station_name":"Rawa Buntu","distance":2413},{"distance":4566,"is_transit":false,"i_lat":-6.296963,"line":6,"transit":false,"station_name":"Sudimara","station_id":"SDM","i_long":106.712277,"time":6},{"is_transit":false,"transit":false,"station_id":"JMU","time":4,"distance":1994,"i_long":106.728916,"line":6,"i_lat":-6.288927,"station_name":"Jurangmangu"},{"i_long":106.74273,"transit":false,"station_name":"Pondokranji","i_lat":-6.276362,"distance":2179,"time":3,"station_id":"PDJ","is_transit":false,"line":6},{"is_transit":false,"station_id":"KBY","i_lat":-6.237242,"line":6,"distance":6218,"transit":false,"station_name":"Kebayoran","i_long":106.780334,"time":8},{"transit":false,"i_lat":-6.207404,"distance":3737,"line":6,"time":7,"is_transit":false,"station_id":"PLM","i_long":106.79689,"station_name":"Palmerah"},{"line":1,"distance":3191,"is_transit":true,"time":6,"i_lat":-6.185545,"station_id":"THB","i_long":106.811091,"station_name":"Tanah Abang","transit":true},{"distance":2029,"station_id":"KAT","station_name":"Karet","transit":false,"i_lat":-6.20132,"line":1,"i_long":106.816351,"time":5,"is_transit":false},{"i_long":106.819881,"time":1,"station_name":"Sudirman Baru","station_id":"SUDB","i_lat":-6.201433,"transit":false,"is_transit":false,"line":1,"distance":471},{"station_name":"Sudirman","i_long":106.822649,"i_lat":-6.202263,"distance":280,"transit":false,"line":1,"station_id":"SUD","time":1,"is_transit":false},{"time":4,"distance":3186,"station_id":"MRI","i_long":106.84912,"station_name":"Manggarai","line":2,"i_lat":-6.209883,"is_transit":true,"transit":true},{"line":2,"distance":1590,"time":4,"station_name":"Cikini","station_id":"CKI","i_lat":-6.198556,"is_transit":false,"transit":false,"i_long":106.840169},{"i_lat":-6.186295,"station_id":"GDD","transit":false,"station_name":"Gondangdia","distance":1750,"i_long":106.832183,"time":3,"line":2,"is_transit":false},{"station_id":"JUA","transit":false,"i_lat":-6.166716,"line":2,"distance":2015,"i_long":106.828284,"is_transit":false,"station_name":"Juanda","time":4},{"distance":1149,"transit":false,"time":2,"is_transit":false,"station_name":"Sawah Besar","station_id":"SW","i_lat":-6.160725,"line":2,"i_long":106.827103},{"station_id":"MGB","i_long":106.82482,"is_transit":false,"station_name":"Manggabesar","distance":906,"i_lat":-6.149769,"transit":false,"time":2,"line":2},{"distance":1080,"i_lat":-6.141205,"line":2,"i_long":106.820901,"station_id":"JAY","transit":false,"station_name":"Jayakarta","time":2,"is_transit":false},{"time":4,"distance":1264,"is_transit":true,"line":2,"station_name":"Jakarta Kota","station_id":"JAKK","transit":true,"i_lat":-6.137569,"i_long":106.812439},{"distance":1364,"i_long":106.826365,"line":4,"i_lat":-6.132549,"time":3,"is_transit":true,"station_name":"Kampung Bandan","station_id":"KPB","transit":true},{"time":9,"transit":false,"station_name":"Angke","i_long":106.79867,"line":1,"is_transit":false,"distance":4102,"station_id":"AK","i_lat":-6.144674},{"i_long":106.800832,"station_name":"Duri","station_id":"DU","is_transit":true,"distance":1230,"transit":true,"time":4,"line":1,"i_lat":-6.155215},{"station_name":"Grogol","time":3,"transit":false,"i_lat":-6.162021,"i_long":106.788277,"distance":1700,"station_id":"GGL","line":5,"is_transit":false},{"line":5,"station_id":"PSG","station_name":"Pesing","time":2,"i_lat":-6.161433,"i_long":106.771379,"transit":false,"distance":2036,"is_transit":false},{"time":2,"station_id":"TKO","i_lat":-6.1587309999999995,"line":5,"distance":1614,"is_transit":false,"i_long":106.756522,"station_name":"Taman Kota","transit":false},{"station_name":"Bojongindah","line":5,"is_transit":false,"time":2,"distance":2334,"station_id":"BOI","transit":false,"i_long":106.737035,"i_lat":-6.159876},{"transit":false,"is_transit":false,"time":4,"distance":1152,"line":5,"i_lat":-6.162758,"station_id":"RW","i_long":106.723064,"station_name":"Rawa Buaya"},{"distance":2504,"station_id":"KDS","station_name":"Kalideres","transit":false,"i_lat":-6.166068,"line":5,"time":3,"is_transit":false,"i_long":106.701612},{"is_transit":false,"i_long":106.679458,"i_lat":-6.169933,"distance":2548,"station_name":"Poris","time":3,"transit":false,"station_id":"PI","line":5},{"i_long":106.665036,"i_lat":-6.171811,"line":5,"time":3,"station_name":"Batuceper","station_id":"BPR","transit":false,"is_transit":false,"distance":1834},{"station_name":"Tanah Tinggi","distance":2028,"line":5,"transit":false,"i_lat":-6.17331,"i_long":106.64657,"is_transit":false,"time":3,"station_id":"TTI"}],[{"station_name":"Maja","i_lat":-6.332307,"is_transit":false,"transit":false,"line":6,"i_long":106.394373,"time":0,"station_id":"MJ","distance":0},{"station_id":"CKY","transit":false,"i_lat":-6.33561,"line":3,"is_transit":false,"distance":1853,"time":4,"i_long":106.411216,"station_name":"Cikoya"},{"is_transit":false,"i_long":106.425991,"station_id":"TGS","line":6,"station_name":"Tigaraksa","transit":false,"i_lat":-6.328533,"distance":2651,"time":3},{"station_name":"Tenjo","distance":2974,"station_id":"TEJ","transit":false,"i_lat":-6.327251,"i_long":106.460812,"line":6,"is_transit":false,"time":5},{"time":5,"station_name":"Daru","is_transit":false,"distance":3902,"transit":false,"i_lat":-6.338021,"station_id":"DAR","line":0,"i_long":106.491338},{"is_transit":false,"station_name":"Cilejit","i_long":106.508482,"line":3,"distance":2675,"station_id":"CJT","transit":false,"time":6,"i_lat":-6.354349},{"time":9,"distance":7025,"transit":false,"i_long":106.568863,"i_lat":-6.3441410000000005,"line":6,"station_id":"PRP","is_transit":false,"station_name":"Parung Panjang"},{"i_lat":-6.329547,"transit":false,"station_id":"CC","line":3,"time":8,"station_name":"Cicayur","i_long":106.617853,"is_transit":false,"distance":5968},{"time":4,"transit":false,"i_long":106.640411,"i_lat":-6.32484,"station_name":"Cisauk","is_transit":false,"distance":2519,"line":3,"station_id":"CSK"},{"station_id":"SRP","i_lat":-6.319871,"is_transit":false,"station_name":"Serpong","line":6,"i_long":106.66566,"distance":1784,"transit":false,"time":4},{"transit":false,"distance":2413,"station_name":"Rawa Buntu","line":6,"i_long":106.675475,"i_lat":-6.314823,"time":4,"station_id":"RU","is_transit":false},{"distance":4566,"i_long":106.712277,"is_transit":false,"station_name":"Sudimara","line":6,"transit":false,"station_id":"SDM","time":6,"i_lat":-6.296963},{"is_transit":false,"time":4,"i_lat":-6.288927,"i_long":106.728916,"station_name":"Jurangmangu","distance":1994,"transit":false,"station_id":"JMU","line":6},{"distance":2179,"is_transit":false,"station_id":"PDJ","line":6,"station_name":"Pondokranji","transit":false,"i_lat":-6.276362,"time":3,"i_long":106.74273},{"i_long":106.780334,"station_name":"Kebayoran","station_id":"KBY","i_lat":-6.237242,"transit":false,"is_transit":false,"time":8,"distance":6218,"line":6},{"time":7,"transit":false,"is_transit":false,"station_id":"PLM","i_lat":-6.207404,"distance":3737,"i_long":106.79689,"line":6,"station_name":"Palmerah"},{"i_long":106.811091,"station_name":"Tanah Abang","station_id":"THB","transit":true,"line":1,"i_lat":-6.185545,"time":6,"distance":3191,"is_transit":true},{"transit":false,"i_long":106.816351,"i_lat":-6.20132,"station_name":"Karet","time":5,"distance":2029,"station_id":"KAT","line":1,"is_transit":false},{"time":1,"is_transit":false,"station_name":"Sudirman Baru","station_id":"SUDB","line":1,"distance":471,"i_lat":-6.201433,"i_long":106.819881,"transit":false},{"i_long":106.822649,"distance":280,"is_transit":false,"time":1,"station_id":"SUD","line":1,"transit":false,"i_lat":-6.202263,"station_name":"Sudirman"},{"time":4,"distance":3186,"station_name":"Manggarai","transit":false,"station_id":"MRI","i_lat":-6.209883,"line":2,"i_long":106.84912,"is_transit":false},{"distance":1275,"time":2,"station_id":"MTR","transit":false,"i_lat":-6.212485,"i_long":106.858896,"line":1,"is_transit":false,"station_name":"Matraman"},{"station_name":"Jatinegara","transit":true,"distance":1377,"i_long":106.86807400000001,"i_lat":-6.215091,"station_id":"JNG","time":8,"line":1,"is_transit":true},{"i_long":106.861737,"line":11,"time":2,"station_id":"POK","is_transit":false,"transit":false,"station_name":"Pondok Jati","i_lat":-6.209188,"distance":1236},{"line":11,"time":2,"i_long":106.855437,"transit":false,"distance":1829,"station_id":"KMT","station_name":"Kramat","i_lat":-6.193792,"is_transit":false},{"line":11,"distance":973,"is_transit":false,"transit":false,"time":1,"i_lat":-6.185975,"i_long":106.850107,"station_name":"Gang Sentiong","station_id":"GST"},{"i_long":106.84368,"time":8,"line":11,"transit":false,"distance":1567,"i_lat":-6.174784,"station_id":"PSE","is_transit":false,"station_name":"Pasar Senen"},{"line":11,"transit":false,"time":4,"station_id":"KMO","is_transit":false,"distance":1436,"station_name":"Kemayoran","i_long":106.839204,"i_lat":-6.161728},{"i_long":106.836569,"is_transit":false,"station_name":"Rajawali","distance":1901,"time":5,"transit":false,"line":11,"i_lat":-6.14505,"station_id":"RJW"},{"i_lat":-6.132549,"station_id":"KPB","is_transit":true,"i_long":106.826365,"distance":1444,"station_name":"Kampung Bandan","line":4,"time":3,"transit":true},{"is_transit":false,"time":9,"transit":false,"station_name":"Angke","station_id":"AK","i_long":106.79867,"line":1,"i_lat":-6.144674,"distance":4102},{"i_lat":-6.155215,"time":4,"transit":true,"is_transit":true,"station_name":"Duri","i_long":106.800832,"line":1,"distance":1230,"station_id":"DU"},{"i_long":106.788277,"transit":false,"time":3,"i_lat":-6.162021,"station_id":"GGL","distance":1700,"line":5,"is_transit":false,"station_name":"Grogol"},{"i_long":106.771379,"distance":2036,"is_transit":false,"station_id":"PSG","transit":false,"line":5,"time":2,"station_name":"Pesing","i_lat":-6.161433},{"is_transit":false,"station_id":"TKO","i_lat":-6.1587309999999995,"distance":1614,"time":2,"transit":false,"i_long":106.756522,"station_name":"Taman Kota","line":5},{"i_lat":-6.159876,"i_long":106.737035,"station_id":"BOI","is_transit":false,"station_name":"Bojongindah","transit":false,"distance":2334,"line":5,"time":2},{"distance":1152,"transit":false,"time":4,"is_transit":false,"station_id":"RW","i_lat":-6.162758,"station_name":"Rawa Buaya","i_long":106.723064,"line":5},{"transit":false,"line":5,"distance":2504,"i_long":106.701612,"is_transit":false,"station_name":"Kalideres","station_id":"KDS","time":3,"i_lat":-6.166068},{"i_lat":-6.169933,"station_name":"Poris","station_id":"PI","i_long":106.679458,"transit":false,"time":3,"line":5,"distance":2548,"is_transit":false},{"station_id":"BPR","distance":1834,"line":5,"transit":false,"time":3,"i_long":106.665036,"i_lat":-6.171811,"is_transit":false,"station_name":"Batuceper"},{"i_lat":-6.17331,"i_long":106.64657,"transit":false,"line":5,"distance":2028,"station_name":"Tanah Tinggi","station_id":"TTI","time":3,"is_transit":false}]]}