{"data":[[{"time":0,"i_long":106.394373,"distance":0,"i_lat":-6.332307,"line":6,"station_name":"Maja","station_id":"MJ","is_transit":false,"transit":false},{"line":3,"is_transit":false,"i_long":106.411216,"station_name":"Cikoya","time":4,"station_id":"CKY","i_lat":-6.33561,"distance":1853,"transit":false},{"station_id":"TGS","transit":false,"time":3,"station_name":"Tigaraksa","line":6,"is_transit":false,"i_long":106.425991,"distance":2651,"i_lat":-6.328533},{"time":5,"i_lat":-6.327251,"line":6,"i_long":106.460812,"distance":2974,"transit":false,"station_id":"TEJ","station_name":"Tenjo","is_transit":false},{"time":5,"distance":3902,"station_id":"DAR","i_lat":-6.338021,"is_transit":false,"station_name":"Daru","transit":false,"i_long":106.491338,"line":0},{"station_id":"CJT","time":6,"is_transit":false,"i_long":106.508482,"line":3,"i_lat":-6.354349,"transit":false,"station_name":"Cilejit","distance":2675},{"time":9,"i_lat":-6.3441410000000005,"station_id":"PRP","distance":7025,"station_name":"Parung Panjang","i_long":106.568863,"transit":false,"is_transit":false,"line":6},{"station_id":"CC","time":8,"distance":5968,"station_name":"Cicayur","i_lat":-6.329547,"i_long":106.617853,"line":3,"is_transit":false,"transit":false},{"line":3,"station_id":"CSK","transit":false,"i_lat":-6.32484,"time":4,"distance":2519,"station_name":"Cisauk","i_long":106.640411,"is_transit":false},{"line":6,"i_lat":-6.319871,"transit":false,"station_id":"SRP","time":4,"distance":1784,"station_name":"Serpong","i_long":106.66566,"is_transit":false},{"i_lat":-6.314823,"is_transit":false,"distance":2413,"time":4,"station_name":"Rawa Buntu","transit":false,"line":6,"i_long":106.675475,"station_id":"RU"},{"station_id":"SDM","line":6,"time":6,"i_long":106.712277,"transit":false,"station_name":"Sudimara","is_transit":false,"distance":4566,"i_lat":-6.296963},{"distance":1994,"i_lat":-6.288927,"station_id":"JMU","time":4,"i_long":106.728916,"station_name":"Jurangmangu","line":6,"transit":false,"is_transit":false},{"time":3,"line":6,"transit":false,"station_name":"Pondokranji","is_transit":false,"station_id":"PDJ","i_long":106.74273,"i_lat":-6.276362,"distance":2179},{"i_lat":-6.237242,"station_id":"KBY","station_name":"Kebayoran","distance":6218,"time":8,"transit":false,"is_transit":false,"i_long":106.780334,"line":6},{"station_name":"Palmerah","i_long":106.79689,"is_transit":false,"line":6,"station_id":"PLM","transit":false,"i_lat":-6.207404,"distance":3737,"time":7},{"i_long":106.811091,"station_id":"THB","time":6,"distance":3191,"line":1,"is_transit":true,"transit":true,"station_name":"Tanah Abang","i_lat":-6.185545},{"time":5,"station_name":"Karet","station_id":"KAT","distance":2029,"line":1,"transit":false,"i_lat":-6.20132,"i_long":106.816351,"is_transit":false},{"station_name":"Sudirman Baru","distance":471,"is_transit":false,"station_id":"SUDB","i_long":106.819881,"i_lat":-6.201433,"time":1,"line":1,"transit":false},{"station_name":"Sudirman","line":1,"transit":false,"i_lat":-6.202263,"is_transit":false,"time":1,"station_id":"SUD","i_long":106.822649,"distance":280},{"i_long":106.84912,"time":4,"station_name":"Manggarai","transit":true,"station_id":"MRI","is_transit":true,"i_lat":-6.209883,"distance":3186,"line":2},{"station_name":"Tebet","line":2,"i_lat":-6.226659,"is_transit":false,"transit":false,"i_long":106.857948,"station_id":"TEB","distance":2610,"time":4},{"station_name":"Cawang","line":2,"is_transit":false,"transit":false,"i_lat":-6.242512,"station_id":"CW","i_long":106.856607,"distance":1230,"time":2},{"station_name":"Duren Kalibata","is_transit":false,"distance":1546,"i_lat":-6.255332,"station_id":"DRN","transit":false,"i_long":106.85449,"line":2,"time":3},{"station_name":"Pasar Minggu Baru","distance":824,"is_transit":false,"i_long":106.851577,"time":2,"i_lat":-6.263214,"station_id":"PSMB","transit":false,"line":2},{"is_transit":false,"station_name":"Pasar Minggu","transit":false,"time":2,"line":2,"station_id":"PSM","distance":2380,"i_lat":-6.2842400000000005,"i_long":106.843999},{"distance":2820,"time":4,"is_transit":false,"station_id":"TNT","transit":false,"station_name":"Tanjung Barat","i_lat":-6.3080680000000005,"i_long":106.838896,"line":2},{"transit":false,"i_lat":-6.330363,"is_transit":false,"station_id":"LNA","station_name":"Lenteng Agung","distance":2671,"time":3,"line":2,"i_long":106.832616},{"i_lat":-6.339291,"distance":1029,"station_id":"UP","transit":false,"is_transit":false,"station_name":"Univ. Pancasila","time":2,"line":2,"i_long":106.834175}],[{"i_lat":-6.332307,"station_name":"Maja","is_transit":false,"line":6,"i_long":106.394373,"station_id":"MJ","distance":0,"time":0,"transit":false},{"i_long":106.411216,"station_id":"CKY","line":3,"is_transit":false,"i_lat":-6.33561,"transit":false,"time":4,"station_name":"Cikoya","distance":1853},{"distance":2651,"station_name":"Tigaraksa","i_long":106.425991,"time":3,"i_lat":-6.328533,"is_transit":false,"station_id":"TGS","transit":false,"line":6},{"i_long":106.460812,"line":6,"station_id":"TEJ","is_transit":false,"station_name":"Tenjo","distance":2974,"time":5,"transit":false,"i_lat":-6.327251},{"station_id":"DAR","transit":false,"line":0,"i_lat":-6.338021,"distance":3902,"is_transit":false,"time":5,"station_name":"Daru","i_long":106.491338},{"i_long":106.508482,"time":6,"station_id":"CJT","station_name":"Cilejit","distance":2675,"is_transit":false,"i_lat":-6.354349,"line":3,"transit":false},{"station_name":"Parung Panjang","line":6,"transit":false,"time":9,"i_lat":-6.3441410000000005,"i_long":106.568863,"station_id":"PRP","is_transit":false,"distance":7025},{"station_id":"CC","transit":false,"distance":5968,"is_transit":false,"time":8,"i_long":106.617853,"line":3,"i_lat":-6.329547,"station_name":"Cicayur"},{"transit":false,"time":4,"station_name":"Cisauk","station_id":"CSK","distance":2519,"i_long":106.640411,"i_lat":-6.32484,"line":3,"is_transit":false},{"distance":1784,"transit":false,"i_lat":-6.319871,"station_id":"SRP","time":4,"i_long":106.66566,"station_name":"Serpong","line":6,"is_transit":false},{"i_lat":-6.314823,"transit":false,"distance":2413,"station_name":"Rawa Buntu","station_id":"RU","line":6,"i_long":106.675475,"is_transit":false,"time":4},{"line":6,"station_name":"Sudimara","is_transit":false,"i_lat":-6.296963,"time":6,"station_id":"SDM","distance":4566,"transit":false,"i_long":106.712277},{"i_long":106.728916,"station_name":"Jurangmangu","distance":1994,"station_id":"JMU","i_lat":-6.288927,"is_transit":false,"line":6,"transit":false,"time":4},{"station_id":"PDJ","i_long":106.74273,"transit":false,"line":6,"time":3,"is_transit":false,"i_lat":-6.276362,"distance":2179,"station_name":"Pondokranji"},{"transit":false,"i_lat":-6.237242,"line":6,"station_id":"KBY","station_name":"Kebayoran","is_transit":false,"time":8,"distance":6218,"i_long":106.780334},{"i_long":106.79689,"line":6,"is_transit":false,"i_lat":-6.207404,"station_id":"PLM","station_name":"Palmerah","distance":3737,"transit":false,"time":7},{"station_id":"THB","is_transit":true,"station_name":"Tanah Abang","distance":3191,"time":6,"transit":true,"i_lat":-6.185545,"i_long":106.811091,"line":1},{"station_id":"DU","distance":3632,"station_name":"Duri","i_long":106.800832,"line":1,"i_lat":-6.155215,"is_transit":false,"time":8,"transit":false},{"station_id":"AK","is_transit":false,"distance":1230,"time":4,"i_long":106.79867,"i_lat":-6.144674,"station_name":"Angke","transit":false,"line":1},{"station_id":"KPB","station_name":"Kampung Bandan","distance":4102,"is_transit":true,"i_lat":-6.132549,"transit":true,"time":9,"i_long":106.826365,"line":4},{"is_transit":true,"i_long":106.812439,"station_id":"JAKK","transit":true,"distance":1364,"time":3,"i_lat":-6.137569,"line":2,"station_name":"Jakarta Kota"},{"is_transit":false,"station_name":"Jayakarta","i_long":106.820901,"transit":false,"distance":1264,"i_lat":-6.141205,"line":2,"station_id":"JAY","time":4},{"is_transit":false,"station_name":"Manggabesar","i_lat":-6.149769,"line":2,"transit":false,"i_long":106.82482,"time":2,"distance":1080,"station_id":"MGB"},{"station_name":"Sawah Besar","station_id":"SW","line":2,"transit":false,"time":2,"i_lat":-6.160725,"distance":906,"i_long":106.827103,"is_transit":false},{"line":2,"is_transit":false,"i_lat":-6.166716,"time":2,"i_long":106.828284,"station_name":"Juanda","station_id":"JUA","distance":1149,"transit":false},{"time":4,"i_lat":-6.186295,"distance":2015,"i_long":106.832183,"station_id":"GDD","transit":false,"station_name":"Gondangdia","line":2,"is_transit":false},{"i_long":106.840169,"transit":false,"time":3,"station_id":"CKI","line":2,"distance":1750,"is_transit":false,"i_lat":-6.198556,"station_name":"Cikini"},{"transit":false,"i_lat":-6.209883,"station_name":"Manggarai","time":4,"is_transit":false,"distance":1590,"station_id":"MRI","i_long":106.84912,"line":2},{"transit":false,"line":2,"station_id":"TEB","time":4,"i_long":106.857948,"is_transit":false,"i_lat":-6.226659,"distance":2610,"station_name":"Tebet"},{"i_long":106.856607,"is_transit":false,"i_lat":-6.242512,"transit":false,"time":2,"station_id":"CW","station_name":"Cawang","line":2,"distance":1230},{"i_long":106.85449,"distance":1546,"station_id":"DRN","is_transit":false,"i_lat":-6.255332,"transit":false,"station_name":"Duren Kalibata","line":2,"time":3},{"station_id":"PSMB","i_lat":-6.263214,"time":2,"i_long":106.851577,"station_name":"Pasar Minggu Baru","line":2,"transit":false,"is_transit":false,"distance":824},{"i_long":106.843999,"transit":false,"line":2,"station_id":"PSM","time":2,"i_lat":-6.2842400000000005,"station_name":"Pasar Minggu","distance":2380,"is_transit":false},{"station_id":"TNT","time":4,"distance":2820,"i_lat":-6.3080680000000005,"station_name":"Tanjung Barat","transit":false,"i_long":106.838896,"is_transit":false,"line":2},{"time":3,"transit":false,"is_transit":false,"station_id":"LNA","distance":2671,"i_lat":-6.330363,"i_long":106.832616,"line":2,"station_name":"Lenteng Agung"},{"time":2,"station_name":"Univ. Pancasila","i_lat":-6.339291,"station_id":"UP","i_long":106.834175,"distance":1029,"line":2,"transit":false,"is_transit":false}],[{"i_long":106.394373,"is_transit":false,"i_lat":-6.332307,"line":6,"station_id":"MJ","transit":false,"time":0,"station_name":"Maja","distance":0},{"i_lat":-6.33561,"i_long":106.411216,"is_transit":false,"station_id":"CKY","transit":false,"line":3,"distance":1853,"station_name":"Cikoya","time":4},{"i_lat":-6.328533,"distance":2651,"i_long":106.425991,"line":6,"station_id":"TGS","transit":false,"station_name":"Tigaraksa","is_transit":false,"time":3},{"station_id":"TEJ","line":6,"i_long":106.460812,"is_transit":false,"distance":2974,"i_lat":-6.327251,"transit":false,"station_name":"Tenjo","time":5},{"station_id":"DAR","i_lat":-6.338021,"line":0,"distance":3902,"station_name":"Daru","transit":false,"i_long":106.491338,"time":5,"is_transit":false},{"is_transit":false,"i_lat":-6.354349,"i_long":106.508482,"line":3,"station_id":"CJT","transit":false,"distance":2675,"station_name":"Cilejit","time":6},{"line":6,"time":9,"i_long":106.568863,"station_id":"PRP","distance":7025,"station_name":"Parung Panjang","is_transit":false,"transit":false,"i_lat":-6.3441410000000005},{"is_transit":false,"time":8,"station_id":"CC","i_lat":-6.329547,"transit":false,"line":3,"distance":5968,"station_name":"Cicayur","i_long":106.617853},{"transit":false,"i_lat":-6.32484,"time":4,"station_id":"CSK","line":3,"station_name":"Cisauk","is_transit":false,"i_long":106.640411,"distance":2519},{"station_id":"SRP","transit":false,"time":4,"is_transit":false,"i_long":106.66566,"i_lat":-6.319871,"distance":1784,"line":6,"station_name":"Serpong"},{"i_lat":-6.314823,"i_long":106.675475,"transit":false,"line":6,"station_name":"Rawa Buntu","is_transit":false,"station_id":"RU","distance":2413,"time":4},{"station_name":"Sudimara","is_transit":false,"transit":false,"time":6,"i_long":106.712277,"line":6,"station_id":"SDM","distance":4566,"i_lat":-6.296963},{"transit":false,"time":4,"line":6,"distance":1994,"i_long":106.728916,"is_transit":false,"station_name":"Jurangmangu","station_id":"JMU","i_lat":-6.288927},{"i_lat":-6.276362,"station_id":"PDJ","line":6,"station_name":"Pondokranji","i_long":106.74273,"is_transit":false,"time":3,"transit":false,"distance":2179},{"transit":false,"is_transit":false,"station_id":"KBY","time":8,"i_long":106.780334,"line":6,"station_name":"Kebayoran","i_lat":-6.237242,"distance":6218},{"distance":3737,"transit":false,"time":7,"i_long":106.79689,"i_lat":-6.207404,"line":6,"station_id":"PLM","station_name":"Palmerah","is_transit":false},{"station_id":"THB","is_transit":true,"line":1,"distance":3191,"i_lat":-6.185545,"station_name":"Tanah Abang","i_long":106.811091,"transit":true,"time":6},{"line":1,"is_transit":false,"station_name":"Duri","transit":false,"time":8,"station_id":"DU","distance":3632,"i_lat":-6.155215,"i_long":106.800832},{"transit":false,"station_id":"AK","is_transit":false,"time":4,"distance":1230,"i_long":106.79867,"line":1,"station_name":"Angke","i_lat":-6.144674},{"i_long":106.826365,"station_id":"KPB","distance":4102,"transit":true,"i_lat":-6.132549,"is_transit":true,"line":4,"time":9,"station_name":"Kampung Bandan"},{"line":11,"distance":1444,"i_long":106.836569,"station_id":"RJW","station_name":"Rajawali","transit":false,"i_lat":-6.14505,"is_transit":false,"time":3},{"line":11,"distance":1901,"i_lat":-6.161728,"is_transit":false,"i_long":106.839204,"station_name":"Kemayoran","time":5,"transit":false,"station_id":"KMO"},{"transit":false,"i_lat":-6.174784,"line":11,"is_transit":false,"i_long":106.84368,"station_id":"PSE","time":4,"station_name":"Pasar Senen","distance":1436},{"time":8,"station_id":"GST","station_name":"Gang Sentiong","is_transit":false,"transit":false,"line":11,"i_long":106.850107,"distance":1567,"i_lat":-6.185975},{"station_id":"KMT","distance":973,"transit":false,"station_name":"Kramat","is_transit":false,"i_long":106.855437,"line":11,"i_lat":-6.193792,"time":1},{"i_lat":-6.209188,"i_long":106.861737,"station_id":"POK","station_name":"Pondok Jati","is_transit":false,"distance":1829,"line":11,"time":2,"transit":false},{"is_transit":true,"i_long":106.86807400000001,"transit":true,"line":1,"time":9,"station_id":"JNG","station_name":"Jatinegara","distance":1236,"i_lat":-6.215091},{"i_long":106.858896,"line":1,"station_name":"Matraman","is_transit":false,"transit":false,"distance":1377,"time":2,"i_lat":-6.212485,"station_id":"MTR"},{"transit":true,"station_name":"Manggarai","i_long":106.84912,"station_id":"MRI","time":2,"line":2,"distance":1275,"is_transit":true,"i_lat":-6.209883},{"i_long":106.857948,"station_name":"Tebet","is_transit":false,"station_id":"TEB","line":2,"time":4,"distance":2610,"i_lat":-6.226659,"transit":false},{"line":2,"distance":1230,"i_long":106.856607,"is_transit":false,"i_lat":-6.242512,"transit":false,"station_name":"Cawang","time":2,"station_id":"CW"},{"line":2,"is_transit":false,"transit":false,"time":3,"i_long":106.85449,"station_name":"Duren Kalibata","station_id":"DRN","distance":1546,"i_lat":-6.255332},{"time":2,"station_name":"Pasar Minggu Baru","transit":false,"distance":824,"i_lat":-6.263214,"i_long":106.851577,"line":2,"station_id":"PSMB","is_transit":false},{"station_name":"Pasar Minggu","time":2,"line":2,"station_id":"PSM","distance":2380,"i_long":106.843999,"is_transit":false,"transit":false,"i_lat":-6.2842400000000005},{"station_name":"Tanjung Barat","is_transit":false,"i_long":106.838896,"station_id":"TNT","distance":2820,"line":2,"time":4,"transit":false,"i_lat":-6.3080680000000005},{"station_name":"Lenteng Agung","i_long":106.832616,"distance":2671,"i_lat":-6.330363,"time":3,"station_id":"LNA","transit":false,"line":2,"is_transit":false},{"time":2,"i_long":106.834175,"station_name":"Univ. Pancasila","is_transit":false,"line":2,"transit":false,"station_id":"UP","i_lat":-6.339291,"distance":1029}]]}