{"data":[[{"station_id":"MJ","is_transit":false,"i_long":106.394373,"distance":0,"i_lat":-6.332307,"transit":false,"line":6,"time":0,"station_name":"Maja"},{"i_lat":-6.33561,"line":3,"station_name":"Cikoya","time":4,"is_transit":false,"distance":1853,"transit":false,"station_id":"CKY","i_long":106.411216},{"is_transit":false,"transit":false,"distance":2651,"station_name":"Tigaraksa","line":6,"time":3,"station_id":"TGS","i_lat":-6.328533,"i_long":106.425991},{"i_long":106.460812,"is_transit":false,"distance":2974,"station_id":"TEJ","transit":false,"line":6,"station_name":"Tenjo","i_lat":-6.327251,"time":5},{"is_transit":false,"time":5,"i_lat":-6.338021,"transit":false,"station_name":"Daru","station_id":"DAR","distance":3902,"line":0,"i_long":106.491338},{"transit":false,"station_id":"CJT","i_long":106.508482,"time":6,"distance":2675,"i_lat":-6.354349,"is_transit":false,"station_name":"Cilejit","line":3},{"time":9,"i_long":106.568863,"transit":false,"distance":7025,"line":6,"station_id":"PRP","station_name":"Parung Panjang","i_lat":-6.3441410000000005,"is_transit":false},{"transit":false,"i_lat":-6.329547,"line":3,"is_transit":false,"distance":5968,"time":8,"station_id":"CC","i_long":106.617853,"station_name":"Cicayur"},{"distance":2519,"station_id":"CSK","i_lat":-6.32484,"station_name":"Cisauk","transit":false,"is_transit":false,"i_long":106.640411,"line":3,"time":4},{"distance":1784,"time":4,"line":6,"station_name":"Serpong","station_id":"SRP","i_lat":-6.319871,"transit":false,"is_transit":false,"i_long":106.66566},{"distance":2413,"i_long":106.675475,"i_lat":-6.314823,"line":6,"transit":false,"station_name":"Rawa Buntu","is_transit":false,"station_id":"RU","time":4},{"time":6,"transit":false,"is_transit":false,"i_lat":-6.296963,"i_long":106.712277,"station_id":"SDM","station_name":"Sudimara","distance":4566,"line":6},{"line":6,"station_id":"JMU","is_transit":false,"distance":1994,"i_long":106.728916,"time":4,"transit":false,"station_name":"Jurangmangu","i_lat":-6.288927},{"i_lat":-6.276362,"is_transit":false,"transit":false,"line":6,"time":3,"station_id":"PDJ","distance":2179,"i_long":106.74273,"station_name":"Pondokranji"},{"station_name":"Kebayoran","time":8,"line":6,"station_id":"KBY","is_transit":false,"distance":6218,"i_lat":-6.237242,"i_long":106.780334,"transit":false},{"distance":3737,"time":7,"station_name":"Palmerah","station_id":"PLM","i_lat":-6.207404,"i_long":106.79689,"line":6,"is_transit":false,"transit":false},{"distance":3191,"line":1,"i_lat":-6.185545,"is_transit":true,"time":6,"i_long":106.811091,"transit":true,"station_name":"Tanah Abang","station_id":"THB"},{"line":1,"i_long":106.816351,"station_id":"KAT","distance":2029,"is_transit":false,"i_lat":-6.20132,"station_name":"Karet","transit":false,"time":5},{"i_long":106.819881,"time":1,"line":1,"station_name":"Sudirman Baru","is_transit":false,"i_lat":-6.201433,"transit":false,"station_id":"SUDB","distance":471},{"i_long":106.822649,"is_transit":false,"station_name":"Sudirman","station_id":"SUD","time":1,"distance":280,"transit":false,"i_lat":-6.202263,"line":1},{"time":4,"line":2,"transit":true,"i_lat":-6.209883,"i_long":106.84912,"is_transit":true,"station_id":"MRI","distance":3186,"station_name":"Manggarai"},{"time":4,"i_lat":-6.226659,"is_transit":false,"distance":2610,"i_long":106.857948,"station_id":"TEB","line":2,"station_name":"Tebet","transit":false},{"time":2,"i_long":106.856607,"station_name":"Cawang","station_id":"CW","distance":1230,"transit":false,"is_transit":false,"i_lat":-6.242512,"line":2},{"line":2,"is_transit":false,"station_id":"DRN","distance":1546,"time":3,"i_lat":-6.255332,"i_long":106.85449,"transit":false,"station_name":"Duren Kalibata"},{"station_name":"Pasar Minggu Baru","time":2,"i_lat":-6.263214,"is_transit":false,"transit":false,"distance":824,"i_long":106.851577,"line":2,"station_id":"PSMB"},{"distance":2380,"i_long":106.843999,"transit":false,"station_id":"PSM","station_name":"Pasar Minggu","is_transit":false,"line":2,"time":2,"i_lat":-6.2842400000000005},{"time":4,"distance":2820,"i_lat":-6.3080680000000005,"line":2,"i_long":106.838896,"is_transit":false,"transit":false,"station_name":"Tanjung Barat","station_id":"TNT"},{"time":3,"distance":2671,"transit":false,"station_id":"LNA","i_lat":-6.330363,"i_long":106.832616,"station_name":"Lenteng Agung","is_transit":false,"line":2},{"i_long":106.834175,"line":2,"i_lat":-6.339291,"station_id":"UP","time":2,"transit":false,"is_transit":false,"station_name":"Univ. Pancasila","distance":1029}],[{"i_long":106.394373,"station_name":"Maja","is_transit":false,"distance":0,"transit":false,"i_lat":-6.332307,"line":6,"station_id":"MJ","time":0},{"station_name":"Cikoya","station_id":"CKY","transit":false,"time":4,"i_long":106.411216,"i_lat":-6.33561,"distance":1853,"is_transit":false,"line":3},{"is_transit":false,"distance":2651,"station_name":"Tigaraksa","time":3,"i_long":106.425991,"i_lat":-6.328533,"station_id":"TGS","line":6,"transit":false},{"station_name":"Tenjo","i_lat":-6.327251,"line":6,"is_transit":false,"time":5,"transit":false,"distance":2974,"station_id":"TEJ","i_long":106.460812},{"i_lat":-6.338021,"station_id":"DAR","station_name":"Daru","time":5,"line":0,"i_long":106.491338,"is_transit":false,"transit":false,"distance":3902},{"station_name":"Cilejit","station_id":"CJT","time":6,"i_long":106.508482,"distance":2675,"line":3,"i_lat":-6.354349,"transit":false,"is_transit":false},{"transit":false,"station_id":"PRP","is_transit":false,"i_lat":-6.3441410000000005,"line":6,"distance":7025,"station_name":"Parung Panjang","time":9,"i_long":106.568863},{"transit":false,"i_long":106.617853,"is_transit":false,"station_id":"CC","time":8,"i_lat":-6.329547,"station_name":"Cicayur","distance":5968,"line":3},{"distance":2519,"i_long":106.640411,"time":4,"station_name":"Cisauk","transit":false,"i_lat":-6.32484,"line":3,"station_id":"CSK","is_transit":false},{"time":4,"station_name":"Serpong","station_id":"SRP","distance":1784,"i_lat":-6.319871,"line":6,"is_transit":false,"i_long":106.66566,"transit":false},{"line":6,"station_id":"RU","time":4,"distance":2413,"i_long":106.675475,"transit":false,"station_name":"Rawa Buntu","is_transit":false,"i_lat":-6.314823},{"i_lat":-6.296963,"transit":false,"time":6,"line":6,"station_name":"Sudimara","distance":4566,"station_id":"SDM","is_transit":false,"i_long":106.712277},{"station_id":"JMU","time":4,"i_lat":-6.288927,"line":6,"station_name":"Jurangmangu","distance":1994,"transit":false,"i_long":106.728916,"is_transit":false},{"station_id":"PDJ","i_lat":-6.276362,"time":3,"transit":false,"i_long":106.74273,"line":6,"distance":2179,"station_name":"Pondokranji","is_transit":false},{"station_id":"KBY","i_long":106.780334,"i_lat":-6.237242,"time":8,"transit":false,"station_name":"Kebayoran","is_transit":false,"distance":6218,"line":6},{"line":6,"transit":false,"station_id":"PLM","time":7,"i_lat":-6.207404,"i_long":106.79689,"is_transit":false,"station_name":"Palmerah","distance":3737},{"distance":3191,"time":6,"transit":true,"station_id":"THB","is_transit":true,"line":1,"i_lat":-6.185545,"station_name":"Tanah Abang","i_long":106.811091},{"station_name":"Duri","is_transit":false,"line":1,"station_id":"DU","i_long":106.800832,"transit":false,"time":8,"distance":3632,"i_lat":-6.155215},{"distance":1230,"line":1,"time":4,"i_lat":-6.144674,"transit":false,"i_long":106.79867,"is_transit":false,"station_name":"Angke","station_id":"AK"},{"i_lat":-6.132549,"time":9,"transit":true,"station_name":"Kampung Bandan","is_transit":true,"line":4,"distance":4102,"station_id":"KPB","i_long":106.826365},{"time":3,"station_id":"JAKK","i_long":106.812439,"transit":true,"distance":1364,"is_transit":true,"i_lat":-6.137569,"line":2,"station_name":"Jakarta Kota"},{"time":4,"line":2,"is_transit":false,"distance":1264,"i_lat":-6.141205,"transit":false,"station_name":"Jayakarta","station_id":"JAY","i_long":106.820901},{"distance":1080,"i_lat":-6.149769,"transit":false,"is_transit":false,"station_id":"MGB","time":2,"i_long":106.82482,"line":2,"station_name":"Manggabesar"},{"line":2,"distance":906,"transit":false,"i_lat":-6.160725,"station_id":"SW","is_transit":false,"time":2,"station_name":"Sawah Besar","i_long":106.827103},{"line":2,"station_id":"JUA","time":2,"is_transit":false,"i_lat":-6.166716,"transit":false,"i_long":106.828284,"station_name":"Juanda","distance":1149},{"i_lat":-6.186295,"i_long":106.832183,"is_transit":false,"distance":2015,"line":2,"station_id":"GDD","station_name":"Gondangdia","transit":false,"time":4},{"i_lat":-6.198556,"station_name":"Cikini","time":3,"station_id":"CKI","is_transit":false,"distance":1750,"transit":false,"i_long":106.840169,"line":2},{"i_lat":-6.209883,"is_transit":false,"time":4,"station_name":"Manggarai","line":2,"transit":false,"i_long":106.84912,"station_id":"MRI","distance":1590},{"distance":2610,"line":2,"station_id":"TEB","is_transit":false,"transit":false,"i_long":106.857948,"station_name":"Tebet","time":4,"i_lat":-6.226659},{"station_name":"Cawang","transit":false,"station_id":"CW","line":2,"distance":1230,"is_transit":false,"time":2,"i_long":106.856607,"i_lat":-6.242512},{"i_long":106.85449,"time":3,"transit":false,"is_transit":false,"station_name":"Duren Kalibata","distance":1546,"line":2,"i_lat":-6.255332,"station_id":"DRN"},{"time":2,"i_lat":-6.263214,"transit":false,"line":2,"distance":824,"is_transit":false,"station_name":"Pasar Minggu Baru","station_id":"PSMB","i_long":106.851577},{"i_long":106.843999,"i_lat":-6.2842400000000005,"station_name":"Pasar Minggu","is_transit":false,"time":2,"transit":false,"station_id":"PSM","line":2,"distance":2380},{"is_transit":false,"station_id":"TNT","i_lat":-6.3080680000000005,"station_name":"Tanjung Barat","distance":2820,"time":4,"line":2,"transit":false,"i_long":106.838896},{"is_transit":false,"time":3,"i_lat":-6.330363,"transit":false,"i_long":106.832616,"line":2,"distance":2671,"station_name":"Lenteng Agung","station_id":"LNA"},{"station_name":"Univ. Pancasila","i_long":106.834175,"distance":1029,"line":2,"is_transit":false,"transit":false,"i_lat":-6.339291,"time":2,"station_id":"UP"}],[{"station_id":"MJ","station_name":"Maja","line":6,"transit":false,"i_lat":-6.332307,"i_long":106.394373,"time":0,"distance":0,"is_transit":false},{"station_name":"Cikoya","distance":1853,"i_lat":-6.33561,"station_id":"CKY","is_transit":false,"line":3,"i_long":106.411216,"time":4,"transit":false},{"distance":2651,"is_transit":false,"station_name":"Tigaraksa","time":3,"line":6,"i_long":106.425991,"i_lat":-6.328533,"transit":false,"station_id":"TGS"},{"distance":2974,"station_id":"TEJ","line":6,"station_name":"Tenjo","i_lat":-6.327251,"is_transit":false,"i_long":106.460812,"transit":false,"time":5},{"transit":false,"station_id":"DAR","time":5,"i_long":106.491338,"is_transit":false,"distance":3902,"line":0,"station_name":"Daru","i_lat":-6.338021},{"i_lat":-6.354349,"station_name":"Cilejit","transit":false,"is_transit":false,"time":6,"distance":2675,"i_long":106.508482,"line":3,"station_id":"CJT"},{"transit":false,"is_transit":false,"line":6,"station_name":"Parung Panjang","station_id":"PRP","time":9,"i_lat":-6.3441410000000005,"distance":7025,"i_long":106.568863},{"distance":5968,"is_transit":false,"station_id":"CC","i_long":106.617853,"station_name":"Cicayur","i_lat":-6.329547,"line":3,"transit":false,"time":8},{"time":4,"i_long":106.640411,"i_lat":-6.32484,"line":3,"is_transit":false,"station_id":"CSK","distance":2519,"station_name":"Cisauk","transit":false},{"is_transit":false,"i_lat":-6.319871,"station_id":"SRP","line":6,"distance":1784,"transit":false,"time":4,"i_long":106.66566,"station_name":"Serpong"},{"transit":false,"station_name":"Rawa Buntu","is_transit":false,"i_long":106.675475,"i_lat":-6.314823,"line":6,"distance":2413,"station_id":"RU","time":4},{"station_id":"SDM","time":6,"i_long":106.712277,"transit":false,"distance":4566,"station_name":"Sudimara","is_transit":false,"i_lat":-6.296963,"line":6},{"i_lat":-6.288927,"distance":1994,"transit":false,"line":6,"time":4,"is_transit":false,"station_name":"Jurangmangu","station_id":"JMU","i_long":106.728916},{"i_lat":-6.276362,"station_id":"PDJ","transit":false,"i_long":106.74273,"is_transit":false,"distance":2179,"time":3,"station_name":"Pondokranji","line":6},{"i_long":106.780334,"transit":false,"distance":6218,"is_transit":false,"station_id":"KBY","station_name":"Kebayoran","time":8,"i_lat":-6.237242,"line":6},{"is_transit":false,"station_id":"PLM","station_name":"Palmerah","i_lat":-6.207404,"line":6,"time":7,"transit":false,"distance":3737,"i_long":106.79689},{"i_lat":-6.185545,"distance":3191,"time":6,"line":1,"transit":true,"station_id":"THB","station_name":"Tanah Abang","is_transit":true,"i_long":106.811091},{"i_long":106.800832,"i_lat":-6.155215,"distance":3632,"time":8,"station_name":"Duri","line":1,"transit":false,"station_id":"DU","is_transit":false},{"station_name":"Angke","is_transit":false,"time":4,"i_lat":-6.144674,"station_id":"AK","i_long":106.79867,"distance":1230,"line":1,"transit":false},{"line":4,"i_lat":-6.132549,"station_name":"Kampung Bandan","i_long":106.826365,"transit":true,"time":9,"distance":4102,"station_id":"KPB","is_transit":true},{"line":11,"station_id":"RJW","i_lat":-6.14505,"distance":1444,"is_transit":false,"time":3,"station_name":"Rajawali","i_long":106.836569,"transit":false},{"station_name":"Kemayoran","is_transit":false,"time":5,"i_long":106.839204,"transit":false,"line":11,"distance":1901,"i_lat":-6.161728,"station_id":"KMO"},{"transit":false,"time":4,"station_name":"Pasar Senen","is_transit":false,"distance":1436,"i_long":106.84368,"line":11,"i_lat":-6.174784,"station_id":"PSE"},{"station_name":"Gang Sentiong","time":8,"i_long":106.850107,"is_transit":false,"station_id":"GST","distance":1567,"line":11,"i_lat":-6.185975,"transit":false},{"i_long":106.855437,"is_transit":false,"line":11,"transit":false,"station_name":"Kramat","i_lat":-6.193792,"station_id":"KMT","time":1,"distance":973},{"distance":1829,"station_name":"Pondok Jati","transit":false,"time":2,"line":11,"is_transit":false,"i_lat":-6.209188,"i_long":106.861737,"station_id":"POK"},{"transit":true,"time":9,"distance":1236,"station_name":"Jatinegara","i_long":106.86807400000001,"is_transit":true,"station_id":"JNG","line":1,"i_lat":-6.215091},{"station_name":"Matraman","distance":1377,"transit":false,"time":2,"i_lat":-6.212485,"station_id":"MTR","i_long":106.858896,"is_transit":false,"line":1},{"i_lat":-6.209883,"time":2,"distance":1275,"is_transit":true,"transit":true,"station_name":"Manggarai","station_id":"MRI","i_long":106.84912,"line":2},{"i_lat":-6.226659,"transit":false,"station_id":"TEB","time":4,"is_transit":false,"line":2,"distance":2610,"i_long":106.857948,"station_name":"Tebet"},{"distance":1230,"station_id":"CW","transit":false,"station_name":"Cawang","time":2,"i_long":106.856607,"i_lat":-6.242512,"is_transit":false,"line":2},{"station_id":"DRN","line":2,"i_long":106.85449,"is_transit":false,"station_name":"Duren Kalibata","distance":1546,"i_lat":-6.255332,"transit":false,"time":3},{"line":2,"i_lat":-6.263214,"time":2,"distance":824,"station_name":"Pasar Minggu Baru","i_long":106.851577,"transit":false,"station_id":"PSMB","is_transit":false},{"line":2,"i_lat":-6.2842400000000005,"time":2,"is_transit":false,"transit":false,"station_name":"Pasar Minggu","station_id":"PSM","distance":2380,"i_long":106.843999},{"i_lat":-6.3080680000000005,"is_transit":false,"time":4,"station_id":"TNT","station_name":"Tanjung Barat","line":2,"i_long":106.838896,"distance":2820,"transit":false},{"distance":2671,"time":3,"station_id":"LNA","is_transit":false,"i_lat":-6.330363,"station_name":"Lenteng Agung","i_long":106.832616,"transit":false,"line":2},{"station_id":"UP","line":2,"station_name":"Univ. Pancasila","distance":1029,"transit":false,"i_lat":-6.339291,"i_long":106.834175,"time":2,"is_transit":false}]]}