{"data":[[{"is_transit":false,"distance":0,"station_id":"MJ","station_name":"Maja","i_long":106.394373,"line":6,"i_lat":-6.332307,"time":0,"transit":false},{"station_id":"CKY","i_long":106.411216,"is_transit":false,"station_name":"Cikoya","transit":false,"line":3,"distance":1853,"i_lat":-6.33561,"time":4},{"transit":false,"station_name":"Tigaraksa","station_id":"TGS","i_lat":-6.328533,"is_transit":false,"i_long":106.425991,"distance":2651,"line":6,"time":3},{"time":5,"station_id":"TEJ","is_transit":false,"distance":2974,"i_long":106.460812,"transit":false,"station_name":"Tenjo","i_lat":-6.327251,"line":6},{"i_lat":-6.338021,"i_long":106.491338,"time":5,"station_id":"DAR","line":0,"is_transit":false,"station_name":"Daru","distance":3902,"transit":false},{"transit":false,"i_long":106.508482,"line":3,"station_id":"CJT","distance":2675,"i_lat":-6.354349,"station_name":"Cilejit","is_transit":false,"time":6},{"distance":7025,"is_transit":false,"i_long":106.568863,"station_id":"PRP","line":6,"station_name":"Parung Panjang","i_lat":-6.3441410000000005,"time":9,"transit":false},{"i_long":106.617853,"station_id":"CC","distance":5968,"line":3,"time":8,"transit":false,"i_lat":-6.329547,"is_transit":false,"station_name":"Cicayur"},{"transit":false,"i_lat":-6.32484,"distance":2519,"line":3,"time":4,"is_transit":false,"station_id":"CSK","station_name":"Cisauk","i_long":106.640411},{"distance":1784,"station_id":"SRP","station_name":"Serpong","line":6,"is_transit":false,"i_lat":-6.319871,"time":4,"i_long":106.66566,"transit":false},{"time":4,"line":6,"station_id":"RU","i_long":106.675475,"station_name":"Rawa Buntu","i_lat":-6.314823,"distance":2413,"transit":false,"is_transit":false},{"transit":false,"station_id":"SDM","station_name":"Sudimara","is_transit":false,"time":6,"i_lat":-6.296963,"i_long":106.712277,"distance":4566,"line":6},{"station_name":"Jurangmangu","i_long":106.728916,"is_transit":false,"station_id":"JMU","time":4,"i_lat":-6.288927,"line":6,"transit":false,"distance":1994},{"is_transit":false,"station_id":"PDJ","time":3,"i_lat":-6.276362,"line":6,"i_long":106.74273,"transit":false,"distance":2179,"station_name":"Pondokranji"},{"transit":false,"distance":6218,"line":6,"i_long":106.780334,"station_name":"Kebayoran","station_id":"KBY","time":8,"i_lat":-6.237242,"is_transit":false},{"station_id":"PLM","line":6,"is_transit":false,"i_long":106.79689,"transit":false,"distance":3737,"i_lat":-6.207404,"time":7,"station_name":"Palmerah"},{"is_transit":true,"time":6,"i_lat":-6.185545,"line":1,"distance":3191,"station_name":"Tanah Abang","transit":true,"i_long":106.811091,"station_id":"THB"},{"line":1,"station_id":"KAT","station_name":"Karet","is_transit":false,"i_long":106.816351,"time":5,"i_lat":-6.20132,"distance":2029,"transit":false},{"transit":false,"is_transit":false,"line":1,"distance":471,"station_id":"SUDB","station_name":"Sudirman Baru","i_lat":-6.201433,"time":1,"i_long":106.819881},{"distance":280,"time":1,"i_lat":-6.202263,"line":1,"is_transit":false,"station_id":"SUD","transit":false,"i_long":106.822649,"station_name":"Sudirman"},{"i_lat":-6.209883,"is_transit":true,"station_name":"Manggarai","distance":3186,"transit":true,"station_id":"MRI","line":2,"time":4,"i_long":106.84912},{"i_lat":-6.226659,"distance":2610,"station_name":"Tebet","station_id":"TEB","transit":false,"is_transit":false,"time":4,"i_long":106.857948,"line":2},{"time":2,"i_lat":-6.242512,"transit":false,"station_id":"CW","distance":1230,"line":2,"i_long":106.856607,"station_name":"Cawang","is_transit":false},{"station_name":"Duren Kalibata","transit":false,"i_lat":-6.255332,"i_long":106.85449,"time":3,"distance":1546,"line":2,"is_transit":false,"station_id":"DRN"},{"i_lat":-6.263214,"transit":false,"station_name":"Pasar Minggu Baru","line":2,"station_id":"PSMB","is_transit":false,"i_long":106.851577,"distance":824,"time":2},{"transit":false,"distance":2380,"i_lat":-6.2842400000000005,"time":2,"station_id":"PSM","i_long":106.843999,"station_name":"Pasar Minggu","is_transit":false,"line":2},{"distance":2820,"station_name":"Tanjung Barat","is_transit":false,"line":2,"i_long":106.838896,"station_id":"TNT","time":4,"transit":false,"i_lat":-6.3080680000000005},{"station_name":"Lenteng Agung","i_lat":-6.330363,"is_transit":false,"line":2,"transit":false,"distance":2671,"time":3,"station_id":"LNA","i_long":106.832616},{"station_name":"Univ. Pancasila","transit":false,"time":2,"i_long":106.834175,"line":2,"i_lat":-6.339291,"distance":1029,"is_transit":false,"station_id":"UP"}],[{"time":0,"distance":0,"i_lat":-6.332307,"line":6,"station_id":"MJ","i_long":106.394373,"station_name":"Maja","transit":false,"is_transit":false},{"time":4,"line":3,"i_lat":-6.33561,"is_transit":false,"station_id":"CKY","distance":1853,"transit":false,"station_name":"Cikoya","i_long":106.411216},{"distance":2651,"station_id":"TGS","transit":false,"is_transit":false,"station_name":"Tigaraksa","i_lat":-6.328533,"i_long":106.425991,"line":6,"time":3},{"distance":2974,"i_lat":-6.327251,"transit":false,"station_name":"Tenjo","is_transit":false,"station_id":"TEJ","i_long":106.460812,"time":5,"line":6},{"i_long":106.491338,"distance":3902,"time":5,"line":0,"station_name":"Daru","transit":false,"is_transit":false,"station_id":"DAR","i_lat":-6.338021},{"transit":false,"i_long":106.508482,"distance":2675,"station_name":"Cilejit","time":6,"i_lat":-6.354349,"station_id":"CJT","is_transit":false,"line":3},{"i_lat":-6.3441410000000005,"station_id":"PRP","transit":false,"is_transit":false,"station_name":"Parung Panjang","i_long":106.568863,"line":6,"distance":7025,"time":9},{"line":3,"is_transit":false,"distance":5968,"station_name":"Cicayur","i_long":106.617853,"transit":false,"time":8,"i_lat":-6.329547,"station_id":"CC"},{"line":3,"time":4,"station_id":"CSK","is_transit":false,"i_lat":-6.32484,"i_long":106.640411,"transit":false,"distance":2519,"station_name":"Cisauk"},{"line":6,"station_name":"Serpong","i_long":106.66566,"i_lat":-6.319871,"transit":false,"station_id":"SRP","is_transit":false,"distance":1784,"time":4},{"line":6,"station_id":"RU","station_name":"Rawa Buntu","time":4,"is_transit":false,"transit":false,"i_lat":-6.314823,"i_long":106.675475,"distance":2413},{"i_lat":-6.296963,"distance":4566,"is_transit":false,"station_id":"SDM","transit":false,"time":6,"line":6,"i_long":106.712277,"station_name":"Sudimara"},{"line":6,"is_transit":false,"station_id":"JMU","station_name":"Jurangmangu","time":4,"i_lat":-6.288927,"distance":1994,"transit":false,"i_long":106.728916},{"station_name":"Pondokranji","i_long":106.74273,"line":6,"station_id":"PDJ","time":3,"i_lat":-6.276362,"is_transit":false,"distance":2179,"transit":false},{"is_transit":false,"time":8,"line":6,"transit":false,"i_long":106.780334,"station_name":"Kebayoran","station_id":"KBY","i_lat":-6.237242,"distance":6218},{"distance":3737,"i_long":106.79689,"time":7,"station_id":"PLM","i_lat":-6.207404,"line":6,"station_name":"Palmerah","is_transit":false,"transit":false},{"station_id":"THB","line":1,"i_lat":-6.185545,"i_long":106.811091,"distance":3191,"station_name":"Tanah Abang","is_transit":true,"transit":true,"time":6},{"time":8,"line":1,"i_lat":-6.155215,"station_id":"DU","station_name":"Duri","i_long":106.800832,"is_transit":false,"distance":3632,"transit":false},{"distance":1230,"station_id":"AK","station_name":"Angke","is_transit":false,"transit":false,"time":4,"i_lat":-6.144674,"i_long":106.79867,"line":1},{"is_transit":true,"i_lat":-6.132549,"line":4,"station_id":"KPB","time":9,"i_long":106.826365,"station_name":"Kampung Bandan","transit":true,"distance":4102},{"line":2,"distance":1364,"is_transit":true,"transit":true,"station_name":"Jakarta Kota","time":3,"i_lat":-6.137569,"station_id":"JAKK","i_long":106.812439},{"transit":false,"distance":1264,"i_long":106.820901,"station_id":"JAY","is_transit":false,"line":2,"station_name":"Jayakarta","time":4,"i_lat":-6.141205},{"is_transit":false,"distance":1080,"i_long":106.82482,"time":2,"station_name":"Manggabesar","i_lat":-6.149769,"line":2,"transit":false,"station_id":"MGB"},{"line":2,"i_long":106.827103,"distance":906,"station_name":"Sawah Besar","i_lat":-6.160725,"transit":false,"time":2,"is_transit":false,"station_id":"SW"},{"transit":false,"station_name":"Juanda","distance":1149,"line":2,"station_id":"JUA","is_transit":false,"time":2,"i_lat":-6.166716,"i_long":106.828284},{"i_lat":-6.186295,"line":2,"station_name":"Gondangdia","transit":false,"distance":2015,"station_id":"GDD","is_transit":false,"time":4,"i_long":106.832183},{"i_lat":-6.198556,"i_long":106.840169,"station_name":"Cikini","time":3,"line":2,"transit":false,"is_transit":false,"distance":1750,"station_id":"CKI"},{"i_lat":-6.209883,"line":2,"i_long":106.84912,"transit":false,"distance":1590,"station_name":"Manggarai","station_id":"MRI","is_transit":false,"time":4},{"is_transit":false,"i_long":106.857948,"line":2,"station_name":"Tebet","station_id":"TEB","distance":2610,"time":4,"transit":false,"i_lat":-6.226659},{"is_transit":false,"i_lat":-6.242512,"station_name":"Cawang","time":2,"distance":1230,"transit":false,"station_id":"CW","line":2,"i_long":106.856607},{"station_id":"DRN","is_transit":false,"i_long":106.85449,"i_lat":-6.255332,"transit":false,"station_name":"Duren Kalibata","time":3,"line":2,"distance":1546},{"i_long":106.851577,"transit":false,"i_lat":-6.263214,"line":2,"station_name":"Pasar Minggu Baru","station_id":"PSMB","distance":824,"is_transit":false,"time":2},{"distance":2380,"transit":false,"station_name":"Pasar Minggu","time":2,"line":2,"is_transit":false,"i_lat":-6.2842400000000005,"station_id":"PSM","i_long":106.843999},{"station_id":"TNT","station_name":"Tanjung Barat","i_lat":-6.3080680000000005,"i_long":106.838896,"transit":false,"distance":2820,"line":2,"is_transit":false,"time":4},{"distance":2671,"is_transit":false,"transit":false,"i_long":106.832616,"time":3,"station_name":"Lenteng Agung","i_lat":-6.330363,"line":2,"station_id":"LNA"},{"station_name":"Univ. Pancasila","i_long":106.834175,"is_transit":false,"transit":false,"distance":1029,"time":2,"i_lat":-6.339291,"station_id":"UP","line":2}],[{"station_id":"MJ","station_name":"Maja","i_long":106.394373,"distance":0,"transit":false,"is_transit":false,"line":6,"time":0,"i_lat":-6.332307},{"is_transit":false,"i_long":106.411216,"line":3,"transit":false,"distance":1853,"station_name":"Cikoya","time":4,"station_id":"CKY","i_lat":-6.33561},{"time":3,"i_long":106.425991,"station_id":"TGS","line":6,"i_lat":-6.328533,"transit":false,"station_name":"Tigaraksa","distance":2651,"is_transit":false},{"distance":2974,"station_id":"TEJ","station_name":"Tenjo","is_transit":false,"time":5,"i_lat":-6.327251,"i_long":106.460812,"line":6,"transit":false},{"i_lat":-6.338021,"line":0,"transit":false,"i_long":106.491338,"is_transit":false,"station_name":"Daru","distance":3902,"time":5,"station_id":"DAR"},{"i_lat":-6.354349,"line":3,"station_id":"CJT","i_long":106.508482,"is_transit":false,"transit":false,"time":6,"station_name":"Cilejit","distance":2675},{"transit":false,"distance":7025,"station_name":"Parung Panjang","line":6,"i_long":106.568863,"i_lat":-6.3441410000000005,"is_transit":false,"time":9,"station_id":"PRP"},{"i_long":106.617853,"transit":false,"time":8,"i_lat":-6.329547,"distance":5968,"station_name":"Cicayur","is_transit":false,"station_id":"CC","line":3},{"station_id":"CSK","time":4,"station_name":"Cisauk","transit":false,"i_long":106.640411,"i_lat":-6.32484,"distance":2519,"line":3,"is_transit":false},{"line":6,"station_name":"Serpong","i_lat":-6.319871,"transit":false,"station_id":"SRP","time":4,"is_transit":false,"i_long":106.66566,"distance":1784},{"i_lat":-6.314823,"transit":false,"station_name":"Rawa Buntu","line":6,"distance":2413,"is_transit":false,"time":4,"station_id":"RU","i_long":106.675475},{"i_lat":-6.296963,"transit":false,"is_transit":false,"time":6,"i_long":106.712277,"station_id":"SDM","line":6,"station_name":"Sudimara","distance":4566},{"i_long":106.728916,"line":6,"time":4,"station_id":"JMU","is_transit":false,"transit":false,"i_lat":-6.288927,"station_name":"Jurangmangu","distance":1994},{"time":3,"station_name":"Pondokranji","i_long":106.74273,"transit":false,"i_lat":-6.276362,"line":6,"station_id":"PDJ","is_transit":false,"distance":2179},{"is_transit":false,"line":6,"i_lat":-6.237242,"station_name":"Kebayoran","station_id":"KBY","time":8,"i_long":106.780334,"transit":false,"distance":6218},{"is_transit":false,"time":7,"i_lat":-6.207404,"transit":false,"station_name":"Palmerah","distance":3737,"line":6,"i_long":106.79689,"station_id":"PLM"},{"is_transit":true,"distance":3191,"station_id":"THB","station_name":"Tanah Abang","transit":true,"time":6,"i_long":106.811091,"line":1,"i_lat":-6.185545},{"i_long":106.800832,"is_transit":false,"station_id":"DU","i_lat":-6.155215,"transit":false,"line":1,"station_name":"Duri","distance":3632,"time":8},{"distance":1230,"station_id":"AK","station_name":"Angke","i_lat":-6.144674,"i_long":106.79867,"line":1,"transit":false,"time":4,"is_transit":false},{"i_long":106.826365,"is_transit":true,"distance":4102,"station_id":"KPB","i_lat":-6.132549,"line":4,"transit":true,"time":9,"station_name":"Kampung Bandan"},{"station_name":"Rajawali","is_transit":false,"time":3,"i_lat":-6.14505,"distance":1444,"i_long":106.836569,"line":11,"station_id":"RJW","transit":false},{"station_id":"KMO","i_lat":-6.161728,"line":11,"is_transit":false,"transit":false,"distance":1901,"station_name":"Kemayoran","time":5,"i_long":106.839204},{"station_id":"PSE","time":4,"station_name":"Pasar Senen","distance":1436,"is_transit":false,"line":11,"i_long":106.84368,"transit":false,"i_lat":-6.174784},{"distance":1567,"station_id":"GST","transit":false,"time":8,"i_lat":-6.185975,"is_transit":false,"i_long":106.850107,"station_name":"Gang Sentiong","line":11},{"i_lat":-6.193792,"time":1,"distance":973,"i_long":106.855437,"station_id":"KMT","is_transit":false,"line":11,"transit":false,"station_name":"Kramat"},{"i_lat":-6.209188,"distance":1829,"i_long":106.861737,"station_name":"Pondok Jati","line":11,"is_transit":false,"transit":false,"station_id":"POK","time":2},{"station_name":"Jatinegara","transit":true,"is_transit":true,"i_lat":-6.215091,"line":1,"time":9,"distance":1236,"station_id":"JNG","i_long":106.86807400000001},{"station_name":"Matraman","distance":1377,"i_lat":-6.212485,"line":1,"i_long":106.858896,"time":2,"transit":false,"station_id":"MTR","is_transit":false},{"transit":true,"line":2,"time":2,"station_name":"Manggarai","i_long":106.84912,"i_lat":-6.209883,"station_id":"MRI","distance":1275,"is_transit":true},{"i_long":106.857948,"station_name":"Tebet","time":4,"i_lat":-6.226659,"line":2,"distance":2610,"transit":false,"is_transit":false,"station_id":"TEB"},{"is_transit":false,"station_id":"CW","time":2,"i_lat":-6.242512,"line":2,"transit":false,"station_name":"Cawang","distance":1230,"i_long":106.856607},{"station_id":"DRN","i_long":106.85449,"time":3,"transit":false,"distance":1546,"line":2,"station_name":"Duren Kalibata","is_transit":false,"i_lat":-6.255332},{"transit":false,"distance":824,"is_transit":false,"i_lat":-6.263214,"time":2,"line":2,"i_long":106.851577,"station_id":"PSMB","station_name":"Pasar Minggu Baru"},{"station_name":"Pasar Minggu","distance":2380,"time":2,"is_transit":false,"station_id":"PSM","i_lat":-6.2842400000000005,"line":2,"transit":false,"i_long":106.843999},{"transit":false,"line":2,"station_id":"TNT","is_transit":false,"distance":2820,"station_name":"Tanjung Barat","i_lat":-6.3080680000000005,"i_long":106.838896,"time":4},{"is_transit":false,"distance":2671,"station_name":"Lenteng Agung","transit":false,"i_lat":-6.330363,"line":2,"i_long":106.832616,"station_id":"LNA","time":3},{"i_lat":-6.339291,"line":2,"i_long":106.834175,"time":2,"station_name":"Univ. Pancasila","transit":false,"station_id":"UP","is_transit":false,"distance":1029}]]}