{"data":[[{"distance":0,"transit":false,"station_name":"Maja","is_transit":false,"station_id":"MJ","i_long":106.394373,"time":0,"line":6,"i_lat":-6.332307},{"transit":false,"station_name":"Cikoya","is_transit":false,"time":4,"distance":1853,"i_long":106.411216,"station_id":"CKY","line":0,"i_lat":-6.33561},{"line":6,"station_name":"Tigaraksa","distance":2651,"i_lat":-6.328533,"time":3,"station_id":"TGS","is_transit":false,"transit":false,"i_long":106.425991},{"transit":false,"i_long":106.460812,"distance":2974,"line":6,"is_transit":false,"station_name":"Tenjo","time":5,"i_lat":-6.327251,"station_id":"TEJ"},{"transit":false,"station_id":"DAR","is_transit":false,"i_long":106.491338,"i_lat":-6.338021,"line":0,"station_name":"Daru","time":5,"distance":3902},{"line":0,"distance":2675,"is_transit":false,"transit":false,"station_name":"Cilejit","station_id":"CJT","i_long":106.508482,"time":6,"i_lat":-6.354349},{"i_long":106.568863,"station_id":"PRP","distance":7025,"station_name":"Parung Panjang","is_transit":false,"time":9,"line":6,"transit":false,"i_lat":-6.3441410000000005},{"distance":5968,"i_long":106.617853,"station_id":"CC","transit":false,"time":8,"line":0,"is_transit":false,"i_lat":-6.329547,"station_name":"Cicayur"},{"station_id":"CSK","transit":false,"i_long":106.640411,"station_name":"Cisauk","i_lat":-6.32484,"time":4,"distance":2519,"is_transit":false,"line":0},{"station_id":"SRP","line":6,"i_lat":-6.319871,"transit":false,"i_long":106.66566,"is_transit":false,"time":4,"distance":1784,"station_name":"Serpong"},{"line":6,"time":4,"i_long":106.675475,"station_name":"Rawa Buntu","station_id":"RU","is_transit":false,"distance":2413,"i_lat":-6.314823,"transit":false},{"is_transit":false,"i_lat":-6.296963,"station_id":"SDM","transit":false,"station_name":"Sudimara","time":6,"line":6,"distance":4566,"i_long":106.712277},{"station_name":"Jurangmangu","distance":1994,"i_lat":-6.288927,"is_transit":false,"i_long":106.728916,"time":4,"transit":false,"line":6,"station_id":"JMU"},{"is_transit":false,"i_long":106.74273,"line":6,"station_id":"PDJ","station_name":"Pondokranji","distance":2179,"time":3,"transit":false,"i_lat":-6.276362},{"line":6,"is_transit":false,"time":8,"i_long":106.780334,"station_id":"KBY","distance":6218,"transit":false,"i_lat":-6.237242,"station_name":"Kebayoran"},{"is_transit":false,"distance":3737,"transit":false,"i_lat":-6.207404,"i_long":106.79689,"line":6,"station_name":"Palmerah","time":7,"station_id":"PLM"},{"i_long":106.811091,"time":6,"station_id":"THB","is_transit":true,"distance":3191,"i_lat":-6.185545,"station_name":"Tanah Abang","transit":true,"line":1},{"i_long":106.816351,"i_lat":-6.20132,"station_id":"KAT","distance":2029,"line":1,"station_name":"Karet","transit":false,"time":5,"is_transit":false},{"line":1,"time":1,"i_long":106.819881,"station_id":"SUDB","station_name":"Sudirman Baru","transit":false,"i_lat":-6.201433,"is_transit":false,"distance":471},{"time":1,"station_name":"Sudirman","distance":280,"station_id":"SUD","is_transit":false,"i_long":106.822649,"transit":false,"i_lat":-6.202263,"line":1},{"time":4,"station_id":"MRI","line":0,"station_name":"Manggarai","is_transit":true,"distance":3186,"i_long":106.84912,"transit":true,"i_lat":-6.209883},{"transit":false,"time":4,"i_lat":-6.226659,"i_long":106.857948,"station_name":"Tebet","is_transit":false,"station_id":"TEB","line":2,"distance":2610},{"is_transit":false,"station_id":"CW","time":2,"i_lat":-6.242512,"distance":1230,"line":0,"i_long":106.856607,"station_name":"Cawang","transit":false},{"time":3,"i_long":106.85449,"i_lat":-6.255332,"station_name":"Duren Kalibata","line":0,"is_transit":false,"station_id":"DRN","distance":1546,"transit":false},{"station_name":"Pasar Minggu Baru","is_transit":false,"distance":824,"transit":false,"time":2,"i_long":106.851577,"line":2,"i_lat":-6.263214,"station_id":"PSMB"},{"transit":false,"station_id":"PSM","is_transit":false,"station_name":"Pasar Minggu","i_lat":-6.2842400000000005,"time":2,"distance":2380,"i_long":106.843999,"line":2},{"distance":2820,"is_transit":false,"station_id":"TNT","line":2,"i_long":106.838896,"time":4,"station_name":"Tanjung Barat","transit":false,"i_lat":-6.3080680000000005},{"transit":false,"line":2,"distance":2671,"i_lat":-6.330363,"i_long":106.832616,"station_name":"Lenteng Agung","time":3,"station_id":"LNA","is_transit":false},{"time":2,"station_name":"Univ. Pancasila","distance":1029,"i_long":106.834175,"is_transit":false,"line":2,"transit":false,"i_lat":-6.339291,"station_id":"UP"}],[{"time":0,"i_long":106.394373,"distance":0,"station_id":"MJ","line":6,"transit":false,"station_name":"Maja","is_transit":false,"i_lat":-6.332307},{"transit":false,"is_transit":false,"i_lat":-6.33561,"distance":1853,"i_long":106.411216,"station_name":"Cikoya","station_id":"CKY","time":4,"line":0},{"time":3,"transit":false,"is_transit":false,"line":6,"station_name":"Tigaraksa","station_id":"TGS","distance":2651,"i_lat":-6.328533,"i_long":106.425991},{"time":5,"is_transit":false,"station_name":"Tenjo","distance":2974,"transit":false,"i_lat":-6.327251,"station_id":"TEJ","line":6,"i_long":106.460812},{"line":0,"distance":3902,"is_transit":false,"station_name":"Daru","transit":false,"i_long":106.491338,"i_lat":-6.338021,"station_id":"DAR","time":5},{"station_name":"Cilejit","is_transit":false,"i_long":106.508482,"i_lat":-6.354349,"time":6,"station_id":"CJT","distance":2675,"line":0,"transit":false},{"is_transit":false,"time":9,"transit":false,"i_lat":-6.3441410000000005,"line":6,"station_name":"Parung Panjang","i_long":106.568863,"distance":7025,"station_id":"PRP"},{"time":8,"station_name":"Cicayur","is_transit":false,"station_id":"CC","distance":5968,"i_lat":-6.329547,"line":0,"i_long":106.617853,"transit":false},{"i_lat":-6.32484,"i_long":106.640411,"station_id":"CSK","distance":2519,"station_name":"Cisauk","line":0,"time":4,"transit":false,"is_transit":false},{"station_name":"Serpong","i_long":106.66566,"time":4,"is_transit":false,"transit":false,"station_id":"SRP","line":6,"distance":1784,"i_lat":-6.319871},{"line":6,"station_name":"Rawa Buntu","i_lat":-6.314823,"time":4,"station_id":"RU","is_transit":false,"transit":false,"distance":2413,"i_long":106.675475},{"distance":4566,"transit":false,"time":6,"i_long":106.712277,"station_id":"SDM","i_lat":-6.296963,"station_name":"Sudimara","line":6,"is_transit":false},{"i_long":106.728916,"distance":1994,"is_transit":false,"i_lat":-6.288927,"line":6,"station_id":"JMU","station_name":"Jurangmangu","time":4,"transit":false},{"time":3,"i_long":106.74273,"is_transit":false,"transit":false,"line":6,"station_name":"Pondokranji","station_id":"PDJ","i_lat":-6.276362,"distance":2179},{"line":6,"station_id":"KBY","transit":false,"station_name":"Kebayoran","i_lat":-6.237242,"distance":6218,"is_transit":false,"time":8,"i_long":106.780334},{"station_id":"PLM","time":7,"i_long":106.79689,"line":6,"is_transit":false,"station_name":"Palmerah","transit":false,"distance":3737,"i_lat":-6.207404},{"i_long":106.811091,"distance":3191,"transit":true,"station_name":"Tanah Abang","is_transit":true,"station_id":"THB","time":6,"i_lat":-6.185545,"line":1},{"is_transit":true,"distance":3632,"i_long":106.800832,"station_name":"Duri","transit":true,"time":8,"i_lat":-6.155215,"line":1,"station_id":"DU"},{"is_transit":false,"i_long":106.79867,"time":4,"station_id":"AK","line":0,"i_lat":-6.144674,"distance":1230,"station_name":"Angke","transit":false},{"time":9,"transit":false,"station_name":"Kampung Bandan","station_id":"KPB","i_long":106.826365,"is_transit":true,"distance":4102,"i_lat":-6.132549,"line":0},{"station_id":"JAKK","distance":1364,"station_name":"Jakarta Kota","is_transit":true,"transit":true,"i_lat":-6.137569,"line":0,"time":3,"i_long":106.812439},{"time":4,"line":7,"distance":1264,"station_id":"JAY","transit":false,"i_lat":-6.141205,"i_long":106.820901,"station_name":"Jayakarta","is_transit":false},{"time":2,"distance":1080,"i_lat":-6.149769,"line":2,"station_id":"MGB","station_name":"Manggabesar","i_long":106.82482,"transit":false,"is_transit":false},{"i_long":106.827103,"line":2,"transit":false,"is_transit":false,"time":2,"station_id":"SW","station_name":"Sawah Besar","i_lat":-6.160725,"distance":906},{"station_name":"Juanda","station_id":"JUA","i_lat":-6.166716,"is_transit":false,"time":2,"distance":1149,"transit":false,"i_long":106.828284,"line":2},{"transit":false,"station_name":"Gondangdia","time":4,"i_long":106.832183,"line":2,"distance":2015,"station_id":"GDD","i_lat":-6.186295,"is_transit":false},{"station_name":"Cikini","i_lat":-6.198556,"is_transit":false,"time":3,"distance":1750,"transit":false,"station_id":"CKI","i_long":106.840169,"line":0},{"station_id":"MRI","time":4,"i_lat":-6.209883,"i_long":106.84912,"is_transit":true,"distance":1590,"transit":true,"line":0,"station_name":"Manggarai"},{"i_lat":-6.226659,"time":4,"station_name":"Tebet","is_transit":false,"i_long":106.857948,"line":2,"station_id":"TEB","distance":2610,"transit":false},{"transit":false,"i_lat":-6.242512,"is_transit":false,"i_long":106.856607,"line":0,"station_id":"CW","time":2,"distance":1230,"station_name":"Cawang"},{"station_id":"DRN","is_transit":false,"i_long":106.85449,"distance":1546,"line":0,"transit":false,"i_lat":-6.255332,"time":3,"station_name":"Duren Kalibata"},{"station_name":"Pasar Minggu Baru","transit":false,"i_long":106.851577,"line":2,"station_id":"PSMB","time":2,"i_lat":-6.263214,"is_transit":false,"distance":824},{"station_name":"Pasar Minggu","is_transit":false,"line":2,"i_long":106.843999,"transit":false,"distance":2380,"i_lat":-6.2842400000000005,"station_id":"PSM","time":2},{"i_long":106.838896,"station_name":"Tanjung Barat","i_lat":-6.3080680000000005,"is_transit":false,"line":2,"station_id":"TNT","distance":2820,"transit":false,"time":4},{"time":3,"station_name":"Lenteng Agung","distance":2671,"is_transit":false,"i_long":106.832616,"transit":false,"i_lat":-6.330363,"station_id":"LNA","line":2},{"time":2,"station_id":"UP","station_name":"Univ. Pancasila","line":2,"i_lat":-6.339291,"i_long":106.834175,"is_transit":false,"distance":1029,"transit":false}],[{"station_id":"MJ","transit":false,"is_transit":false,"time":0,"i_lat":-6.332307,"line":6,"distance":0,"i_long":106.394373,"station_name":"Maja"},{"i_lat":-6.33561,"station_id":"CKY","station_name":"Cikoya","distance":1853,"time":4,"transit":false,"line":0,"i_long":106.411216,"is_transit":false},{"time":3,"i_long":106.425991,"station_id":"TGS","distance":2651,"i_lat":-6.328533,"station_name":"Tigaraksa","line":6,"is_transit":false,"transit":false},{"i_lat":-6.327251,"distance":2974,"i_long":106.460812,"is_transit":false,"transit":false,"station_id":"TEJ","time":5,"line":6,"station_name":"Tenjo"},{"i_lat":-6.338021,"line":0,"station_name":"Daru","distance":3902,"i_long":106.491338,"time":5,"station_id":"DAR","is_transit":false,"transit":false},{"line":0,"time":6,"transit":false,"station_id":"CJT","station_name":"Cilejit","distance":2675,"i_lat":-6.354349,"is_transit":false,"i_long":106.508482},{"i_lat":-6.3441410000000005,"station_name":"Parung Panjang","i_long":106.568863,"transit":false,"is_transit":false,"distance":7025,"line":6,"time":9,"station_id":"PRP"},{"i_long":106.617853,"line":0,"transit":false,"i_lat":-6.329547,"distance":5968,"station_name":"Cicayur","time":8,"is_transit":false,"station_id":"CC"},{"is_transit":false,"transit":false,"i_lat":-6.32484,"distance":2519,"i_long":106.640411,"line":0,"time":4,"station_name":"Cisauk","station_id":"CSK"},{"time":4,"transit":false,"i_lat":-6.319871,"is_transit":false,"distance":1784,"station_id":"SRP","station_name":"Serpong","i_long":106.66566,"line":6},{"transit":false,"station_name":"Rawa Buntu","line":6,"station_id":"RU","time":4,"is_transit":false,"i_long":106.675475,"i_lat":-6.314823,"distance":2413},{"is_transit":false,"station_id":"SDM","i_long":106.712277,"i_lat":-6.296963,"distance":4566,"station_name":"Sudimara","transit":false,"line":6,"time":6},{"time":4,"i_long":106.728916,"distance":1994,"transit":false,"line":6,"i_lat":-6.288927,"station_id":"JMU","is_transit":false,"station_name":"Jurangmangu"},{"is_transit":false,"distance":2179,"transit":false,"i_long":106.74273,"time":3,"line":6,"i_lat":-6.276362,"station_name":"Pondokranji","station_id":"PDJ"},{"transit":false,"distance":6218,"time":8,"i_long":106.780334,"station_name":"Kebayoran","line":6,"station_id":"KBY","i_lat":-6.237242,"is_transit":false},{"station_name":"Palmerah","i_long":106.79689,"line":6,"transit":false,"i_lat":-6.207404,"time":7,"is_transit":false,"station_id":"PLM","distance":3737},{"line":1,"i_lat":-6.185545,"is_transit":true,"transit":true,"time":6,"i_long":106.811091,"distance":3191,"station_id":"THB","station_name":"Tanah Abang"},{"station_id":"DU","station_name":"Duri","line":1,"is_transit":true,"time":8,"distance":3632,"i_long":106.800832,"transit":true,"i_lat":-6.155215},{"is_transit":false,"distance":1230,"time":4,"transit":false,"i_lat":-6.144674,"line":0,"station_id":"AK","station_name":"Angke","i_long":106.79867},{"time":9,"transit":true,"distance":4102,"is_transit":true,"station_name":"Kampung Bandan","line":0,"i_lat":-6.132549,"i_long":106.826365,"station_id":"KPB"},{"line":11,"i_long":106.836569,"is_transit":false,"station_id":"RJW","station_name":"Rajawali","transit":false,"time":3,"distance":1444,"i_lat":-6.14505},{"time":5,"is_transit":false,"distance":1901,"station_name":"Kemayoran","line":11,"transit":false,"i_lat":-6.161728,"i_long":106.839204,"station_id":"KMO"},{"i_lat":-6.174784,"is_transit":false,"station_id":"PSE","time":4,"i_long":106.84368,"transit":false,"distance":1436,"station_name":"Pasar Senen","line":11},{"time":8,"i_long":106.850107,"i_lat":-6.185975,"station_id":"GST","distance":1567,"station_name":"Gang Sentiong","is_transit":false,"line":11,"transit":false},{"distance":973,"station_id":"KMT","is_transit":false,"i_lat":-6.193792,"station_name":"Kramat","i_long":106.855437,"time":1,"transit":false,"line":11},{"time":2,"i_lat":-6.209188,"station_name":"Pondok Jati","i_long":106.861737,"line":11,"station_id":"POK","is_transit":false,"transit":false,"distance":1829},{"i_lat":-6.215091,"station_name":"Jatinegara","time":9,"transit":true,"i_long":106.86807400000001,"is_transit":true,"station_id":"JNG","distance":1236,"line":0},{"station_id":"MTR","i_lat":-6.212485,"is_transit":false,"line":1,"station_name":"Matraman","time":2,"transit":false,"distance":1377,"i_long":106.858896},{"station_name":"Manggarai","transit":true,"time":2,"i_long":106.84912,"i_lat":-6.209883,"station_id":"MRI","distance":1275,"line":0,"is_transit":true},{"i_lat":-6.226659,"is_transit":false,"transit":false,"station_id":"TEB","station_name":"Tebet","time":4,"i_long":106.857948,"line":2,"distance":2610},{"station_id":"CW","is_transit":false,"transit":false,"i_lat":-6.242512,"i_long":106.856607,"line":0,"station_name":"Cawang","distance":1230,"time":2},{"station_id":"DRN","i_lat":-6.255332,"line":0,"station_name":"Duren Kalibata","is_transit":false,"time":3,"distance":1546,"transit":false,"i_long":106.85449},{"distance":824,"i_lat":-6.263214,"i_long":106.851577,"station_name":"Pasar Minggu Baru","line":2,"transit":false,"time":2,"station_id":"PSMB","is_transit":false},{"distance":2380,"station_id":"PSM","station_name":"Pasar Minggu","time":2,"transit":false,"i_lat":-6.2842400000000005,"i_long":106.843999,"line":2,"is_transit":false},{"station_id":"TNT","distance":2820,"station_name":"Tanjung Barat","transit":false,"line":2,"is_transit":false,"time":4,"i_lat":-6.3080680000000005,"i_long":106.838896},{"station_id":"LNA","time":3,"line":2,"i_long":106.832616,"distance":2671,"is_transit":false,"station_name":"Lenteng Agung","transit":false,"i_lat":-6.330363},{"distance":1029,"line":2,"time":2,"transit":false,"is_transit":false,"i_long":106.834175,"i_lat":-6.339291,"station_id":"UP","station_name":"Univ. Pancasila"}]]}