{"data":[[{"time":0,"distance":0,"station_name":"Manggarai","i_lat":-6.209883,"transit":false,"line":2,"is_transit":false,"i_long":106.84912,"station_id":"MRI"},{"line":1,"station_name":"Matraman","station_id":"MTR","distance":1275,"transit":false,"time":2,"i_long":106.858896,"is_transit":false,"i_lat":-6.212485},{"time":8,"i_lat":-6.215091,"distance":1377,"station_id":"JNG","line":1,"transit":false,"i_long":106.86807400000001,"station_name":"Jatinegara","is_transit":false},{"transit":false,"i_long":106.899548,"station_id":"KLD","is_transit":false,"station_name":"Klender","i_lat":-6.2135,"line":1,"time":3,"distance":3395}],[{"station_id":"MRI","i_lat":-6.209883,"station_name":"Manggarai","distance":0,"time":0,"transit":false,"is_transit":false,"i_long":106.84912,"line":2},{"i_long":106.822649,"station_name":"Sudirman","transit":false,"station_id":"SUD","distance":3186,"i_lat":-6.202263,"is_transit":false,"time":4,"line":1},{"distance":280,"time":1,"station_id":"SUDB","station_name":"Sudirman Baru","i_lat":-6.201433,"line":1,"is_transit":false,"i_long":106.819881,"transit":false},{"i_lat":-6.20132,"line":1,"station_id":"KAT","station_name":"Karet","is_transit":false,"distance":471,"time":1,"transit":false,"i_long":106.816351},{"i_lat":-6.185545,"i_long":106.811091,"station_id":"THB","distance":2029,"line":1,"transit":false,"station_name":"Tanah Abang","is_transit":false,"time":5},{"transit":false,"station_name":"Duri","time":8,"distance":3632,"i_lat":-6.155215,"line":1,"is_transit":false,"station_id":"DU","i_long":106.800832},{"transit":false,"station_id":"AK","i_lat":-6.144674,"i_long":106.79867,"station_name":"Angke","distance":1230,"line":1,"is_transit":false,"time":4},{"line":4,"time":9,"is_transit":true,"transit":true,"i_long":106.826365,"station_name":"Kampung Bandan","distance":4102,"station_id":"KPB","i_lat":-6.132549},{"line":11,"distance":1444,"station_id":"RJW","time":3,"station_name":"Rajawali","is_transit":false,"transit":false,"i_long":106.836569,"i_lat":-6.14505},{"distance":1901,"is_transit":false,"i_lat":-6.161728,"line":11,"transit":false,"time":5,"station_name":"Kemayoran","station_id":"KMO","i_long":106.839204},{"distance":1436,"station_name":"Pasar Senen","station_id":"PSE","time":4,"i_lat":-6.174784,"is_transit":false,"transit":false,"i_long":106.84368,"line":11},{"transit":false,"i_lat":-6.185975,"time":8,"distance":1567,"line":11,"is_transit":false,"station_name":"Gang Sentiong","station_id":"GST","i_long":106.850107},{"transit":false,"station_name":"Kramat","station_id":"KMT","time":1,"line":11,"i_long":106.855437,"is_transit":false,"distance":973,"i_lat":-6.193792},{"line":11,"distance":1829,"i_lat":-6.209188,"station_name":"Pondok Jati","station_id":"POK","is_transit":false,"transit":false,"time":2,"i_long":106.861737},{"station_id":"JNG","i_long":106.86807400000001,"station_name":"Jatinegara","line":1,"transit":true,"time":9,"is_transit":true,"i_lat":-6.215091,"distance":1236},{"line":1,"i_lat":-6.2135,"transit":false,"station_name":"Klender","is_transit":false,"distance":3395,"time":3,"station_id":"KLD","i_long":106.899548}],[{"time":0,"i_long":106.84912,"line":2,"station_id":"MRI","transit":false,"is_transit":false,"distance":0,"i_lat":-6.209883,"station_name":"Manggarai"},{"station_id":"CKI","distance":1590,"is_transit":false,"i_lat":-6.198556,"i_long":106.840169,"line":2,"time":4,"station_name":"Cikini","transit":false},{"is_transit":false,"station_name":"Gondangdia","station_id":"GDD","transit":false,"time":3,"i_lat":-6.186295,"i_long":106.832183,"line":2,"distance":1750},{"is_transit":false,"distance":2015,"i_lat":-6.166716,"station_name":"Juanda","station_id":"JUA","time":4,"line":2,"transit":false,"i_long":106.828284},{"line":2,"distance":1149,"station_name":"Sawah Besar","time":2,"transit":false,"station_id":"SW","is_transit":false,"i_lat":-6.160725,"i_long":106.827103},{"transit":false,"is_transit":false,"i_lat":-6.149769,"line":2,"station_name":"Manggabesar","time":2,"station_id":"MGB","i_long":106.82482,"distance":906},{"i_lat":-6.141205,"line":2,"time":2,"station_name":"Jayakarta","transit":false,"distance":1080,"i_long":106.820901,"station_id":"JAY","is_transit":false},{"transit":true,"distance":1264,"station_id":"JAKK","time":4,"station_name":"Jakarta Kota","i_long":106.812439,"line":2,"is_transit":true,"i_lat":-6.137569},{"i_long":106.826365,"transit":true,"is_transit":true,"i_lat":-6.132549,"line":4,"distance":1364,"time":3,"station_name":"Kampung Bandan","station_id":"KPB"},{"i_long":106.836569,"station_name":"Rajawali","transit":false,"line":11,"distance":1444,"station_id":"RJW","i_lat":-6.14505,"time":3,"is_transit":false},{"i_long":106.839204,"line":11,"is_transit":false,"i_lat":-6.161728,"distance":1901,"time":5,"station_name":"Kemayoran","transit":false,"station_id":"KMO"},{"i_lat":-6.174784,"station_name":"Pasar Senen","station_id":"PSE","transit":false,"line":11,"time":4,"is_transit":false,"i_long":106.84368,"distance":1436},{"transit":false,"station_name":"Gang Sentiong","distance":1567,"time":8,"i_long":106.850107,"line":11,"station_id":"GST","is_transit":false,"i_lat":-6.185975},{"transit":false,"station_id":"KMT","line":11,"i_long":106.855437,"i_lat":-6.193792,"distance":973,"station_name":"Kramat","time":1,"is_transit":false},{"i_long":106.861737,"line":11,"station_name":"Pondok Jati","is_transit":false,"transit":false,"station_id":"POK","distance":1829,"i_lat":-6.209188,"time":2},{"i_lat":-6.215091,"is_transit":true,"station_name":"Jatinegara","time":9,"transit":true,"line":1,"i_long":106.86807400000001,"station_id":"JNG","distance":1236},{"station_id":"KLD","distance":3395,"i_lat":-6.2135,"is_transit":false,"station_name":"Klender","transit":false,"line":1,"time":3,"i_long":106.899548}]]}