{"data":[[{"is_transit":false,"transit":false,"station_id":"MRI","line":2,"station_name":"Manggarai","time":0,"distance":0,"i_lat":-6.209883,"i_long":106.84912},{"distance":2610,"line":2,"is_transit":false,"time":4,"i_lat":-6.226659,"transit":false,"station_name":"Tebet","station_id":"TEB","i_long":106.857948},{"distance":1230,"time":2,"station_id":"CW","transit":false,"station_name":"Cawang","is_transit":false,"i_lat":-6.242512,"line":2,"i_long":106.856607},{"transit":false,"station_name":"Duren Kalibata","time":3,"station_id":"DRN","is_transit":false,"line":2,"distance":1546,"i_lat":-6.255332,"i_long":106.85449},{"time":2,"i_lat":-6.263214,"line":2,"is_transit":false,"station_id":"PSMB","distance":824,"i_long":106.851577,"station_name":"Pasar Minggu Baru","transit":false},{"line":2,"i_lat":-6.2842400000000005,"i_long":106.843999,"station_name":"Pasar Minggu","station_id":"PSM","time":2,"is_transit":false,"transit":false,"distance":2380},{"is_transit":false,"station_id":"TNT","time":4,"station_name":"Tanjung Barat","distance":2820,"i_long":106.838896,"i_lat":-6.3080680000000005,"line":2,"transit":false},{"i_lat":-6.330363,"time":3,"i_long":106.832616,"station_name":"Lenteng Agung","transit":false,"line":2,"station_id":"LNA","is_transit":false,"distance":2671},{"is_transit":false,"i_long":106.834175,"i_lat":-6.339291,"line":2,"station_id":"UP","station_name":"Univ. Pancasila","distance":1029,"transit":false,"time":2},{"time":3,"i_lat":-6.360749,"line":2,"distance":2264,"station_id":"UI","transit":false,"station_name":"Univ. Indonesia","is_transit":false,"i_long":106.831474}]]}