{"data":[[{"is_transit":true,"line":0,"i_lat":-6.209883,"transit":false,"station_name":"Manggarai","station_id":"MRI","time":0,"distance":0,"i_long":106.84912},{"i_lat":-6.226659,"transit":false,"station_name":"Tebet","i_long":106.857948,"station_id":"TEB","is_transit":false,"time":4,"distance":2610,"line":2},{"transit":false,"line":0,"station_id":"CW","distance":1230,"station_name":"Cawang","is_transit":false,"i_lat":-6.242512,"time":2,"i_long":106.856607},{"transit":false,"time":3,"is_transit":false,"distance":1546,"i_long":106.85449,"line":0,"station_name":"Duren Kalibata","i_lat":-6.255332,"station_id":"DRN"},{"station_id":"PSMB","time":2,"i_lat":-6.263214,"station_name":"Pasar Minggu Baru","transit":false,"i_long":106.851577,"distance":824,"line":2,"is_transit":false}]]}