{"data":[[{"station_id":"MRI","distance":0,"line":2,"time":0,"transit":false,"is_transit":false,"i_lat":-6.209883,"i_long":106.84912,"station_name":"Manggarai"},{"time":4,"station_id":"CKI","is_transit":false,"station_name":"Cikini","i_lat":-6.198556,"transit":false,"distance":1590,"i_long":106.840169,"line":2},{"station_id":"GDD","distance":1750,"transit":false,"station_name":"Gondangdia","line":2,"i_lat":-6.186295,"is_transit":false,"i_long":106.832183,"time":3}],[{"is_transit":false,"line":2,"station_id":"MRI","transit":false,"time":0,"distance":0,"i_lat":-6.209883,"station_name":"Manggarai","i_long":106.84912},{"distance":3186,"i_long":106.822649,"time":4,"transit":false,"station_id":"SUD","line":1,"station_name":"Sudirman","is_transit":false,"i_lat":-6.202263},{"time":1,"distance":280,"i_lat":-6.201433,"line":1,"transit":false,"station_name":"Sudirman Baru","i_long":106.819881,"station_id":"SUDB","is_transit":false},{"is_transit":false,"i_long":106.816351,"i_lat":-6.20132,"transit":false,"time":1,"line":1,"station_name":"Karet","distance":471,"station_id":"KAT"},{"time":5,"station_name":"Tanah Abang","is_transit":false,"i_lat":-6.185545,"i_long":106.811091,"distance":2029,"line":1,"transit":false,"station_id":"THB"},{"transit":false,"station_name":"Duri","station_id":"DU","i_lat":-6.155215,"line":1,"is_transit":false,"i_long":106.800832,"time":8,"distance":3632},{"distance":1230,"time":4,"line":1,"station_id":"AK","i_lat":-6.144674,"station_name":"Angke","i_long":106.79867,"transit":false,"is_transit":false},{"is_transit":true,"line":4,"transit":true,"time":9,"station_id":"KPB","distance":4102,"i_lat":-6.132549,"station_name":"Kampung Bandan","i_long":106.826365},{"is_transit":true,"i_lat":-6.137569,"line":2,"distance":1364,"station_id":"JAKK","station_name":"Jakarta Kota","i_long":106.812439,"time":3,"transit":true},{"time":4,"is_transit":false,"line":2,"i_long":106.820901,"station_id":"JAY","station_name":"Jayakarta","transit":false,"i_lat":-6.141205,"distance":1264},{"is_transit":false,"station_name":"Manggabesar","transit":false,"i_lat":-6.149769,"time":2,"station_id":"MGB","distance":1080,"i_long":106.82482,"line":2},{"time":2,"station_id":"SW","transit":false,"i_long":106.827103,"is_transit":false,"distance":906,"station_name":"Sawah Besar","i_lat":-6.160725,"line":2},{"is_transit":false,"transit":false,"i_long":106.828284,"time":2,"station_name":"Juanda","station_id":"JUA","distance":1149,"line":2,"i_lat":-6.166716},{"line":2,"i_lat":-6.186295,"station_id":"GDD","station_name":"Gondangdia","transit":false,"i_long":106.832183,"time":4,"is_transit":false,"distance":2015}],[{"i_lat":-6.209883,"line":2,"time":0,"distance":0,"i_long":106.84912,"station_id":"MRI","transit":false,"station_name":"Manggarai","is_transit":false},{"station_name":"Matraman","line":1,"i_long":106.858896,"time":2,"station_id":"MTR","distance":1275,"is_transit":false,"i_lat":-6.212485,"transit":false},{"time":8,"i_long":106.86807400000001,"transit":true,"line":1,"station_name":"Jatinegara","distance":1377,"is_transit":true,"i_lat":-6.215091,"station_id":"JNG"},{"i_long":106.861737,"line":11,"station_id":"POK","time":2,"distance":1236,"i_lat":-6.209188,"transit":false,"is_transit":false,"station_name":"Pondok Jati"},{"time":2,"transit":false,"distance":1829,"station_id":"KMT","is_transit":false,"i_long":106.855437,"line":11,"station_name":"Kramat","i_lat":-6.193792},{"line":11,"station_name":"Gang Sentiong","i_long":106.850107,"is_transit":false,"station_id":"GST","time":1,"distance":973,"i_lat":-6.185975,"transit":false},{"time":8,"i_lat":-6.174784,"station_name":"Pasar Senen","transit":false,"distance":1567,"station_id":"PSE","i_long":106.84368,"is_transit":false,"line":11},{"i_long":106.839204,"is_transit":false,"i_lat":-6.161728,"station_name":"Kemayoran","line":11,"transit":false,"distance":1436,"station_id":"KMO","time":4},{"i_lat":-6.14505,"line":11,"i_long":106.836569,"is_transit":false,"station_id":"RJW","transit":false,"distance":1901,"time":5,"station_name":"Rajawali"},{"station_id":"KPB","is_transit":true,"distance":1444,"i_long":106.826365,"line":4,"station_name":"Kampung Bandan","time":3,"i_lat":-6.132549,"transit":true},{"transit":true,"line":2,"time":3,"is_transit":true,"station_name":"Jakarta Kota","i_lat":-6.137569,"i_long":106.812439,"distance":1364,"station_id":"JAKK"},{"line":2,"time":4,"is_transit":false,"station_name":"Jayakarta","i_long":106.820901,"transit":false,"station_id":"JAY","distance":1264,"i_lat":-6.141205},{"i_long":106.82482,"time":2,"is_transit":false,"station_id":"MGB","transit":false,"distance":1080,"station_name":"Manggabesar","line":2,"i_lat":-6.149769},{"distance":906,"station_name":"Sawah Besar","line":2,"time":2,"transit":false,"i_long":106.827103,"i_lat":-6.160725,"station_id":"SW","is_transit":false},{"time":2,"station_id":"JUA","i_lat":-6.166716,"distance":1149,"i_long":106.828284,"station_name":"Juanda","line":2,"transit":false,"is_transit":false},{"time":4,"i_lat":-6.186295,"transit":false,"distance":2015,"station_name":"Gondangdia","i_long":106.832183,"line":2,"station_id":"GDD","is_transit":false}]]}