{"data":[[{"i_lat":-6.209883,"i_long":106.84912,"line":2,"transit":false,"time":0,"station_id":"MRI","station_name":"Manggarai","is_transit":false,"distance":0},{"distance":1275,"station_id":"MTR","transit":false,"station_name":"Matraman","is_transit":false,"i_lat":-6.212485,"i_long":106.858896,"line":1,"time":2},{"transit":false,"station_name":"Jatinegara","distance":1377,"line":1,"i_long":106.86807400000001,"station_id":"JNG","time":8,"is_transit":false,"i_lat":-6.215091},{"distance":3395,"station_name":"Klender","station_id":"KLD","is_transit":false,"i_long":106.899548,"transit":false,"time":3,"line":1,"i_lat":-6.2135},{"station_id":"BUA","distance":3100,"transit":false,"i_long":106.922662,"line":1,"time":2,"station_name":"Buaran","is_transit":false,"i_lat":-6.215568},{"line":1,"station_id":"KLDB","station_name":"Klenderbaru","distance":1305,"transit":false,"i_long":106.939679,"is_transit":false,"time":1,"i_lat":-6.217455},{"transit":false,"distance":1385,"time":8,"is_transit":false,"station_id":"CUK","station_name":"Cakung","i_long":106.951283,"line":1,"i_lat":-6.219053},{"distance":3097,"transit":false,"i_long":106.977657,"station_name":"Kranji","station_id":"KRI","is_transit":false,"line":1,"time":3,"i_lat":-6.224515},{"transit":false,"station_name":"Bekasi","time":4,"i_long":106.997013,"line":1,"station_id":"BKS","is_transit":false,"distance":2520,"i_lat":-6.236616}],[{"station_name":"Manggarai","i_long":106.84912,"time":0,"is_transit":false,"station_id":"MRI","transit":false,"distance":0,"i_lat":-6.209883,"line":2},{"line":1,"station_id":"SUD","transit":false,"i_long":106.822649,"distance":3186,"i_lat":-6.202263,"station_name":"Sudirman","is_transit":false,"time":4},{"is_transit":false,"distance":280,"i_long":106.819881,"station_name":"Sudirman Baru","transit":false,"i_lat":-6.201433,"line":1,"station_id":"SUDB","time":1},{"distance":471,"station_name":"Karet","station_id":"KAT","time":1,"line":1,"transit":false,"i_lat":-6.20132,"i_long":106.816351,"is_transit":false},{"i_long":106.811091,"is_transit":false,"i_lat":-6.185545,"time":5,"station_name":"Tanah Abang","distance":2029,"transit":false,"station_id":"THB","line":1},{"transit":false,"time":8,"is_transit":false,"distance":3632,"station_id":"DU","line":1,"i_lat":-6.155215,"station_name":"Duri","i_long":106.800832},{"is_transit":false,"distance":1230,"time":4,"i_lat":-6.144674,"station_id":"AK","station_name":"Angke","line":1,"i_long":106.79867,"transit":false},{"i_long":106.826365,"i_lat":-6.132549,"line":4,"station_name":"Kampung Bandan","station_id":"KPB","transit":true,"is_transit":true,"time":9,"distance":4102},{"i_lat":-6.14505,"distance":1444,"transit":false,"time":3,"line":11,"i_long":106.836569,"station_id":"RJW","station_name":"Rajawali","is_transit":false},{"station_name":"Kemayoran","transit":false,"station_id":"KMO","is_transit":false,"i_lat":-6.161728,"distance":1901,"i_long":106.839204,"line":11,"time":5},{"transit":false,"time":4,"station_id":"PSE","i_lat":-6.174784,"is_transit":false,"i_long":106.84368,"distance":1436,"line":11,"station_name":"Pasar Senen"},{"distance":1567,"transit":false,"station_id":"GST","is_transit":false,"i_lat":-6.185975,"station_name":"Gang Sentiong","i_long":106.850107,"time":8,"line":11},{"station_id":"KMT","time":1,"i_lat":-6.193792,"line":11,"i_long":106.855437,"distance":973,"transit":false,"station_name":"Kramat","is_transit":false},{"i_long":106.861737,"transit":false,"time":2,"station_id":"POK","distance":1829,"i_lat":-6.209188,"line":11,"station_name":"Pondok Jati","is_transit":false},{"i_lat":-6.215091,"station_name":"Jatinegara","distance":1236,"is_transit":true,"time":9,"line":1,"transit":true,"station_id":"JNG","i_long":106.86807400000001},{"station_id":"KLD","transit":false,"station_name":"Klender","is_transit":false,"distance":3395,"i_long":106.899548,"time":3,"i_lat":-6.2135,"line":1},{"station_name":"Buaran","time":2,"transit":false,"is_transit":false,"line":1,"i_long":106.922662,"station_id":"BUA","distance":3100,"i_lat":-6.215568},{"is_transit":false,"line":1,"i_long":106.939679,"i_lat":-6.217455,"station_name":"Klenderbaru","station_id":"KLDB","distance":1305,"time":1,"transit":false},{"i_lat":-6.219053,"station_id":"CUK","i_long":106.951283,"transit":false,"line":1,"time":8,"station_name":"Cakung","distance":1385,"is_transit":false},{"transit":false,"time":3,"station_name":"Kranji","i_long":106.977657,"is_transit":false,"i_lat":-6.224515,"station_id":"KRI","distance":3097,"line":1},{"station_name":"Bekasi","transit":false,"station_id":"BKS","is_transit":false,"i_lat":-6.236616,"i_long":106.997013,"distance":2520,"line":1,"time":4}],[{"station_name":"Manggarai","station_id":"MRI","transit":false,"i_lat":-6.209883,"distance":0,"line":2,"time":0,"is_transit":false,"i_long":106.84912},{"i_long":106.840169,"is_transit":false,"time":4,"transit":false,"station_name":"Cikini","station_id":"CKI","i_lat":-6.198556,"line":2,"distance":1590},{"i_long":106.832183,"distance":1750,"time":3,"station_name":"Gondangdia","station_id":"GDD","is_transit":false,"line":2,"transit":false,"i_lat":-6.186295},{"time":4,"i_long":106.828284,"distance":2015,"line":2,"i_lat":-6.166716,"transit":false,"station_id":"JUA","is_transit":false,"station_name":"Juanda"},{"transit":false,"i_lat":-6.160725,"i_long":106.827103,"line":2,"time":2,"distance":1149,"is_transit":false,"station_name":"Sawah Besar","station_id":"SW"},{"transit":false,"distance":906,"time":2,"station_name":"Manggabesar","i_long":106.82482,"is_transit":false,"i_lat":-6.149769,"station_id":"MGB","line":2},{"is_transit":false,"time":2,"station_name":"Jayakarta","i_long":106.820901,"transit":false,"line":2,"distance":1080,"station_id":"JAY","i_lat":-6.141205},{"time":4,"is_transit":true,"transit":true,"distance":1264,"station_id":"JAKK","i_lat":-6.137569,"line":2,"station_name":"Jakarta Kota","i_long":106.812439},{"transit":true,"i_lat":-6.132549,"is_transit":true,"i_long":106.826365,"line":4,"time":3,"station_name":"Kampung Bandan","station_id":"KPB","distance":1364},{"distance":1444,"time":3,"i_lat":-6.14505,"i_long":106.836569,"line":11,"transit":false,"station_name":"Rajawali","is_transit":false,"station_id":"RJW"},{"station_name":"Kemayoran","line":11,"time":5,"station_id":"KMO","is_transit":false,"i_lat":-6.161728,"transit":false,"distance":1901,"i_long":106.839204},{"line":11,"distance":1436,"time":4,"is_transit":false,"transit":false,"i_lat":-6.174784,"i_long":106.84368,"station_id":"PSE","station_name":"Pasar Senen"},{"station_name":"Gang Sentiong","distance":1567,"station_id":"GST","i_lat":-6.185975,"is_transit":false,"line":11,"i_long":106.850107,"transit":false,"time":8},{"line":11,"transit":false,"time":1,"i_long":106.855437,"station_id":"KMT","i_lat":-6.193792,"is_transit":false,"station_name":"Kramat","distance":973},{"time":2,"transit":false,"is_transit":false,"station_id":"POK","i_long":106.861737,"line":11,"station_name":"Pondok Jati","i_lat":-6.209188,"distance":1829},{"line":1,"distance":1236,"station_id":"JNG","time":9,"station_name":"Jatinegara","transit":true,"is_transit":true,"i_lat":-6.215091,"i_long":106.86807400000001},{"is_transit":false,"i_long":106.899548,"line":1,"station_name":"Klender","distance":3395,"i_lat":-6.2135,"transit":false,"station_id":"KLD","time":3},{"is_transit":false,"transit":false,"time":2,"distance":3100,"i_lat":-6.215568,"i_long":106.922662,"station_id":"BUA","line":1,"station_name":"Buaran"},{"i_lat":-6.217455,"i_long":106.939679,"line":1,"time":1,"station_id":"KLDB","transit":false,"distance":1305,"is_transit":false,"station_name":"Klenderbaru"},{"transit":false,"distance":1385,"station_id":"CUK","time":8,"i_lat":-6.219053,"line":1,"is_transit":false,"station_name":"Cakung","i_long":106.951283},{"time":3,"distance":3097,"i_long":106.977657,"i_lat":-6.224515,"transit":false,"line":1,"station_id":"KRI","is_transit":false,"station_name":"Kranji"},{"station_id":"BKS","transit":false,"station_name":"Bekasi","line":1,"time":4,"distance":2520,"is_transit":false,"i_long":106.997013,"i_lat":-6.236616}]]}