{"data":[[{"station_id":"MRI","time":0,"station_name":"Manggarai","is_transit":false,"transit":false,"i_lat":-6.209883,"distance":0,"line":2,"i_long":106.84912},{"distance":1275,"i_lat":-6.212485,"i_long":106.858896,"line":1,"station_name":"Matraman","station_id":"MTR","time":2,"is_transit":false,"transit":false},{"i_long":106.86807400000001,"transit":false,"time":8,"station_id":"JNG","is_transit":false,"i_lat":-6.215091,"station_name":"Jatinegara","distance":1377,"line":1},{"station_id":"KLD","transit":false,"line":1,"i_lat":-6.2135,"station_name":"Klender","time":3,"i_long":106.899548,"is_transit":false,"distance":3395}],[{"i_long":106.84912,"line":2,"is_transit":false,"station_name":"Manggarai","transit":false,"i_lat":-6.209883,"distance":0,"time":0,"station_id":"MRI"},{"station_name":"Sudirman","is_transit":false,"line":1,"distance":3186,"transit":false,"time":4,"i_long":106.822649,"i_lat":-6.202263,"station_id":"SUD"},{"time":1,"distance":280,"station_id":"SUDB","transit":false,"station_name":"Sudirman Baru","i_long":106.819881,"i_lat":-6.201433,"is_transit":false,"line":1},{"time":1,"station_name":"Karet","i_lat":-6.20132,"distance":471,"line":1,"is_transit":false,"station_id":"KAT","transit":false,"i_long":106.816351},{"i_lat":-6.185545,"is_transit":false,"i_long":106.811091,"distance":2029,"line":1,"station_name":"Tanah Abang","transit":false,"time":5,"station_id":"THB"},{"distance":3632,"line":1,"station_name":"Duri","i_long":106.800832,"i_lat":-6.155215,"is_transit":false,"time":8,"transit":false,"station_id":"DU"},{"time":4,"line":1,"station_name":"Angke","is_transit":false,"distance":1230,"station_id":"AK","transit":false,"i_lat":-6.144674,"i_long":106.79867},{"i_long":106.826365,"line":4,"time":9,"transit":true,"distance":4102,"i_lat":-6.132549,"is_transit":true,"station_name":"Kampung Bandan","station_id":"KPB"},{"i_lat":-6.14505,"time":3,"line":11,"is_transit":false,"station_name":"Rajawali","transit":false,"station_id":"RJW","i_long":106.836569,"distance":1444},{"time":5,"station_name":"Kemayoran","distance":1901,"i_lat":-6.161728,"i_long":106.839204,"station_id":"KMO","transit":false,"line":11,"is_transit":false},{"time":4,"line":11,"station_id":"PSE","i_lat":-6.174784,"transit":false,"is_transit":false,"i_long":106.84368,"station_name":"Pasar Senen","distance":1436},{"time":8,"station_name":"Gang Sentiong","i_long":106.850107,"line":11,"station_id":"GST","distance":1567,"is_transit":false,"i_lat":-6.185975,"transit":false},{"i_lat":-6.193792,"i_long":106.855437,"line":11,"time":1,"station_id":"KMT","station_name":"Kramat","is_transit":false,"distance":973,"transit":false},{"distance":1829,"time":2,"line":11,"is_transit":false,"i_lat":-6.209188,"station_name":"Pondok Jati","station_id":"POK","transit":false,"i_long":106.861737},{"is_transit":true,"line":1,"station_name":"Jatinegara","i_long":106.86807400000001,"station_id":"JNG","distance":1236,"i_lat":-6.215091,"transit":true,"time":9},{"distance":3395,"station_id":"KLD","is_transit":false,"i_lat":-6.2135,"i_long":106.899548,"station_name":"Klender","transit":false,"time":3,"line":1}],[{"time":0,"distance":0,"station_id":"MRI","i_lat":-6.209883,"line":2,"station_name":"Manggarai","is_transit":false,"i_long":106.84912,"transit":false},{"distance":1590,"is_transit":false,"station_id":"CKI","i_long":106.840169,"station_name":"Cikini","time":4,"transit":false,"line":2,"i_lat":-6.198556},{"station_id":"GDD","i_lat":-6.186295,"i_long":106.832183,"time":3,"station_name":"Gondangdia","transit":false,"line":2,"distance":1750,"is_transit":false},{"distance":2015,"i_long":106.828284,"is_transit":false,"line":2,"station_id":"JUA","i_lat":-6.166716,"transit":false,"station_name":"Juanda","time":4},{"transit":false,"i_long":106.827103,"is_transit":false,"distance":1149,"station_name":"Sawah Besar","station_id":"SW","i_lat":-6.160725,"line":2,"time":2},{"is_transit":false,"line":2,"i_lat":-6.149769,"station_id":"MGB","distance":906,"transit":false,"i_long":106.82482,"station_name":"Manggabesar","time":2},{"time":2,"transit":false,"station_id":"JAY","station_name":"Jayakarta","distance":1080,"i_lat":-6.141205,"i_long":106.820901,"is_transit":false,"line":2},{"transit":true,"distance":1264,"i_lat":-6.137569,"is_transit":true,"i_long":106.812439,"time":4,"station_name":"Jakarta Kota","line":2,"station_id":"JAKK"},{"transit":true,"i_lat":-6.132549,"time":3,"is_transit":true,"station_name":"Kampung Bandan","distance":1364,"station_id":"KPB","i_long":106.826365,"line":4},{"i_lat":-6.14505,"station_name":"Rajawali","is_transit":false,"station_id":"RJW","distance":1444,"i_long":106.836569,"line":11,"time":3,"transit":false},{"transit":false,"is_transit":false,"i_lat":-6.161728,"distance":1901,"i_long":106.839204,"time":5,"line":11,"station_id":"KMO","station_name":"Kemayoran"},{"i_long":106.84368,"line":11,"distance":1436,"is_transit":false,"station_name":"Pasar Senen","transit":false,"i_lat":-6.174784,"time":4,"station_id":"PSE"},{"i_long":106.850107,"transit":false,"is_transit":false,"station_name":"Gang Sentiong","time":8,"distance":1567,"i_lat":-6.185975,"line":11,"station_id":"GST"},{"time":1,"i_lat":-6.193792,"station_name":"Kramat","line":11,"is_transit":false,"distance":973,"transit":false,"station_id":"KMT","i_long":106.855437},{"i_long":106.861737,"line":11,"station_id":"POK","transit":false,"time":2,"is_transit":false,"i_lat":-6.209188,"distance":1829,"station_name":"Pondok Jati"},{"i_long":106.86807400000001,"station_name":"Jatinegara","distance":1236,"station_id":"JNG","i_lat":-6.215091,"line":1,"is_transit":true,"time":9,"transit":true},{"i_lat":-6.2135,"line":1,"distance":3395,"i_long":106.899548,"station_id":"KLD","is_transit":false,"time":3,"station_name":"Klender","transit":false}]]}