{"data":[[{"time":0,"line":0,"station_id":"MRI","is_transit":true,"transit":false,"station_name":"Manggarai","i_lat":-6.209883,"distance":0,"i_long":106.84912},{"line":1,"i_long":106.858896,"is_transit":false,"transit":false,"time":2,"station_name":"Matraman","station_id":"MTR","i_lat":-6.212485,"distance":1275},{"line":0,"station_id":"JNG","is_transit":true,"transit":true,"distance":1377,"station_name":"Jatinegara","i_long":106.86807400000001,"time":8,"i_lat":-6.215091},{"station_name":"Pondok Jati","time":2,"i_lat":-6.209188,"is_transit":false,"station_id":"POK","line":11,"transit":false,"i_long":106.861737,"distance":1236},{"time":2,"distance":1829,"i_lat":-6.193792,"station_id":"KMT","line":11,"transit":false,"is_transit":false,"i_long":106.855437,"station_name":"Kramat"},{"i_long":106.850107,"station_id":"GST","station_name":"Gang Sentiong","time":1,"transit":false,"i_lat":-6.185975,"is_transit":false,"distance":973,"line":11}],[{"transit":false,"distance":0,"i_long":106.84912,"line":0,"station_id":"MRI","is_transit":true,"time":0,"station_name":"Manggarai","i_lat":-6.209883},{"station_id":"SUD","station_name":"Sudirman","time":4,"i_long":106.822649,"line":1,"distance":3186,"i_lat":-6.202263,"is_transit":false,"transit":false},{"transit":false,"i_lat":-6.201433,"i_long":106.819881,"time":1,"station_id":"SUDB","line":1,"station_name":"Sudirman Baru","is_transit":false,"distance":280},{"i_long":106.816351,"station_id":"KAT","is_transit":false,"transit":false,"line":1,"distance":471,"station_name":"Karet","time":1,"i_lat":-6.20132},{"is_transit":true,"time":5,"distance":2029,"i_lat":-6.185545,"station_name":"Tanah Abang","transit":false,"i_long":106.811091,"line":1,"station_id":"THB"},{"line":1,"is_transit":true,"station_id":"DU","i_lat":-6.155215,"transit":true,"i_long":106.800832,"time":8,"station_name":"Duri","distance":3632},{"station_id":"AK","time":4,"station_name":"Angke","distance":1230,"i_long":106.79867,"is_transit":false,"transit":false,"line":0,"i_lat":-6.144674},{"i_long":106.826365,"station_name":"Kampung Bandan","i_lat":-6.132549,"is_transit":true,"transit":true,"line":0,"station_id":"KPB","distance":4102,"time":9},{"is_transit":false,"line":11,"distance":1444,"time":3,"i_long":106.836569,"station_name":"Rajawali","transit":false,"station_id":"RJW","i_lat":-6.14505},{"station_name":"Kemayoran","distance":1901,"i_lat":-6.161728,"station_id":"KMO","i_long":106.839204,"time":5,"is_transit":false,"transit":false,"line":11},{"station_name":"Pasar Senen","distance":1436,"line":11,"is_transit":false,"transit":false,"i_lat":-6.174784,"i_long":106.84368,"time":4,"station_id":"PSE"},{"line":11,"time":8,"distance":1567,"i_long":106.850107,"station_name":"Gang Sentiong","transit":false,"station_id":"GST","is_transit":false,"i_lat":-6.185975}],[{"station_id":"MRI","line":0,"station_name":"Manggarai","time":0,"i_long":106.84912,"is_transit":true,"i_lat":-6.209883,"transit":false,"distance":0},{"line":0,"station_id":"CKI","i_long":106.840169,"station_name":"Cikini","i_lat":-6.198556,"is_transit":false,"time":4,"transit":false,"distance":1590},{"i_lat":-6.186295,"transit":false,"station_id":"GDD","station_name":"Gondangdia","line":2,"i_long":106.832183,"time":3,"distance":1750,"is_transit":false},{"i_lat":-6.166716,"station_name":"Juanda","distance":2015,"time":4,"station_id":"JUA","i_long":106.828284,"transit":false,"line":2,"is_transit":false},{"i_long":106.827103,"transit":false,"line":2,"is_transit":false,"station_name":"Sawah Besar","time":2,"distance":1149,"i_lat":-6.160725,"station_id":"SW"},{"is_transit":false,"time":2,"transit":false,"line":2,"station_name":"Manggabesar","i_long":106.82482,"station_id":"MGB","distance":906,"i_lat":-6.149769},{"time":2,"transit":false,"station_name":"Jayakarta","i_lat":-6.141205,"i_long":106.820901,"is_transit":false,"station_id":"JAY","line":7,"distance":1080},{"is_transit":true,"time":4,"distance":1264,"i_lat":-6.137569,"station_name":"Jakarta Kota","line":0,"station_id":"JAKK","transit":true,"i_long":106.812439},{"station_id":"KPB","station_name":"Kampung Bandan","i_long":106.826365,"line":0,"distance":1364,"i_lat":-6.132549,"is_transit":true,"transit":true,"time":3},{"line":11,"station_id":"RJW","station_name":"Rajawali","i_lat":-6.14505,"time":3,"i_long":106.836569,"is_transit":false,"distance":1444,"transit":false},{"station_name":"Kemayoran","i_lat":-6.161728,"is_transit":false,"distance":1901,"transit":false,"line":11,"time":5,"i_long":106.839204,"station_id":"KMO"},{"distance":1436,"time":4,"transit":false,"i_long":106.84368,"i_lat":-6.174784,"station_id":"PSE","station_name":"Pasar Senen","is_transit":false,"line":11},{"station_id":"GST","i_long":106.850107,"i_lat":-6.185975,"is_transit":false,"line":11,"transit":false,"time":8,"station_name":"Gang Sentiong","distance":1567}]]}