{"data":[[{"station_id":"MRI","i_long":106.84912,"i_lat":-6.209883,"line":2,"is_transit":false,"time":0,"station_name":"Manggarai","transit":false,"distance":0},{"time":4,"distance":3186,"i_lat":-6.202263,"i_long":106.822649,"line":1,"station_name":"Sudirman","transit":false,"station_id":"SUD","is_transit":false},{"i_lat":-6.201433,"line":1,"station_id":"SUDB","is_transit":false,"transit":false,"distance":280,"time":1,"i_long":106.819881,"station_name":"Sudirman Baru"},{"time":1,"station_name":"Karet","distance":471,"i_long":106.816351,"line":1,"i_lat":-6.20132,"transit":false,"is_transit":false,"station_id":"KAT"},{"station_name":"Tanah Abang","transit":true,"station_id":"THB","i_long":106.811091,"time":5,"line":1,"distance":2029,"is_transit":true,"i_lat":-6.185545},{"transit":false,"station_id":"PLM","distance":3191,"time":6,"i_long":106.79689,"is_transit":false,"i_lat":-6.207404,"line":6,"station_name":"Palmerah"},{"transit":false,"distance":3737,"station_id":"KBY","station_name":"Kebayoran","is_transit":false,"time":7,"i_lat":-6.237242,"i_long":106.780334,"line":6},{"distance":6218,"line":6,"station_name":"Pondokranji","i_long":106.74273,"transit":false,"i_lat":-6.276362,"station_id":"PDJ","is_transit":false,"time":8},{"i_lat":-6.288927,"transit":false,"station_name":"Jurangmangu","time":3,"station_id":"JMU","is_transit":false,"i_long":106.728916,"line":6,"distance":2179},{"station_id":"SDM","distance":1994,"i_lat":-6.296963,"transit":false,"station_name":"Sudimara","line":6,"i_long":106.712277,"is_transit":false,"time":4},{"transit":false,"station_name":"Rawa Buntu","i_lat":-6.314823,"line":6,"i_long":106.675475,"station_id":"RU","time":6,"is_transit":false,"distance":4566},{"transit":false,"is_transit":false,"i_lat":-6.319871,"station_id":"SRP","distance":2413,"i_long":106.66566,"time":4,"station_name":"Serpong","line":6},{"transit":false,"i_long":106.640411,"line":3,"time":4,"station_name":"Cisauk","distance":1784,"is_transit":false,"station_id":"CSK","i_lat":-6.32484},{"is_transit":false,"station_id":"CC","line":3,"time":4,"i_long":106.617853,"station_name":"Cicayur","distance":2519,"i_lat":-6.329547,"transit":false},{"station_name":"Parung Panjang","is_transit":false,"distance":5968,"line":6,"station_id":"PRP","time":8,"i_lat":-6.3441410000000005,"transit":false,"i_long":106.568863},{"station_id":"CJT","is_transit":false,"transit":false,"i_lat":-6.354349,"line":3,"station_name":"Cilejit","distance":7025,"time":9,"i_long":106.508482},{"i_long":106.491338,"distance":2675,"i_lat":-6.338021,"line":0,"time":6,"is_transit":false,"transit":false,"station_name":"Daru","station_id":"DAR"}],[{"time":0,"station_name":"Manggarai","i_lat":-6.209883,"station_id":"MRI","line":2,"i_long":106.84912,"is_transit":false,"transit":false,"distance":0},{"distance":1590,"i_lat":-6.198556,"station_name":"Cikini","time":4,"line":2,"i_long":106.840169,"station_id":"CKI","transit":false,"is_transit":false},{"is_transit":false,"time":3,"i_long":106.832183,"transit":false,"station_name":"Gondangdia","i_lat":-6.186295,"line":2,"distance":1750,"station_id":"GDD"},{"i_lat":-6.166716,"i_long":106.828284,"station_id":"JUA","is_transit":false,"transit":false,"line":2,"distance":2015,"time":4,"station_name":"Juanda"},{"distance":1149,"is_transit":false,"time":2,"i_lat":-6.160725,"i_long":106.827103,"line":2,"transit":false,"station_name":"Sawah Besar","station_id":"SW"},{"station_name":"Manggabesar","line":2,"distance":906,"i_lat":-6.149769,"transit":false,"is_transit":false,"i_long":106.82482,"station_id":"MGB","time":2},{"i_long":106.820901,"distance":1080,"line":2,"transit":false,"station_name":"Jayakarta","is_transit":false,"i_lat":-6.141205,"time":2,"station_id":"JAY"},{"distance":1264,"transit":true,"station_name":"Jakarta Kota","line":2,"is_transit":true,"time":4,"i_lat":-6.137569,"i_long":106.812439,"station_id":"JAKK"},{"transit":true,"i_long":106.826365,"station_id":"KPB","is_transit":true,"i_lat":-6.132549,"station_name":"Kampung Bandan","line":4,"time":3,"distance":1364},{"line":1,"transit":false,"i_lat":-6.144674,"i_long":106.79867,"station_id":"AK","is_transit":false,"time":9,"station_name":"Angke","distance":4102},{"i_lat":-6.155215,"transit":false,"station_id":"DU","time":4,"distance":1230,"is_transit":false,"line":1,"i_long":106.800832,"station_name":"Duri"},{"distance":3632,"station_name":"Tanah Abang","time":8,"station_id":"THB","i_long":106.811091,"line":1,"is_transit":true,"i_lat":-6.185545,"transit":true},{"line":6,"i_lat":-6.207404,"transit":false,"station_id":"PLM","distance":3191,"i_long":106.79689,"is_transit":false,"station_name":"Palmerah","time":6},{"is_transit":false,"transit":false,"distance":3737,"i_long":106.780334,"time":7,"station_name":"Kebayoran","station_id":"KBY","line":6,"i_lat":-6.237242},{"transit":false,"distance":6218,"time":8,"i_lat":-6.276362,"line":6,"station_name":"Pondokranji","is_transit":false,"station_id":"PDJ","i_long":106.74273},{"station_name":"Jurangmangu","station_id":"JMU","distance":2179,"i_long":106.728916,"i_lat":-6.288927,"transit":false,"time":3,"is_transit":false,"line":6},{"time":4,"transit":false,"station_id":"SDM","distance":1994,"is_transit":false,"station_name":"Sudimara","i_lat":-6.296963,"i_long":106.712277,"line":6},{"i_long":106.675475,"time":6,"line":6,"transit":false,"station_id":"RU","is_transit":false,"station_name":"Rawa Buntu","distance":4566,"i_lat":-6.314823},{"is_transit":false,"i_lat":-6.319871,"station_id":"SRP","line":6,"transit":false,"i_long":106.66566,"distance":2413,"station_name":"Serpong","time":4},{"station_id":"CSK","i_lat":-6.32484,"is_transit":false,"distance":1784,"i_long":106.640411,"station_name":"Cisauk","time":4,"transit":false,"line":3},{"distance":2519,"i_lat":-6.329547,"time":4,"i_long":106.617853,"transit":false,"station_name":"Cicayur","line":3,"is_transit":false,"station_id":"CC"},{"station_id":"PRP","i_long":106.568863,"line":6,"transit":false,"station_name":"Parung Panjang","distance":5968,"i_lat":-6.3441410000000005,"time":8,"is_transit":false},{"is_transit":false,"time":9,"distance":7025,"i_long":106.508482,"station_id":"CJT","station_name":"Cilejit","i_lat":-6.354349,"line":3,"transit":false},{"transit":false,"station_name":"Daru","is_transit":false,"time":6,"i_lat":-6.338021,"distance":2675,"i_long":106.491338,"line":0,"station_id":"DAR"}],[{"distance":0,"line":2,"station_name":"Manggarai","i_lat":-6.209883,"i_long":106.84912,"station_id":"MRI","is_transit":false,"transit":false,"time":0},{"is_transit":false,"transit":false,"i_long":106.858896,"line":1,"station_name":"Matraman","time":2,"distance":1275,"i_lat":-6.212485,"station_id":"MTR"},{"transit":true,"i_long":106.86807400000001,"station_id":"JNG","is_transit":true,"time":8,"i_lat":-6.215091,"station_name":"Jatinegara","distance":1377,"line":1},{"station_name":"Pondok Jati","time":2,"station_id":"POK","line":11,"i_long":106.861737,"is_transit":false,"i_lat":-6.209188,"distance":1236,"transit":false},{"is_transit":false,"i_lat":-6.193792,"line":11,"distance":1829,"time":2,"i_long":106.855437,"transit":false,"station_name":"Kramat","station_id":"KMT"},{"i_long":106.850107,"is_transit":false,"i_lat":-6.185975,"station_name":"Gang Sentiong","line":11,"transit":false,"station_id":"GST","time":1,"distance":973},{"line":11,"station_id":"PSE","i_lat":-6.174784,"station_name":"Pasar Senen","time":8,"distance":1567,"is_transit":false,"transit":false,"i_long":106.84368},{"distance":1436,"line":11,"transit":false,"station_id":"KMO","station_name":"Kemayoran","time":4,"i_lat":-6.161728,"i_long":106.839204,"is_transit":false},{"station_name":"Rajawali","distance":1901,"i_long":106.836569,"time":5,"station_id":"RJW","i_lat":-6.14505,"transit":false,"is_transit":false,"line":11},{"time":3,"is_transit":true,"i_long":106.826365,"line":4,"i_lat":-6.132549,"station_name":"Kampung Bandan","station_id":"KPB","transit":true,"distance":1444},{"distance":4102,"transit":false,"i_lat":-6.144674,"station_name":"Angke","line":1,"i_long":106.79867,"station_id":"AK","time":9,"is_transit":false},{"station_name":"Duri","transit":false,"time":4,"distance":1230,"line":1,"station_id":"DU","i_lat":-6.155215,"is_transit":false,"i_long":106.800832},{"line":1,"time":8,"transit":true,"station_name":"Tanah Abang","is_transit":true,"i_lat":-6.185545,"i_long":106.811091,"station_id":"THB","distance":3632},{"station_id":"PLM","i_lat":-6.207404,"station_name":"Palmerah","distance":3191,"is_transit":false,"i_long":106.79689,"line":6,"transit":false,"time":6},{"transit":false,"distance":3737,"time":7,"i_lat":-6.237242,"line":6,"station_name":"Kebayoran","is_transit":false,"station_id":"KBY","i_long":106.780334},{"time":8,"distance":6218,"station_id":"PDJ","station_name":"Pondokranji","i_long":106.74273,"i_lat":-6.276362,"transit":false,"line":6,"is_transit":false},{"station_name":"Jurangmangu","station_id":"JMU","distance":2179,"i_long":106.728916,"time":3,"line":6,"i_lat":-6.288927,"is_transit":false,"transit":false},{"station_id":"SDM","i_lat":-6.296963,"is_transit":false,"time":4,"distance":1994,"transit":false,"line":6,"i_long":106.712277,"station_name":"Sudimara"},{"distance":4566,"station_id":"RU","time":6,"station_name":"Rawa Buntu","is_transit":false,"i_long":106.675475,"line":6,"transit":false,"i_lat":-6.314823},{"line":6,"transit":false,"distance":2413,"station_name":"Serpong","station_id":"SRP","i_lat":-6.319871,"time":4,"is_transit":false,"i_long":106.66566},{"is_transit":false,"line":3,"transit":false,"i_long":106.640411,"time":4,"i_lat":-6.32484,"station_name":"Cisauk","distance":1784,"station_id":"CSK"},{"i_long":106.617853,"is_transit":false,"transit":false,"i_lat":-6.329547,"station_id":"CC","distance":2519,"station_name":"Cicayur","line":3,"time":4},{"i_long":106.568863,"time":8,"station_name":"Parung Panjang","line":6,"station_id":"PRP","transit":false,"is_transit":false,"i_lat":-6.3441410000000005,"distance":5968},{"i_long":106.508482,"distance":7025,"station_id":"CJT","i_lat":-6.354349,"transit":false,"station_name":"Cilejit","is_transit":false,"time":9,"line":3},{"distance":2675,"i_long":106.491338,"i_lat":-6.338021,"transit":false,"line":0,"is_transit":false,"station_name":"Daru","station_id":"DAR","time":6}]]}