{"data":[[{"time":0,"transit":false,"station_name":"Manggarai","is_transit":false,"line":2,"station_id":"MRI","i_long":106.84912,"i_lat":-6.209883,"distance":0},{"distance":2610,"line":2,"is_transit":false,"station_name":"Tebet","station_id":"TEB","i_lat":-6.226659,"transit":false,"i_long":106.857948,"time":4},{"line":2,"transit":false,"i_lat":-6.242512,"time":2,"is_transit":false,"station_name":"Cawang","distance":1230,"station_id":"CW","i_long":106.856607},{"is_transit":false,"time":3,"i_lat":-6.255332,"line":2,"distance":1546,"transit":false,"station_name":"Duren Kalibata","station_id":"DRN","i_long":106.85449},{"i_lat":-6.263214,"line":2,"station_name":"Pasar Minggu Baru","transit":false,"station_id":"PSMB","i_long":106.851577,"distance":824,"is_transit":false,"time":2},{"time":2,"distance":2380,"i_long":106.843999,"station_id":"PSM","i_lat":-6.2842400000000005,"transit":false,"station_name":"Pasar Minggu","is_transit":false,"line":2},{"station_name":"Tanjung Barat","distance":2820,"is_transit":false,"i_long":106.838896,"line":2,"i_lat":-6.3080680000000005,"time":4,"transit":false,"station_id":"TNT"},{"transit":false,"distance":2671,"station_id":"LNA","i_lat":-6.330363,"time":3,"station_name":"Lenteng Agung","is_transit":false,"i_long":106.832616,"line":2},{"is_transit":false,"i_long":106.834175,"transit":false,"time":2,"i_lat":-6.339291,"distance":1029,"station_name":"Univ. Pancasila","line":2,"station_id":"UP"},{"distance":2264,"transit":false,"time":3,"i_long":106.831474,"line":2,"i_lat":-6.360749,"is_transit":false,"station_id":"UI","station_name":"Univ. Indonesia"}]]}