{"data":[[{"distance":0,"i_lat":-6.209883,"i_long":106.84912,"time":0,"station_id":"MRI","transit":false,"line":2,"station_name":"Manggarai","is_transit":false},{"time":4,"transit":false,"station_name":"Tebet","is_transit":false,"i_lat":-6.226659,"line":2,"station_id":"TEB","distance":2610,"i_long":106.857948},{"is_transit":false,"distance":1230,"line":2,"i_lat":-6.242512,"time":2,"station_name":"Cawang","i_long":106.856607,"transit":false,"station_id":"CW"},{"distance":1546,"time":3,"line":2,"station_name":"Duren Kalibata","transit":false,"station_id":"DRN","is_transit":false,"i_long":106.85449,"i_lat":-6.255332},{"is_transit":false,"distance":824,"i_long":106.851577,"station_id":"PSMB","transit":false,"station_name":"Pasar Minggu Baru","line":2,"i_lat":-6.263214,"time":2},{"i_long":106.843999,"i_lat":-6.2842400000000005,"is_transit":false,"transit":false,"station_id":"PSM","distance":2380,"station_name":"Pasar Minggu","time":2,"line":2},{"transit":false,"station_id":"TNT","time":4,"is_transit":false,"distance":2820,"i_long":106.838896,"i_lat":-6.3080680000000005,"station_name":"Tanjung Barat","line":2}]]}