{"data":[[{"line":2,"station_name":"Manggarai","time":0,"i_long":106.84912,"i_lat":-6.209883,"transit":false,"distance":0,"station_id":"MRI","is_transit":false},{"time":4,"distance":3186,"station_name":"Sudirman","station_id":"SUD","line":1,"i_lat":-6.202263,"transit":false,"is_transit":false,"i_long":106.822649},{"i_lat":-6.201433,"station_id":"SUDB","time":1,"is_transit":false,"transit":false,"line":1,"i_long":106.819881,"station_name":"Sudirman Baru","distance":280},{"time":1,"i_long":106.816351,"station_name":"Karet","transit":false,"distance":471,"i_lat":-6.20132,"line":1,"is_transit":false,"station_id":"KAT"},{"station_name":"Tanah Abang","time":5,"is_transit":false,"transit":false,"i_long":106.811091,"line":1,"station_id":"THB","distance":2029,"i_lat":-6.185545},{"i_long":106.800832,"distance":3632,"line":1,"time":8,"is_transit":true,"station_name":"Duri","i_lat":-6.155215,"station_id":"DU","transit":true},{"is_transit":false,"i_lat":-6.162021,"line":5,"i_long":106.788277,"transit":false,"time":3,"station_id":"GRG","station_name":"Grogol","distance":1700},{"transit":false,"station_id":"PSG","i_lat":-6.161433,"time":2,"distance":2036,"is_transit":false,"line":5,"station_name":"Pesing","i_long":106.771379},{"station_name":"Taman Kota","station_id":"TKO","is_transit":false,"i_long":106.756522,"line":5,"i_lat":-6.1587309999999995,"transit":false,"distance":1614,"time":2},{"station_name":"Bojongindah","transit":false,"time":2,"i_lat":-6.159876,"is_transit":false,"distance":2334,"station_id":"BOI","i_long":106.737035,"line":5},{"station_id":"RW","is_transit":false,"distance":1152,"station_name":"Rawa Buaya","i_long":106.723064,"line":5,"time":4,"transit":false,"i_lat":-6.162758},{"is_transit":false,"i_long":106.701612,"distance":2504,"line":5,"time":3,"station_id":"KDS","transit":false,"i_lat":-6.166068,"station_name":"Kalideres"},{"station_id":"PI","distance":2548,"station_name":"Poris","is_transit":false,"i_long":106.679458,"i_lat":-6.169933,"line":5,"time":3,"transit":false},{"is_transit":false,"station_name":"Batuceper","transit":false,"distance":1834,"i_long":106.665036,"station_id":"BPR","time":3,"i_lat":-6.171811,"line":5},{"line":5,"time":3,"transit":false,"station_id":"THI","i_lat":-6.17331,"is_transit":false,"station_name":"Tanah Tinggi","i_long":106.64657,"distance":2028}],[{"station_id":"MRI","station_name":"Manggarai","line":2,"is_transit":false,"i_long":106.84912,"transit":false,"i_lat":-6.209883,"time":0,"distance":0},{"transit":false,"i_long":106.840169,"distance":1590,"line":2,"station_id":"CKI","is_transit":false,"i_lat":-6.198556,"station_name":"Cikini","time":4},{"station_name":"Gondangdia","i_lat":-6.186295,"i_long":106.832183,"time":3,"station_id":"GDD","is_transit":false,"distance":1750,"line":2,"transit":false},{"line":2,"transit":false,"i_lat":-6.166716,"distance":2015,"time":4,"station_name":"Juanda","is_transit":false,"station_id":"JUA","i_long":106.828284},{"station_id":"SW","time":2,"transit":false,"i_long":106.827103,"is_transit":false,"station_name":"Sawah Besar","i_lat":-6.160725,"distance":1149,"line":2},{"distance":906,"transit":false,"station_name":"Manggabesar","i_long":106.82482,"is_transit":false,"station_id":"MGB","i_lat":-6.149769,"line":2,"time":2},{"transit":false,"i_long":106.820901,"time":2,"station_id":"JAY","station_name":"Jayakarta","is_transit":false,"i_lat":-6.141205,"line":2,"distance":1080},{"station_id":"JAKK","i_long":106.812439,"line":2,"station_name":"Jakarta Kota","distance":1264,"time":4,"is_transit":true,"transit":true,"i_lat":-6.137569},{"is_transit":true,"station_id":"KPB","transit":true,"i_long":106.826365,"distance":1364,"line":4,"i_lat":-6.132549,"time":3,"station_name":"Kampung Bandan"},{"i_long":106.79867,"time":9,"line":1,"is_transit":false,"i_lat":-6.144674,"transit":false,"station_id":"AK","distance":4102,"station_name":"Angke"},{"line":1,"is_transit":true,"station_name":"Duri","transit":true,"i_long":106.800832,"time":4,"i_lat":-6.155215,"station_id":"DU","distance":1230},{"station_name":"Grogol","distance":1700,"is_transit":false,"i_long":106.788277,"time":3,"transit":false,"i_lat":-6.162021,"line":5,"station_id":"GRG"},{"is_transit":false,"transit":false,"distance":2036,"line":5,"i_lat":-6.161433,"station_name":"Pesing","i_long":106.771379,"time":2,"station_id":"PSG"},{"time":2,"transit":false,"distance":1614,"line":5,"i_long":106.756522,"station_name":"Taman Kota","station_id":"TKO","is_transit":false,"i_lat":-6.1587309999999995},{"transit":false,"is_transit":false,"station_name":"Bojongindah","i_long":106.737035,"distance":2334,"station_id":"BOI","i_lat":-6.159876,"line":5,"time":2},{"distance":1152,"i_long":106.723064,"station_id":"RW","station_name":"Rawa Buaya","transit":false,"time":4,"is_transit":false,"line":5,"i_lat":-6.162758},{"station_name":"Kalideres","time":3,"transit":false,"distance":2504,"i_long":106.701612,"line":5,"is_transit":false,"station_id":"KDS","i_lat":-6.166068},{"i_long":106.679458,"is_transit":false,"distance":2548,"transit":false,"time":3,"station_name":"Poris","station_id":"PI","i_lat":-6.169933,"line":5},{"distance":1834,"transit":false,"line":5,"time":3,"station_name":"Batuceper","i_long":106.665036,"i_lat":-6.171811,"is_transit":false,"station_id":"BPR"},{"line":5,"transit":false,"is_transit":false,"station_name":"Tanah Tinggi","time":3,"i_long":106.64657,"distance":2028,"i_lat":-6.17331,"station_id":"THI"}],[{"time":0,"transit":false,"distance":0,"is_transit":false,"station_name":"Manggarai","i_lat":-6.209883,"line":2,"i_long":106.84912,"station_id":"MRI"},{"is_transit":false,"station_id":"MTR","line":1,"time":2,"i_lat":-6.212485,"station_name":"Matraman","distance":1275,"i_long":106.858896,"transit":false},{"distance":1377,"transit":true,"i_long":106.86807400000001,"is_transit":true,"station_id":"JNG","time":8,"i_lat":-6.215091,"station_name":"Jatinegara","line":1},{"transit":false,"line":11,"station_name":"Pondok Jati","station_id":"POK","i_lat":-6.209188,"i_long":106.861737,"is_transit":false,"time":2,"distance":1236},{"i_lat":-6.193792,"station_id":"KMT","is_transit":false,"i_long":106.855437,"distance":1829,"station_name":"Kramat","line":11,"time":2,"transit":false},{"time":1,"transit":false,"distance":973,"is_transit":false,"i_lat":-6.185975,"i_long":106.850107,"line":11,"station_name":"Gang Sentiong","station_id":"GST"},{"distance":1567,"line":11,"station_name":"Pasar Senen","i_long":106.84368,"time":8,"transit":false,"i_lat":-6.174784,"station_id":"PSE","is_transit":false},{"station_id":"KMO","i_long":106.839204,"line":11,"time":4,"distance":1436,"i_lat":-6.161728,"is_transit":false,"transit":false,"station_name":"Kemayoran"},{"i_lat":-6.14505,"distance":1901,"line":11,"transit":false,"time":5,"station_name":"Rajawali","station_id":"RJW","i_long":106.836569,"is_transit":false},{"station_name":"Kampung Bandan","line":4,"is_transit":true,"station_id":"KPB","i_long":106.826365,"distance":1444,"i_lat":-6.132549,"transit":true,"time":3},{"i_long":106.79867,"i_lat":-6.144674,"transit":false,"line":1,"station_name":"Angke","is_transit":false,"time":9,"distance":4102,"station_id":"AK"},{"distance":1230,"station_name":"Duri","transit":true,"i_lat":-6.155215,"is_transit":true,"station_id":"DU","time":4,"i_long":106.800832,"line":1},{"i_long":106.788277,"station_name":"Grogol","line":5,"distance":1700,"station_id":"GRG","transit":false,"is_transit":false,"time":3,"i_lat":-6.162021},{"station_name":"Pesing","time":2,"station_id":"PSG","distance":2036,"transit":false,"i_lat":-6.161433,"is_transit":false,"i_long":106.771379,"line":5},{"transit":false,"i_lat":-6.1587309999999995,"station_id":"TKO","distance":1614,"line":5,"is_transit":false,"time":2,"station_name":"Taman Kota","i_long":106.756522},{"station_id":"BOI","transit":false,"line":5,"distance":2334,"station_name":"Bojongindah","i_lat":-6.159876,"time":2,"is_transit":false,"i_long":106.737035},{"station_id":"RW","i_lat":-6.162758,"time":4,"station_name":"Rawa Buaya","transit":false,"i_long":106.723064,"is_transit":false,"line":5,"distance":1152},{"distance":2504,"is_transit":false,"time":3,"station_name":"Kalideres","i_lat":-6.166068,"i_long":106.701612,"station_id":"KDS","line":5,"transit":false},{"transit":false,"i_long":106.679458,"line":5,"station_name":"Poris","is_transit":false,"time":3,"i_lat":-6.169933,"station_id":"PI","distance":2548},{"distance":1834,"is_transit":false,"transit":false,"i_long":106.665036,"i_lat":-6.171811,"line":5,"time":3,"station_name":"Batuceper","station_id":"BPR"},{"station_name":"Tanah Tinggi","is_transit":false,"i_long":106.64657,"station_id":"THI","time":3,"transit":false,"i_lat":-6.17331,"line":5,"distance":2028}]]}