{"data":[[{"line":2,"is_transit":false,"transit":false,"station_name":"Manggarai","station_id":"MRI","distance":0,"i_long":106.84912,"i_lat":-6.209883,"time":0},{"transit":false,"i_lat":-6.226659,"time":4,"station_id":"TEB","line":2,"distance":2610,"is_transit":false,"station_name":"Tebet","i_long":106.857948},{"i_long":106.856607,"station_name":"Cawang","i_lat":-6.242512,"station_id":"CW","transit":false,"time":2,"distance":1230,"is_transit":false,"line":2},{"station_name":"Duren Kalibata","i_long":106.85449,"line":2,"station_id":"DRN","transit":false,"is_transit":false,"distance":1546,"time":3,"i_lat":-6.255332},{"transit":false,"is_transit":false,"station_name":"Pasar Minggu Baru","i_long":106.851577,"distance":824,"line":2,"station_id":"PSMB","time":2,"i_lat":-6.263214},{"is_transit":false,"station_name":"Pasar Minggu","transit":false,"line":2,"distance":2380,"i_lat":-6.2842400000000005,"station_id":"PSM","i_long":106.843999,"time":2},{"i_long":106.838896,"time":4,"station_name":"Tanjung Barat","station_id":"TNT","distance":2820,"transit":false,"is_transit":false,"i_lat":-6.3080680000000005,"line":2},{"i_long":106.832616,"transit":false,"station_id":"LNA","time":3,"i_lat":-6.330363,"distance":2671,"is_transit":false,"station_name":"Lenteng Agung","line":2}]]}