{"data":[[{"i_lat":-6.209883,"line":2,"station_name":"Manggarai","distance":0,"station_id":"MRI","is_transit":false,"i_long":106.84912,"time":0,"transit":false},{"i_long":106.822649,"i_lat":-6.202263,"station_name":"Sudirman","transit":false,"time":4,"distance":3186,"is_transit":false,"line":1,"station_id":"SUD"},{"is_transit":false,"i_lat":-6.201433,"distance":280,"transit":false,"station_id":"SUDB","line":1,"station_name":"Sudirman Baru","time":1,"i_long":106.819881},{"distance":471,"station_id":"KAT","line":1,"transit":false,"time":1,"is_transit":false,"station_name":"Karet","i_lat":-6.20132,"i_long":106.816351},{"station_name":"Tanah Abang","i_long":106.811091,"line":1,"station_id":"THB","transit":false,"i_lat":-6.185545,"distance":2029,"time":5,"is_transit":false},{"station_name":"Duri","distance":3632,"line":1,"station_id":"DU","i_lat":-6.155215,"time":8,"i_long":106.800832,"is_transit":true,"transit":true},{"station_name":"Grogol","time":3,"distance":1700,"is_transit":false,"station_id":"GGL","i_lat":-6.162021,"i_long":106.788277,"line":5,"transit":false},{"transit":false,"i_lat":-6.161433,"time":2,"distance":2036,"station_name":"Pesing","station_id":"PSG","i_long":106.771379,"line":5,"is_transit":false},{"station_id":"TKO","station_name":"Taman Kota","is_transit":false,"distance":1614,"i_long":106.756522,"transit":false,"time":2,"i_lat":-6.1587309999999995,"line":5},{"station_name":"Bojongindah","time":2,"transit":false,"i_long":106.737035,"distance":2334,"i_lat":-6.159876,"is_transit":false,"line":5,"station_id":"BOI"},{"station_name":"Rawa Buaya","distance":1152,"line":5,"is_transit":false,"i_lat":-6.162758,"i_long":106.723064,"transit":false,"station_id":"RW","time":4},{"station_id":"KDS","i_lat":-6.166068,"time":3,"line":5,"distance":2504,"station_name":"Kalideres","is_transit":false,"i_long":106.701612,"transit":false},{"i_long":106.679458,"time":3,"distance":2548,"station_name":"Poris","i_lat":-6.169933,"station_id":"PI","transit":false,"line":5,"is_transit":false},{"is_transit":false,"i_lat":-6.171811,"line":5,"station_id":"BPR","station_name":"Batuceper","time":3,"i_long":106.665036,"transit":false,"distance":1834},{"time":3,"i_long":106.64657,"is_transit":false,"distance":2028,"transit":false,"line":5,"station_id":"TTI","i_lat":-6.17331,"station_name":"Tanah Tinggi"},{"line":5,"transit":false,"i_lat":-6.176583,"is_transit":false,"station_name":"Tangerang","station_id":"TNG","time":3,"distance":1547,"i_long":106.632761}],[{"i_long":106.84912,"station_id":"MRI","time":0,"distance":0,"line":2,"is_transit":false,"transit":false,"station_name":"Manggarai","i_lat":-6.209883},{"is_transit":false,"transit":false,"station_id":"CKI","time":4,"distance":1590,"i_lat":-6.198556,"i_long":106.840169,"station_name":"Cikini","line":2},{"line":2,"station_name":"Gondangdia","is_transit":false,"distance":1750,"i_long":106.832183,"transit":false,"time":3,"i_lat":-6.186295,"station_id":"GDD"},{"transit":false,"station_name":"Juanda","distance":2015,"station_id":"JUA","time":4,"i_long":106.828284,"i_lat":-6.166716,"line":2,"is_transit":false},{"is_transit":false,"time":2,"distance":1149,"line":2,"station_id":"SW","i_long":106.827103,"transit":false,"station_name":"Sawah Besar","i_lat":-6.160725},{"station_name":"Manggabesar","is_transit":false,"distance":906,"time":2,"i_lat":-6.149769,"line":2,"transit":false,"i_long":106.82482,"station_id":"MGB"},{"is_transit":false,"station_id":"JAY","i_lat":-6.141205,"station_name":"Jayakarta","distance":1080,"i_long":106.820901,"transit":false,"time":2,"line":2},{"line":2,"station_id":"JAKK","i_long":106.812439,"is_transit":true,"station_name":"Jakarta Kota","i_lat":-6.137569,"distance":1264,"transit":true,"time":4},{"transit":true,"station_name":"Kampung Bandan","is_transit":true,"time":3,"distance":1364,"i_lat":-6.132549,"i_long":106.826365,"station_id":"KPB","line":4},{"station_id":"AK","i_long":106.79867,"distance":4102,"transit":false,"station_name":"Angke","time":9,"i_lat":-6.144674,"line":1,"is_transit":false},{"distance":1230,"transit":true,"time":4,"station_id":"DU","i_lat":-6.155215,"i_long":106.800832,"line":1,"station_name":"Duri","is_transit":true},{"time":3,"distance":1700,"transit":false,"station_name":"Grogol","i_lat":-6.162021,"station_id":"GGL","i_long":106.788277,"is_transit":false,"line":5},{"is_transit":false,"line":5,"station_name":"Pesing","i_lat":-6.161433,"distance":2036,"station_id":"PSG","i_long":106.771379,"time":2,"transit":false},{"transit":false,"i_lat":-6.1587309999999995,"i_long":106.756522,"is_transit":false,"station_name":"Taman Kota","distance":1614,"time":2,"line":5,"station_id":"TKO"},{"line":5,"distance":2334,"transit":false,"station_id":"BOI","time":2,"i_lat":-6.159876,"i_long":106.737035,"station_name":"Bojongindah","is_transit":false},{"transit":false,"time":4,"i_lat":-6.162758,"i_long":106.723064,"distance":1152,"line":5,"station_name":"Rawa Buaya","station_id":"RW","is_transit":false},{"station_id":"KDS","station_name":"Kalideres","time":3,"line":5,"is_transit":false,"distance":2504,"i_long":106.701612,"transit":false,"i_lat":-6.166068},{"line":5,"i_long":106.679458,"time":3,"station_id":"PI","i_lat":-6.169933,"transit":false,"station_name":"Poris","is_transit":false,"distance":2548},{"is_transit":false,"distance":1834,"i_long":106.665036,"transit":false,"station_name":"Batuceper","station_id":"BPR","time":3,"i_lat":-6.171811,"line":5},{"transit":false,"time":3,"distance":2028,"line":5,"is_transit":false,"station_name":"Tanah Tinggi","i_long":106.64657,"station_id":"TTI","i_lat":-6.17331},{"time":3,"distance":1547,"station_name":"Tangerang","line":5,"station_id":"TNG","i_long":106.632761,"i_lat":-6.176583,"transit":false,"is_transit":false}],[{"is_transit":false,"i_long":106.84912,"transit":false,"station_id":"MRI","line":2,"station_name":"Manggarai","time":0,"distance":0,"i_lat":-6.209883},{"i_lat":-6.212485,"station_name":"Matraman","distance":1275,"i_long":106.858896,"is_transit":false,"line":1,"time":2,"transit":false,"station_id":"MTR"},{"is_transit":true,"station_name":"Jatinegara","transit":true,"distance":1377,"i_lat":-6.215091,"time":8,"station_id":"JNG","i_long":106.86807400000001,"line":1},{"time":2,"station_id":"POK","distance":1236,"station_name":"Pondok Jati","transit":false,"is_transit":false,"i_lat":-6.209188,"i_long":106.861737,"line":11},{"station_name":"Kramat","is_transit":false,"i_long":106.855437,"time":2,"station_id":"KMT","distance":1829,"i_lat":-6.193792,"line":11,"transit":false},{"i_long":106.850107,"station_name":"Gang Sentiong","is_transit":false,"station_id":"GST","distance":973,"i_lat":-6.185975,"time":1,"line":11,"transit":false},{"i_lat":-6.174784,"transit":false,"distance":1567,"i_long":106.84368,"station_name":"Pasar Senen","line":11,"is_transit":false,"time":8,"station_id":"PSE"},{"is_transit":false,"i_long":106.839204,"station_name":"Kemayoran","distance":1436,"line":11,"i_lat":-6.161728,"transit":false,"time":4,"station_id":"KMO"},{"is_transit":false,"line":11,"time":5,"station_id":"RJW","transit":false,"distance":1901,"station_name":"Rajawali","i_lat":-6.14505,"i_long":106.836569},{"station_id":"KPB","station_name":"Kampung Bandan","transit":true,"time":3,"is_transit":true,"i_lat":-6.132549,"line":4,"i_long":106.826365,"distance":1444},{"station_name":"Angke","i_long":106.79867,"transit":false,"is_transit":false,"i_lat":-6.144674,"line":1,"station_id":"AK","time":9,"distance":4102},{"station_name":"Duri","time":4,"station_id":"DU","i_lat":-6.155215,"is_transit":true,"distance":1230,"line":1,"transit":true,"i_long":106.800832},{"i_lat":-6.162021,"i_long":106.788277,"time":3,"station_name":"Grogol","is_transit":false,"line":5,"transit":false,"station_id":"GGL","distance":1700},{"i_long":106.771379,"transit":false,"time":2,"i_lat":-6.161433,"station_name":"Pesing","is_transit":false,"line":5,"distance":2036,"station_id":"PSG"},{"station_id":"TKO","i_long":106.756522,"transit":false,"is_transit":false,"time":2,"distance":1614,"i_lat":-6.1587309999999995,"line":5,"station_name":"Taman Kota"},{"time":2,"transit":false,"station_name":"Bojongindah","is_transit":false,"distance":2334,"line":5,"i_lat":-6.159876,"station_id":"BOI","i_long":106.737035},{"time":4,"i_lat":-6.162758,"transit":false,"station_id":"RW","is_transit":false,"distance":1152,"i_long":106.723064,"line":5,"station_name":"Rawa Buaya"},{"is_transit":false,"time":3,"line":5,"station_name":"Kalideres","distance":2504,"i_long":106.701612,"transit":false,"station_id":"KDS","i_lat":-6.166068},{"i_lat":-6.169933,"i_long":106.679458,"station_name":"Poris","is_transit":false,"distance":2548,"line":5,"station_id":"PI","time":3,"transit":false},{"i_lat":-6.171811,"time":3,"transit":false,"station_id":"BPR","i_long":106.665036,"is_transit":false,"line":5,"distance":1834,"station_name":"Batuceper"},{"transit":false,"line":5,"station_name":"Tanah Tinggi","i_long":106.64657,"distance":2028,"time":3,"is_transit":false,"i_lat":-6.17331,"station_id":"TTI"},{"distance":1547,"line":5,"station_name":"Tangerang","transit":false,"time":3,"is_transit":false,"i_lat":-6.176583,"i_long":106.632761,"station_id":"TNG"}]]}