{"data":[[{"distance":0,"i_lat":-6.209883,"line":2,"station_name":"Manggarai","i_long":106.84912,"transit":false,"station_id":"MRI","time":0,"is_transit":false},{"time":4,"is_transit":false,"station_name":"Tebet","distance":2610,"transit":false,"i_lat":-6.226659,"i_long":106.857948,"line":2,"station_id":"TEB"},{"i_lat":-6.242512,"transit":false,"station_name":"Cawang","time":2,"i_long":106.856607,"line":2,"station_id":"CW","is_transit":false,"distance":1230},{"distance":1546,"i_lat":-6.255332,"is_transit":false,"i_long":106.85449,"station_name":"Duren Kalibata","transit":false,"line":2,"station_id":"DRN","time":3},{"station_name":"Pasar Minggu Baru","is_transit":false,"time":2,"i_lat":-6.263214,"transit":false,"i_long":106.851577,"station_id":"PSMB","line":2,"distance":824}]]}