{"data":[[{"i_long":106.84912,"distance":0,"time":0,"is_transit":false,"station_name":"Manggarai","transit":false,"i_lat":-6.209883,"station_id":"MRI","line":2},{"station_name":"Matraman","transit":false,"line":1,"distance":1275,"i_long":106.858896,"is_transit":false,"station_id":"MTR","time":2,"i_lat":-6.212485},{"i_lat":-6.215091,"station_id":"JNG","is_transit":true,"distance":1377,"line":1,"i_long":106.86807400000001,"transit":true,"station_name":"Jatinegara","time":8},{"time":2,"transit":false,"is_transit":false,"station_id":"POK","i_lat":-6.209188,"i_long":106.861737,"line":11,"station_name":"Pondok Jati","distance":1236},{"distance":1829,"i_long":106.855437,"transit":false,"station_name":"Kramat","station_id":"KMT","is_transit":false,"time":2,"i_lat":-6.193792,"line":11},{"i_lat":-6.185975,"is_transit":false,"time":1,"station_name":"Gang Sentiong","i_long":106.850107,"line":11,"distance":973,"station_id":"GST","transit":false}],[{"distance":0,"i_lat":-6.209883,"is_transit":false,"transit":false,"time":0,"station_name":"Manggarai","station_id":"MRI","i_long":106.84912,"line":2},{"i_long":106.822649,"i_lat":-6.202263,"time":4,"is_transit":false,"station_name":"Sudirman","station_id":"SUD","distance":3186,"transit":false,"line":1},{"station_name":"Sudirman Baru","is_transit":false,"i_lat":-6.201433,"station_id":"SUDB","distance":280,"line":1,"i_long":106.819881,"time":1,"transit":false},{"distance":471,"i_lat":-6.20132,"i_long":106.816351,"is_transit":false,"transit":false,"station_name":"Karet","time":1,"station_id":"KAT","line":1},{"station_name":"Tanah Abang","is_transit":false,"line":1,"station_id":"THB","i_long":106.811091,"transit":false,"time":5,"distance":2029,"i_lat":-6.185545},{"distance":3632,"line":1,"time":8,"i_lat":-6.155215,"transit":false,"i_long":106.800832,"is_transit":false,"station_name":"Duri","station_id":"DU"},{"i_lat":-6.144674,"time":4,"transit":false,"station_name":"Angke","is_transit":false,"line":1,"distance":1230,"station_id":"AK","i_long":106.79867},{"time":9,"station_id":"KPB","i_long":106.826365,"transit":true,"distance":4102,"is_transit":true,"i_lat":-6.132549,"line":4,"station_name":"Kampung Bandan"},{"time":3,"line":11,"is_transit":false,"distance":1444,"i_lat":-6.14505,"transit":false,"station_name":"Rajawali","station_id":"RJW","i_long":106.836569},{"distance":1901,"i_lat":-6.161728,"transit":false,"is_transit":false,"station_id":"KMO","time":5,"i_long":106.839204,"line":11,"station_name":"Kemayoran"},{"line":11,"distance":1436,"transit":false,"i_lat":-6.174784,"station_id":"PSE","is_transit":false,"time":4,"station_name":"Pasar Senen","i_long":106.84368},{"line":11,"station_id":"GST","time":8,"is_transit":false,"i_lat":-6.185975,"transit":false,"i_long":106.850107,"station_name":"Gang Sentiong","distance":1567}],[{"i_lat":-6.209883,"i_long":106.84912,"is_transit":false,"distance":0,"line":2,"station_id":"MRI","station_name":"Manggarai","transit":false,"time":0},{"i_lat":-6.198556,"station_name":"Cikini","time":4,"station_id":"CKI","is_transit":false,"distance":1590,"transit":false,"i_long":106.840169,"line":2},{"i_lat":-6.186295,"is_transit":false,"time":3,"station_name":"Gondangdia","line":2,"transit":false,"i_long":106.832183,"station_id":"GDD","distance":1750},{"distance":2015,"line":2,"station_id":"JUA","is_transit":false,"transit":false,"i_long":106.828284,"station_name":"Juanda","time":4,"i_lat":-6.166716},{"station_name":"Sawah Besar","transit":false,"station_id":"SW","line":2,"distance":1149,"is_transit":false,"time":2,"i_long":106.827103,"i_lat":-6.160725},{"i_long":106.82482,"time":2,"transit":false,"is_transit":false,"station_name":"Manggabesar","distance":906,"line":2,"i_lat":-6.149769,"station_id":"MGB"},{"time":2,"i_lat":-6.141205,"transit":false,"line":2,"distance":1080,"is_transit":false,"station_name":"Jayakarta","station_id":"JAY","i_long":106.820901},{"i_long":106.812439,"i_lat":-6.137569,"station_name":"Jakarta Kota","is_transit":true,"time":4,"transit":true,"station_id":"JAKK","line":2,"distance":1264},{"time":3,"station_name":"Kampung Bandan","station_id":"KPB","is_transit":true,"line":4,"transit":true,"i_long":106.826365,"distance":1364,"i_lat":-6.132549},{"station_id":"RJW","time":3,"i_long":106.836569,"is_transit":false,"distance":1444,"i_lat":-6.14505,"transit":false,"line":11,"station_name":"Rajawali"},{"station_name":"Kemayoran","transit":false,"is_transit":false,"i_lat":-6.161728,"distance":1901,"time":5,"station_id":"KMO","i_long":106.839204,"line":11},{"station_id":"PSE","transit":false,"station_name":"Pasar Senen","is_transit":false,"i_lat":-6.174784,"distance":1436,"line":11,"time":4,"i_long":106.84368},{"station_name":"Gang Sentiong","station_id":"GST","is_transit":false,"distance":1567,"time":8,"i_lat":-6.185975,"i_long":106.850107,"line":11,"transit":false}]]}