{"data":[[{"station_id":"MRI","line":2,"is_transit":false,"station_name":"Manggarai","distance":0,"transit":false,"i_lat":-6.209883,"i_long":106.84912,"time":0},{"line":1,"station_id":"SUD","is_transit":false,"station_name":"Sudirman","transit":false,"distance":3186,"time":4,"i_lat":-6.202263,"i_long":106.822649},{"is_transit":false,"transit":false,"distance":280,"i_lat":-6.201433,"i_long":106.819881,"line":1,"time":1,"station_id":"SUDB","station_name":"Sudirman Baru"},{"distance":471,"station_id":"KAT","i_lat":-6.20132,"is_transit":false,"transit":false,"station_name":"Karet","i_long":106.816351,"line":1,"time":1}],[{"transit":false,"station_name":"Manggarai","i_lat":-6.209883,"i_long":106.84912,"station_id":"MRI","time":0,"line":2,"is_transit":false,"distance":0},{"station_name":"Cikini","time":4,"transit":false,"distance":1590,"i_lat":-6.198556,"station_id":"CKI","is_transit":false,"line":2,"i_long":106.840169},{"distance":1750,"transit":false,"station_id":"GDD","is_transit":false,"i_lat":-6.186295,"station_name":"Gondangdia","time":3,"line":2,"i_long":106.832183},{"station_id":"JUA","time":4,"station_name":"Juanda","transit":false,"i_lat":-6.166716,"line":2,"i_long":106.828284,"distance":2015,"is_transit":false},{"i_lat":-6.160725,"transit":false,"station_id":"SW","distance":1149,"time":2,"is_transit":false,"i_long":106.827103,"line":2,"station_name":"Sawah Besar"},{"time":2,"distance":906,"i_lat":-6.149769,"station_name":"Manggabesar","transit":false,"station_id":"MGB","i_long":106.82482,"line":2,"is_transit":false},{"line":2,"is_transit":false,"time":2,"distance":1080,"station_name":"Jayakarta","i_long":106.820901,"i_lat":-6.141205,"station_id":"JAY","transit":false},{"i_long":106.812439,"is_transit":true,"line":2,"station_name":"Jakarta Kota","distance":1264,"i_lat":-6.137569,"station_id":"JAKK","transit":true,"time":4},{"station_name":"Kampung Bandan","transit":true,"is_transit":true,"i_long":106.826365,"station_id":"KPB","time":3,"line":4,"distance":1364,"i_lat":-6.132549},{"is_transit":false,"station_name":"Angke","i_lat":-6.144674,"time":9,"i_long":106.79867,"transit":false,"station_id":"AK","distance":4102,"line":1},{"line":1,"station_id":"DU","i_long":106.800832,"time":4,"distance":1230,"i_lat":-6.155215,"is_transit":false,"transit":false,"station_name":"Duri"},{"transit":false,"station_name":"Tanah Abang","i_lat":-6.185545,"is_transit":false,"i_long":106.811091,"station_id":"THB","distance":3632,"line":1,"time":8},{"i_long":106.816351,"i_lat":-6.20132,"distance":2029,"station_name":"Karet","transit":false,"time":5,"line":1,"is_transit":false,"station_id":"KAT"}],[{"station_name":"Manggarai","line":2,"is_transit":false,"distance":0,"i_lat":-6.209883,"time":0,"i_long":106.84912,"transit":false,"station_id":"MRI"},{"i_lat":-6.212485,"transit":false,"station_id":"MTR","distance":1275,"i_long":106.858896,"line":1,"time":2,"is_transit":false,"station_name":"Matraman"},{"i_long":106.86807400000001,"time":8,"station_name":"Jatinegara","is_transit":true,"i_lat":-6.215091,"station_id":"JNG","line":1,"transit":true,"distance":1377},{"station_name":"Pondok Jati","station_id":"POK","transit":false,"distance":1236,"i_long":106.861737,"line":11,"time":2,"i_lat":-6.209188,"is_transit":false},{"transit":false,"i_long":106.855437,"station_id":"KMT","i_lat":-6.193792,"line":11,"time":2,"distance":1829,"station_name":"Kramat","is_transit":false},{"is_transit":false,"station_id":"GST","line":11,"transit":false,"station_name":"Gang Sentiong","time":1,"distance":973,"i_long":106.850107,"i_lat":-6.185975},{"i_lat":-6.174784,"line":11,"is_transit":false,"station_name":"Pasar Senen","i_long":106.84368,"transit":false,"time":8,"station_id":"PSE","distance":1567},{"time":4,"transit":false,"i_lat":-6.161728,"is_transit":false,"distance":1436,"station_name":"Kemayoran","i_long":106.839204,"station_id":"KMO","line":11},{"station_name":"Rajawali","line":11,"transit":false,"station_id":"RJW","distance":1901,"time":5,"i_long":106.836569,"is_transit":false,"i_lat":-6.14505},{"is_transit":true,"i_lat":-6.132549,"station_id":"KPB","transit":true,"line":4,"station_name":"Kampung Bandan","time":3,"i_long":106.826365,"distance":1444},{"station_id":"AK","transit":false,"is_transit":false,"distance":4102,"time":9,"i_lat":-6.144674,"line":1,"i_long":106.79867,"station_name":"Angke"},{"distance":1230,"transit":false,"time":4,"station_id":"DU","i_lat":-6.155215,"line":1,"station_name":"Duri","is_transit":false,"i_long":106.800832},{"distance":3632,"i_lat":-6.185545,"transit":false,"time":8,"station_name":"Tanah Abang","is_transit":false,"i_long":106.811091,"line":1,"station_id":"THB"},{"transit":false,"time":5,"station_name":"Karet","distance":2029,"i_long":106.816351,"line":1,"i_lat":-6.20132,"station_id":"KAT","is_transit":false}]]}