{"data":[[{"i_lat":-6.209883,"station_id":"MRI","distance":0,"time":0,"transit":false,"is_transit":false,"i_long":106.84912,"line":2,"station_name":"Manggarai"},{"station_id":"TEB","is_transit":false,"time":4,"transit":false,"i_lat":-6.226659,"station_name":"Tebet","i_long":106.857948,"line":2,"distance":2610},{"time":2,"distance":1230,"line":2,"is_transit":false,"i_lat":-6.242512,"i_long":106.856607,"station_id":"CW","station_name":"Cawang","transit":false},{"station_name":"Duren Kalibata","line":2,"is_transit":false,"i_lat":-6.255332,"distance":1546,"transit":false,"time":3,"station_id":"DRN","i_long":106.85449},{"i_long":106.851577,"station_id":"PSMB","line":2,"is_transit":false,"station_name":"Pasar Minggu Baru","i_lat":-6.263214,"transit":false,"distance":824,"time":2},{"i_long":106.843999,"station_name":"Pasar Minggu","distance":2380,"station_id":"PSM","i_lat":-6.2842400000000005,"line":2,"transit":false,"is_transit":false,"time":2},{"station_name":"Tanjung Barat","distance":2820,"i_lat":-6.3080680000000005,"station_id":"TNT","transit":false,"time":4,"i_long":106.838896,"line":2,"is_transit":false},{"i_long":106.832616,"time":3,"line":2,"distance":2671,"transit":false,"station_name":"Lenteng Agung","is_transit":false,"station_id":"LNA","i_lat":-6.330363}]]}