{"data":[[{"i_lat":-6.209883,"station_id":"MRI","is_transit":false,"distance":0,"line":2,"station_name":"Manggarai","i_long":106.84912,"transit":false,"time":0},{"station_name":"Tebet","station_id":"TEB","time":4,"is_transit":false,"i_lat":-6.226659,"line":2,"distance":2610,"transit":false,"i_long":106.857948},{"is_transit":false,"station_id":"CW","distance":1230,"time":2,"i_long":106.856607,"i_lat":-6.242512,"line":2,"transit":false,"station_name":"Cawang"},{"transit":false,"station_name":"Duren Kalibata","time":3,"station_id":"DRN","i_long":106.85449,"i_lat":-6.255332,"is_transit":false,"distance":1546,"line":2},{"i_long":106.851577,"transit":false,"is_transit":false,"distance":824,"time":2,"station_id":"PSMB","line":2,"i_lat":-6.263214,"station_name":"Pasar Minggu Baru"},{"station_name":"Pasar Minggu","transit":false,"station_id":"PSM","i_long":106.843999,"distance":2380,"line":2,"time":2,"i_lat":-6.2842400000000005,"is_transit":false},{"line":2,"distance":2820,"transit":false,"is_transit":false,"station_name":"Tanjung Barat","station_id":"TNT","time":4,"i_lat":-6.3080680000000005,"i_long":106.838896},{"station_name":"Lenteng Agung","transit":false,"station_id":"LNA","line":2,"i_lat":-6.330363,"distance":2671,"i_long":106.832616,"is_transit":false,"time":3},{"i_lat":-6.339291,"station_name":"Univ. Pancasila","station_id":"UP","line":2,"distance":1029,"transit":false,"is_transit":false,"time":2,"i_long":106.834175},{"line":2,"is_transit":false,"i_long":106.831474,"time":3,"transit":false,"distance":2264,"i_lat":-6.360749,"station_id":"UI","station_name":"Univ. Indonesia"},{"station_name":"Pondok Cina","station_id":"POC","i_lat":-6.369073,"is_transit":false,"distance":1109,"i_long":106.831114,"time":2,"transit":false,"line":2},{"station_id":"DPB","is_transit":false,"i_lat":-6.391065,"station_name":"Depokbaru","transit":false,"time":4,"line":2,"distance":2727,"i_long":106.819451},{"station_name":"Depok","i_long":106.816926,"is_transit":false,"line":2,"transit":false,"time":3,"station_id":"DP","distance":1584,"i_lat":-6.405256},{"station_name":"Citayam","i_lat":-6.448811,"line":2,"is_transit":false,"time":6,"i_long":106.800298,"transit":false,"station_id":"CTA","distance":5084},{"station_name":"Bojonggede","is_transit":false,"i_lat":-6.493243,"time":5,"i_long":106.792719,"line":2,"transit":false,"station_id":"BJD","distance":5197},{"i_lat":-6.530544,"is_transit":false,"time":5,"transit":false,"station_name":"Cilebut","station_id":"CLT","distance":4331,"i_long":106.800016,"line":2},{"station_id":"BOO","line":2,"station_name":"Bogor","distance":7514,"i_lat":-6.594596,"i_long":106.790574,"transit":false,"time":9,"is_transit":false}]]}