{"data":[[{"distance":0,"transit":false,"station_id":"MRI","i_long":106.84912,"station_name":"Manggarai","line":2,"time":0,"i_lat":-6.209883,"is_transit":false},{"i_lat":-6.202263,"distance":3186,"line":1,"station_name":"Sudirman","time":4,"station_id":"SUD","transit":false,"i_long":106.822649,"is_transit":false},{"transit":false,"is_transit":false,"station_id":"SUDB","i_long":106.819881,"time":1,"line":1,"i_lat":-6.201433,"distance":280,"station_name":"Sudirman Baru"},{"is_transit":false,"distance":471,"i_lat":-6.20132,"transit":false,"i_long":106.816351,"time":1,"line":1,"station_name":"Karet","station_id":"KAT"},{"i_long":106.811091,"line":1,"station_id":"THB","station_name":"Tanah Abang","transit":false,"is_transit":false,"time":5,"distance":2029,"i_lat":-6.185545},{"transit":false,"distance":3632,"station_id":"DU","station_name":"Duri","i_long":106.800832,"is_transit":false,"i_lat":-6.155215,"time":8,"line":1}],[{"time":0,"distance":0,"line":2,"i_long":106.84912,"i_lat":-6.209883,"station_id":"MRI","transit":false,"station_name":"Manggarai","is_transit":false},{"transit":false,"i_long":106.840169,"i_lat":-6.198556,"station_id":"CKI","line":2,"is_transit":false,"time":4,"distance":1590,"station_name":"Cikini"},{"distance":1750,"i_lat":-6.186295,"station_name":"Gondangdia","station_id":"GDD","is_transit":false,"time":3,"i_long":106.832183,"transit":false,"line":2},{"transit":false,"station_id":"JUA","is_transit":false,"station_name":"Juanda","i_long":106.828284,"time":4,"line":2,"distance":2015,"i_lat":-6.166716},{"i_long":106.827103,"transit":false,"is_transit":false,"line":2,"station_name":"Sawah Besar","distance":1149,"time":2,"station_id":"SW","i_lat":-6.160725},{"time":2,"station_id":"MGB","i_lat":-6.149769,"distance":906,"line":2,"transit":false,"is_transit":false,"station_name":"Manggabesar","i_long":106.82482},{"is_transit":false,"transit":false,"time":2,"distance":1080,"i_long":106.820901,"station_name":"Jayakarta","line":2,"i_lat":-6.141205,"station_id":"JAY"},{"i_long":106.812439,"transit":true,"station_name":"Jakarta Kota","is_transit":true,"distance":1264,"line":2,"station_id":"JAKK","time":4,"i_lat":-6.137569},{"station_id":"KPB","time":3,"transit":true,"i_long":106.826365,"station_name":"Kampung Bandan","is_transit":true,"i_lat":-6.132549,"line":4,"distance":1364},{"station_id":"AK","i_lat":-6.144674,"time":9,"transit":false,"station_name":"Angke","is_transit":false,"distance":4102,"i_long":106.79867,"line":1},{"i_lat":-6.155215,"station_name":"Duri","is_transit":false,"station_id":"DU","distance":1230,"line":1,"transit":false,"i_long":106.800832,"time":4}],[{"line":2,"station_id":"MRI","station_name":"Manggarai","is_transit":false,"i_lat":-6.209883,"transit":false,"distance":0,"time":0,"i_long":106.84912},{"line":1,"station_id":"MTR","station_name":"Matraman","is_transit":false,"i_lat":-6.212485,"transit":false,"distance":1275,"time":2,"i_long":106.858896},{"is_transit":true,"station_id":"JNG","distance":1377,"transit":true,"i_long":106.86807400000001,"line":1,"i_lat":-6.215091,"time":8,"station_name":"Jatinegara"},{"station_name":"Pondok Jati","is_transit":false,"time":2,"i_lat":-6.209188,"transit":false,"station_id":"POK","i_long":106.861737,"line":11,"distance":1236},{"is_transit":false,"distance":1829,"transit":false,"station_id":"KMT","station_name":"Kramat","time":2,"i_lat":-6.193792,"line":11,"i_long":106.855437},{"station_name":"Gang Sentiong","transit":false,"station_id":"GST","i_long":106.850107,"is_transit":false,"i_lat":-6.185975,"line":11,"distance":973,"time":1},{"time":8,"station_id":"PSE","station_name":"Pasar Senen","i_lat":-6.174784,"distance":1567,"line":11,"transit":false,"is_transit":false,"i_long":106.84368},{"is_transit":false,"i_lat":-6.161728,"station_id":"KMO","i_long":106.839204,"line":11,"time":4,"distance":1436,"transit":false,"station_name":"Kemayoran"},{"is_transit":false,"i_lat":-6.14505,"i_long":106.836569,"station_id":"RJW","transit":false,"station_name":"Rajawali","time":5,"line":11,"distance":1901},{"i_long":106.826365,"line":4,"is_transit":true,"time":3,"transit":true,"station_name":"Kampung Bandan","station_id":"KPB","distance":1444,"i_lat":-6.132549},{"i_lat":-6.144674,"line":1,"station_name":"Angke","transit":false,"is_transit":false,"station_id":"AK","time":9,"distance":4102,"i_long":106.79867},{"station_name":"Duri","distance":1230,"i_long":106.800832,"time":4,"transit":false,"is_transit":false,"i_lat":-6.155215,"station_id":"DU","line":1}]]}