{"data":[[{"station_name":"Manggarai","is_transit":true,"i_lat":-6.209883,"station_id":"MRI","time":0,"distance":0,"line":0,"transit":false,"i_long":106.84912},{"transit":false,"i_long":106.857948,"station_id":"TEB","is_transit":false,"distance":2610,"time":4,"i_lat":-6.226659,"station_name":"Tebet","line":2},{"i_lat":-6.242512,"station_id":"CW","transit":false,"i_long":106.856607,"station_name":"Cawang","line":0,"is_transit":false,"distance":1230,"time":2},{"station_id":"DRN","i_lat":-6.255332,"time":3,"transit":false,"is_transit":false,"i_long":106.85449,"distance":1546,"line":0,"station_name":"Duren Kalibata"},{"is_transit":false,"distance":824,"station_name":"Pasar Minggu Baru","time":2,"transit":false,"station_id":"PSMB","i_lat":-6.263214,"i_long":106.851577,"line":2},{"station_id":"PSM","station_name":"Pasar Minggu","is_transit":false,"i_lat":-6.2842400000000005,"transit":false,"time":2,"distance":2380,"i_long":106.843999,"line":2},{"time":4,"i_lat":-6.3080680000000005,"transit":false,"station_id":"TNT","station_name":"Tanjung Barat","line":2,"is_transit":false,"i_long":106.838896,"distance":2820},{"station_name":"Lenteng Agung","line":2,"time":3,"is_transit":false,"transit":false,"station_id":"LNA","distance":2671,"i_lat":-6.330363,"i_long":106.832616}]]}