{"data":[[{"distance":0,"line":0,"i_lat":-6.209883,"i_long":106.84912,"station_name":"Manggarai","station_id":"MRI","time":0,"transit":false,"is_transit":true},{"transit":false,"is_transit":false,"distance":3186,"line":1,"station_id":"SUD","station_name":"Sudirman","time":4,"i_lat":-6.202263,"i_long":106.822649},{"transit":false,"time":1,"i_long":106.819881,"i_lat":-6.201433,"is_transit":false,"station_id":"SUDB","station_name":"Sudirman Baru","distance":280,"line":1},{"transit":false,"time":1,"is_transit":false,"line":1,"station_id":"KAT","i_lat":-6.20132,"distance":471,"i_long":106.816351,"station_name":"Karet"},{"is_transit":true,"i_lat":-6.185545,"line":1,"station_id":"THB","time":5,"transit":true,"distance":2029,"station_name":"Tanah Abang","i_long":106.811091},{"station_name":"Palmerah","distance":3191,"time":6,"is_transit":false,"i_lat":-6.207404,"line":6,"station_id":"PLM","transit":false,"i_long":106.79689},{"i_long":106.780334,"station_id":"KBY","station_name":"Kebayoran","time":7,"line":6,"distance":3737,"i_lat":-6.237242,"is_transit":false,"transit":false},{"line":6,"station_name":"Pondokranji","is_transit":false,"i_lat":-6.276362,"transit":false,"i_long":106.74273,"time":8,"station_id":"PDJ","distance":6218},{"i_lat":-6.288927,"i_long":106.728916,"station_id":"JMU","is_transit":false,"line":6,"station_name":"Jurangmangu","transit":false,"distance":2179,"time":3},{"station_name":"Sudimara","is_transit":false,"line":6,"transit":false,"i_lat":-6.296963,"time":4,"i_long":106.712277,"station_id":"SDM","distance":1994},{"line":6,"transit":false,"time":6,"station_name":"Rawa Buntu","distance":4566,"station_id":"RU","is_transit":false,"i_lat":-6.314823,"i_long":106.675475},{"station_name":"Serpong","is_transit":false,"i_lat":-6.319871,"line":6,"i_long":106.66566,"distance":2413,"time":4,"station_id":"SRP","transit":false},{"distance":1784,"station_name":"Cisauk","i_lat":-6.32484,"time":4,"is_transit":false,"station_id":"CSK","transit":false,"i_long":106.640411,"line":0},{"distance":2519,"line":0,"station_id":"CC","transit":false,"i_lat":-6.329547,"is_transit":false,"time":4,"station_name":"Cicayur","i_long":106.617853},{"station_name":"Parung Panjang","station_id":"PRP","time":8,"distance":5968,"is_transit":false,"transit":false,"i_lat":-6.3441410000000005,"i_long":106.568863,"line":6},{"is_transit":false,"distance":7025,"i_long":106.508482,"i_lat":-6.354349,"station_name":"Cilejit","station_id":"CJT","transit":false,"time":9,"line":0},{"i_lat":-6.338021,"time":6,"transit":false,"i_long":106.491338,"line":0,"station_name":"Daru","station_id":"DAR","is_transit":false,"distance":2675}],[{"line":0,"i_lat":-6.209883,"station_id":"MRI","distance":0,"transit":false,"i_long":106.84912,"station_name":"Manggarai","time":0,"is_transit":true},{"is_transit":false,"distance":1590,"time":4,"station_name":"Cikini","transit":false,"i_lat":-6.198556,"i_long":106.840169,"line":0,"station_id":"CKI"},{"station_name":"Gondangdia","transit":false,"line":2,"i_lat":-6.186295,"station_id":"GDD","distance":1750,"i_long":106.832183,"is_transit":false,"time":3},{"station_id":"JUA","i_long":106.828284,"line":2,"station_name":"Juanda","time":4,"transit":false,"is_transit":false,"distance":2015,"i_lat":-6.166716},{"station_name":"Sawah Besar","time":2,"i_lat":-6.160725,"i_long":106.827103,"station_id":"SW","is_transit":false,"distance":1149,"line":2,"transit":false},{"is_transit":false,"distance":906,"transit":false,"i_lat":-6.149769,"line":2,"station_name":"Manggabesar","i_long":106.82482,"station_id":"MGB","time":2},{"i_lat":-6.141205,"transit":false,"i_long":106.820901,"line":7,"station_name":"Jayakarta","time":2,"station_id":"JAY","is_transit":false,"distance":1080},{"station_id":"JAKK","i_long":106.812439,"distance":1264,"transit":true,"station_name":"Jakarta Kota","line":0,"time":4,"is_transit":true,"i_lat":-6.137569},{"is_transit":true,"line":0,"transit":false,"distance":1364,"i_lat":-6.132549,"station_id":"KPB","time":3,"i_long":106.826365,"station_name":"Kampung Bandan"},{"line":0,"time":9,"distance":4102,"station_id":"AK","station_name":"Angke","transit":false,"i_lat":-6.144674,"is_transit":false,"i_long":106.79867},{"i_lat":-6.155215,"is_transit":true,"station_name":"Duri","distance":1230,"transit":true,"i_long":106.800832,"line":1,"station_id":"DU","time":4},{"time":8,"i_long":106.811091,"station_name":"Tanah Abang","i_lat":-6.185545,"distance":3632,"station_id":"THB","is_transit":true,"line":1,"transit":true},{"i_lat":-6.207404,"i_long":106.79689,"line":6,"distance":3191,"time":6,"station_name":"Palmerah","transit":false,"station_id":"PLM","is_transit":false},{"time":7,"transit":false,"station_name":"Kebayoran","is_transit":false,"line":6,"i_long":106.780334,"distance":3737,"i_lat":-6.237242,"station_id":"KBY"},{"line":6,"station_name":"Pondokranji","distance":6218,"is_transit":false,"i_lat":-6.276362,"station_id":"PDJ","time":8,"i_long":106.74273,"transit":false},{"distance":2179,"i_long":106.728916,"transit":false,"station_name":"Jurangmangu","time":3,"i_lat":-6.288927,"line":6,"station_id":"JMU","is_transit":false},{"station_id":"SDM","is_transit":false,"time":4,"station_name":"Sudimara","distance":1994,"transit":false,"i_long":106.712277,"i_lat":-6.296963,"line":6},{"is_transit":false,"distance":4566,"i_lat":-6.314823,"transit":false,"station_id":"RU","station_name":"Rawa Buntu","line":6,"i_long":106.675475,"time":6},{"station_name":"Serpong","time":4,"transit":false,"station_id":"SRP","line":6,"i_lat":-6.319871,"is_transit":false,"i_long":106.66566,"distance":2413},{"time":4,"i_long":106.640411,"distance":1784,"station_id":"CSK","i_lat":-6.32484,"is_transit":false,"transit":false,"station_name":"Cisauk","line":0},{"station_id":"CC","time":4,"station_name":"Cicayur","transit":false,"line":0,"i_lat":-6.329547,"i_long":106.617853,"is_transit":false,"distance":2519},{"time":8,"station_name":"Parung Panjang","is_transit":false,"station_id":"PRP","i_lat":-6.3441410000000005,"line":6,"transit":false,"distance":5968,"i_long":106.568863},{"distance":7025,"transit":false,"i_long":106.508482,"i_lat":-6.354349,"station_id":"CJT","is_transit":false,"time":9,"station_name":"Cilejit","line":0},{"is_transit":false,"station_id":"DAR","i_lat":-6.338021,"station_name":"Daru","transit":false,"i_long":106.491338,"time":6,"distance":2675,"line":0}],[{"station_id":"MRI","transit":false,"i_lat":-6.209883,"station_name":"Manggarai","time":0,"is_transit":true,"i_long":106.84912,"distance":0,"line":0},{"station_id":"MTR","distance":1275,"station_name":"Matraman","i_lat":-6.212485,"i_long":106.858896,"transit":false,"is_transit":false,"time":2,"line":1},{"is_transit":true,"time":8,"distance":1377,"station_id":"JNG","station_name":"Jatinegara","i_long":106.86807400000001,"line":0,"transit":true,"i_lat":-6.215091},{"i_long":106.861737,"distance":1236,"time":2,"is_transit":false,"station_name":"Pondok Jati","i_lat":-6.209188,"station_id":"POK","transit":false,"line":11},{"is_transit":false,"i_lat":-6.193792,"line":11,"time":2,"distance":1829,"transit":false,"station_name":"Kramat","i_long":106.855437,"station_id":"KMT"},{"station_name":"Gang Sentiong","station_id":"GST","is_transit":false,"distance":973,"time":1,"i_long":106.850107,"transit":false,"line":11,"i_lat":-6.185975},{"i_lat":-6.174784,"time":8,"station_name":"Pasar Senen","transit":false,"i_long":106.84368,"station_id":"PSE","is_transit":false,"line":11,"distance":1567},{"time":4,"i_long":106.839204,"distance":1436,"i_lat":-6.161728,"station_name":"Kemayoran","is_transit":false,"station_id":"KMO","line":11,"transit":false},{"station_name":"Rajawali","transit":false,"i_long":106.836569,"station_id":"RJW","is_transit":false,"time":5,"distance":1901,"i_lat":-6.14505,"line":11},{"time":3,"i_lat":-6.132549,"i_long":106.826365,"distance":1444,"station_name":"Kampung Bandan","station_id":"KPB","line":0,"transit":true,"is_transit":true},{"transit":false,"distance":4102,"station_name":"Angke","i_lat":-6.144674,"station_id":"AK","is_transit":false,"line":0,"time":9,"i_long":106.79867},{"i_long":106.800832,"station_id":"DU","station_name":"Duri","is_transit":true,"time":4,"distance":1230,"transit":true,"i_lat":-6.155215,"line":1},{"is_transit":true,"time":8,"i_lat":-6.185545,"transit":true,"i_long":106.811091,"station_name":"Tanah Abang","line":1,"distance":3632,"station_id":"THB"},{"i_lat":-6.207404,"distance":3191,"station_id":"PLM","transit":false,"i_long":106.79689,"is_transit":false,"station_name":"Palmerah","line":6,"time":6},{"station_name":"Kebayoran","station_id":"KBY","time":7,"is_transit":false,"transit":false,"distance":3737,"i_lat":-6.237242,"i_long":106.780334,"line":6},{"station_name":"Pondokranji","transit":false,"distance":6218,"is_transit":false,"line":6,"i_lat":-6.276362,"station_id":"PDJ","time":8,"i_long":106.74273},{"time":3,"distance":2179,"line":6,"i_long":106.728916,"station_id":"JMU","i_lat":-6.288927,"station_name":"Jurangmangu","is_transit":false,"transit":false},{"i_long":106.712277,"station_id":"SDM","time":4,"is_transit":false,"distance":1994,"transit":false,"line":6,"i_lat":-6.296963,"station_name":"Sudimara"},{"transit":false,"distance":4566,"station_id":"RU","station_name":"Rawa Buntu","time":6,"i_long":106.675475,"is_transit":false,"line":6,"i_lat":-6.314823},{"i_lat":-6.319871,"time":4,"line":6,"station_id":"SRP","station_name":"Serpong","is_transit":false,"distance":2413,"transit":false,"i_long":106.66566},{"i_lat":-6.32484,"line":0,"is_transit":false,"station_id":"CSK","i_long":106.640411,"time":4,"station_name":"Cisauk","transit":false,"distance":1784},{"time":4,"line":0,"transit":false,"station_name":"Cicayur","i_lat":-6.329547,"is_transit":false,"station_id":"CC","i_long":106.617853,"distance":2519},{"time":8,"i_lat":-6.3441410000000005,"i_long":106.568863,"line":6,"station_id":"PRP","is_transit":false,"transit":false,"station_name":"Parung Panjang","distance":5968},{"is_transit":false,"distance":7025,"transit":false,"station_name":"Cilejit","station_id":"CJT","time":9,"line":0,"i_lat":-6.354349,"i_long":106.508482},{"line":0,"station_name":"Daru","is_transit":false,"i_lat":-6.338021,"station_id":"DAR","time":6,"i_long":106.491338,"distance":2675,"transit":false}]]}