{"data":[[{"time":0,"i_lat":-6.209883,"distance":0,"transit":false,"i_long":106.84912,"station_name":"Manggarai","is_transit":true,"line":0,"station_id":"MRI"},{"distance":3186,"time":4,"i_long":106.822649,"station_id":"SUD","i_lat":-6.202263,"transit":false,"line":1,"is_transit":false,"station_name":"Sudirman"},{"i_long":106.819881,"distance":280,"transit":false,"i_lat":-6.201433,"line":1,"time":1,"station_id":"SUDB","station_name":"Sudirman Baru","is_transit":false},{"time":1,"i_long":106.816351,"line":1,"distance":471,"station_id":"KAT","station_name":"Karet","is_transit":false,"transit":false,"i_lat":-6.20132}],[{"station_name":"Manggarai","station_id":"MRI","i_long":106.84912,"distance":0,"i_lat":-6.209883,"transit":false,"line":0,"time":0,"is_transit":true},{"station_id":"CKI","transit":false,"time":4,"i_lat":-6.198556,"i_long":106.840169,"station_name":"Cikini","is_transit":false,"line":0,"distance":1590},{"i_lat":-6.186295,"is_transit":false,"station_id":"GDD","station_name":"Gondangdia","line":2,"distance":1750,"transit":false,"time":3,"i_long":106.832183},{"station_id":"JUA","line":2,"station_name":"Juanda","transit":false,"is_transit":false,"i_long":106.828284,"distance":2015,"i_lat":-6.166716,"time":4},{"station_id":"SW","i_lat":-6.160725,"station_name":"Sawah Besar","is_transit":false,"i_long":106.827103,"time":2,"distance":1149,"transit":false,"line":2},{"station_name":"Manggabesar","station_id":"MGB","is_transit":false,"time":2,"transit":false,"i_lat":-6.149769,"distance":906,"i_long":106.82482,"line":2},{"station_id":"JAY","is_transit":false,"line":7,"distance":1080,"i_lat":-6.141205,"station_name":"Jayakarta","i_long":106.820901,"time":2,"transit":false},{"i_lat":-6.137569,"station_name":"Jakarta Kota","line":0,"time":4,"is_transit":true,"i_long":106.812439,"station_id":"JAKK","distance":1264,"transit":true},{"station_id":"KPB","transit":false,"station_name":"Kampung Bandan","i_lat":-6.132549,"is_transit":true,"i_long":106.826365,"distance":1364,"line":0,"time":3},{"line":0,"distance":4102,"transit":false,"i_long":106.79867,"station_id":"AK","is_transit":false,"time":9,"station_name":"Angke","i_lat":-6.144674},{"distance":1230,"i_long":106.800832,"station_id":"DU","transit":true,"station_name":"Duri","is_transit":true,"time":4,"i_lat":-6.155215,"line":1},{"i_long":106.811091,"distance":3632,"station_id":"THB","transit":false,"time":8,"line":1,"i_lat":-6.185545,"station_name":"Tanah Abang","is_transit":true},{"transit":false,"i_long":106.816351,"line":1,"station_name":"Karet","time":5,"is_transit":false,"i_lat":-6.20132,"station_id":"KAT","distance":2029}],[{"time":0,"i_long":106.84912,"line":0,"station_name":"Manggarai","station_id":"MRI","i_lat":-6.209883,"is_transit":true,"distance":0,"transit":false},{"line":1,"is_transit":false,"transit":false,"time":2,"distance":1275,"station_name":"Matraman","i_lat":-6.212485,"i_long":106.858896,"station_id":"MTR"},{"transit":true,"i_lat":-6.215091,"line":0,"time":8,"is_transit":true,"station_id":"JNG","distance":1377,"station_name":"Jatinegara","i_long":106.86807400000001},{"i_long":106.861737,"station_name":"Pondok Jati","time":2,"i_lat":-6.209188,"station_id":"POK","transit":false,"line":11,"distance":1236,"is_transit":false},{"time":2,"distance":1829,"line":11,"transit":false,"is_transit":false,"station_id":"KMT","i_lat":-6.193792,"i_long":106.855437,"station_name":"Kramat"},{"transit":false,"is_transit":false,"station_id":"GST","station_name":"Gang Sentiong","time":1,"distance":973,"i_long":106.850107,"i_lat":-6.185975,"line":11},{"station_name":"Pasar Senen","i_lat":-6.174784,"i_long":106.84368,"transit":false,"is_transit":false,"distance":1567,"line":11,"station_id":"PSE","time":8},{"line":11,"transit":false,"is_transit":false,"i_long":106.839204,"station_name":"Kemayoran","distance":1436,"i_lat":-6.161728,"time":4,"station_id":"KMO"},{"transit":false,"distance":1901,"i_long":106.836569,"time":5,"station_name":"Rajawali","i_lat":-6.14505,"station_id":"RJW","line":11,"is_transit":false},{"transit":true,"time":3,"i_long":106.826365,"station_name":"Kampung Bandan","i_lat":-6.132549,"is_transit":true,"line":0,"distance":1444,"station_id":"KPB"},{"transit":false,"station_id":"AK","is_transit":false,"i_lat":-6.144674,"i_long":106.79867,"time":9,"station_name":"Angke","distance":4102,"line":0},{"station_id":"DU","time":4,"station_name":"Duri","distance":1230,"i_lat":-6.155215,"transit":true,"i_long":106.800832,"is_transit":true,"line":1},{"station_name":"Tanah Abang","distance":3632,"transit":false,"time":8,"is_transit":true,"line":1,"i_lat":-6.185545,"station_id":"THB","i_long":106.811091},{"station_name":"Karet","time":5,"station_id":"KAT","is_transit":false,"distance":2029,"transit":false,"line":1,"i_long":106.816351,"i_lat":-6.20132}]]}