{"data":[[{"station_id":"MRI","is_transit":false,"i_lat":-6.209883,"transit":false,"distance":0,"i_long":106.84912,"station_name":"Manggarai","time":0,"line":2},{"station_id":"CKI","is_transit":false,"line":2,"time":4,"station_name":"Cikini","transit":false,"i_lat":-6.198556,"i_long":106.840169,"distance":1590},{"i_lat":-6.186295,"station_name":"Gondangdia","distance":1750,"is_transit":false,"station_id":"GDD","i_long":106.832183,"transit":false,"time":3,"line":2}],[{"transit":false,"time":0,"distance":0,"i_lat":-6.209883,"station_name":"Manggarai","is_transit":false,"station_id":"MRI","i_long":106.84912,"line":2},{"time":4,"transit":false,"i_lat":-6.202263,"is_transit":false,"station_name":"Sudirman","distance":3186,"station_id":"SUD","i_long":106.822649,"line":1},{"transit":false,"line":1,"station_id":"SUDB","is_transit":false,"time":1,"distance":280,"station_name":"Sudirman Baru","i_lat":-6.201433,"i_long":106.819881},{"distance":471,"i_lat":-6.20132,"is_transit":false,"i_long":106.816351,"time":1,"line":1,"station_name":"Karet","station_id":"KAT","transit":false},{"station_name":"Tanah Abang","i_lat":-6.185545,"station_id":"THB","transit":false,"line":1,"i_long":106.811091,"is_transit":false,"time":5,"distance":2029},{"transit":false,"distance":3632,"station_id":"DU","time":8,"i_lat":-6.155215,"line":1,"station_name":"Duri","i_long":106.800832,"is_transit":false},{"distance":1230,"line":1,"i_long":106.79867,"time":4,"i_lat":-6.144674,"station_id":"AK","is_transit":false,"transit":false,"station_name":"Angke"},{"time":9,"station_name":"Kampung Bandan","is_transit":true,"i_lat":-6.132549,"i_long":106.826365,"line":4,"station_id":"KPB","transit":true,"distance":4102},{"transit":true,"i_lat":-6.137569,"time":3,"station_name":"Jakarta Kota","station_id":"JAKK","is_transit":true,"line":2,"distance":1364,"i_long":106.812439},{"i_lat":-6.141205,"station_name":"Jayakarta","distance":1264,"station_id":"JAY","is_transit":false,"transit":false,"i_long":106.820901,"line":2,"time":4},{"line":2,"distance":1080,"station_id":"MGB","transit":false,"i_lat":-6.149769,"i_long":106.82482,"is_transit":false,"station_name":"Manggabesar","time":2},{"line":2,"i_long":106.827103,"i_lat":-6.160725,"station_id":"SW","is_transit":false,"time":2,"distance":906,"transit":false,"station_name":"Sawah Besar"},{"station_name":"Juanda","i_lat":-6.166716,"is_transit":false,"transit":false,"i_long":106.828284,"distance":1149,"time":2,"line":2,"station_id":"JUA"},{"station_id":"GDD","distance":2015,"station_name":"Gondangdia","i_long":106.832183,"time":4,"line":2,"transit":false,"is_transit":false,"i_lat":-6.186295}],[{"i_lat":-6.209883,"station_name":"Manggarai","transit":false,"i_long":106.84912,"time":0,"is_transit":false,"distance":0,"station_id":"MRI","line":2},{"transit":false,"i_long":106.858896,"time":2,"line":1,"is_transit":false,"station_id":"MTR","station_name":"Matraman","distance":1275,"i_lat":-6.212485},{"is_transit":true,"station_id":"JNG","station_name":"Jatinegara","time":8,"i_lat":-6.215091,"i_long":106.86807400000001,"transit":true,"distance":1377,"line":1},{"i_long":106.861737,"line":11,"time":2,"is_transit":false,"station_name":"Pondok Jati","transit":false,"distance":1236,"i_lat":-6.209188,"station_id":"POK"},{"transit":false,"station_id":"KMT","i_long":106.855437,"line":11,"is_transit":false,"time":2,"station_name":"Kramat","i_lat":-6.193792,"distance":1829},{"distance":973,"time":1,"station_name":"Gang Sentiong","transit":false,"is_transit":false,"line":11,"station_id":"GST","i_long":106.850107,"i_lat":-6.185975},{"time":8,"is_transit":false,"station_name":"Pasar Senen","distance":1567,"station_id":"PSE","i_long":106.84368,"line":11,"i_lat":-6.174784,"transit":false},{"i_long":106.839204,"is_transit":false,"i_lat":-6.161728,"time":4,"distance":1436,"station_id":"KMO","station_name":"Kemayoran","line":11,"transit":false},{"station_id":"RJW","i_long":106.836569,"transit":false,"distance":1901,"line":11,"time":5,"station_name":"Rajawali","is_transit":false,"i_lat":-6.14505},{"is_transit":true,"transit":true,"station_name":"Kampung Bandan","i_lat":-6.132549,"line":4,"time":3,"distance":1444,"station_id":"KPB","i_long":106.826365},{"station_name":"Jakarta Kota","is_transit":true,"time":3,"i_lat":-6.137569,"distance":1364,"station_id":"JAKK","line":2,"i_long":106.812439,"transit":true},{"i_long":106.820901,"station_id":"JAY","distance":1264,"line":2,"is_transit":false,"transit":false,"i_lat":-6.141205,"time":4,"station_name":"Jayakarta"},{"transit":false,"time":2,"line":2,"station_name":"Manggabesar","i_long":106.82482,"i_lat":-6.149769,"distance":1080,"is_transit":false,"station_id":"MGB"},{"station_id":"SW","station_name":"Sawah Besar","is_transit":false,"i_lat":-6.160725,"transit":false,"distance":906,"line":2,"time":2,"i_long":106.827103},{"station_name":"Juanda","time":2,"i_lat":-6.166716,"is_transit":false,"distance":1149,"line":2,"i_long":106.828284,"station_id":"JUA","transit":false},{"time":4,"station_name":"Gondangdia","is_transit":false,"station_id":"GDD","i_lat":-6.186295,"line":2,"distance":2015,"transit":false,"i_long":106.832183}]]}