{"data":[[{"station_name":"Manggarai","transit":false,"time":0,"i_long":106.84912,"is_transit":false,"line":2,"i_lat":-6.209883,"station_id":"MRI","distance":0},{"transit":false,"is_transit":false,"station_name":"Matraman","distance":1275,"i_long":106.858896,"i_lat":-6.212485,"time":2,"station_id":"MTR","line":1},{"station_id":"JNG","i_long":106.86807400000001,"line":1,"time":8,"i_lat":-6.215091,"is_transit":true,"station_name":"Jatinegara","transit":true,"distance":1377},{"station_name":"Pondok Jati","transit":false,"i_long":106.861737,"distance":1236,"is_transit":false,"line":11,"station_id":"POK","time":2,"i_lat":-6.209188},{"i_lat":-6.193792,"transit":false,"station_name":"Kramat","distance":1829,"is_transit":false,"time":2,"i_long":106.855437,"station_id":"KMT","line":11},{"line":11,"transit":false,"station_name":"Gang Sentiong","station_id":"GST","time":1,"i_lat":-6.185975,"i_long":106.850107,"distance":973,"is_transit":false}],[{"station_id":"MRI","i_long":106.84912,"line":2,"time":0,"i_lat":-6.209883,"transit":false,"is_transit":false,"station_name":"Manggarai","distance":0},{"line":1,"i_long":106.822649,"station_id":"SUD","transit":false,"i_lat":-6.202263,"station_name":"Sudirman","distance":3186,"is_transit":false,"time":4},{"distance":280,"line":1,"station_name":"Sudirman Baru","time":1,"station_id":"SUDB","transit":false,"i_long":106.819881,"i_lat":-6.201433,"is_transit":false},{"time":1,"transit":false,"station_name":"Karet","distance":471,"i_lat":-6.20132,"i_long":106.816351,"is_transit":false,"station_id":"KAT","line":1},{"i_long":106.811091,"station_name":"Tanah Abang","time":5,"i_lat":-6.185545,"is_transit":false,"station_id":"THB","transit":false,"distance":2029,"line":1},{"distance":3632,"station_name":"Duri","time":8,"i_lat":-6.155215,"line":1,"station_id":"DU","i_long":106.800832,"is_transit":false,"transit":false},{"distance":1230,"station_name":"Angke","time":4,"line":1,"is_transit":false,"transit":false,"i_long":106.79867,"station_id":"AK","i_lat":-6.144674},{"line":4,"is_transit":true,"time":9,"station_name":"Kampung Bandan","distance":4102,"transit":true,"station_id":"KPB","i_lat":-6.132549,"i_long":106.826365},{"line":11,"station_name":"Rajawali","is_transit":false,"station_id":"RJW","time":3,"i_lat":-6.14505,"i_long":106.836569,"distance":1444,"transit":false},{"is_transit":false,"time":5,"i_lat":-6.161728,"transit":false,"i_long":106.839204,"station_id":"KMO","distance":1901,"station_name":"Kemayoran","line":11},{"time":4,"i_lat":-6.174784,"i_long":106.84368,"is_transit":false,"station_name":"Pasar Senen","distance":1436,"station_id":"PSE","transit":false,"line":11},{"transit":false,"line":11,"time":8,"station_id":"GST","i_long":106.850107,"is_transit":false,"distance":1567,"station_name":"Gang Sentiong","i_lat":-6.185975}],[{"i_long":106.84912,"is_transit":false,"station_id":"MRI","i_lat":-6.209883,"transit":false,"time":0,"station_name":"Manggarai","distance":0,"line":2},{"transit":false,"station_name":"Cikini","is_transit":false,"distance":1590,"time":4,"i_long":106.840169,"station_id":"CKI","i_lat":-6.198556,"line":2},{"station_id":"GDD","i_long":106.832183,"time":3,"distance":1750,"station_name":"Gondangdia","is_transit":false,"i_lat":-6.186295,"transit":false,"line":2},{"transit":false,"i_lat":-6.166716,"distance":2015,"station_name":"Juanda","station_id":"JUA","i_long":106.828284,"time":4,"line":2,"is_transit":false},{"station_name":"Sawah Besar","i_long":106.827103,"line":2,"transit":false,"is_transit":false,"i_lat":-6.160725,"distance":1149,"time":2,"station_id":"SW"},{"transit":false,"i_lat":-6.149769,"i_long":106.82482,"station_name":"Manggabesar","station_id":"MGB","is_transit":false,"line":2,"distance":906,"time":2},{"is_transit":false,"station_name":"Jayakarta","line":2,"i_lat":-6.141205,"transit":false,"station_id":"JAY","i_long":106.820901,"distance":1080,"time":2},{"station_name":"Jakarta Kota","station_id":"JAKK","time":4,"i_lat":-6.137569,"transit":true,"distance":1264,"is_transit":true,"i_long":106.812439,"line":2},{"i_lat":-6.132549,"line":4,"is_transit":true,"distance":1364,"station_name":"Kampung Bandan","station_id":"KPB","transit":true,"time":3,"i_long":106.826365},{"time":3,"station_id":"RJW","transit":false,"i_lat":-6.14505,"station_name":"Rajawali","is_transit":false,"distance":1444,"i_long":106.836569,"line":11},{"is_transit":false,"time":5,"transit":false,"i_lat":-6.161728,"station_name":"Kemayoran","i_long":106.839204,"distance":1901,"station_id":"KMO","line":11},{"i_long":106.84368,"time":4,"station_id":"PSE","transit":false,"is_transit":false,"distance":1436,"station_name":"Pasar Senen","line":11,"i_lat":-6.174784},{"station_id":"GST","distance":1567,"station_name":"Gang Sentiong","line":11,"time":8,"i_long":106.850107,"transit":false,"i_lat":-6.185975,"is_transit":false}]]}