{"data":[[{"is_transit":false,"transit":false,"station_id":"MRI","i_long":106.84912,"line":2,"time":0,"distance":0,"station_name":"Manggarai","i_lat":-6.209883},{"i_lat":-6.226659,"line":2,"is_transit":false,"time":4,"transit":false,"i_long":106.857948,"distance":2610,"station_name":"Tebet","station_id":"TEB"},{"i_long":106.856607,"station_id":"CW","is_transit":false,"distance":1230,"transit":false,"i_lat":-6.242512,"station_name":"Cawang","line":2,"time":2},{"time":3,"station_name":"Duren Kalibata","distance":1546,"i_lat":-6.255332,"i_long":106.85449,"station_id":"DRN","is_transit":false,"transit":false,"line":2},{"station_id":"PSMB","time":2,"distance":824,"is_transit":false,"i_lat":-6.263214,"station_name":"Pasar Minggu Baru","i_long":106.851577,"line":2,"transit":false},{"time":2,"distance":2380,"line":2,"i_lat":-6.2842400000000005,"station_name":"Pasar Minggu","transit":false,"station_id":"PSM","i_long":106.843999,"is_transit":false},{"line":2,"station_id":"TNT","time":4,"i_long":106.838896,"distance":2820,"transit":false,"i_lat":-6.3080680000000005,"station_name":"Tanjung Barat","is_transit":false}]]}