{"data":[[{"line":0,"station_name":"Manggarai","i_lat":-6.209883,"time":0,"distance":0,"transit":false,"i_long":106.84912,"station_id":"MRI","is_transit":true},{"transit":false,"i_lat":-6.202263,"line":1,"time":4,"is_transit":false,"i_long":106.822649,"station_id":"SUD","station_name":"Sudirman","distance":3186},{"transit":false,"is_transit":false,"time":1,"line":1,"station_name":"Sudirman Baru","distance":280,"station_id":"SUDB","i_lat":-6.201433,"i_long":106.819881},{"time":1,"transit":false,"is_transit":false,"i_lat":-6.20132,"i_long":106.816351,"station_name":"Karet","station_id":"KAT","line":1,"distance":471},{"i_long":106.811091,"line":1,"i_lat":-6.185545,"time":5,"transit":true,"distance":2029,"station_id":"THB","station_name":"Tanah Abang","is_transit":true},{"time":6,"transit":false,"i_long":106.79689,"is_transit":false,"line":6,"station_id":"PLM","i_lat":-6.207404,"distance":3191,"station_name":"Palmerah"},{"station_name":"Kebayoran","is_transit":false,"time":7,"distance":3737,"i_lat":-6.237242,"transit":false,"i_long":106.780334,"station_id":"KBY","line":6},{"station_name":"Pondokranji","is_transit":false,"distance":6218,"transit":false,"i_lat":-6.276362,"line":6,"i_long":106.74273,"time":8,"station_id":"PDJ"},{"transit":false,"is_transit":false,"station_id":"JMU","i_long":106.728916,"time":3,"line":6,"distance":2179,"i_lat":-6.288927,"station_name":"Jurangmangu"}],[{"distance":0,"i_lat":-6.209883,"i_long":106.84912,"line":0,"time":0,"station_id":"MRI","is_transit":true,"transit":false,"station_name":"Manggarai"},{"distance":1590,"station_id":"CKI","station_name":"Cikini","i_long":106.840169,"is_transit":false,"transit":false,"i_lat":-6.198556,"time":4,"line":0},{"distance":1750,"line":2,"transit":false,"i_long":106.832183,"is_transit":false,"station_id":"GDD","station_name":"Gondangdia","time":3,"i_lat":-6.186295},{"distance":2015,"transit":false,"time":4,"station_id":"JUA","station_name":"Juanda","i_long":106.828284,"is_transit":false,"i_lat":-6.166716,"line":2},{"distance":1149,"time":2,"i_lat":-6.160725,"transit":false,"line":2,"i_long":106.827103,"station_id":"SW","station_name":"Sawah Besar","is_transit":false},{"i_long":106.82482,"is_transit":false,"station_id":"MGB","transit":false,"line":2,"station_name":"Manggabesar","distance":906,"time":2,"i_lat":-6.149769},{"is_transit":false,"transit":false,"line":7,"i_long":106.820901,"station_id":"JAY","station_name":"Jayakarta","distance":1080,"i_lat":-6.141205,"time":2},{"line":0,"station_name":"Jakarta Kota","is_transit":true,"time":4,"station_id":"JAKK","transit":true,"i_long":106.812439,"distance":1264,"i_lat":-6.137569},{"transit":false,"i_lat":-6.132549,"station_id":"KPB","i_long":106.826365,"station_name":"Kampung Bandan","is_transit":true,"line":0,"time":3,"distance":1364},{"station_name":"Angke","station_id":"AK","time":9,"distance":4102,"is_transit":false,"transit":false,"i_lat":-6.144674,"i_long":106.79867,"line":0},{"distance":1230,"i_lat":-6.155215,"time":4,"i_long":106.800832,"transit":true,"is_transit":true,"line":1,"station_id":"DU","station_name":"Duri"},{"station_name":"Tanah Abang","transit":true,"i_lat":-6.185545,"i_long":106.811091,"is_transit":true,"line":1,"station_id":"THB","distance":3632,"time":8},{"is_transit":false,"station_id":"PLM","transit":false,"i_long":106.79689,"time":6,"distance":3191,"line":6,"i_lat":-6.207404,"station_name":"Palmerah"},{"is_transit":false,"transit":false,"time":7,"distance":3737,"station_name":"Kebayoran","station_id":"KBY","i_lat":-6.237242,"i_long":106.780334,"line":6},{"transit":false,"time":8,"i_lat":-6.276362,"line":6,"is_transit":false,"station_name":"Pondokranji","distance":6218,"i_long":106.74273,"station_id":"PDJ"},{"is_transit":false,"i_long":106.728916,"time":3,"i_lat":-6.288927,"distance":2179,"line":6,"transit":false,"station_id":"JMU","station_name":"Jurangmangu"}],[{"is_transit":true,"time":0,"distance":0,"line":0,"i_long":106.84912,"station_id":"MRI","i_lat":-6.209883,"transit":false,"station_name":"Manggarai"},{"distance":1275,"line":1,"time":2,"transit":false,"i_lat":-6.212485,"i_long":106.858896,"station_name":"Matraman","is_transit":false,"station_id":"MTR"},{"station_id":"JNG","i_lat":-6.215091,"distance":1377,"line":0,"time":8,"station_name":"Jatinegara","is_transit":true,"transit":true,"i_long":106.86807400000001},{"line":11,"i_long":106.861737,"distance":1236,"transit":false,"i_lat":-6.209188,"station_id":"POK","is_transit":false,"time":2,"station_name":"Pondok Jati"},{"i_long":106.855437,"i_lat":-6.193792,"line":11,"transit":false,"station_name":"Kramat","time":2,"distance":1829,"station_id":"KMT","is_transit":false},{"line":11,"i_long":106.850107,"time":1,"station_name":"Gang Sentiong","is_transit":false,"i_lat":-6.185975,"transit":false,"station_id":"GST","distance":973},{"distance":1567,"i_long":106.84368,"station_name":"Pasar Senen","i_lat":-6.174784,"time":8,"line":11,"station_id":"PSE","transit":false,"is_transit":false},{"time":4,"is_transit":false,"distance":1436,"i_lat":-6.161728,"station_id":"KMO","line":11,"i_long":106.839204,"transit":false,"station_name":"Kemayoran"},{"transit":false,"i_lat":-6.14505,"line":11,"distance":1901,"station_name":"Rajawali","i_long":106.836569,"station_id":"RJW","is_transit":false,"time":5},{"is_transit":true,"station_id":"KPB","transit":true,"time":3,"distance":1444,"i_lat":-6.132549,"i_long":106.826365,"line":0,"station_name":"Kampung Bandan"},{"station_name":"Angke","is_transit":false,"distance":4102,"transit":false,"i_lat":-6.144674,"i_long":106.79867,"line":0,"time":9,"station_id":"AK"},{"i_long":106.800832,"distance":1230,"transit":true,"i_lat":-6.155215,"station_id":"DU","is_transit":true,"station_name":"Duri","line":1,"time":4},{"station_id":"THB","station_name":"Tanah Abang","is_transit":true,"i_lat":-6.185545,"line":1,"transit":true,"i_long":106.811091,"time":8,"distance":3632},{"station_id":"PLM","is_transit":false,"distance":3191,"time":6,"i_lat":-6.207404,"i_long":106.79689,"transit":false,"station_name":"Palmerah","line":6},{"i_long":106.780334,"is_transit":false,"transit":false,"i_lat":-6.237242,"line":6,"station_id":"KBY","station_name":"Kebayoran","time":7,"distance":3737},{"transit":false,"i_long":106.74273,"station_name":"Pondokranji","is_transit":false,"station_id":"PDJ","time":8,"line":6,"i_lat":-6.276362,"distance":6218},{"distance":2179,"is_transit":false,"line":6,"station_id":"JMU","i_long":106.728916,"transit":false,"station_name":"Jurangmangu","i_lat":-6.288927,"time":3}]]}