{"data":[[{"is_transit":false,"station_name":"Manggarai","time":0,"i_lat":-6.209883,"distance":0,"station_id":"MRI","line":2,"transit":false,"i_long":106.84912},{"is_transit":false,"i_lat":-6.212485,"transit":false,"i_long":106.858896,"station_id":"MTR","time":2,"distance":1275,"line":1,"station_name":"Matraman"},{"i_long":106.86807400000001,"is_transit":false,"station_id":"JNG","line":1,"station_name":"Jatinegara","transit":false,"time":8,"i_lat":-6.215091,"distance":1377},{"is_transit":false,"distance":3395,"station_name":"Klender","transit":false,"line":1,"i_lat":-6.2135,"time":3,"station_id":"KLD","i_long":106.899548},{"line":1,"station_name":"Buaran","i_lat":-6.215568,"is_transit":false,"i_long":106.922662,"time":2,"station_id":"BUA","transit":false,"distance":3100},{"transit":false,"is_transit":false,"i_lat":-6.217455,"line":1,"i_long":106.939679,"station_name":"Klenderbaru","station_id":"KLDB","time":1,"distance":1305},{"i_lat":-6.219053,"station_id":"CUK","transit":false,"is_transit":false,"station_name":"Cakung","i_long":106.951283,"line":1,"time":8,"distance":1385},{"station_name":"Kranji","time":3,"i_long":106.977657,"i_lat":-6.224515,"is_transit":false,"station_id":"KRI","distance":3097,"transit":false,"line":1},{"i_lat":-6.236616,"time":4,"station_name":"Bekasi","is_transit":false,"station_id":"BKS","distance":2520,"i_long":106.997013,"transit":false,"line":1}],[{"i_long":106.84912,"time":0,"distance":0,"is_transit":false,"station_name":"Manggarai","i_lat":-6.209883,"station_id":"MRI","line":2,"transit":false},{"i_long":106.822649,"station_name":"Sudirman","is_transit":false,"time":4,"station_id":"SUD","transit":false,"i_lat":-6.202263,"distance":3186,"line":1},{"i_lat":-6.201433,"i_long":106.819881,"is_transit":false,"station_name":"Sudirman Baru","transit":false,"station_id":"SUDB","time":1,"distance":280,"line":1},{"station_name":"Karet","i_long":106.816351,"transit":false,"line":1,"time":1,"distance":471,"i_lat":-6.20132,"is_transit":false,"station_id":"KAT"},{"i_lat":-6.185545,"station_id":"THB","i_long":106.811091,"time":5,"is_transit":false,"transit":false,"station_name":"Tanah Abang","distance":2029,"line":1},{"time":8,"transit":false,"is_transit":false,"i_long":106.800832,"station_id":"DU","distance":3632,"i_lat":-6.155215,"station_name":"Duri","line":1},{"station_name":"Angke","station_id":"AK","i_long":106.79867,"line":1,"time":4,"i_lat":-6.144674,"transit":false,"is_transit":false,"distance":1230},{"station_name":"Kampung Bandan","distance":4102,"i_long":106.826365,"time":9,"line":4,"transit":true,"is_transit":true,"station_id":"KPB","i_lat":-6.132549},{"is_transit":false,"station_name":"Rajawali","transit":false,"line":11,"i_lat":-6.14505,"station_id":"RJW","time":3,"distance":1444,"i_long":106.836569},{"is_transit":false,"station_name":"Kemayoran","line":11,"i_long":106.839204,"time":5,"distance":1901,"i_lat":-6.161728,"station_id":"KMO","transit":false},{"line":11,"distance":1436,"station_name":"Pasar Senen","time":4,"is_transit":false,"transit":false,"i_lat":-6.174784,"i_long":106.84368,"station_id":"PSE"},{"i_long":106.850107,"line":11,"is_transit":false,"station_name":"Gang Sentiong","station_id":"GST","transit":false,"distance":1567,"i_lat":-6.185975,"time":8},{"line":11,"distance":973,"station_name":"Kramat","is_transit":false,"time":1,"transit":false,"i_long":106.855437,"i_lat":-6.193792,"station_id":"KMT"},{"time":2,"line":11,"distance":1829,"station_name":"Pondok Jati","i_long":106.861737,"station_id":"POK","transit":false,"i_lat":-6.209188,"is_transit":false},{"station_name":"Jatinegara","distance":1236,"is_transit":true,"time":9,"station_id":"JNG","line":1,"i_long":106.86807400000001,"i_lat":-6.215091,"transit":true},{"station_name":"Klender","transit":false,"is_transit":false,"i_lat":-6.2135,"time":3,"distance":3395,"station_id":"KLD","i_long":106.899548,"line":1},{"time":2,"station_name":"Buaran","distance":3100,"line":1,"station_id":"BUA","is_transit":false,"i_long":106.922662,"i_lat":-6.215568,"transit":false},{"time":1,"distance":1305,"station_id":"KLDB","i_long":106.939679,"transit":false,"station_name":"Klenderbaru","line":1,"i_lat":-6.217455,"is_transit":false},{"is_transit":false,"station_id":"CUK","i_long":106.951283,"transit":false,"time":8,"station_name":"Cakung","line":1,"distance":1385,"i_lat":-6.219053},{"time":3,"line":1,"transit":false,"station_id":"KRI","is_transit":false,"station_name":"Kranji","distance":3097,"i_long":106.977657,"i_lat":-6.224515},{"station_id":"BKS","transit":false,"i_lat":-6.236616,"is_transit":false,"distance":2520,"line":1,"time":4,"station_name":"Bekasi","i_long":106.997013}],[{"i_lat":-6.209883,"i_long":106.84912,"transit":false,"is_transit":false,"time":0,"station_id":"MRI","station_name":"Manggarai","line":2,"distance":0},{"distance":1590,"transit":false,"i_lat":-6.198556,"i_long":106.840169,"line":2,"station_id":"CKI","is_transit":false,"time":4,"station_name":"Cikini"},{"station_name":"Gondangdia","is_transit":false,"time":3,"transit":false,"distance":1750,"station_id":"GDD","i_lat":-6.186295,"i_long":106.832183,"line":2},{"i_lat":-6.166716,"transit":false,"time":4,"line":2,"station_name":"Juanda","is_transit":false,"distance":2015,"i_long":106.828284,"station_id":"JUA"},{"is_transit":false,"i_lat":-6.160725,"distance":1149,"station_id":"SW","line":2,"transit":false,"time":2,"i_long":106.827103,"station_name":"Sawah Besar"},{"distance":906,"station_name":"Manggabesar","i_lat":-6.149769,"time":2,"i_long":106.82482,"line":2,"is_transit":false,"station_id":"MGB","transit":false},{"time":2,"distance":1080,"i_long":106.820901,"is_transit":false,"station_id":"JAY","i_lat":-6.141205,"line":2,"station_name":"Jayakarta","transit":false},{"station_name":"Jakarta Kota","time":4,"distance":1264,"i_long":106.812439,"i_lat":-6.137569,"transit":true,"line":2,"is_transit":true,"station_id":"JAKK"},{"i_lat":-6.132549,"i_long":106.826365,"station_name":"Kampung Bandan","transit":true,"is_transit":true,"distance":1364,"line":4,"time":3,"station_id":"KPB"},{"line":11,"i_lat":-6.14505,"i_long":106.836569,"is_transit":false,"time":3,"distance":1444,"station_id":"RJW","station_name":"Rajawali","transit":false},{"station_name":"Kemayoran","line":11,"i_lat":-6.161728,"is_transit":false,"transit":false,"distance":1901,"station_id":"KMO","i_long":106.839204,"time":5},{"i_lat":-6.174784,"station_id":"PSE","station_name":"Pasar Senen","is_transit":false,"distance":1436,"transit":false,"time":4,"i_long":106.84368,"line":11},{"i_lat":-6.185975,"distance":1567,"transit":false,"i_long":106.850107,"line":11,"is_transit":false,"station_id":"GST","time":8,"station_name":"Gang Sentiong"},{"is_transit":false,"time":1,"station_id":"KMT","station_name":"Kramat","transit":false,"distance":973,"i_lat":-6.193792,"line":11,"i_long":106.855437},{"transit":false,"is_transit":false,"i_long":106.861737,"distance":1829,"i_lat":-6.209188,"time":2,"station_id":"POK","line":11,"station_name":"Pondok Jati"},{"is_transit":true,"distance":1236,"transit":true,"i_long":106.86807400000001,"line":1,"time":9,"station_id":"JNG","station_name":"Jatinegara","i_lat":-6.215091},{"station_name":"Klender","transit":false,"station_id":"KLD","i_lat":-6.2135,"line":1,"i_long":106.899548,"distance":3395,"time":3,"is_transit":false},{"line":1,"distance":3100,"station_id":"BUA","i_long":106.922662,"transit":false,"is_transit":false,"i_lat":-6.215568,"time":2,"station_name":"Buaran"},{"time":1,"line":1,"distance":1305,"station_name":"Klenderbaru","station_id":"KLDB","i_lat":-6.217455,"is_transit":false,"transit":false,"i_long":106.939679},{"time":8,"line":1,"station_id":"CUK","is_transit":false,"i_lat":-6.219053,"i_long":106.951283,"transit":false,"distance":1385,"station_name":"Cakung"},{"i_long":106.977657,"station_name":"Kranji","i_lat":-6.224515,"station_id":"KRI","time":3,"is_transit":false,"transit":false,"distance":3097,"line":1},{"station_name":"Bekasi","i_lat":-6.236616,"line":1,"i_long":106.997013,"distance":2520,"time":4,"transit":false,"station_id":"BKS","is_transit":false}]]}