{"data":[[{"distance":0,"line":0,"is_transit":true,"time":0,"transit":false,"i_lat":-6.209883,"i_long":106.84912,"station_id":"MRI","station_name":"Manggarai"},{"station_name":"Matraman","station_id":"MTR","i_long":106.858896,"line":1,"time":2,"distance":1275,"transit":false,"i_lat":-6.212485,"is_transit":false},{"station_name":"Jatinegara","station_id":"JNG","time":8,"i_lat":-6.215091,"is_transit":true,"transit":false,"i_long":106.86807400000001,"line":0,"distance":1377},{"i_long":106.899548,"station_name":"Klender","station_id":"KLD","distance":3395,"time":3,"i_lat":-6.2135,"line":1,"is_transit":false,"transit":false}],[{"time":0,"station_id":"MRI","i_long":106.84912,"i_lat":-6.209883,"is_transit":true,"distance":0,"transit":false,"line":0,"station_name":"Manggarai"},{"time":4,"distance":3186,"is_transit":false,"station_id":"SUD","i_lat":-6.202263,"i_long":106.822649,"transit":false,"station_name":"Sudirman","line":1},{"is_transit":false,"transit":false,"station_id":"SUDB","time":1,"distance":280,"station_name":"Sudirman Baru","i_lat":-6.201433,"line":1,"i_long":106.819881},{"station_id":"KAT","i_long":106.816351,"line":1,"station_name":"Karet","i_lat":-6.20132,"transit":false,"is_transit":false,"time":1,"distance":471},{"i_lat":-6.185545,"line":1,"station_name":"Tanah Abang","time":5,"distance":2029,"i_long":106.811091,"station_id":"THB","transit":false,"is_transit":true},{"line":1,"station_id":"DU","i_long":106.800832,"i_lat":-6.155215,"station_name":"Duri","is_transit":true,"time":8,"distance":3632,"transit":true},{"transit":false,"station_id":"AK","distance":1230,"station_name":"Angke","line":0,"time":4,"is_transit":false,"i_lat":-6.144674,"i_long":106.79867},{"time":9,"i_long":106.826365,"line":0,"transit":true,"i_lat":-6.132549,"station_name":"Kampung Bandan","station_id":"KPB","is_transit":true,"distance":4102},{"i_long":106.836569,"distance":1444,"station_name":"Rajawali","station_id":"RJW","is_transit":false,"time":3,"transit":false,"i_lat":-6.14505,"line":11},{"transit":false,"i_lat":-6.161728,"line":11,"station_id":"KMO","station_name":"Kemayoran","is_transit":false,"time":5,"distance":1901,"i_long":106.839204},{"distance":1436,"time":4,"is_transit":false,"station_id":"PSE","station_name":"Pasar Senen","i_lat":-6.174784,"i_long":106.84368,"transit":false,"line":11},{"i_long":106.850107,"time":8,"i_lat":-6.185975,"station_id":"GST","station_name":"Gang Sentiong","line":11,"distance":1567,"transit":false,"is_transit":false},{"i_lat":-6.193792,"transit":false,"station_name":"Kramat","time":1,"i_long":106.855437,"line":11,"is_transit":false,"station_id":"KMT","distance":973},{"i_long":106.861737,"station_name":"Pondok Jati","line":11,"time":2,"distance":1829,"transit":false,"station_id":"POK","i_lat":-6.209188,"is_transit":false},{"station_id":"JNG","time":9,"distance":1236,"station_name":"Jatinegara","transit":true,"i_lat":-6.215091,"i_long":106.86807400000001,"is_transit":true,"line":0},{"is_transit":false,"station_id":"KLD","i_long":106.899548,"line":1,"time":3,"transit":false,"distance":3395,"i_lat":-6.2135,"station_name":"Klender"}],[{"i_long":106.84912,"transit":false,"station_name":"Manggarai","is_transit":true,"station_id":"MRI","i_lat":-6.209883,"line":0,"time":0,"distance":0},{"line":0,"station_id":"CKI","station_name":"Cikini","is_transit":false,"transit":false,"i_lat":-6.198556,"i_long":106.840169,"time":4,"distance":1590},{"distance":1750,"i_long":106.832183,"station_id":"GDD","time":3,"station_name":"Gondangdia","is_transit":false,"i_lat":-6.186295,"line":2,"transit":false},{"line":2,"i_long":106.828284,"station_name":"Juanda","i_lat":-6.166716,"distance":2015,"is_transit":false,"time":4,"station_id":"JUA","transit":false},{"line":2,"distance":1149,"station_id":"SW","i_lat":-6.160725,"station_name":"Sawah Besar","is_transit":false,"i_long":106.827103,"time":2,"transit":false},{"line":2,"station_id":"MGB","i_lat":-6.149769,"distance":906,"i_long":106.82482,"is_transit":false,"transit":false,"time":2,"station_name":"Manggabesar"},{"station_name":"Jayakarta","line":7,"distance":1080,"is_transit":false,"station_id":"JAY","time":2,"transit":false,"i_lat":-6.141205,"i_long":106.820901},{"i_lat":-6.137569,"i_long":106.812439,"station_id":"JAKK","time":4,"line":0,"distance":1264,"is_transit":true,"transit":true,"station_name":"Jakarta Kota"},{"line":0,"i_long":106.826365,"time":3,"transit":true,"station_id":"KPB","distance":1364,"is_transit":true,"station_name":"Kampung Bandan","i_lat":-6.132549},{"station_id":"RJW","transit":false,"line":11,"station_name":"Rajawali","distance":1444,"time":3,"i_lat":-6.14505,"is_transit":false,"i_long":106.836569},{"i_long":106.839204,"distance":1901,"time":5,"station_id":"KMO","i_lat":-6.161728,"station_name":"Kemayoran","transit":false,"line":11,"is_transit":false},{"is_transit":false,"station_name":"Pasar Senen","time":4,"distance":1436,"transit":false,"station_id":"PSE","i_lat":-6.174784,"line":11,"i_long":106.84368},{"i_lat":-6.185975,"station_name":"Gang Sentiong","is_transit":false,"station_id":"GST","transit":false,"line":11,"i_long":106.850107,"time":8,"distance":1567},{"station_id":"KMT","station_name":"Kramat","i_long":106.855437,"line":11,"i_lat":-6.193792,"distance":973,"time":1,"transit":false,"is_transit":false},{"is_transit":false,"station_name":"Pondok Jati","i_lat":-6.209188,"i_long":106.861737,"time":2,"transit":false,"station_id":"POK","distance":1829,"line":11},{"station_name":"Jatinegara","line":0,"is_transit":true,"transit":true,"i_lat":-6.215091,"station_id":"JNG","time":9,"distance":1236,"i_long":106.86807400000001},{"station_id":"KLD","line":1,"i_lat":-6.2135,"i_long":106.899548,"time":3,"is_transit":false,"transit":false,"station_name":"Klender","distance":3395}]]}