{"data":[[{"station_name":"Manggarai","distance":0,"transit":false,"i_long":106.84912,"time":0,"station_id":"MRI","is_transit":false,"i_lat":-6.209883,"line":2},{"time":4,"line":1,"i_lat":-6.202263,"i_long":106.822649,"is_transit":false,"distance":3186,"station_id":"SUD","station_name":"Sudirman","transit":false},{"is_transit":false,"distance":280,"station_id":"SUDB","time":1,"i_lat":-6.201433,"i_long":106.819881,"transit":false,"station_name":"Sudirman Baru","line":1},{"station_id":"KAT","is_transit":false,"transit":false,"i_long":106.816351,"distance":471,"i_lat":-6.20132,"time":1,"station_name":"Karet","line":1},{"i_lat":-6.185545,"station_id":"THB","i_long":106.811091,"line":1,"is_transit":true,"station_name":"Tanah Abang","distance":2029,"time":5,"transit":true},{"station_name":"Palmerah","is_transit":false,"time":6,"distance":3191,"station_id":"PLM","transit":false,"i_lat":-6.207404,"i_long":106.79689,"line":6},{"distance":3737,"is_transit":false,"station_id":"KBY","i_long":106.780334,"station_name":"Kebayoran","time":7,"transit":false,"i_lat":-6.237242,"line":6},{"i_long":106.74273,"is_transit":false,"i_lat":-6.276362,"time":8,"line":6,"transit":false,"station_id":"PDJ","station_name":"Pondokranji","distance":6218},{"line":6,"i_lat":-6.288927,"distance":2179,"i_long":106.728916,"time":3,"transit":false,"is_transit":false,"station_id":"JMU","station_name":"Jurangmangu"}],[{"time":0,"station_name":"Manggarai","i_long":106.84912,"station_id":"MRI","i_lat":-6.209883,"is_transit":false,"transit":false,"line":2,"distance":0},{"time":4,"i_lat":-6.198556,"is_transit":false,"station_id":"CKI","distance":1590,"station_name":"Cikini","line":2,"transit":false,"i_long":106.840169},{"line":2,"time":3,"i_lat":-6.186295,"station_id":"GDD","station_name":"Gondangdia","i_long":106.832183,"distance":1750,"is_transit":false,"transit":false},{"line":2,"i_lat":-6.166716,"station_id":"JUA","i_long":106.828284,"time":4,"transit":false,"is_transit":false,"distance":2015,"station_name":"Juanda"},{"station_id":"SW","i_lat":-6.160725,"time":2,"i_long":106.827103,"distance":1149,"is_transit":false,"line":2,"transit":false,"station_name":"Sawah Besar"},{"distance":906,"time":2,"station_id":"MGB","i_lat":-6.149769,"i_long":106.82482,"station_name":"Manggabesar","line":2,"transit":false,"is_transit":false},{"station_name":"Jayakarta","time":2,"is_transit":false,"station_id":"JAY","transit":false,"i_lat":-6.141205,"line":2,"i_long":106.820901,"distance":1080},{"is_transit":true,"i_lat":-6.137569,"distance":1264,"line":2,"i_long":106.812439,"time":4,"station_id":"JAKK","station_name":"Jakarta Kota","transit":true},{"station_name":"Kampung Bandan","time":3,"transit":true,"i_long":106.826365,"line":4,"i_lat":-6.132549,"is_transit":true,"station_id":"KPB","distance":1364},{"line":1,"station_name":"Angke","time":9,"transit":false,"i_long":106.79867,"is_transit":false,"distance":4102,"i_lat":-6.144674,"station_id":"AK"},{"distance":1230,"is_transit":false,"i_lat":-6.155215,"transit":false,"i_long":106.800832,"line":1,"station_name":"Duri","time":4,"station_id":"DU"},{"distance":3632,"i_long":106.811091,"station_name":"Tanah Abang","time":8,"station_id":"THB","transit":true,"line":1,"i_lat":-6.185545,"is_transit":true},{"i_long":106.79689,"time":6,"transit":false,"station_name":"Palmerah","is_transit":false,"distance":3191,"line":6,"i_lat":-6.207404,"station_id":"PLM"},{"is_transit":false,"transit":false,"time":7,"line":6,"station_id":"KBY","station_name":"Kebayoran","distance":3737,"i_lat":-6.237242,"i_long":106.780334},{"station_name":"Pondokranji","i_lat":-6.276362,"line":6,"distance":6218,"is_transit":false,"transit":false,"time":8,"station_id":"PDJ","i_long":106.74273},{"station_id":"JMU","is_transit":false,"i_lat":-6.288927,"transit":false,"time":3,"station_name":"Jurangmangu","distance":2179,"line":6,"i_long":106.728916}],[{"station_id":"MRI","i_long":106.84912,"time":0,"i_lat":-6.209883,"station_name":"Manggarai","is_transit":false,"transit":false,"line":2,"distance":0},{"station_id":"MTR","distance":1275,"line":1,"transit":false,"i_lat":-6.212485,"is_transit":false,"station_name":"Matraman","i_long":106.858896,"time":2},{"transit":true,"i_long":106.86807400000001,"distance":1377,"i_lat":-6.215091,"station_id":"JNG","is_transit":true,"station_name":"Jatinegara","line":1,"time":8},{"station_name":"Pondok Jati","time":2,"i_lat":-6.209188,"station_id":"POK","distance":1236,"transit":false,"is_transit":false,"i_long":106.861737,"line":11},{"is_transit":false,"station_name":"Kramat","time":2,"station_id":"KMT","line":11,"transit":false,"i_lat":-6.193792,"distance":1829,"i_long":106.855437},{"distance":973,"is_transit":false,"line":11,"station_name":"Gang Sentiong","time":1,"i_long":106.850107,"station_id":"GST","transit":false,"i_lat":-6.185975},{"i_long":106.84368,"transit":false,"is_transit":false,"time":8,"line":11,"station_id":"PSE","distance":1567,"i_lat":-6.174784,"station_name":"Pasar Senen"},{"transit":false,"is_transit":false,"i_lat":-6.161728,"time":4,"line":11,"station_name":"Kemayoran","station_id":"KMO","i_long":106.839204,"distance":1436},{"distance":1901,"i_long":106.836569,"station_id":"RJW","time":5,"station_name":"Rajawali","transit":false,"line":11,"is_transit":false,"i_lat":-6.14505},{"station_name":"Kampung Bandan","i_long":106.826365,"station_id":"KPB","line":4,"i_lat":-6.132549,"is_transit":true,"time":3,"distance":1444,"transit":true},{"transit":false,"station_name":"Angke","distance":4102,"station_id":"AK","is_transit":false,"line":1,"i_long":106.79867,"i_lat":-6.144674,"time":9},{"station_name":"Duri","time":4,"station_id":"DU","i_long":106.800832,"i_lat":-6.155215,"line":1,"distance":1230,"transit":false,"is_transit":false},{"distance":3632,"transit":true,"i_lat":-6.185545,"line":1,"is_transit":true,"station_name":"Tanah Abang","time":8,"station_id":"THB","i_long":106.811091},{"distance":3191,"is_transit":false,"station_name":"Palmerah","transit":false,"i_lat":-6.207404,"station_id":"PLM","line":6,"i_long":106.79689,"time":6},{"station_name":"Kebayoran","time":7,"distance":3737,"line":6,"i_long":106.780334,"i_lat":-6.237242,"is_transit":false,"transit":false,"station_id":"KBY"},{"station_name":"Pondokranji","station_id":"PDJ","time":8,"i_lat":-6.276362,"i_long":106.74273,"line":6,"distance":6218,"is_transit":false,"transit":false},{"i_long":106.728916,"is_transit":false,"line":6,"transit":false,"station_id":"JMU","distance":2179,"i_lat":-6.288927,"time":3,"station_name":"Jurangmangu"}]]}