{"data":[[{"transit":false,"i_long":106.84912,"station_name":"Manggarai","line":0,"station_id":"MRI","time":0,"distance":0,"i_lat":-6.209883,"is_transit":true},{"station_id":"TEB","i_lat":-6.226659,"station_name":"Tebet","is_transit":false,"time":4,"distance":2610,"transit":false,"i_long":106.857948,"line":2},{"distance":1230,"transit":false,"i_long":106.856607,"time":2,"i_lat":-6.242512,"line":0,"station_name":"Cawang","station_id":"CW","is_transit":false},{"time":3,"i_long":106.85449,"line":0,"transit":false,"station_id":"DRN","station_name":"Duren Kalibata","i_lat":-6.255332,"is_transit":false,"distance":1546},{"i_lat":-6.263214,"station_name":"Pasar Minggu Baru","time":2,"transit":false,"i_long":106.851577,"station_id":"PSMB","distance":824,"line":2,"is_transit":false},{"i_lat":-6.2842400000000005,"i_long":106.843999,"distance":2380,"is_transit":false,"line":2,"station_id":"PSM","time":2,"transit":false,"station_name":"Pasar Minggu"},{"i_long":106.838896,"time":4,"station_id":"TNT","transit":false,"station_name":"Tanjung Barat","distance":2820,"line":2,"is_transit":false,"i_lat":-6.3080680000000005},{"station_name":"Lenteng Agung","line":2,"distance":2671,"transit":false,"i_lat":-6.330363,"i_long":106.832616,"time":3,"is_transit":false,"station_id":"LNA"},{"time":2,"line":2,"i_long":106.834175,"distance":1029,"transit":false,"is_transit":false,"i_lat":-6.339291,"station_id":"UP","station_name":"Univ. Pancasila"},{"transit":false,"station_id":"UI","is_transit":false,"time":3,"i_long":106.831474,"distance":2264,"line":2,"station_name":"Univ. Indonesia","i_lat":-6.360749},{"is_transit":false,"i_lat":-6.369073,"station_id":"POC","station_name":"Pondok Cina","time":2,"distance":1109,"i_long":106.831114,"line":2,"transit":false},{"station_name":"Depokbaru","time":4,"station_id":"DPB","line":0,"distance":2727,"i_long":106.819451,"is_transit":false,"transit":false,"i_lat":-6.391065},{"station_id":"DP","station_name":"Depok","i_long":106.816926,"transit":false,"i_lat":-6.405256,"time":3,"distance":1584,"is_transit":false,"line":0},{"is_transit":true,"time":6,"distance":5084,"transit":false,"i_long":106.800298,"line":1,"i_lat":-6.448811,"station_id":"CTA","station_name":"Citayam"},{"transit":false,"distance":5197,"line":0,"i_lat":-6.493243,"station_id":"BJD","station_name":"Bojonggede","i_long":106.792719,"is_transit":false,"time":5},{"time":5,"station_id":"CLT","distance":4331,"transit":false,"i_lat":-6.530544,"station_name":"Cilebut","i_long":106.800016,"line":0,"is_transit":false},{"time":9,"transit":false,"line":1,"station_id":"BOO","station_name":"Bogor","distance":7514,"i_lat":-6.594596,"i_long":106.790574,"is_transit":true}]]}