{"data":[[{"distance":0,"station_name":"Manggarai","time":0,"is_transit":false,"i_long":106.84912,"transit":false,"i_lat":-6.209883,"line":2,"station_id":"MRI"},{"time":4,"i_lat":-6.202263,"station_name":"Sudirman","transit":false,"line":1,"is_transit":false,"distance":3186,"station_id":"SUD","i_long":106.822649},{"station_id":"SUDB","line":1,"station_name":"Sudirman Baru","is_transit":false,"i_lat":-6.201433,"i_long":106.819881,"time":1,"transit":false,"distance":280},{"line":1,"i_long":106.816351,"station_id":"KAT","station_name":"Karet","distance":471,"is_transit":false,"time":1,"transit":false,"i_lat":-6.20132},{"station_id":"THB","i_lat":-6.185545,"time":5,"i_long":106.811091,"is_transit":false,"transit":false,"distance":2029,"line":1,"station_name":"Tanah Abang"},{"time":8,"i_lat":-6.155215,"line":1,"is_transit":false,"station_name":"Duri","transit":false,"distance":3632,"station_id":"DU","i_long":106.800832}],[{"line":2,"station_id":"MRI","distance":0,"is_transit":false,"transit":false,"i_lat":-6.209883,"time":0,"station_name":"Manggarai","i_long":106.84912},{"station_name":"Cikini","time":4,"is_transit":false,"transit":false,"i_lat":-6.198556,"station_id":"CKI","i_long":106.840169,"distance":1590,"line":2},{"station_name":"Gondangdia","distance":1750,"station_id":"GDD","line":2,"transit":false,"i_long":106.832183,"is_transit":false,"i_lat":-6.186295,"time":3},{"time":4,"line":2,"transit":false,"i_long":106.828284,"distance":2015,"station_id":"JUA","i_lat":-6.166716,"is_transit":false,"station_name":"Juanda"},{"i_long":106.827103,"distance":1149,"is_transit":false,"line":2,"i_lat":-6.160725,"station_id":"SW","time":2,"station_name":"Sawah Besar","transit":false},{"transit":false,"distance":906,"line":2,"is_transit":false,"time":2,"station_id":"MGB","station_name":"Manggabesar","i_lat":-6.149769,"i_long":106.82482},{"is_transit":false,"time":2,"transit":false,"i_long":106.820901,"distance":1080,"station_id":"JAY","i_lat":-6.141205,"station_name":"Jayakarta","line":2},{"is_transit":true,"station_name":"Jakarta Kota","distance":1264,"station_id":"JAKK","i_long":106.812439,"i_lat":-6.137569,"transit":true,"time":4,"line":2},{"time":3,"line":4,"is_transit":true,"i_lat":-6.132549,"distance":1364,"station_id":"KPB","transit":true,"station_name":"Kampung Bandan","i_long":106.826365},{"time":9,"station_id":"AK","i_lat":-6.144674,"station_name":"Angke","distance":4102,"is_transit":false,"transit":false,"i_long":106.79867,"line":1},{"transit":false,"time":4,"i_lat":-6.155215,"station_id":"DU","line":1,"is_transit":false,"station_name":"Duri","distance":1230,"i_long":106.800832}],[{"station_name":"Manggarai","time":0,"i_long":106.84912,"station_id":"MRI","i_lat":-6.209883,"line":2,"distance":0,"is_transit":false,"transit":false},{"i_long":106.858896,"time":2,"i_lat":-6.212485,"station_id":"MTR","line":1,"station_name":"Matraman","is_transit":false,"transit":false,"distance":1275},{"distance":1377,"line":1,"i_long":106.86807400000001,"transit":true,"time":8,"station_id":"JNG","is_transit":true,"i_lat":-6.215091,"station_name":"Jatinegara"},{"is_transit":false,"station_name":"Pondok Jati","distance":1236,"i_long":106.861737,"time":2,"station_id":"POK","transit":false,"i_lat":-6.209188,"line":11},{"station_name":"Kramat","distance":1829,"is_transit":false,"i_lat":-6.193792,"time":2,"i_long":106.855437,"line":11,"transit":false,"station_id":"KMT"},{"i_lat":-6.185975,"line":11,"station_id":"GST","station_name":"Gang Sentiong","distance":973,"transit":false,"is_transit":false,"time":1,"i_long":106.850107},{"time":8,"is_transit":false,"transit":false,"distance":1567,"station_id":"PSE","station_name":"Pasar Senen","i_lat":-6.174784,"i_long":106.84368,"line":11},{"time":4,"line":11,"station_name":"Kemayoran","is_transit":false,"station_id":"KMO","i_lat":-6.161728,"transit":false,"i_long":106.839204,"distance":1436},{"transit":false,"station_name":"Rajawali","line":11,"time":5,"station_id":"RJW","is_transit":false,"i_lat":-6.14505,"i_long":106.836569,"distance":1901},{"station_id":"KPB","transit":true,"time":3,"i_long":106.826365,"distance":1444,"i_lat":-6.132549,"line":4,"is_transit":true,"station_name":"Kampung Bandan"},{"distance":4102,"time":9,"station_id":"AK","i_long":106.79867,"station_name":"Angke","line":1,"i_lat":-6.144674,"transit":false,"is_transit":false},{"station_name":"Duri","distance":1230,"time":4,"line":1,"is_transit":false,"station_id":"DU","i_long":106.800832,"transit":false,"i_lat":-6.155215}]]}