{"data":[[{"i_long":106.84912,"distance":0,"is_transit":false,"station_name":"Manggarai","transit":false,"station_id":"MRI","line":2,"time":0,"i_lat":-6.209883},{"line":1,"station_name":"Sudirman","is_transit":false,"time":4,"transit":false,"i_lat":-6.202263,"i_long":106.822649,"distance":3186,"station_id":"SUD"},{"station_id":"SUDB","is_transit":false,"transit":false,"i_long":106.819881,"distance":280,"time":1,"line":1,"station_name":"Sudirman Baru","i_lat":-6.201433},{"transit":false,"time":1,"line":1,"i_lat":-6.20132,"i_long":106.816351,"distance":471,"station_id":"KAT","station_name":"Karet","is_transit":false},{"i_lat":-6.185545,"time":5,"transit":false,"distance":2029,"station_name":"Tanah Abang","is_transit":false,"i_long":106.811091,"station_id":"THB","line":1},{"time":8,"line":1,"i_long":106.800832,"transit":true,"distance":3632,"station_id":"DU","i_lat":-6.155215,"is_transit":true,"station_name":"Duri"},{"line":5,"station_name":"Grogol","station_id":"GGL","i_lat":-6.162021,"i_long":106.788277,"distance":1700,"is_transit":false,"transit":false,"time":3},{"i_long":106.771379,"station_id":"PSG","line":5,"distance":2036,"time":2,"transit":false,"i_lat":-6.161433,"is_transit":false,"station_name":"Pesing"},{"i_long":106.756522,"transit":false,"time":2,"station_name":"Taman Kota","station_id":"TKO","i_lat":-6.1587309999999995,"line":5,"distance":1614,"is_transit":false},{"time":2,"distance":2334,"i_long":106.737035,"station_name":"Bojongindah","transit":false,"i_lat":-6.159876,"is_transit":false,"line":5,"station_id":"BOI"},{"line":5,"station_name":"Rawa Buaya","is_transit":false,"time":4,"station_id":"RW","distance":1152,"transit":false,"i_long":106.723064,"i_lat":-6.162758},{"time":3,"i_long":106.701612,"line":5,"is_transit":false,"transit":false,"station_id":"KDS","i_lat":-6.166068,"station_name":"Kalideres","distance":2504},{"time":3,"station_id":"PI","i_lat":-6.169933,"station_name":"Poris","transit":false,"i_long":106.679458,"line":5,"is_transit":false,"distance":2548},{"line":5,"station_id":"BPR","distance":1834,"i_lat":-6.171811,"is_transit":false,"i_long":106.665036,"station_name":"Batuceper","transit":false,"time":3},{"line":5,"station_id":"TTI","station_name":"Tanah Tinggi","is_transit":false,"time":3,"distance":2028,"transit":false,"i_long":106.64657,"i_lat":-6.17331},{"station_name":"Tangerang","i_long":106.632761,"transit":false,"line":5,"distance":1547,"station_id":"TNG","time":3,"i_lat":-6.176583,"is_transit":false}],[{"station_name":"Manggarai","line":2,"i_long":106.84912,"transit":false,"is_transit":false,"i_lat":-6.209883,"distance":0,"station_id":"MRI","time":0},{"station_id":"CKI","line":2,"distance":1590,"transit":false,"i_lat":-6.198556,"station_name":"Cikini","is_transit":false,"i_long":106.840169,"time":4},{"i_lat":-6.186295,"is_transit":false,"transit":false,"i_long":106.832183,"time":3,"station_id":"GDD","line":2,"distance":1750,"station_name":"Gondangdia"},{"station_id":"JUA","station_name":"Juanda","is_transit":false,"transit":false,"line":2,"distance":2015,"i_lat":-6.166716,"i_long":106.828284,"time":4},{"time":2,"distance":1149,"station_name":"Sawah Besar","is_transit":false,"i_lat":-6.160725,"transit":false,"i_long":106.827103,"station_id":"SW","line":2},{"transit":false,"station_id":"MGB","time":2,"is_transit":false,"i_lat":-6.149769,"distance":906,"line":2,"i_long":106.82482,"station_name":"Manggabesar"},{"station_name":"Jayakarta","i_lat":-6.141205,"line":2,"station_id":"JAY","time":2,"is_transit":false,"i_long":106.820901,"transit":false,"distance":1080},{"station_id":"JAKK","distance":1264,"station_name":"Jakarta Kota","line":2,"i_long":106.812439,"time":4,"is_transit":true,"transit":true,"i_lat":-6.137569},{"i_lat":-6.132549,"distance":1364,"i_long":106.826365,"station_id":"KPB","line":4,"time":3,"is_transit":true,"station_name":"Kampung Bandan","transit":true},{"line":1,"distance":4102,"station_name":"Angke","i_lat":-6.144674,"is_transit":false,"time":9,"i_long":106.79867,"station_id":"AK","transit":false},{"i_long":106.800832,"station_name":"Duri","station_id":"DU","line":1,"transit":true,"i_lat":-6.155215,"distance":1230,"time":4,"is_transit":true},{"transit":false,"i_long":106.788277,"i_lat":-6.162021,"station_id":"GGL","time":3,"station_name":"Grogol","distance":1700,"is_transit":false,"line":5},{"transit":false,"distance":2036,"station_name":"Pesing","is_transit":false,"line":5,"station_id":"PSG","time":2,"i_long":106.771379,"i_lat":-6.161433},{"is_transit":false,"i_lat":-6.1587309999999995,"distance":1614,"transit":false,"line":5,"i_long":106.756522,"time":2,"station_id":"TKO","station_name":"Taman Kota"},{"station_name":"Bojongindah","is_transit":false,"i_lat":-6.159876,"distance":2334,"transit":false,"time":2,"station_id":"BOI","i_long":106.737035,"line":5},{"i_long":106.723064,"station_name":"Rawa Buaya","distance":1152,"time":4,"is_transit":false,"transit":false,"station_id":"RW","i_lat":-6.162758,"line":5},{"station_id":"KDS","is_transit":false,"transit":false,"i_long":106.701612,"line":5,"station_name":"Kalideres","i_lat":-6.166068,"time":3,"distance":2504},{"station_name":"Poris","time":3,"distance":2548,"i_lat":-6.169933,"station_id":"PI","line":5,"transit":false,"is_transit":false,"i_long":106.679458},{"distance":1834,"line":5,"station_id":"BPR","i_long":106.665036,"time":3,"i_lat":-6.171811,"transit":false,"station_name":"Batuceper","is_transit":false},{"transit":false,"time":3,"i_long":106.64657,"station_id":"TTI","distance":2028,"station_name":"Tanah Tinggi","line":5,"i_lat":-6.17331,"is_transit":false},{"line":5,"time":3,"is_transit":false,"i_lat":-6.176583,"distance":1547,"transit":false,"i_long":106.632761,"station_id":"TNG","station_name":"Tangerang"}],[{"transit":false,"i_long":106.84912,"station_name":"Manggarai","is_transit":false,"distance":0,"station_id":"MRI","i_lat":-6.209883,"time":0,"line":2},{"time":2,"i_long":106.858896,"line":1,"is_transit":false,"station_name":"Matraman","transit":false,"station_id":"MTR","i_lat":-6.212485,"distance":1275},{"i_lat":-6.215091,"transit":true,"i_long":106.86807400000001,"time":8,"line":1,"distance":1377,"is_transit":true,"station_id":"JNG","station_name":"Jatinegara"},{"station_name":"Pondok Jati","i_lat":-6.209188,"line":11,"station_id":"POK","time":2,"transit":false,"i_long":106.861737,"is_transit":false,"distance":1236},{"transit":false,"station_id":"KMT","station_name":"Kramat","time":2,"i_lat":-6.193792,"i_long":106.855437,"is_transit":false,"line":11,"distance":1829},{"is_transit":false,"station_id":"GST","time":1,"station_name":"Gang Sentiong","distance":973,"i_lat":-6.185975,"i_long":106.850107,"line":11,"transit":false},{"station_id":"PSE","i_long":106.84368,"distance":1567,"i_lat":-6.174784,"line":11,"is_transit":false,"transit":false,"station_name":"Pasar Senen","time":8},{"time":4,"station_name":"Kemayoran","transit":false,"i_lat":-6.161728,"distance":1436,"station_id":"KMO","i_long":106.839204,"line":11,"is_transit":false},{"line":11,"time":5,"is_transit":false,"transit":false,"station_id":"RJW","i_long":106.836569,"i_lat":-6.14505,"station_name":"Rajawali","distance":1901},{"i_lat":-6.132549,"line":4,"distance":1444,"station_id":"KPB","i_long":106.826365,"is_transit":true,"time":3,"transit":true,"station_name":"Kampung Bandan"},{"station_id":"AK","i_long":106.79867,"is_transit":false,"distance":4102,"transit":false,"line":1,"station_name":"Angke","time":9,"i_lat":-6.144674},{"is_transit":true,"time":4,"transit":true,"i_long":106.800832,"station_id":"DU","line":1,"station_name":"Duri","i_lat":-6.155215,"distance":1230},{"transit":false,"station_name":"Grogol","i_lat":-6.162021,"time":3,"line":5,"is_transit":false,"station_id":"GGL","distance":1700,"i_long":106.788277},{"is_transit":false,"distance":2036,"i_long":106.771379,"line":5,"time":2,"transit":false,"station_id":"PSG","station_name":"Pesing","i_lat":-6.161433},{"time":2,"station_name":"Taman Kota","transit":false,"station_id":"TKO","distance":1614,"i_long":106.756522,"line":5,"is_transit":false,"i_lat":-6.1587309999999995},{"is_transit":false,"transit":false,"station_name":"Bojongindah","station_id":"BOI","i_lat":-6.159876,"i_long":106.737035,"line":5,"distance":2334,"time":2},{"i_long":106.723064,"transit":false,"i_lat":-6.162758,"time":4,"is_transit":false,"station_name":"Rawa Buaya","line":5,"station_id":"RW","distance":1152},{"i_lat":-6.166068,"distance":2504,"is_transit":false,"i_long":106.701612,"station_name":"Kalideres","transit":false,"station_id":"KDS","line":5,"time":3},{"distance":2548,"i_long":106.679458,"time":3,"is_transit":false,"station_name":"Poris","transit":false,"line":5,"station_id":"PI","i_lat":-6.169933},{"distance":1834,"station_name":"Batuceper","station_id":"BPR","transit":false,"i_long":106.665036,"is_transit":false,"i_lat":-6.171811,"time":3,"line":5},{"i_long":106.64657,"time":3,"station_id":"TTI","station_name":"Tanah Tinggi","line":5,"distance":2028,"is_transit":false,"transit":false,"i_lat":-6.17331},{"distance":1547,"is_transit":false,"i_long":106.632761,"time":3,"transit":false,"station_name":"Tangerang","station_id":"TNG","i_lat":-6.176583,"line":5}]]}