{"data":[[{"station_name":"Manggarai","transit":false,"is_transit":false,"station_id":"MRI","i_long":106.84912,"time":0,"distance":0,"line":2,"i_lat":-6.209883},{"line":1,"transit":false,"station_id":"SUD","station_name":"Sudirman","time":4,"is_transit":false,"i_long":106.822649,"i_lat":-6.202263,"distance":3186},{"line":1,"station_name":"Sudirman Baru","station_id":"SUDB","is_transit":false,"distance":280,"i_long":106.819881,"time":1,"i_lat":-6.201433,"transit":false},{"line":1,"transit":false,"station_id":"KAT","station_name":"Karet","time":1,"is_transit":false,"distance":471,"i_lat":-6.20132,"i_long":106.816351},{"i_lat":-6.185545,"i_long":106.811091,"is_transit":true,"line":1,"transit":true,"station_name":"Tanah Abang","station_id":"THB","time":5,"distance":2029},{"transit":false,"time":6,"station_id":"PLM","i_lat":-6.207404,"line":6,"distance":3191,"station_name":"Palmerah","is_transit":false,"i_long":106.79689},{"station_id":"KBY","distance":3737,"transit":false,"i_long":106.780334,"i_lat":-6.237242,"station_name":"Kebayoran","line":6,"is_transit":false,"time":7},{"i_long":106.74273,"i_lat":-6.276362,"station_name":"Pondokranji","distance":6218,"line":6,"transit":false,"time":8,"station_id":"PDJ","is_transit":false},{"i_lat":-6.288927,"transit":false,"station_id":"JMU","is_transit":false,"i_long":106.728916,"station_name":"Jurangmangu","time":3,"line":6,"distance":2179},{"station_name":"Sudimara","is_transit":false,"i_long":106.712277,"i_lat":-6.296963,"station_id":"SDM","line":6,"transit":false,"time":4,"distance":1994},{"distance":4566,"time":6,"line":6,"is_transit":false,"transit":false,"station_id":"RU","station_name":"Rawa Buntu","i_lat":-6.314823,"i_long":106.675475},{"distance":2413,"transit":false,"station_name":"Serpong","station_id":"SRP","line":6,"is_transit":false,"i_lat":-6.319871,"i_long":106.66566,"time":4},{"time":4,"i_long":106.640411,"line":3,"distance":1784,"is_transit":false,"transit":false,"i_lat":-6.32484,"station_name":"Cisauk","station_id":"CSK"},{"station_name":"Cicayur","line":3,"is_transit":false,"transit":false,"distance":2519,"station_id":"CC","time":4,"i_long":106.617853,"i_lat":-6.329547},{"station_id":"PRP","distance":5968,"i_lat":-6.3441410000000005,"transit":false,"time":8,"line":6,"is_transit":false,"i_long":106.568863,"station_name":"Parung Panjang"},{"line":3,"transit":false,"station_id":"CJT","time":9,"i_lat":-6.354349,"is_transit":false,"i_long":106.508482,"distance":7025,"station_name":"Cilejit"},{"distance":2675,"i_lat":-6.338021,"time":6,"station_name":"Daru","line":0,"is_transit":false,"i_long":106.491338,"transit":false,"station_id":"DAR"}],[{"station_id":"MRI","is_transit":false,"transit":false,"i_lat":-6.209883,"i_long":106.84912,"line":2,"station_name":"Manggarai","distance":0,"time":0},{"station_name":"Cikini","i_lat":-6.198556,"i_long":106.840169,"is_transit":false,"distance":1590,"transit":false,"line":2,"station_id":"CKI","time":4},{"i_lat":-6.186295,"distance":1750,"line":2,"station_name":"Gondangdia","i_long":106.832183,"transit":false,"time":3,"station_id":"GDD","is_transit":false},{"station_id":"JUA","line":2,"i_long":106.828284,"i_lat":-6.166716,"time":4,"station_name":"Juanda","transit":false,"distance":2015,"is_transit":false},{"transit":false,"i_long":106.827103,"line":2,"time":2,"is_transit":false,"station_name":"Sawah Besar","distance":1149,"station_id":"SW","i_lat":-6.160725},{"time":2,"line":2,"i_long":106.82482,"i_lat":-6.149769,"station_name":"Manggabesar","transit":false,"distance":906,"station_id":"MGB","is_transit":false},{"station_id":"JAY","transit":false,"i_lat":-6.141205,"line":2,"station_name":"Jayakarta","is_transit":false,"time":2,"distance":1080,"i_long":106.820901},{"station_id":"JAKK","station_name":"Jakarta Kota","is_transit":true,"distance":1264,"transit":true,"line":2,"time":4,"i_lat":-6.137569,"i_long":106.812439},{"distance":1364,"transit":true,"time":3,"station_name":"Kampung Bandan","line":4,"i_lat":-6.132549,"station_id":"KPB","is_transit":true,"i_long":106.826365},{"transit":false,"is_transit":false,"distance":4102,"line":1,"i_lat":-6.144674,"station_id":"AK","station_name":"Angke","time":9,"i_long":106.79867},{"station_id":"DU","i_lat":-6.155215,"station_name":"Duri","time":4,"transit":false,"distance":1230,"i_long":106.800832,"is_transit":false,"line":1},{"station_name":"Tanah Abang","distance":3632,"time":8,"i_long":106.811091,"station_id":"THB","line":1,"transit":true,"is_transit":true,"i_lat":-6.185545},{"time":6,"transit":false,"i_lat":-6.207404,"station_name":"Palmerah","line":6,"is_transit":false,"distance":3191,"station_id":"PLM","i_long":106.79689},{"transit":false,"distance":3737,"station_id":"KBY","line":6,"station_name":"Kebayoran","i_long":106.780334,"time":7,"is_transit":false,"i_lat":-6.237242},{"is_transit":false,"transit":false,"distance":6218,"time":8,"i_lat":-6.276362,"i_long":106.74273,"station_id":"PDJ","line":6,"station_name":"Pondokranji"},{"i_long":106.728916,"station_name":"Jurangmangu","time":3,"transit":false,"distance":2179,"i_lat":-6.288927,"station_id":"JMU","line":6,"is_transit":false},{"is_transit":false,"i_lat":-6.296963,"i_long":106.712277,"transit":false,"station_id":"SDM","distance":1994,"time":4,"station_name":"Sudimara","line":6},{"station_name":"Rawa Buntu","station_id":"RU","line":6,"i_lat":-6.314823,"transit":false,"distance":4566,"is_transit":false,"time":6,"i_long":106.675475},{"station_name":"Serpong","transit":false,"station_id":"SRP","time":4,"i_lat":-6.319871,"distance":2413,"i_long":106.66566,"is_transit":false,"line":6},{"is_transit":false,"i_long":106.640411,"line":3,"transit":false,"distance":1784,"station_id":"CSK","station_name":"Cisauk","i_lat":-6.32484,"time":4},{"distance":2519,"i_lat":-6.329547,"i_long":106.617853,"time":4,"is_transit":false,"station_id":"CC","station_name":"Cicayur","transit":false,"line":3},{"is_transit":false,"distance":5968,"station_id":"PRP","time":8,"transit":false,"i_long":106.568863,"i_lat":-6.3441410000000005,"line":6,"station_name":"Parung Panjang"},{"is_transit":false,"station_id":"CJT","i_lat":-6.354349,"i_long":106.508482,"station_name":"Cilejit","transit":false,"time":9,"line":3,"distance":7025},{"transit":false,"station_name":"Daru","time":6,"line":0,"i_lat":-6.338021,"station_id":"DAR","distance":2675,"is_transit":false,"i_long":106.491338}],[{"transit":false,"is_transit":false,"station_name":"Manggarai","distance":0,"station_id":"MRI","time":0,"i_lat":-6.209883,"i_long":106.84912,"line":2},{"station_name":"Matraman","i_long":106.858896,"transit":false,"is_transit":false,"line":1,"time":2,"station_id":"MTR","i_lat":-6.212485,"distance":1275},{"line":1,"station_id":"JNG","station_name":"Jatinegara","time":8,"i_long":106.86807400000001,"i_lat":-6.215091,"is_transit":true,"transit":true,"distance":1377},{"i_lat":-6.209188,"i_long":106.861737,"distance":1236,"station_id":"POK","transit":false,"station_name":"Pondok Jati","is_transit":false,"time":2,"line":11},{"transit":false,"line":11,"station_id":"KMT","i_long":106.855437,"is_transit":false,"station_name":"Kramat","i_lat":-6.193792,"distance":1829,"time":2},{"distance":973,"station_id":"GST","transit":false,"station_name":"Gang Sentiong","time":1,"is_transit":false,"i_lat":-6.185975,"line":11,"i_long":106.850107},{"line":11,"station_name":"Pasar Senen","distance":1567,"station_id":"PSE","i_lat":-6.174784,"i_long":106.84368,"is_transit":false,"transit":false,"time":8},{"distance":1436,"is_transit":false,"station_name":"Kemayoran","transit":false,"time":4,"i_lat":-6.161728,"station_id":"KMO","line":11,"i_long":106.839204},{"is_transit":false,"time":5,"i_lat":-6.14505,"station_name":"Rajawali","i_long":106.836569,"line":11,"transit":false,"station_id":"RJW","distance":1901},{"is_transit":true,"station_name":"Kampung Bandan","distance":1444,"transit":true,"line":4,"i_lat":-6.132549,"station_id":"KPB","time":3,"i_long":106.826365},{"station_name":"Angke","time":9,"i_lat":-6.144674,"line":1,"station_id":"AK","is_transit":false,"i_long":106.79867,"transit":false,"distance":4102},{"i_lat":-6.155215,"i_long":106.800832,"is_transit":false,"line":1,"station_name":"Duri","distance":1230,"transit":false,"time":4,"station_id":"DU"},{"time":8,"station_name":"Tanah Abang","is_transit":true,"i_long":106.811091,"line":1,"transit":true,"station_id":"THB","i_lat":-6.185545,"distance":3632},{"is_transit":false,"line":6,"time":6,"station_id":"PLM","distance":3191,"station_name":"Palmerah","i_long":106.79689,"transit":false,"i_lat":-6.207404},{"is_transit":false,"transit":false,"i_long":106.780334,"time":7,"i_lat":-6.237242,"distance":3737,"line":6,"station_id":"KBY","station_name":"Kebayoran"},{"i_lat":-6.276362,"line":6,"transit":false,"i_long":106.74273,"station_name":"Pondokranji","distance":6218,"station_id":"PDJ","is_transit":false,"time":8},{"time":3,"line":6,"is_transit":false,"distance":2179,"station_name":"Jurangmangu","station_id":"JMU","i_lat":-6.288927,"i_long":106.728916,"transit":false},{"station_name":"Sudimara","station_id":"SDM","line":6,"i_long":106.712277,"transit":false,"distance":1994,"is_transit":false,"time":4,"i_lat":-6.296963},{"line":6,"i_long":106.675475,"station_name":"Rawa Buntu","transit":false,"time":6,"distance":4566,"station_id":"RU","is_transit":false,"i_lat":-6.314823},{"i_lat":-6.319871,"transit":false,"is_transit":false,"station_id":"SRP","i_long":106.66566,"line":6,"distance":2413,"station_name":"Serpong","time":4},{"i_long":106.640411,"distance":1784,"line":3,"station_name":"Cisauk","time":4,"station_id":"CSK","transit":false,"i_lat":-6.32484,"is_transit":false},{"transit":false,"station_name":"Cicayur","distance":2519,"station_id":"CC","i_lat":-6.329547,"time":4,"line":3,"is_transit":false,"i_long":106.617853},{"line":6,"transit":false,"station_id":"PRP","distance":5968,"time":8,"station_name":"Parung Panjang","i_lat":-6.3441410000000005,"i_long":106.568863,"is_transit":false},{"station_id":"CJT","station_name":"Cilejit","i_long":106.508482,"is_transit":false,"time":9,"i_lat":-6.354349,"line":3,"transit":false,"distance":7025},{"is_transit":false,"line":0,"distance":2675,"i_long":106.491338,"i_lat":-6.338021,"station_id":"DAR","station_name":"Daru","transit":false,"time":6}]]}