{"data":[[{"distance":0,"i_long":106.84912,"is_transit":false,"i_lat":-6.209883,"time":0,"line":2,"transit":false,"station_id":"MRI","station_name":"Manggarai"},{"station_name":"Tebet","is_transit":false,"station_id":"TEB","time":4,"i_long":106.857948,"line":2,"transit":false,"distance":2610,"i_lat":-6.226659},{"time":2,"is_transit":false,"i_long":106.856607,"line":2,"transit":false,"distance":1230,"station_id":"CW","i_lat":-6.242512,"station_name":"Cawang"},{"distance":1546,"station_name":"Duren Kalibata","is_transit":false,"time":3,"transit":false,"line":2,"station_id":"DRN","i_lat":-6.255332,"i_long":106.85449},{"distance":824,"i_lat":-6.263214,"time":2,"is_transit":false,"station_id":"PSMB","transit":false,"i_long":106.851577,"line":2,"station_name":"Pasar Minggu Baru"},{"station_name":"Pasar Minggu","transit":false,"is_transit":false,"station_id":"PSM","time":2,"distance":2380,"i_long":106.843999,"line":2,"i_lat":-6.2842400000000005},{"i_long":106.838896,"time":4,"station_id":"TNT","i_lat":-6.3080680000000005,"line":2,"transit":false,"station_name":"Tanjung Barat","is_transit":false,"distance":2820},{"time":3,"station_id":"LNA","station_name":"Lenteng Agung","transit":false,"i_lat":-6.330363,"distance":2671,"is_transit":false,"i_long":106.832616,"line":2}]]}