{"data":[[{"station_name":"Manggarai","distance":0,"time":0,"i_lat":-6.209883,"station_id":"MRI","is_transit":true,"transit":false,"line":0,"i_long":106.84912},{"station_id":"TEB","time":4,"transit":false,"station_name":"Tebet","is_transit":false,"line":2,"i_lat":-6.226659,"i_long":106.857948,"distance":2610},{"station_name":"Cawang","time":2,"station_id":"CW","transit":false,"i_lat":-6.242512,"line":0,"i_long":106.856607,"distance":1230,"is_transit":false},{"station_id":"DRN","transit":false,"time":3,"i_long":106.85449,"is_transit":false,"distance":1546,"i_lat":-6.255332,"station_name":"Duren Kalibata","line":0},{"station_name":"Pasar Minggu Baru","time":2,"transit":false,"station_id":"PSMB","is_transit":false,"i_lat":-6.263214,"i_long":106.851577,"distance":824,"line":2},{"time":2,"station_id":"PSM","is_transit":false,"i_lat":-6.2842400000000005,"transit":false,"distance":2380,"station_name":"Pasar Minggu","i_long":106.843999,"line":2},{"is_transit":false,"transit":false,"distance":2820,"i_lat":-6.3080680000000005,"line":2,"time":4,"i_long":106.838896,"station_name":"Tanjung Barat","station_id":"TNT"},{"i_lat":-6.330363,"is_transit":false,"station_id":"LNA","station_name":"Lenteng Agung","transit":false,"i_long":106.832616,"line":2,"distance":2671,"time":3},{"station_id":"UP","line":2,"transit":false,"i_long":106.834175,"distance":1029,"i_lat":-6.339291,"is_transit":false,"station_name":"Univ. Pancasila","time":2},{"time":3,"station_name":"Univ. Indonesia","distance":2264,"is_transit":false,"line":2,"transit":false,"i_long":106.831474,"i_lat":-6.360749,"station_id":"UI"}]]}