{"data":[[{"is_transit":false,"line":2,"station_name":"Manggarai","i_lat":-6.209883,"transit":false,"station_id":"MRI","i_long":106.84912,"time":0,"distance":0},{"line":1,"station_name":"Sudirman","is_transit":false,"station_id":"SUD","transit":false,"i_lat":-6.202263,"i_long":106.822649,"time":4,"distance":3186},{"station_id":"SUDB","i_lat":-6.201433,"distance":280,"transit":false,"time":1,"line":1,"is_transit":false,"station_name":"Sudirman Baru","i_long":106.819881},{"station_name":"Karet","time":1,"transit":false,"distance":471,"is_transit":false,"i_lat":-6.20132,"station_id":"KAT","line":1,"i_long":106.816351},{"station_name":"Tanah Abang","transit":false,"is_transit":false,"i_long":106.811091,"line":1,"i_lat":-6.185545,"station_id":"THB","distance":2029,"time":5},{"i_long":106.800832,"time":8,"station_name":"Duri","distance":3632,"line":1,"i_lat":-6.155215,"is_transit":true,"transit":true,"station_id":"DU"},{"station_id":"GGL","distance":1700,"time":3,"is_transit":false,"i_lat":-6.162021,"i_long":106.788277,"line":5,"station_name":"Grogol","transit":false},{"transit":false,"distance":2036,"i_lat":-6.161433,"time":2,"station_id":"PSG","station_name":"Pesing","is_transit":false,"i_long":106.771379,"line":5},{"is_transit":false,"time":2,"station_id":"TKO","line":5,"station_name":"Taman Kota","transit":false,"i_long":106.756522,"i_lat":-6.1587309999999995,"distance":1614},{"is_transit":false,"time":2,"transit":false,"line":5,"i_lat":-6.159876,"station_name":"Bojongindah","station_id":"BOI","distance":2334,"i_long":106.737035},{"i_lat":-6.162758,"i_long":106.723064,"time":4,"transit":false,"distance":1152,"line":5,"station_id":"RW","is_transit":false,"station_name":"Rawa Buaya"},{"transit":false,"i_long":106.701612,"station_name":"Kalideres","is_transit":false,"station_id":"KDS","time":3,"distance":2504,"line":5,"i_lat":-6.166068},{"transit":false,"station_name":"Poris","i_long":106.679458,"time":3,"is_transit":false,"line":5,"i_lat":-6.169933,"station_id":"PI","distance":2548},{"time":3,"transit":false,"line":5,"i_long":106.665036,"station_id":"BPR","is_transit":false,"distance":1834,"station_name":"Batuceper","i_lat":-6.171811},{"line":5,"transit":false,"station_id":"TTI","i_long":106.64657,"is_transit":false,"distance":2028,"time":3,"station_name":"Tanah Tinggi","i_lat":-6.17331},{"time":3,"i_lat":-6.176583,"station_name":"Tangerang","station_id":"TNG","distance":1547,"transit":false,"is_transit":false,"i_long":106.632761,"line":5}],[{"i_long":106.84912,"transit":false,"line":2,"station_id":"MRI","distance":0,"i_lat":-6.209883,"station_name":"Manggarai","time":0,"is_transit":false},{"line":2,"distance":1590,"is_transit":false,"i_lat":-6.198556,"transit":false,"i_long":106.840169,"station_name":"Cikini","time":4,"station_id":"CKI"},{"i_long":106.832183,"is_transit":false,"i_lat":-6.186295,"time":3,"station_name":"Gondangdia","line":2,"transit":false,"distance":1750,"station_id":"GDD"},{"time":4,"transit":false,"station_name":"Juanda","line":2,"distance":2015,"station_id":"JUA","is_transit":false,"i_long":106.828284,"i_lat":-6.166716},{"distance":1149,"station_name":"Sawah Besar","i_lat":-6.160725,"line":2,"time":2,"station_id":"SW","is_transit":false,"transit":false,"i_long":106.827103},{"i_long":106.82482,"time":2,"station_name":"Manggabesar","line":2,"transit":false,"is_transit":false,"station_id":"MGB","i_lat":-6.149769,"distance":906},{"station_name":"Jayakarta","time":2,"i_lat":-6.141205,"i_long":106.820901,"line":2,"transit":false,"is_transit":false,"distance":1080,"station_id":"JAY"},{"is_transit":true,"distance":1264,"i_lat":-6.137569,"station_id":"JAKK","line":2,"i_long":106.812439,"time":4,"station_name":"Jakarta Kota","transit":true},{"i_lat":-6.132549,"transit":true,"station_name":"Kampung Bandan","is_transit":true,"station_id":"KPB","i_long":106.826365,"distance":1364,"line":4,"time":3},{"transit":false,"line":1,"distance":4102,"is_transit":false,"station_id":"AK","time":9,"i_lat":-6.144674,"station_name":"Angke","i_long":106.79867},{"station_name":"Duri","i_long":106.800832,"station_id":"DU","transit":true,"is_transit":true,"distance":1230,"i_lat":-6.155215,"line":1,"time":4},{"transit":false,"distance":1700,"is_transit":false,"i_lat":-6.162021,"station_id":"GGL","line":5,"time":3,"station_name":"Grogol","i_long":106.788277},{"i_long":106.771379,"transit":false,"is_transit":false,"line":5,"station_id":"PSG","i_lat":-6.161433,"time":2,"distance":2036,"station_name":"Pesing"},{"i_long":106.756522,"i_lat":-6.1587309999999995,"line":5,"station_name":"Taman Kota","station_id":"TKO","time":2,"is_transit":false,"distance":1614,"transit":false},{"i_long":106.737035,"distance":2334,"i_lat":-6.159876,"station_name":"Bojongindah","is_transit":false,"line":5,"transit":false,"time":2,"station_id":"BOI"},{"i_lat":-6.162758,"line":5,"is_transit":false,"station_name":"Rawa Buaya","station_id":"RW","transit":false,"distance":1152,"i_long":106.723064,"time":4},{"line":5,"transit":false,"i_lat":-6.166068,"is_transit":false,"i_long":106.701612,"station_name":"Kalideres","distance":2504,"time":3,"station_id":"KDS"},{"time":3,"is_transit":false,"line":5,"station_name":"Poris","i_lat":-6.169933,"distance":2548,"station_id":"PI","i_long":106.679458,"transit":false},{"transit":false,"station_name":"Batuceper","i_lat":-6.171811,"time":3,"i_long":106.665036,"distance":1834,"is_transit":false,"station_id":"BPR","line":5},{"transit":false,"i_long":106.64657,"is_transit":false,"station_name":"Tanah Tinggi","distance":2028,"line":5,"station_id":"TTI","i_lat":-6.17331,"time":3},{"time":3,"distance":1547,"i_lat":-6.176583,"station_name":"Tangerang","is_transit":false,"transit":false,"line":5,"station_id":"TNG","i_long":106.632761}],[{"station_name":"Manggarai","is_transit":false,"line":2,"transit":false,"distance":0,"station_id":"MRI","i_lat":-6.209883,"i_long":106.84912,"time":0},{"i_long":106.858896,"is_transit":false,"transit":false,"time":2,"i_lat":-6.212485,"station_id":"MTR","distance":1275,"line":1,"station_name":"Matraman"},{"time":8,"i_long":106.86807400000001,"is_transit":true,"line":1,"i_lat":-6.215091,"station_id":"JNG","transit":true,"station_name":"Jatinegara","distance":1377},{"transit":false,"distance":1236,"station_id":"POK","i_lat":-6.209188,"line":11,"station_name":"Pondok Jati","is_transit":false,"i_long":106.861737,"time":2},{"distance":1829,"i_lat":-6.193792,"i_long":106.855437,"line":11,"is_transit":false,"station_id":"KMT","time":2,"transit":false,"station_name":"Kramat"},{"transit":false,"distance":973,"line":11,"is_transit":false,"i_lat":-6.185975,"i_long":106.850107,"station_name":"Gang Sentiong","station_id":"GST","time":1},{"time":8,"transit":false,"i_lat":-6.174784,"is_transit":false,"line":11,"i_long":106.84368,"distance":1567,"station_name":"Pasar Senen","station_id":"PSE"},{"line":11,"station_name":"Kemayoran","i_lat":-6.161728,"time":4,"station_id":"KMO","i_long":106.839204,"transit":false,"is_transit":false,"distance":1436},{"i_long":106.836569,"transit":false,"line":11,"is_transit":false,"station_name":"Rajawali","station_id":"RJW","distance":1901,"i_lat":-6.14505,"time":5},{"line":4,"station_id":"KPB","i_lat":-6.132549,"is_transit":true,"station_name":"Kampung Bandan","time":3,"distance":1444,"transit":true,"i_long":106.826365},{"station_name":"Angke","transit":false,"is_transit":false,"station_id":"AK","distance":4102,"i_long":106.79867,"line":1,"time":9,"i_lat":-6.144674},{"station_name":"Duri","station_id":"DU","transit":true,"time":4,"line":1,"is_transit":true,"distance":1230,"i_lat":-6.155215,"i_long":106.800832},{"i_lat":-6.162021,"distance":1700,"station_name":"Grogol","transit":false,"station_id":"GGL","line":5,"time":3,"is_transit":false,"i_long":106.788277},{"transit":false,"i_lat":-6.161433,"time":2,"station_name":"Pesing","line":5,"distance":2036,"station_id":"PSG","is_transit":false,"i_long":106.771379},{"line":5,"is_transit":false,"transit":false,"i_lat":-6.1587309999999995,"station_name":"Taman Kota","i_long":106.756522,"station_id":"TKO","time":2,"distance":1614},{"distance":2334,"i_long":106.737035,"time":2,"station_id":"BOI","transit":false,"i_lat":-6.159876,"line":5,"is_transit":false,"station_name":"Bojongindah"},{"distance":1152,"station_name":"Rawa Buaya","line":5,"is_transit":false,"station_id":"RW","time":4,"transit":false,"i_long":106.723064,"i_lat":-6.162758},{"is_transit":false,"distance":2504,"line":5,"station_id":"KDS","i_long":106.701612,"station_name":"Kalideres","time":3,"transit":false,"i_lat":-6.166068},{"transit":false,"is_transit":false,"i_lat":-6.169933,"time":3,"distance":2548,"station_name":"Poris","line":5,"station_id":"PI","i_long":106.679458},{"distance":1834,"i_long":106.665036,"transit":false,"is_transit":false,"line":5,"station_id":"BPR","i_lat":-6.171811,"station_name":"Batuceper","time":3},{"transit":false,"station_name":"Tanah Tinggi","station_id":"TTI","time":3,"line":5,"is_transit":false,"i_long":106.64657,"i_lat":-6.17331,"distance":2028},{"is_transit":false,"i_long":106.632761,"station_id":"TNG","station_name":"Tangerang","i_lat":-6.176583,"transit":false,"line":5,"time":3,"distance":1547}]]}