{"data":[[{"is_transit":true,"i_lat":-6.209883,"i_long":106.84912,"time":0,"distance":0,"line":0,"station_name":"Manggarai","station_id":"MRI","transit":false},{"station_id":"SUD","station_name":"Sudirman","distance":3186,"time":4,"transit":false,"is_transit":false,"i_long":106.822649,"i_lat":-6.202263,"line":1},{"distance":280,"transit":false,"is_transit":false,"i_long":106.819881,"station_name":"Sudirman Baru","i_lat":-6.201433,"station_id":"SUDB","time":1,"line":1},{"i_long":106.816351,"time":1,"station_id":"KAT","distance":471,"i_lat":-6.20132,"transit":false,"station_name":"Karet","line":1,"is_transit":false},{"is_transit":true,"time":5,"station_id":"THB","transit":false,"distance":2029,"i_long":106.811091,"line":1,"station_name":"Tanah Abang","i_lat":-6.185545},{"is_transit":true,"line":1,"distance":3632,"transit":true,"station_id":"DU","i_lat":-6.155215,"time":8,"i_long":106.800832,"station_name":"Duri"},{"station_id":"AK","i_long":106.79867,"line":0,"transit":false,"is_transit":false,"distance":1230,"time":4,"station_name":"Angke","i_lat":-6.144674},{"is_transit":true,"transit":true,"time":9,"i_lat":-6.132549,"distance":4102,"station_name":"Kampung Bandan","station_id":"KPB","i_long":106.826365,"line":0},{"distance":1444,"line":11,"time":3,"i_lat":-6.14505,"transit":false,"station_id":"RJW","is_transit":false,"i_long":106.836569,"station_name":"Rajawali"}],[{"time":0,"i_lat":-6.209883,"line":0,"distance":0,"station_name":"Manggarai","is_transit":true,"transit":false,"i_long":106.84912,"station_id":"MRI"},{"station_name":"Matraman","time":2,"i_long":106.858896,"distance":1275,"is_transit":false,"transit":false,"station_id":"MTR","i_lat":-6.212485,"line":1},{"time":8,"line":0,"station_name":"Jatinegara","station_id":"JNG","is_transit":true,"transit":true,"i_lat":-6.215091,"i_long":106.86807400000001,"distance":1377},{"station_name":"Pondok Jati","is_transit":false,"transit":false,"i_lat":-6.209188,"distance":1236,"time":2,"i_long":106.861737,"line":11,"station_id":"POK"},{"line":11,"time":2,"station_id":"KMT","distance":1829,"transit":false,"station_name":"Kramat","i_lat":-6.193792,"is_transit":false,"i_long":106.855437},{"distance":973,"i_long":106.850107,"station_id":"GST","station_name":"Gang Sentiong","i_lat":-6.185975,"time":1,"line":11,"transit":false,"is_transit":false},{"is_transit":false,"time":8,"transit":false,"distance":1567,"station_name":"Pasar Senen","i_long":106.84368,"line":11,"station_id":"PSE","i_lat":-6.174784},{"time":4,"line":11,"station_id":"KMO","is_transit":false,"i_lat":-6.161728,"station_name":"Kemayoran","distance":1436,"i_long":106.839204,"transit":false},{"is_transit":false,"station_name":"Rajawali","line":11,"transit":false,"i_long":106.836569,"distance":1901,"i_lat":-6.14505,"time":5,"station_id":"RJW"}],[{"is_transit":true,"line":0,"distance":0,"station_name":"Manggarai","time":0,"i_lat":-6.209883,"transit":false,"station_id":"MRI","i_long":106.84912},{"distance":1590,"i_lat":-6.198556,"transit":false,"is_transit":false,"line":0,"station_name":"Cikini","station_id":"CKI","i_long":106.840169,"time":4},{"i_lat":-6.186295,"is_transit":false,"transit":false,"i_long":106.832183,"station_id":"GDD","distance":1750,"line":2,"time":3,"station_name":"Gondangdia"},{"distance":2015,"station_id":"JUA","i_long":106.828284,"station_name":"Juanda","i_lat":-6.166716,"is_transit":false,"time":4,"transit":false,"line":2},{"line":2,"i_long":106.827103,"time":2,"is_transit":false,"distance":1149,"station_name":"Sawah Besar","transit":false,"station_id":"SW","i_lat":-6.160725},{"transit":false,"station_id":"MGB","i_long":106.82482,"line":2,"station_name":"Manggabesar","time":2,"distance":906,"is_transit":false,"i_lat":-6.149769},{"transit":false,"time":2,"i_lat":-6.141205,"station_name":"Jayakarta","is_transit":false,"station_id":"JAY","distance":1080,"i_long":106.820901,"line":7},{"distance":1264,"line":0,"i_lat":-6.137569,"time":4,"station_name":"Jakarta Kota","i_long":106.812439,"transit":true,"station_id":"JAKK","is_transit":true},{"i_lat":-6.132549,"is_transit":true,"i_long":106.826365,"station_name":"Kampung Bandan","time":3,"line":0,"distance":1364,"transit":true,"station_id":"KPB"},{"i_long":106.836569,"line":11,"transit":false,"i_lat":-6.14505,"is_transit":false,"time":3,"station_name":"Rajawali","station_id":"RJW","distance":1444}]]}