{"data":[[{"i_lat":-6.209883,"line":2,"station_id":"MRI","station_name":"Manggarai","is_transit":false,"time":0,"i_long":106.84912,"transit":false,"distance":0},{"distance":3186,"transit":false,"station_id":"SUD","line":1,"i_long":106.822649,"station_name":"Sudirman","time":4,"i_lat":-6.202263,"is_transit":false},{"is_transit":false,"station_name":"Sudirman Baru","time":1,"i_lat":-6.201433,"distance":280,"station_id":"SUDB","line":1,"transit":false,"i_long":106.819881},{"time":1,"i_long":106.816351,"line":1,"station_name":"Karet","distance":471,"is_transit":false,"i_lat":-6.20132,"transit":false,"station_id":"KAT"},{"station_name":"Tanah Abang","is_transit":true,"i_long":106.811091,"distance":2029,"station_id":"THB","time":5,"i_lat":-6.185545,"line":1,"transit":true},{"is_transit":false,"line":6,"i_long":106.79689,"transit":false,"station_name":"Palmerah","distance":3191,"i_lat":-6.207404,"station_id":"PLM","time":6},{"line":6,"station_id":"KBY","distance":3737,"time":7,"transit":false,"station_name":"Kebayoran","is_transit":false,"i_lat":-6.237242,"i_long":106.780334},{"station_name":"Pondokranji","distance":6218,"is_transit":false,"i_long":106.74273,"transit":false,"station_id":"PDJ","time":8,"i_lat":-6.276362,"line":6},{"distance":2179,"station_id":"JMU","transit":false,"line":6,"is_transit":false,"station_name":"Jurangmangu","i_long":106.728916,"time":3,"i_lat":-6.288927},{"distance":1994,"i_lat":-6.296963,"line":6,"is_transit":false,"transit":false,"station_id":"SDM","station_name":"Sudimara","time":4,"i_long":106.712277},{"i_long":106.675475,"distance":4566,"is_transit":false,"transit":false,"station_name":"Rawa Buntu","station_id":"RU","line":6,"time":6,"i_lat":-6.314823},{"i_long":106.66566,"time":4,"i_lat":-6.319871,"is_transit":false,"distance":2413,"station_id":"SRP","transit":false,"line":6,"station_name":"Serpong"},{"distance":1784,"is_transit":false,"line":3,"time":4,"station_name":"Cisauk","station_id":"CSK","transit":false,"i_long":106.640411,"i_lat":-6.32484},{"i_lat":-6.329547,"i_long":106.617853,"line":3,"station_name":"Cicayur","time":4,"transit":false,"distance":2519,"is_transit":false,"station_id":"CC"},{"time":8,"transit":false,"is_transit":false,"station_name":"Parung Panjang","station_id":"PRP","i_long":106.568863,"i_lat":-6.3441410000000005,"distance":5968,"line":6},{"line":3,"distance":7025,"i_long":106.508482,"time":9,"is_transit":false,"station_name":"Cilejit","transit":false,"i_lat":-6.354349,"station_id":"CJT"},{"i_long":106.491338,"distance":2675,"station_id":"DAR","station_name":"Daru","is_transit":false,"i_lat":-6.338021,"line":0,"time":6,"transit":false}],[{"station_id":"MRI","is_transit":false,"i_long":106.84912,"i_lat":-6.209883,"time":0,"line":2,"distance":0,"transit":false,"station_name":"Manggarai"},{"i_lat":-6.198556,"distance":1590,"is_transit":false,"station_id":"CKI","time":4,"line":2,"transit":false,"station_name":"Cikini","i_long":106.840169},{"transit":false,"distance":1750,"line":2,"station_id":"GDD","is_transit":false,"time":3,"station_name":"Gondangdia","i_lat":-6.186295,"i_long":106.832183},{"line":2,"transit":false,"station_name":"Juanda","distance":2015,"i_long":106.828284,"i_lat":-6.166716,"is_transit":false,"station_id":"JUA","time":4},{"i_lat":-6.160725,"distance":1149,"line":2,"transit":false,"is_transit":false,"station_id":"SW","station_name":"Sawah Besar","i_long":106.827103,"time":2},{"transit":false,"distance":906,"station_id":"MGB","is_transit":false,"i_lat":-6.149769,"i_long":106.82482,"line":2,"time":2,"station_name":"Manggabesar"},{"station_name":"Jayakarta","time":2,"is_transit":false,"i_lat":-6.141205,"distance":1080,"i_long":106.820901,"transit":false,"line":2,"station_id":"JAY"},{"i_long":106.812439,"i_lat":-6.137569,"transit":true,"line":2,"time":4,"station_id":"JAKK","is_transit":true,"station_name":"Jakarta Kota","distance":1264},{"station_id":"KPB","line":4,"is_transit":true,"i_long":106.826365,"i_lat":-6.132549,"distance":1364,"transit":true,"station_name":"Kampung Bandan","time":3},{"transit":false,"station_id":"AK","i_lat":-6.144674,"distance":4102,"line":1,"time":9,"i_long":106.79867,"station_name":"Angke","is_transit":false},{"i_long":106.800832,"line":1,"station_id":"DU","transit":false,"i_lat":-6.155215,"time":4,"station_name":"Duri","distance":1230,"is_transit":false},{"distance":3632,"transit":true,"line":1,"is_transit":true,"station_id":"THB","station_name":"Tanah Abang","i_lat":-6.185545,"time":8,"i_long":106.811091},{"time":6,"line":6,"i_lat":-6.207404,"i_long":106.79689,"station_name":"Palmerah","transit":false,"distance":3191,"is_transit":false,"station_id":"PLM"},{"i_lat":-6.237242,"station_id":"KBY","line":6,"station_name":"Kebayoran","time":7,"distance":3737,"transit":false,"is_transit":false,"i_long":106.780334},{"i_long":106.74273,"line":6,"is_transit":false,"distance":6218,"time":8,"transit":false,"station_id":"PDJ","station_name":"Pondokranji","i_lat":-6.276362},{"station_id":"JMU","distance":2179,"time":3,"station_name":"Jurangmangu","transit":false,"is_transit":false,"i_lat":-6.288927,"i_long":106.728916,"line":6},{"transit":false,"station_id":"SDM","station_name":"Sudimara","i_lat":-6.296963,"time":4,"i_long":106.712277,"distance":1994,"is_transit":false,"line":6},{"line":6,"distance":4566,"station_name":"Rawa Buntu","is_transit":false,"station_id":"RU","transit":false,"time":6,"i_lat":-6.314823,"i_long":106.675475},{"i_lat":-6.319871,"transit":false,"station_name":"Serpong","is_transit":false,"i_long":106.66566,"time":4,"line":6,"station_id":"SRP","distance":2413},{"distance":1784,"transit":false,"station_name":"Cisauk","is_transit":false,"station_id":"CSK","time":4,"i_long":106.640411,"i_lat":-6.32484,"line":3},{"station_name":"Cicayur","i_long":106.617853,"station_id":"CC","line":3,"transit":false,"distance":2519,"is_transit":false,"time":4,"i_lat":-6.329547},{"i_long":106.568863,"transit":false,"is_transit":false,"station_name":"Parung Panjang","line":6,"distance":5968,"time":8,"i_lat":-6.3441410000000005,"station_id":"PRP"},{"i_long":106.508482,"line":3,"station_id":"CJT","distance":7025,"is_transit":false,"i_lat":-6.354349,"transit":false,"time":9,"station_name":"Cilejit"},{"transit":false,"is_transit":false,"line":0,"distance":2675,"i_lat":-6.338021,"time":6,"station_name":"Daru","i_long":106.491338,"station_id":"DAR"}],[{"distance":0,"i_long":106.84912,"line":2,"is_transit":false,"time":0,"station_id":"MRI","transit":false,"station_name":"Manggarai","i_lat":-6.209883},{"station_id":"MTR","i_lat":-6.212485,"station_name":"Matraman","i_long":106.858896,"transit":false,"distance":1275,"line":1,"is_transit":false,"time":2},{"station_name":"Jatinegara","distance":1377,"i_lat":-6.215091,"time":8,"transit":true,"is_transit":true,"station_id":"JNG","line":1,"i_long":106.86807400000001},{"time":2,"station_name":"Pondok Jati","is_transit":false,"station_id":"POK","i_lat":-6.209188,"i_long":106.861737,"transit":false,"line":11,"distance":1236},{"station_id":"KMT","time":2,"line":11,"distance":1829,"i_lat":-6.193792,"is_transit":false,"i_long":106.855437,"transit":false,"station_name":"Kramat"},{"distance":973,"time":1,"i_long":106.850107,"is_transit":false,"line":11,"i_lat":-6.185975,"station_name":"Gang Sentiong","transit":false,"station_id":"GST"},{"station_name":"Pasar Senen","i_lat":-6.174784,"i_long":106.84368,"transit":false,"line":11,"is_transit":false,"station_id":"PSE","distance":1567,"time":8},{"time":4,"is_transit":false,"station_name":"Kemayoran","distance":1436,"i_lat":-6.161728,"line":11,"transit":false,"station_id":"KMO","i_long":106.839204},{"station_name":"Rajawali","station_id":"RJW","time":5,"i_long":106.836569,"is_transit":false,"i_lat":-6.14505,"distance":1901,"line":11,"transit":false},{"station_name":"Kampung Bandan","time":3,"line":4,"distance":1444,"station_id":"KPB","i_long":106.826365,"transit":true,"is_transit":true,"i_lat":-6.132549},{"line":1,"time":9,"transit":false,"station_id":"AK","station_name":"Angke","i_long":106.79867,"i_lat":-6.144674,"is_transit":false,"distance":4102},{"time":4,"station_name":"Duri","is_transit":false,"station_id":"DU","line":1,"i_lat":-6.155215,"transit":false,"distance":1230,"i_long":106.800832},{"station_name":"Tanah Abang","is_transit":true,"time":8,"i_lat":-6.185545,"station_id":"THB","transit":true,"distance":3632,"line":1,"i_long":106.811091},{"is_transit":false,"i_long":106.79689,"station_name":"Palmerah","distance":3191,"station_id":"PLM","line":6,"transit":false,"time":6,"i_lat":-6.207404},{"station_name":"Kebayoran","time":7,"station_id":"KBY","line":6,"distance":3737,"is_transit":false,"transit":false,"i_lat":-6.237242,"i_long":106.780334},{"is_transit":false,"station_id":"PDJ","time":8,"i_lat":-6.276362,"distance":6218,"i_long":106.74273,"transit":false,"station_name":"Pondokranji","line":6},{"distance":2179,"time":3,"transit":false,"i_long":106.728916,"line":6,"station_id":"JMU","i_lat":-6.288927,"is_transit":false,"station_name":"Jurangmangu"},{"distance":1994,"i_long":106.712277,"time":4,"station_id":"SDM","transit":false,"line":6,"is_transit":false,"i_lat":-6.296963,"station_name":"Sudimara"},{"station_name":"Rawa Buntu","time":6,"station_id":"RU","distance":4566,"line":6,"is_transit":false,"i_long":106.675475,"transit":false,"i_lat":-6.314823},{"transit":false,"station_id":"SRP","distance":2413,"station_name":"Serpong","i_long":106.66566,"line":6,"i_lat":-6.319871,"is_transit":false,"time":4},{"is_transit":false,"line":3,"i_long":106.640411,"distance":1784,"station_name":"Cisauk","station_id":"CSK","time":4,"transit":false,"i_lat":-6.32484},{"station_id":"CC","station_name":"Cicayur","line":3,"transit":false,"i_long":106.617853,"distance":2519,"time":4,"i_lat":-6.329547,"is_transit":false},{"transit":false,"distance":5968,"station_name":"Parung Panjang","i_lat":-6.3441410000000005,"station_id":"PRP","i_long":106.568863,"is_transit":false,"line":6,"time":8},{"time":9,"station_name":"Cilejit","line":3,"i_lat":-6.354349,"distance":7025,"station_id":"CJT","i_long":106.508482,"is_transit":false,"transit":false},{"distance":2675,"station_id":"DAR","transit":false,"time":6,"i_lat":-6.338021,"station_name":"Daru","i_long":106.491338,"is_transit":false,"line":0}]]}