{"data":[[{"station_id":"MRI","station_name":"Manggarai","is_transit":false,"time":0,"distance":0,"i_lat":-6.209883,"line":2,"transit":false,"i_long":106.84912},{"time":4,"line":2,"i_lat":-6.226659,"i_long":106.857948,"station_id":"TEB","distance":2610,"transit":false,"station_name":"Tebet","is_transit":false},{"station_id":"CW","line":2,"distance":1230,"i_lat":-6.242512,"station_name":"Cawang","i_long":106.856607,"transit":false,"is_transit":false,"time":2},{"time":3,"is_transit":false,"i_long":106.85449,"station_id":"DRN","line":2,"transit":false,"station_name":"Duren Kalibata","i_lat":-6.255332,"distance":1546},{"distance":824,"line":2,"station_id":"PSMB","time":2,"station_name":"Pasar Minggu Baru","is_transit":false,"transit":false,"i_long":106.851577,"i_lat":-6.263214},{"transit":false,"station_name":"Pasar Minggu","is_transit":false,"time":2,"i_lat":-6.2842400000000005,"station_id":"PSM","distance":2380,"line":2,"i_long":106.843999},{"i_long":106.838896,"line":2,"station_id":"TNT","time":4,"i_lat":-6.3080680000000005,"is_transit":false,"transit":false,"station_name":"Tanjung Barat","distance":2820},{"transit":false,"i_lat":-6.330363,"station_id":"LNA","i_long":106.832616,"distance":2671,"line":2,"is_transit":false,"time":3,"station_name":"Lenteng Agung"},{"time":2,"i_lat":-6.339291,"line":2,"transit":false,"station_id":"UP","station_name":"Univ. Pancasila","is_transit":false,"distance":1029,"i_long":106.834175},{"i_lat":-6.360749,"is_transit":false,"station_id":"UI","distance":2264,"i_long":106.831474,"line":2,"transit":false,"station_name":"Univ. Indonesia","time":3},{"station_id":"POC","transit":false,"distance":1109,"time":2,"i_lat":-6.369073,"is_transit":false,"i_long":106.831114,"line":2,"station_name":"Pondok Cina"},{"time":4,"station_name":"Depokbaru","i_long":106.819451,"line":2,"station_id":"DPB","is_transit":false,"distance":2727,"i_lat":-6.391065,"transit":false},{"distance":1584,"transit":false,"is_transit":false,"i_lat":-6.405256,"i_long":106.816926,"station_name":"Depok","station_id":"DP","line":2,"time":3},{"time":6,"i_lat":-6.448811,"i_long":106.800298,"is_transit":false,"line":2,"station_name":"Citayam","station_id":"CTA","transit":false,"distance":5084},{"line":2,"station_name":"Bojonggede","station_id":"BJD","is_transit":false,"time":5,"transit":false,"distance":5197,"i_lat":-6.493243,"i_long":106.792719},{"i_lat":-6.530544,"station_name":"Cilebut","is_transit":false,"time":5,"i_long":106.800016,"station_id":"CLT","line":2,"distance":4331,"transit":false},{"transit":false,"time":9,"distance":7514,"i_lat":-6.594596,"station_name":"Bogor","line":2,"station_id":"BOO","is_transit":false,"i_long":106.790574}]]}