{"data":[[{"i_lat":-6.209883,"line":2,"time":0,"distance":0,"i_long":106.84912,"station_name":"Manggarai","transit":false,"station_id":"MRI","is_transit":false},{"i_long":106.822649,"line":1,"is_transit":false,"transit":false,"i_lat":-6.202263,"time":4,"station_id":"SUD","distance":3186,"station_name":"Sudirman"},{"i_lat":-6.201433,"i_long":106.819881,"transit":false,"station_name":"Sudirman Baru","line":1,"distance":280,"station_id":"SUDB","is_transit":false,"time":1},{"transit":false,"station_name":"Karet","station_id":"KAT","distance":471,"time":1,"is_transit":false,"i_lat":-6.20132,"line":1,"i_long":106.816351},{"is_transit":false,"line":1,"station_id":"THB","i_long":106.811091,"transit":false,"station_name":"Tanah Abang","time":5,"i_lat":-6.185545,"distance":2029},{"station_name":"Duri","transit":false,"is_transit":false,"i_long":106.800832,"distance":3632,"time":8,"i_lat":-6.155215,"station_id":"DU","line":1}],[{"station_name":"Manggarai","station_id":"MRI","time":0,"distance":0,"transit":false,"is_transit":false,"i_lat":-6.209883,"line":2,"i_long":106.84912},{"station_name":"Cikini","station_id":"CKI","time":4,"is_transit":false,"i_long":106.840169,"transit":false,"distance":1590,"i_lat":-6.198556,"line":2},{"station_name":"Gondangdia","transit":false,"station_id":"GDD","is_transit":false,"distance":1750,"time":3,"i_long":106.832183,"i_lat":-6.186295,"line":2},{"i_long":106.828284,"distance":2015,"i_lat":-6.166716,"is_transit":false,"time":4,"line":2,"station_id":"JUA","transit":false,"station_name":"Juanda"},{"transit":false,"station_name":"Sawah Besar","is_transit":false,"station_id":"SW","time":2,"distance":1149,"i_lat":-6.160725,"i_long":106.827103,"line":2},{"line":2,"time":2,"station_name":"Manggabesar","transit":false,"is_transit":false,"distance":906,"i_lat":-6.149769,"i_long":106.82482,"station_id":"MGB"},{"station_id":"JAY","station_name":"Jayakarta","transit":false,"line":2,"i_lat":-6.141205,"i_long":106.820901,"is_transit":false,"time":2,"distance":1080},{"station_id":"JAKK","station_name":"Jakarta Kota","distance":1264,"is_transit":true,"line":2,"transit":true,"time":4,"i_long":106.812439,"i_lat":-6.137569},{"time":3,"i_long":106.826365,"i_lat":-6.132549,"line":4,"distance":1364,"transit":true,"is_transit":true,"station_name":"Kampung Bandan","station_id":"KPB"},{"station_id":"AK","distance":4102,"line":1,"transit":false,"station_name":"Angke","is_transit":false,"i_lat":-6.144674,"time":9,"i_long":106.79867},{"station_name":"Duri","time":4,"i_lat":-6.155215,"station_id":"DU","is_transit":false,"transit":false,"i_long":106.800832,"line":1,"distance":1230}],[{"distance":0,"transit":false,"is_transit":false,"i_long":106.84912,"station_name":"Manggarai","time":0,"i_lat":-6.209883,"line":2,"station_id":"MRI"},{"station_name":"Matraman","transit":false,"distance":1275,"i_lat":-6.212485,"i_long":106.858896,"line":1,"station_id":"MTR","is_transit":false,"time":2},{"station_name":"Jatinegara","is_transit":true,"time":8,"i_lat":-6.215091,"station_id":"JNG","transit":true,"distance":1377,"i_long":106.86807400000001,"line":1},{"time":2,"i_lat":-6.209188,"is_transit":false,"transit":false,"station_id":"POK","i_long":106.861737,"station_name":"Pondok Jati","distance":1236,"line":11},{"line":11,"transit":false,"distance":1829,"i_lat":-6.193792,"i_long":106.855437,"time":2,"station_id":"KMT","station_name":"Kramat","is_transit":false},{"i_long":106.850107,"i_lat":-6.185975,"transit":false,"station_name":"Gang Sentiong","distance":973,"station_id":"GST","time":1,"is_transit":false,"line":11},{"station_id":"PSE","time":8,"is_transit":false,"distance":1567,"i_long":106.84368,"transit":false,"station_name":"Pasar Senen","i_lat":-6.174784,"line":11},{"time":4,"is_transit":false,"transit":false,"i_lat":-6.161728,"station_name":"Kemayoran","station_id":"KMO","distance":1436,"i_long":106.839204,"line":11},{"i_lat":-6.14505,"distance":1901,"station_id":"RJW","time":5,"line":11,"station_name":"Rajawali","i_long":106.836569,"is_transit":false,"transit":false},{"station_id":"KPB","time":3,"is_transit":true,"station_name":"Kampung Bandan","transit":true,"line":4,"distance":1444,"i_lat":-6.132549,"i_long":106.826365},{"time":9,"distance":4102,"station_name":"Angke","i_lat":-6.144674,"i_long":106.79867,"transit":false,"is_transit":false,"station_id":"AK","line":1},{"distance":1230,"i_lat":-6.155215,"i_long":106.800832,"station_name":"Duri","transit":false,"station_id":"DU","is_transit":false,"line":1,"time":4}]]}