{"data":[[{"time":0,"is_transit":false,"i_lat":-6.209883,"line":2,"i_long":106.84912,"transit":false,"distance":0,"station_id":"MRI","station_name":"Manggarai"},{"station_name":"Sudirman","line":1,"station_id":"SUD","i_lat":-6.202263,"transit":false,"i_long":106.822649,"time":4,"is_transit":false,"distance":3186},{"station_name":"Sudirman Baru","time":1,"station_id":"SUDB","i_lat":-6.201433,"i_long":106.819881,"is_transit":false,"distance":280,"transit":false,"line":1},{"i_long":106.816351,"transit":false,"i_lat":-6.20132,"is_transit":false,"line":1,"time":1,"station_id":"KAT","station_name":"Karet","distance":471},{"line":1,"time":5,"is_transit":true,"i_long":106.811091,"station_name":"Tanah Abang","distance":2029,"transit":true,"i_lat":-6.185545,"station_id":"THB"},{"i_lat":-6.207404,"transit":false,"station_name":"Palmerah","time":6,"i_long":106.79689,"distance":3191,"station_id":"PLM","line":6,"is_transit":false},{"line":6,"station_id":"KBY","i_lat":-6.237242,"time":7,"i_long":106.780334,"is_transit":false,"transit":false,"station_name":"Kebayoran","distance":3737},{"transit":false,"is_transit":false,"i_lat":-6.276362,"i_long":106.74273,"line":6,"time":8,"distance":6218,"station_name":"Pondokranji","station_id":"PDJ"},{"transit":false,"i_long":106.728916,"is_transit":false,"distance":2179,"i_lat":-6.288927,"station_id":"JMU","line":6,"time":3,"station_name":"Jurangmangu"}],[{"distance":0,"line":2,"station_name":"Manggarai","station_id":"MRI","is_transit":false,"i_long":106.84912,"i_lat":-6.209883,"transit":false,"time":0},{"station_name":"Cikini","is_transit":false,"station_id":"CKI","distance":1590,"time":4,"line":2,"transit":false,"i_long":106.840169,"i_lat":-6.198556},{"i_lat":-6.186295,"line":2,"is_transit":false,"transit":false,"station_id":"GDD","station_name":"Gondangdia","time":3,"distance":1750,"i_long":106.832183},{"i_lat":-6.166716,"station_name":"Juanda","distance":2015,"i_long":106.828284,"transit":false,"station_id":"JUA","time":4,"is_transit":false,"line":2},{"i_lat":-6.160725,"line":2,"is_transit":false,"station_name":"Sawah Besar","distance":1149,"i_long":106.827103,"transit":false,"station_id":"SW","time":2},{"transit":false,"distance":906,"i_long":106.82482,"station_id":"MGB","is_transit":false,"time":2,"i_lat":-6.149769,"line":2,"station_name":"Manggabesar"},{"station_id":"JAY","i_lat":-6.141205,"distance":1080,"line":2,"is_transit":false,"station_name":"Jayakarta","transit":false,"i_long":106.820901,"time":2},{"distance":1264,"time":4,"station_id":"JAKK","transit":true,"station_name":"Jakarta Kota","i_lat":-6.137569,"line":2,"i_long":106.812439,"is_transit":true},{"transit":true,"i_long":106.826365,"is_transit":true,"time":3,"station_name":"Kampung Bandan","distance":1364,"i_lat":-6.132549,"line":4,"station_id":"KPB"},{"line":1,"i_long":106.79867,"station_name":"Angke","station_id":"AK","time":9,"is_transit":false,"distance":4102,"transit":false,"i_lat":-6.144674},{"time":4,"station_name":"Duri","distance":1230,"i_long":106.800832,"is_transit":false,"station_id":"DU","line":1,"transit":false,"i_lat":-6.155215},{"transit":true,"distance":3632,"i_long":106.811091,"time":8,"station_name":"Tanah Abang","is_transit":true,"line":1,"station_id":"THB","i_lat":-6.185545},{"line":6,"station_id":"PLM","distance":3191,"is_transit":false,"transit":false,"station_name":"Palmerah","i_long":106.79689,"time":6,"i_lat":-6.207404},{"line":6,"i_long":106.780334,"is_transit":false,"time":7,"station_id":"KBY","i_lat":-6.237242,"distance":3737,"transit":false,"station_name":"Kebayoran"},{"time":8,"i_long":106.74273,"transit":false,"is_transit":false,"station_name":"Pondokranji","distance":6218,"i_lat":-6.276362,"line":6,"station_id":"PDJ"},{"line":6,"station_id":"JMU","transit":false,"is_transit":false,"distance":2179,"i_long":106.728916,"station_name":"Jurangmangu","time":3,"i_lat":-6.288927}],[{"station_id":"MRI","i_long":106.84912,"line":2,"transit":false,"is_transit":false,"time":0,"distance":0,"station_name":"Manggarai","i_lat":-6.209883},{"station_name":"Matraman","is_transit":false,"time":2,"station_id":"MTR","i_long":106.858896,"distance":1275,"transit":false,"line":1,"i_lat":-6.212485},{"time":8,"is_transit":true,"station_id":"JNG","distance":1377,"i_lat":-6.215091,"station_name":"Jatinegara","transit":true,"i_long":106.86807400000001,"line":1},{"distance":1236,"station_id":"POK","i_long":106.861737,"station_name":"Pondok Jati","line":11,"transit":false,"is_transit":false,"i_lat":-6.209188,"time":2},{"time":2,"distance":1829,"i_long":106.855437,"i_lat":-6.193792,"station_id":"KMT","line":11,"is_transit":false,"transit":false,"station_name":"Kramat"},{"time":1,"station_id":"GST","transit":false,"i_long":106.850107,"line":11,"is_transit":false,"distance":973,"station_name":"Gang Sentiong","i_lat":-6.185975},{"time":8,"line":11,"i_lat":-6.174784,"distance":1567,"is_transit":false,"transit":false,"station_name":"Pasar Senen","i_long":106.84368,"station_id":"PSE"},{"station_name":"Kemayoran","i_long":106.839204,"i_lat":-6.161728,"is_transit":false,"time":4,"line":11,"station_id":"KMO","distance":1436,"transit":false},{"transit":false,"station_id":"RJW","station_name":"Rajawali","is_transit":false,"time":5,"distance":1901,"i_lat":-6.14505,"i_long":106.836569,"line":11},{"i_long":106.826365,"time":3,"distance":1444,"transit":true,"line":4,"station_id":"KPB","i_lat":-6.132549,"is_transit":true,"station_name":"Kampung Bandan"},{"station_id":"AK","time":9,"distance":4102,"station_name":"Angke","i_long":106.79867,"line":1,"transit":false,"i_lat":-6.144674,"is_transit":false},{"i_long":106.800832,"line":1,"station_name":"Duri","station_id":"DU","time":4,"i_lat":-6.155215,"transit":false,"is_transit":false,"distance":1230},{"station_id":"THB","transit":true,"station_name":"Tanah Abang","is_transit":true,"time":8,"distance":3632,"i_lat":-6.185545,"i_long":106.811091,"line":1},{"time":6,"i_long":106.79689,"i_lat":-6.207404,"transit":false,"line":6,"is_transit":false,"station_id":"PLM","distance":3191,"station_name":"Palmerah"},{"station_id":"KBY","transit":false,"i_long":106.780334,"line":6,"time":7,"is_transit":false,"station_name":"Kebayoran","distance":3737,"i_lat":-6.237242},{"i_lat":-6.276362,"station_id":"PDJ","distance":6218,"transit":false,"station_name":"Pondokranji","is_transit":false,"i_long":106.74273,"line":6,"time":8},{"station_id":"JMU","station_name":"Jurangmangu","is_transit":false,"distance":2179,"i_lat":-6.288927,"transit":false,"time":3,"line":6,"i_long":106.728916}]]}