{"data":[[{"is_transit":false,"i_lat":-6.209883,"transit":false,"time":0,"distance":0,"i_long":106.84912,"line":2,"station_id":"MRI","station_name":"Manggarai"},{"line":2,"station_id":"TEB","is_transit":false,"i_long":106.857948,"time":4,"transit":false,"i_lat":-6.226659,"station_name":"Tebet","distance":2610},{"distance":1230,"is_transit":false,"station_name":"Cawang","transit":false,"station_id":"CW","time":2,"line":2,"i_long":106.856607,"i_lat":-6.242512},{"line":2,"station_id":"DRN","station_name":"Duren Kalibata","distance":1546,"is_transit":false,"i_long":106.85449,"transit":false,"time":3,"i_lat":-6.255332},{"i_lat":-6.263214,"line":2,"i_long":106.851577,"transit":false,"station_name":"Pasar Minggu Baru","is_transit":false,"time":2,"station_id":"PSMB","distance":824},{"station_name":"Pasar Minggu","i_long":106.843999,"transit":false,"time":2,"station_id":"PSM","is_transit":false,"line":2,"distance":2380,"i_lat":-6.2842400000000005},{"station_id":"TNT","i_lat":-6.3080680000000005,"station_name":"Tanjung Barat","time":4,"i_long":106.838896,"transit":false,"line":2,"distance":2820,"is_transit":false},{"distance":2671,"transit":false,"station_id":"LNA","time":3,"i_lat":-6.330363,"station_name":"Lenteng Agung","i_long":106.832616,"is_transit":false,"line":2},{"line":2,"transit":false,"i_long":106.834175,"station_name":"Univ. Pancasila","is_transit":false,"time":2,"distance":1029,"station_id":"UP","i_lat":-6.339291},{"station_id":"UI","is_transit":false,"transit":false,"station_name":"Univ. Indonesia","distance":2264,"i_lat":-6.360749,"time":3,"i_long":106.831474,"line":2},{"i_lat":-6.369073,"i_long":106.831114,"time":2,"station_id":"POC","transit":false,"line":2,"station_name":"Pondok Cina","distance":1109,"is_transit":false},{"i_long":106.819451,"line":2,"station_id":"DPB","station_name":"Depokbaru","i_lat":-6.391065,"transit":false,"is_transit":false,"time":4,"distance":2727},{"distance":1584,"i_lat":-6.405256,"is_transit":false,"line":2,"station_name":"Depok","i_long":106.816926,"transit":false,"station_id":"DP","time":3},{"i_lat":-6.448811,"i_long":106.800298,"line":2,"station_name":"Citayam","station_id":"CTA","distance":5084,"transit":false,"time":6,"is_transit":false},{"distance":5197,"transit":false,"time":5,"station_id":"BJD","is_transit":false,"i_lat":-6.493243,"i_long":106.792719,"line":2,"station_name":"Bojonggede"},{"transit":false,"station_name":"Cilebut","i_long":106.800016,"is_transit":false,"station_id":"CLT","time":5,"distance":4331,"line":2,"i_lat":-6.530544},{"station_name":"Bogor","line":2,"i_long":106.790574,"time":9,"distance":7514,"station_id":"BOO","transit":false,"is_transit":false,"i_lat":-6.594596}]]}