{"data":[[{"distance":0,"i_lat":-6.209883,"line":0,"station_id":"MRI","transit":false,"i_long":106.84912,"is_transit":true,"time":0,"station_name":"Manggarai"},{"time":4,"i_long":106.822649,"i_lat":-6.202263,"transit":false,"distance":3186,"station_name":"Sudirman","line":1,"station_id":"SUD","is_transit":false},{"time":1,"i_long":106.819881,"transit":false,"line":1,"distance":280,"station_id":"SUDB","is_transit":false,"i_lat":-6.201433,"station_name":"Sudirman Baru"},{"i_long":106.816351,"line":1,"i_lat":-6.20132,"station_name":"Karet","transit":false,"is_transit":false,"station_id":"KAT","distance":471,"time":1},{"station_id":"THB","is_transit":true,"transit":false,"distance":2029,"i_long":106.811091,"time":5,"station_name":"Tanah Abang","i_lat":-6.185545,"line":1},{"line":1,"is_transit":true,"i_long":106.800832,"station_name":"Duri","time":8,"distance":3632,"station_id":"DU","transit":true,"i_lat":-6.155215},{"is_transit":false,"station_id":"GGL","station_name":"Grogol","line":5,"i_long":106.788277,"i_lat":-6.162021,"time":3,"distance":1700,"transit":false},{"is_transit":false,"station_id":"PSG","time":2,"distance":2036,"station_name":"Pesing","i_long":106.771379,"i_lat":-6.161433,"line":5,"transit":false},{"line":5,"station_name":"Taman Kota","is_transit":false,"transit":false,"i_lat":-6.1587309999999995,"i_long":106.756522,"distance":1614,"station_id":"TKO","time":2},{"distance":2334,"i_long":106.737035,"line":0,"station_name":"Bojongindah","station_id":"BOI","transit":false,"i_lat":-6.159876,"is_transit":false,"time":2},{"time":4,"distance":1152,"transit":false,"i_long":106.723064,"i_lat":-6.162758,"line":5,"station_name":"Rawa Buaya","station_id":"RW","is_transit":false},{"station_name":"Kalideres","time":3,"i_lat":-6.166068,"i_long":106.701612,"line":5,"is_transit":false,"transit":false,"station_id":"KDS","distance":2504},{"time":3,"transit":false,"is_transit":false,"i_long":106.679458,"station_name":"Poris","line":5,"station_id":"PI","i_lat":-6.169933,"distance":2548},{"line":0,"time":3,"transit":false,"distance":1834,"station_name":"Batuceper","station_id":"BPR","i_lat":-6.171811,"is_transit":false,"i_long":106.665036},{"i_long":106.64657,"time":3,"distance":2028,"transit":false,"i_lat":-6.17331,"is_transit":false,"station_id":"TTI","line":5,"station_name":"Tanah Tinggi"},{"time":3,"i_lat":-6.176583,"i_long":106.632761,"transit":false,"distance":1547,"line":5,"station_name":"Tangerang","is_transit":false,"station_id":"TNG"}],[{"line":0,"station_name":"Manggarai","is_transit":true,"distance":0,"i_long":106.84912,"transit":false,"station_id":"MRI","time":0,"i_lat":-6.209883},{"i_long":106.840169,"is_transit":false,"distance":1590,"transit":false,"line":0,"time":4,"station_id":"CKI","i_lat":-6.198556,"station_name":"Cikini"},{"i_lat":-6.186295,"transit":false,"line":2,"station_id":"GDD","is_transit":false,"distance":1750,"i_long":106.832183,"station_name":"Gondangdia","time":3},{"i_long":106.828284,"distance":2015,"is_transit":false,"station_id":"JUA","i_lat":-6.166716,"time":4,"station_name":"Juanda","line":2,"transit":false},{"station_id":"SW","i_lat":-6.160725,"i_long":106.827103,"time":2,"distance":1149,"transit":false,"line":2,"station_name":"Sawah Besar","is_transit":false},{"line":2,"time":2,"station_id":"MGB","is_transit":false,"station_name":"Manggabesar","i_lat":-6.149769,"distance":906,"transit":false,"i_long":106.82482},{"i_lat":-6.141205,"line":7,"time":2,"i_long":106.820901,"is_transit":false,"station_name":"Jayakarta","station_id":"JAY","distance":1080,"transit":false},{"i_long":106.812439,"station_id":"JAKK","is_transit":true,"transit":true,"time":4,"distance":1264,"i_lat":-6.137569,"station_name":"Jakarta Kota","line":0},{"line":0,"station_id":"KPB","is_transit":true,"transit":false,"station_name":"Kampung Bandan","time":3,"i_long":106.826365,"i_lat":-6.132549,"distance":1364},{"station_name":"Angke","station_id":"AK","time":9,"is_transit":false,"transit":false,"distance":4102,"i_lat":-6.144674,"i_long":106.79867,"line":0},{"distance":1230,"i_long":106.800832,"transit":true,"line":1,"station_id":"DU","station_name":"Duri","time":4,"i_lat":-6.155215,"is_transit":true},{"station_id":"GGL","i_lat":-6.162021,"time":3,"i_long":106.788277,"transit":false,"station_name":"Grogol","is_transit":false,"distance":1700,"line":5},{"time":2,"i_lat":-6.161433,"line":5,"station_name":"Pesing","i_long":106.771379,"transit":false,"is_transit":false,"distance":2036,"station_id":"PSG"},{"line":5,"station_id":"TKO","distance":1614,"i_lat":-6.1587309999999995,"i_long":106.756522,"station_name":"Taman Kota","is_transit":false,"transit":false,"time":2},{"is_transit":false,"i_lat":-6.159876,"line":0,"station_id":"BOI","distance":2334,"time":2,"i_long":106.737035,"transit":false,"station_name":"Bojongindah"},{"station_id":"RW","is_transit":false,"distance":1152,"i_lat":-6.162758,"line":5,"time":4,"transit":false,"i_long":106.723064,"station_name":"Rawa Buaya"},{"transit":false,"i_long":106.701612,"line":5,"i_lat":-6.166068,"station_id":"KDS","time":3,"is_transit":false,"station_name":"Kalideres","distance":2504},{"i_long":106.679458,"distance":2548,"station_name":"Poris","station_id":"PI","time":3,"i_lat":-6.169933,"line":5,"is_transit":false,"transit":false},{"is_transit":false,"time":3,"station_id":"BPR","line":0,"i_lat":-6.171811,"i_long":106.665036,"distance":1834,"station_name":"Batuceper","transit":false},{"i_long":106.64657,"station_name":"Tanah Tinggi","i_lat":-6.17331,"station_id":"TTI","transit":false,"distance":2028,"is_transit":false,"time":3,"line":5},{"station_name":"Tangerang","is_transit":false,"distance":1547,"station_id":"TNG","transit":false,"i_lat":-6.176583,"line":5,"time":3,"i_long":106.632761}],[{"is_transit":true,"station_id":"MRI","line":0,"i_long":106.84912,"time":0,"station_name":"Manggarai","distance":0,"transit":false,"i_lat":-6.209883},{"i_lat":-6.212485,"i_long":106.858896,"time":2,"line":1,"distance":1275,"station_name":"Matraman","transit":false,"station_id":"MTR","is_transit":false},{"time":8,"station_id":"JNG","distance":1377,"transit":true,"is_transit":true,"i_long":106.86807400000001,"line":0,"i_lat":-6.215091,"station_name":"Jatinegara"},{"line":11,"distance":1236,"time":2,"station_id":"POK","station_name":"Pondok Jati","transit":false,"is_transit":false,"i_long":106.861737,"i_lat":-6.209188},{"station_name":"Kramat","distance":1829,"is_transit":false,"line":11,"i_lat":-6.193792,"transit":false,"i_long":106.855437,"time":2,"station_id":"KMT"},{"time":1,"transit":false,"station_id":"GST","distance":973,"i_long":106.850107,"line":11,"station_name":"Gang Sentiong","i_lat":-6.185975,"is_transit":false},{"distance":1567,"time":8,"station_name":"Pasar Senen","transit":false,"i_lat":-6.174784,"line":11,"i_long":106.84368,"station_id":"PSE","is_transit":false},{"distance":1436,"i_lat":-6.161728,"line":11,"is_transit":false,"time":4,"transit":false,"station_name":"Kemayoran","i_long":106.839204,"station_id":"KMO"},{"is_transit":false,"time":5,"i_long":106.836569,"line":11,"i_lat":-6.14505,"station_id":"RJW","station_name":"Rajawali","transit":false,"distance":1901},{"i_long":106.826365,"distance":1444,"time":3,"transit":true,"is_transit":true,"station_name":"Kampung Bandan","i_lat":-6.132549,"station_id":"KPB","line":0},{"distance":4102,"is_transit":false,"time":9,"i_long":106.79867,"station_name":"Angke","station_id":"AK","transit":false,"i_lat":-6.144674,"line":0},{"station_name":"Duri","transit":true,"i_lat":-6.155215,"line":1,"distance":1230,"station_id":"DU","i_long":106.800832,"is_transit":true,"time":4},{"station_name":"Grogol","line":5,"i_long":106.788277,"i_lat":-6.162021,"is_transit":false,"station_id":"GGL","distance":1700,"time":3,"transit":false},{"station_name":"Pesing","distance":2036,"is_transit":false,"i_long":106.771379,"i_lat":-6.161433,"line":5,"station_id":"PSG","transit":false,"time":2},{"transit":false,"time":2,"i_lat":-6.1587309999999995,"i_long":106.756522,"distance":1614,"station_name":"Taman Kota","is_transit":false,"station_id":"TKO","line":5},{"station_name":"Bojongindah","station_id":"BOI","is_transit":false,"distance":2334,"transit":false,"i_lat":-6.159876,"line":0,"time":2,"i_long":106.737035},{"station_name":"Rawa Buaya","i_lat":-6.162758,"line":5,"i_long":106.723064,"distance":1152,"time":4,"is_transit":false,"transit":false,"station_id":"RW"},{"station_id":"KDS","is_transit":false,"transit":false,"line":5,"station_name":"Kalideres","distance":2504,"time":3,"i_lat":-6.166068,"i_long":106.701612},{"is_transit":false,"transit":false,"station_id":"PI","line":5,"time":3,"distance":2548,"i_long":106.679458,"station_name":"Poris","i_lat":-6.169933},{"station_id":"BPR","distance":1834,"is_transit":false,"transit":false,"time":3,"i_long":106.665036,"i_lat":-6.171811,"station_name":"Batuceper","line":0},{"line":5,"transit":false,"station_id":"TTI","i_lat":-6.17331,"is_transit":false,"station_name":"Tanah Tinggi","distance":2028,"time":3,"i_long":106.64657},{"is_transit":false,"transit":false,"i_long":106.632761,"line":5,"station_id":"TNG","distance":1547,"time":3,"i_lat":-6.176583,"station_name":"Tangerang"}]]}