{"data":[[{"is_transit":false,"line":2,"time":0,"distance":0,"i_lat":-6.209883,"station_name":"Manggarai","i_long":106.84912,"transit":false,"station_id":"MRI"},{"i_long":106.857948,"transit":false,"time":4,"line":2,"station_id":"TEB","distance":2610,"is_transit":false,"i_lat":-6.226659,"station_name":"Tebet"},{"line":2,"station_id":"CW","distance":1230,"i_lat":-6.242512,"station_name":"Cawang","transit":false,"is_transit":false,"time":2,"i_long":106.856607},{"station_id":"DRN","transit":false,"time":3,"distance":1546,"i_lat":-6.255332,"i_long":106.85449,"line":2,"station_name":"Duren Kalibata","is_transit":false},{"time":2,"line":2,"station_name":"Pasar Minggu Baru","i_long":106.851577,"distance":824,"station_id":"PSMB","is_transit":false,"transit":false,"i_lat":-6.263214}]]}