{"data":[[{"station_id":"MRI","station_name":"Manggarai","is_transit":false,"i_long":106.84912,"i_lat":-6.209883,"transit":false,"time":0,"line":2,"distance":0},{"line":2,"i_lat":-6.226659,"i_long":106.857948,"time":4,"transit":false,"station_id":"TEB","station_name":"Tebet","distance":2610,"is_transit":false},{"time":2,"i_lat":-6.242512,"is_transit":false,"distance":1230,"station_name":"Cawang","line":2,"i_long":106.856607,"station_id":"CW","transit":false},{"distance":1546,"time":3,"is_transit":false,"i_long":106.85449,"transit":false,"line":2,"station_id":"DRN","i_lat":-6.255332,"station_name":"Duren Kalibata"},{"line":2,"distance":824,"is_transit":false,"transit":false,"time":2,"station_name":"Pasar Minggu Baru","i_lat":-6.263214,"i_long":106.851577,"station_id":"PSMB"},{"line":2,"station_name":"Pasar Minggu","i_long":106.843999,"distance":2380,"time":2,"is_transit":false,"i_lat":-6.2842400000000005,"transit":false,"station_id":"PSM"},{"line":2,"is_transit":false,"station_id":"TNT","distance":2820,"transit":false,"time":4,"station_name":"Tanjung Barat","i_lat":-6.3080680000000005,"i_long":106.838896},{"station_name":"Lenteng Agung","is_transit":false,"time":3,"station_id":"LNA","transit":false,"i_lat":-6.330363,"i_long":106.832616,"distance":2671,"line":2},{"time":2,"i_lat":-6.339291,"station_id":"UP","line":2,"distance":1029,"transit":false,"i_long":106.834175,"is_transit":false,"station_name":"Univ. Pancasila"},{"is_transit":false,"station_name":"Univ. Indonesia","line":2,"station_id":"UI","time":3,"i_long":106.831474,"transit":false,"i_lat":-6.360749,"distance":2264}]]}