{"data":[[{"station_name":"Manggarai","time":0,"station_id":"MRI","distance":0,"i_long":106.84912,"line":2,"transit":false,"is_transit":false,"i_lat":-6.209883},{"transit":false,"is_transit":false,"distance":1275,"line":1,"i_long":106.858896,"time":2,"station_id":"MTR","i_lat":-6.212485,"station_name":"Matraman"},{"is_transit":false,"time":8,"distance":1377,"i_lat":-6.215091,"station_name":"Jatinegara","line":1,"transit":false,"i_long":106.86807400000001,"station_id":"JNG"},{"distance":3395,"time":3,"transit":false,"i_lat":-6.2135,"is_transit":false,"station_name":"Klender","i_long":106.899548,"station_id":"KLD","line":1}],[{"transit":false,"i_long":106.84912,"distance":0,"station_name":"Manggarai","is_transit":false,"line":2,"i_lat":-6.209883,"station_id":"MRI","time":0},{"transit":false,"distance":3186,"i_lat":-6.202263,"station_id":"SUD","is_transit":false,"time":4,"line":1,"station_name":"Sudirman","i_long":106.822649},{"line":1,"i_lat":-6.201433,"i_long":106.819881,"station_id":"SUDB","distance":280,"time":1,"transit":false,"station_name":"Sudirman Baru","is_transit":false},{"i_lat":-6.20132,"is_transit":false,"distance":471,"line":1,"transit":false,"station_id":"KAT","i_long":106.816351,"station_name":"Karet","time":1},{"i_lat":-6.185545,"line":1,"station_id":"THB","station_name":"Tanah Abang","distance":2029,"i_long":106.811091,"time":5,"transit":false,"is_transit":false},{"time":8,"is_transit":false,"i_long":106.800832,"station_name":"Duri","line":1,"distance":3632,"station_id":"DU","transit":false,"i_lat":-6.155215},{"station_id":"AK","station_name":"Angke","time":4,"distance":1230,"is_transit":false,"i_lat":-6.144674,"i_long":106.79867,"line":1,"transit":false},{"line":4,"i_lat":-6.132549,"transit":true,"station_name":"Kampung Bandan","is_transit":true,"time":9,"station_id":"KPB","distance":4102,"i_long":106.826365},{"time":3,"transit":false,"i_lat":-6.14505,"line":11,"i_long":106.836569,"station_name":"Rajawali","distance":1444,"station_id":"RJW","is_transit":false},{"transit":false,"distance":1901,"station_id":"KMO","time":5,"is_transit":false,"line":11,"i_lat":-6.161728,"i_long":106.839204,"station_name":"Kemayoran"},{"i_lat":-6.174784,"i_long":106.84368,"is_transit":false,"line":11,"station_name":"Pasar Senen","transit":false,"time":4,"station_id":"PSE","distance":1436},{"transit":false,"station_id":"GST","station_name":"Gang Sentiong","time":8,"is_transit":false,"distance":1567,"line":11,"i_long":106.850107,"i_lat":-6.185975},{"time":1,"station_id":"KMT","distance":973,"is_transit":false,"transit":false,"line":11,"i_lat":-6.193792,"i_long":106.855437,"station_name":"Kramat"},{"station_id":"POK","time":2,"transit":false,"i_long":106.861737,"distance":1829,"station_name":"Pondok Jati","is_transit":false,"i_lat":-6.209188,"line":11},{"i_lat":-6.215091,"is_transit":true,"i_long":106.86807400000001,"distance":1236,"time":9,"station_id":"JNG","line":1,"transit":true,"station_name":"Jatinegara"},{"transit":false,"station_id":"KLD","station_name":"Klender","distance":3395,"is_transit":false,"time":3,"i_lat":-6.2135,"i_long":106.899548,"line":1}],[{"is_transit":false,"line":2,"station_id":"MRI","transit":false,"station_name":"Manggarai","time":0,"i_lat":-6.209883,"distance":0,"i_long":106.84912},{"is_transit":false,"time":4,"i_long":106.840169,"i_lat":-6.198556,"station_name":"Cikini","line":2,"station_id":"CKI","distance":1590,"transit":false},{"station_id":"GDD","time":3,"distance":1750,"i_lat":-6.186295,"station_name":"Gondangdia","is_transit":false,"line":2,"transit":false,"i_long":106.832183},{"station_name":"Juanda","i_lat":-6.166716,"line":2,"station_id":"JUA","transit":false,"i_long":106.828284,"time":4,"distance":2015,"is_transit":false},{"time":2,"is_transit":false,"distance":1149,"station_id":"SW","station_name":"Sawah Besar","transit":false,"i_long":106.827103,"i_lat":-6.160725,"line":2},{"transit":false,"line":2,"time":2,"station_id":"MGB","station_name":"Manggabesar","is_transit":false,"i_lat":-6.149769,"distance":906,"i_long":106.82482},{"station_name":"Jayakarta","time":2,"distance":1080,"station_id":"JAY","transit":false,"i_lat":-6.141205,"is_transit":false,"i_long":106.820901,"line":2},{"time":4,"transit":true,"i_lat":-6.137569,"i_long":106.812439,"station_name":"Jakarta Kota","distance":1264,"line":2,"station_id":"JAKK","is_transit":true},{"distance":1364,"i_lat":-6.132549,"i_long":106.826365,"line":4,"station_name":"Kampung Bandan","transit":true,"time":3,"station_id":"KPB","is_transit":true},{"station_id":"RJW","station_name":"Rajawali","is_transit":false,"i_lat":-6.14505,"transit":false,"distance":1444,"time":3,"line":11,"i_long":106.836569},{"transit":false,"time":5,"is_transit":false,"station_id":"KMO","line":11,"station_name":"Kemayoran","distance":1901,"i_long":106.839204,"i_lat":-6.161728},{"i_long":106.84368,"time":4,"transit":false,"station_name":"Pasar Senen","station_id":"PSE","is_transit":false,"distance":1436,"line":11,"i_lat":-6.174784},{"station_id":"GST","i_long":106.850107,"line":11,"distance":1567,"station_name":"Gang Sentiong","transit":false,"is_transit":false,"time":8,"i_lat":-6.185975},{"i_lat":-6.193792,"i_long":106.855437,"transit":false,"station_name":"Kramat","distance":973,"station_id":"KMT","time":1,"is_transit":false,"line":11},{"station_id":"POK","transit":false,"is_transit":false,"i_long":106.861737,"line":11,"station_name":"Pondok Jati","i_lat":-6.209188,"time":2,"distance":1829},{"station_name":"Jatinegara","station_id":"JNG","line":1,"i_long":106.86807400000001,"transit":true,"is_transit":true,"time":9,"distance":1236,"i_lat":-6.215091},{"line":1,"i_long":106.899548,"transit":false,"station_name":"Klender","time":3,"station_id":"KLD","distance":3395,"is_transit":false,"i_lat":-6.2135}]]}