{"data":[[{"i_long":106.84912,"transit":false,"distance":0,"i_lat":-6.209883,"is_transit":true,"line":0,"time":0,"station_name":"Manggarai","station_id":"MRI"},{"station_name":"Cikini","line":0,"time":4,"transit":false,"station_id":"CKI","distance":1590,"is_transit":false,"i_lat":-6.198556,"i_long":106.840169},{"is_transit":false,"transit":false,"i_lat":-6.186295,"time":3,"line":2,"station_id":"GDD","station_name":"Gondangdia","i_long":106.832183,"distance":1750}],[{"time":0,"i_lat":-6.209883,"line":0,"distance":0,"station_name":"Manggarai","transit":false,"i_long":106.84912,"station_id":"MRI","is_transit":true},{"distance":3186,"station_name":"Sudirman","i_lat":-6.202263,"i_long":106.822649,"is_transit":false,"transit":false,"station_id":"SUD","line":1,"time":4},{"i_lat":-6.201433,"distance":280,"time":1,"station_name":"Sudirman Baru","line":1,"transit":false,"i_long":106.819881,"station_id":"SUDB","is_transit":false},{"transit":false,"distance":471,"i_long":106.816351,"time":1,"i_lat":-6.20132,"station_name":"Karet","station_id":"KAT","is_transit":false,"line":1},{"time":5,"i_long":106.811091,"i_lat":-6.185545,"station_name":"Tanah Abang","distance":2029,"is_transit":true,"line":1,"transit":false,"station_id":"THB"},{"line":1,"i_lat":-6.155215,"station_id":"DU","station_name":"Duri","is_transit":true,"time":8,"transit":true,"distance":3632,"i_long":106.800832},{"station_id":"AK","i_long":106.79867,"time":4,"line":0,"is_transit":false,"station_name":"Angke","transit":false,"distance":1230,"i_lat":-6.144674},{"line":0,"time":9,"transit":false,"distance":4102,"station_id":"KPB","i_lat":-6.132549,"i_long":106.826365,"station_name":"Kampung Bandan","is_transit":true},{"distance":1364,"i_lat":-6.137569,"line":0,"transit":true,"i_long":106.812439,"time":3,"station_name":"Jakarta Kota","station_id":"JAKK","is_transit":true},{"i_lat":-6.141205,"line":7,"time":4,"distance":1264,"is_transit":false,"station_name":"Jayakarta","transit":false,"i_long":106.820901,"station_id":"JAY"},{"time":2,"distance":1080,"i_lat":-6.149769,"transit":false,"line":2,"is_transit":false,"i_long":106.82482,"station_name":"Manggabesar","station_id":"MGB"},{"station_id":"SW","transit":false,"station_name":"Sawah Besar","i_long":106.827103,"i_lat":-6.160725,"time":2,"distance":906,"is_transit":false,"line":2},{"transit":false,"station_name":"Juanda","i_lat":-6.166716,"station_id":"JUA","is_transit":false,"time":2,"i_long":106.828284,"distance":1149,"line":2},{"is_transit":false,"station_id":"GDD","distance":2015,"i_lat":-6.186295,"transit":false,"i_long":106.832183,"station_name":"Gondangdia","line":2,"time":4}],[{"station_id":"MRI","line":0,"distance":0,"i_long":106.84912,"station_name":"Manggarai","i_lat":-6.209883,"time":0,"transit":false,"is_transit":true},{"i_lat":-6.212485,"time":2,"distance":1275,"station_name":"Matraman","is_transit":false,"transit":false,"line":1,"i_long":106.858896,"station_id":"MTR"},{"is_transit":true,"station_name":"Jatinegara","time":8,"i_long":106.86807400000001,"line":0,"station_id":"JNG","transit":true,"distance":1377,"i_lat":-6.215091},{"transit":false,"i_long":106.861737,"station_id":"POK","i_lat":-6.209188,"is_transit":false,"distance":1236,"station_name":"Pondok Jati","time":2,"line":11},{"distance":1829,"line":11,"station_id":"KMT","is_transit":false,"i_lat":-6.193792,"transit":false,"station_name":"Kramat","time":2,"i_long":106.855437},{"distance":973,"i_long":106.850107,"time":1,"station_id":"GST","is_transit":false,"transit":false,"line":11,"station_name":"Gang Sentiong","i_lat":-6.185975},{"station_id":"PSE","station_name":"Pasar Senen","time":8,"distance":1567,"transit":false,"is_transit":false,"i_long":106.84368,"line":11,"i_lat":-6.174784},{"distance":1436,"i_lat":-6.161728,"station_id":"KMO","line":11,"time":4,"i_long":106.839204,"is_transit":false,"station_name":"Kemayoran","transit":false},{"i_lat":-6.14505,"is_transit":false,"distance":1901,"time":5,"station_name":"Rajawali","station_id":"RJW","line":11,"transit":false,"i_long":106.836569},{"time":3,"distance":1444,"transit":true,"station_id":"KPB","i_lat":-6.132549,"is_transit":true,"station_name":"Kampung Bandan","i_long":106.826365,"line":0},{"i_long":106.812439,"is_transit":true,"time":3,"i_lat":-6.137569,"distance":1364,"station_name":"Jakarta Kota","line":0,"station_id":"JAKK","transit":true},{"i_long":106.820901,"line":7,"station_name":"Jayakarta","station_id":"JAY","time":4,"distance":1264,"transit":false,"is_transit":false,"i_lat":-6.141205},{"station_name":"Manggabesar","is_transit":false,"transit":false,"station_id":"MGB","line":2,"i_long":106.82482,"distance":1080,"time":2,"i_lat":-6.149769},{"is_transit":false,"line":2,"i_lat":-6.160725,"station_id":"SW","transit":false,"station_name":"Sawah Besar","distance":906,"i_long":106.827103,"time":2},{"station_name":"Juanda","distance":1149,"transit":false,"time":2,"station_id":"JUA","i_lat":-6.166716,"i_long":106.828284,"line":2,"is_transit":false},{"station_id":"GDD","distance":2015,"station_name":"Gondangdia","transit":false,"is_transit":false,"i_lat":-6.186295,"i_long":106.832183,"line":2,"time":4}]]}