{"data":[[{"station_id":"MRI","transit":false,"station_name":"Manggarai","is_transit":false,"time":0,"distance":0,"i_lat":-6.209883,"line":2,"i_long":106.84912},{"i_long":106.858896,"line":1,"station_name":"Matraman","is_transit":false,"time":2,"transit":false,"distance":1275,"station_id":"MTR","i_lat":-6.212485},{"i_lat":-6.215091,"time":8,"line":1,"is_transit":true,"i_long":106.86807400000001,"station_id":"JNG","station_name":"Jatinegara","distance":1377,"transit":true},{"line":11,"transit":false,"distance":1236,"i_lat":-6.209188,"station_name":"Pondok Jati","i_long":106.861737,"is_transit":false,"time":2,"station_id":"POK"},{"transit":false,"distance":1829,"i_lat":-6.193792,"is_transit":false,"i_long":106.855437,"station_id":"KMT","station_name":"Kramat","time":2,"line":11},{"station_name":"Gang Sentiong","time":1,"distance":973,"line":11,"i_long":106.850107,"is_transit":false,"transit":false,"i_lat":-6.185975,"station_id":"GST"},{"station_id":"PSE","distance":1567,"line":11,"is_transit":false,"i_lat":-6.174784,"station_name":"Pasar Senen","transit":false,"time":8,"i_long":106.84368},{"distance":1436,"line":11,"station_name":"Kemayoran","is_transit":false,"i_lat":-6.161728,"transit":false,"station_id":"KMO","time":4,"i_long":106.839204},{"is_transit":false,"time":5,"station_id":"RJW","distance":1901,"station_name":"Rajawali","i_lat":-6.14505,"line":11,"i_long":106.836569,"transit":false}],[{"station_id":"MRI","i_lat":-6.209883,"distance":0,"station_name":"Manggarai","i_long":106.84912,"line":2,"is_transit":false,"time":0,"transit":false},{"time":4,"line":1,"station_name":"Sudirman","is_transit":false,"i_lat":-6.202263,"distance":3186,"i_long":106.822649,"transit":false,"station_id":"SUD"},{"station_name":"Sudirman Baru","distance":280,"transit":false,"is_transit":false,"station_id":"SUDB","line":1,"i_lat":-6.201433,"time":1,"i_long":106.819881},{"time":1,"line":1,"i_long":106.816351,"is_transit":false,"distance":471,"station_name":"Karet","i_lat":-6.20132,"station_id":"KAT","transit":false},{"is_transit":false,"transit":false,"distance":2029,"i_long":106.811091,"time":5,"i_lat":-6.185545,"line":1,"station_name":"Tanah Abang","station_id":"THB"},{"station_name":"Duri","station_id":"DU","i_lat":-6.155215,"line":1,"is_transit":false,"time":8,"distance":3632,"i_long":106.800832,"transit":false},{"station_id":"AK","station_name":"Angke","distance":1230,"transit":false,"is_transit":false,"i_long":106.79867,"line":1,"i_lat":-6.144674,"time":4},{"time":9,"transit":true,"i_long":106.826365,"station_name":"Kampung Bandan","is_transit":true,"station_id":"KPB","distance":4102,"line":4,"i_lat":-6.132549},{"line":11,"i_lat":-6.14505,"is_transit":false,"time":3,"i_long":106.836569,"transit":false,"station_id":"RJW","distance":1444,"station_name":"Rajawali"}],[{"i_long":106.84912,"distance":0,"station_name":"Manggarai","i_lat":-6.209883,"time":0,"station_id":"MRI","is_transit":false,"line":2,"transit":false},{"station_name":"Cikini","i_long":106.840169,"i_lat":-6.198556,"transit":false,"distance":1590,"is_transit":false,"station_id":"CKI","line":2,"time":4},{"transit":false,"i_long":106.832183,"station_id":"GDD","station_name":"Gondangdia","time":3,"distance":1750,"is_transit":false,"i_lat":-6.186295,"line":2},{"time":4,"i_lat":-6.166716,"station_name":"Juanda","i_long":106.828284,"station_id":"JUA","distance":2015,"transit":false,"is_transit":false,"line":2},{"is_transit":false,"station_id":"SW","station_name":"Sawah Besar","transit":false,"distance":1149,"i_long":106.827103,"i_lat":-6.160725,"line":2,"time":2},{"is_transit":false,"station_id":"MGB","transit":false,"time":2,"distance":906,"station_name":"Manggabesar","line":2,"i_lat":-6.149769,"i_long":106.82482},{"time":2,"i_lat":-6.141205,"line":2,"i_long":106.820901,"is_transit":false,"transit":false,"station_id":"JAY","station_name":"Jayakarta","distance":1080},{"i_long":106.812439,"station_id":"JAKK","distance":1264,"transit":true,"i_lat":-6.137569,"line":2,"station_name":"Jakarta Kota","time":4,"is_transit":true},{"station_name":"Kampung Bandan","transit":true,"time":3,"line":4,"i_lat":-6.132549,"i_long":106.826365,"distance":1364,"is_transit":true,"station_id":"KPB"},{"transit":false,"distance":1444,"station_id":"RJW","i_long":106.836569,"time":3,"station_name":"Rajawali","is_transit":false,"line":11,"i_lat":-6.14505}]]}