{"data":[[{"station_id":"MRI","distance":0,"transit":false,"i_lat":-6.209883,"is_transit":false,"station_name":"Manggarai","line":2,"time":0,"i_long":106.84912},{"i_long":106.822649,"transit":false,"i_lat":-6.202263,"is_transit":false,"time":4,"line":1,"station_id":"SUD","station_name":"Sudirman","distance":3186},{"distance":280,"i_long":106.819881,"line":1,"transit":false,"time":1,"station_name":"Sudirman Baru","station_id":"SUDB","i_lat":-6.201433,"is_transit":false},{"station_id":"KAT","distance":471,"transit":false,"is_transit":false,"line":1,"station_name":"Karet","time":1,"i_long":106.816351,"i_lat":-6.20132},{"i_lat":-6.185545,"is_transit":true,"distance":2029,"transit":true,"station_id":"THB","line":1,"station_name":"Tanah Abang","i_long":106.811091,"time":5},{"station_name":"Palmerah","i_lat":-6.207404,"line":6,"transit":false,"distance":3191,"is_transit":false,"station_id":"PLM","time":6,"i_long":106.79689},{"station_id":"KBY","i_lat":-6.237242,"station_name":"Kebayoran","i_long":106.780334,"distance":3737,"line":6,"time":7,"transit":false,"is_transit":false},{"distance":6218,"i_long":106.74273,"line":6,"station_id":"PDJ","is_transit":false,"transit":false,"time":8,"i_lat":-6.276362,"station_name":"Pondokranji"},{"i_long":106.728916,"transit":false,"distance":2179,"line":6,"station_id":"JMU","i_lat":-6.288927,"station_name":"Jurangmangu","time":3,"is_transit":false}],[{"transit":false,"distance":0,"station_name":"Manggarai","i_lat":-6.209883,"time":0,"i_long":106.84912,"line":2,"station_id":"MRI","is_transit":false},{"station_name":"Cikini","distance":1590,"i_long":106.840169,"time":4,"station_id":"CKI","i_lat":-6.198556,"transit":false,"line":2,"is_transit":false},{"i_lat":-6.186295,"line":2,"is_transit":false,"i_long":106.832183,"time":3,"distance":1750,"station_id":"GDD","station_name":"Gondangdia","transit":false},{"station_name":"Juanda","transit":false,"distance":2015,"i_long":106.828284,"i_lat":-6.166716,"station_id":"JUA","line":2,"time":4,"is_transit":false},{"transit":false,"station_name":"Sawah Besar","i_lat":-6.160725,"line":2,"station_id":"SW","is_transit":false,"time":2,"distance":1149,"i_long":106.827103},{"is_transit":false,"i_lat":-6.149769,"time":2,"station_id":"MGB","transit":false,"distance":906,"station_name":"Manggabesar","i_long":106.82482,"line":2},{"distance":1080,"i_long":106.820901,"station_id":"JAY","transit":false,"time":2,"i_lat":-6.141205,"line":2,"station_name":"Jayakarta","is_transit":false},{"i_lat":-6.137569,"distance":1264,"i_long":106.812439,"time":4,"line":2,"station_name":"Jakarta Kota","is_transit":true,"transit":true,"station_id":"JAKK"},{"transit":true,"time":3,"distance":1364,"i_lat":-6.132549,"station_id":"KPB","line":4,"i_long":106.826365,"is_transit":true,"station_name":"Kampung Bandan"},{"transit":false,"station_name":"Angke","time":9,"is_transit":false,"distance":4102,"i_lat":-6.144674,"i_long":106.79867,"line":1,"station_id":"AK"},{"i_lat":-6.155215,"transit":false,"station_name":"Duri","time":4,"is_transit":false,"distance":1230,"station_id":"DU","i_long":106.800832,"line":1},{"distance":3632,"i_long":106.811091,"time":8,"line":1,"i_lat":-6.185545,"station_name":"Tanah Abang","station_id":"THB","transit":true,"is_transit":true},{"i_long":106.79689,"is_transit":false,"line":6,"transit":false,"distance":3191,"i_lat":-6.207404,"station_id":"PLM","station_name":"Palmerah","time":6},{"station_name":"Kebayoran","is_transit":false,"distance":3737,"i_long":106.780334,"i_lat":-6.237242,"time":7,"station_id":"KBY","line":6,"transit":false},{"time":8,"i_lat":-6.276362,"transit":false,"distance":6218,"i_long":106.74273,"station_name":"Pondokranji","station_id":"PDJ","is_transit":false,"line":6},{"distance":2179,"time":3,"transit":false,"station_name":"Jurangmangu","i_lat":-6.288927,"station_id":"JMU","is_transit":false,"i_long":106.728916,"line":6}],[{"i_lat":-6.209883,"line":2,"time":0,"distance":0,"transit":false,"is_transit":false,"station_name":"Manggarai","i_long":106.84912,"station_id":"MRI"},{"station_id":"MTR","is_transit":false,"time":2,"transit":false,"i_long":106.858896,"line":1,"i_lat":-6.212485,"station_name":"Matraman","distance":1275},{"is_transit":true,"time":8,"i_lat":-6.215091,"transit":true,"station_name":"Jatinegara","station_id":"JNG","i_long":106.86807400000001,"line":1,"distance":1377},{"time":2,"transit":false,"station_id":"POK","is_transit":false,"line":11,"station_name":"Pondok Jati","distance":1236,"i_lat":-6.209188,"i_long":106.861737},{"line":11,"distance":1829,"transit":false,"i_long":106.855437,"station_id":"KMT","station_name":"Kramat","is_transit":false,"time":2,"i_lat":-6.193792},{"i_long":106.850107,"line":11,"transit":false,"i_lat":-6.185975,"is_transit":false,"station_id":"GST","distance":973,"time":1,"station_name":"Gang Sentiong"},{"station_name":"Pasar Senen","station_id":"PSE","transit":false,"is_transit":false,"time":8,"distance":1567,"i_long":106.84368,"line":11,"i_lat":-6.174784},{"station_id":"KMO","time":4,"i_long":106.839204,"transit":false,"distance":1436,"is_transit":false,"station_name":"Kemayoran","i_lat":-6.161728,"line":11},{"is_transit":false,"i_lat":-6.14505,"transit":false,"i_long":106.836569,"distance":1901,"station_id":"RJW","line":11,"station_name":"Rajawali","time":5},{"transit":true,"time":3,"station_id":"KPB","station_name":"Kampung Bandan","distance":1444,"i_long":106.826365,"i_lat":-6.132549,"line":4,"is_transit":true},{"station_id":"AK","is_transit":false,"i_long":106.79867,"i_lat":-6.144674,"line":1,"time":9,"transit":false,"distance":4102,"station_name":"Angke"},{"is_transit":false,"line":1,"station_name":"Duri","distance":1230,"transit":false,"i_long":106.800832,"time":4,"station_id":"DU","i_lat":-6.155215},{"transit":true,"time":8,"is_transit":true,"i_long":106.811091,"line":1,"distance":3632,"i_lat":-6.185545,"station_id":"THB","station_name":"Tanah Abang"},{"distance":3191,"time":6,"transit":false,"i_long":106.79689,"station_name":"Palmerah","is_transit":false,"line":6,"station_id":"PLM","i_lat":-6.207404},{"station_id":"KBY","transit":false,"station_name":"Kebayoran","line":6,"is_transit":false,"i_lat":-6.237242,"i_long":106.780334,"distance":3737,"time":7},{"transit":false,"station_name":"Pondokranji","station_id":"PDJ","is_transit":false,"time":8,"distance":6218,"i_lat":-6.276362,"line":6,"i_long":106.74273},{"transit":false,"is_transit":false,"line":6,"station_name":"Jurangmangu","distance":2179,"time":3,"i_lat":-6.288927,"station_id":"JMU","i_long":106.728916}]]}