{"data":[[{"i_long":106.84912,"line":2,"i_lat":-6.209883,"station_id":"MRI","transit":false,"station_name":"Manggarai","time":0,"is_transit":false,"distance":0},{"station_name":"Matraman","i_lat":-6.212485,"time":2,"station_id":"MTR","is_transit":false,"distance":1275,"i_long":106.858896,"transit":false,"line":1},{"transit":true,"is_transit":true,"time":8,"distance":1377,"i_lat":-6.215091,"line":1,"station_id":"JNG","i_long":106.86807400000001,"station_name":"Jatinegara"},{"station_id":"POK","i_long":106.861737,"i_lat":-6.209188,"station_name":"Pondok Jati","distance":1236,"transit":false,"is_transit":false,"line":11,"time":2},{"i_lat":-6.193792,"i_long":106.855437,"is_transit":false,"time":2,"distance":1829,"station_name":"Kramat","station_id":"KMT","transit":false,"line":11},{"station_name":"Gang Sentiong","is_transit":false,"transit":false,"station_id":"GST","distance":973,"time":1,"i_lat":-6.185975,"line":11,"i_long":106.850107},{"station_id":"PSE","i_lat":-6.174784,"is_transit":false,"distance":1567,"transit":false,"station_name":"Pasar Senen","time":8,"line":11,"i_long":106.84368},{"is_transit":false,"transit":false,"distance":1436,"i_lat":-6.161728,"i_long":106.839204,"station_id":"KMO","time":4,"station_name":"Kemayoran","line":11},{"i_long":106.836569,"transit":false,"station_id":"RJW","is_transit":false,"distance":1901,"station_name":"Rajawali","i_lat":-6.14505,"time":5,"line":11}],[{"time":0,"i_long":106.84912,"i_lat":-6.209883,"distance":0,"station_name":"Manggarai","is_transit":false,"station_id":"MRI","line":2,"transit":false},{"time":4,"station_name":"Sudirman","transit":false,"i_lat":-6.202263,"is_transit":false,"distance":3186,"station_id":"SUD","i_long":106.822649,"line":1},{"line":1,"transit":false,"i_lat":-6.201433,"i_long":106.819881,"is_transit":false,"station_id":"SUDB","time":1,"station_name":"Sudirman Baru","distance":280},{"transit":false,"is_transit":false,"line":1,"i_long":106.816351,"time":1,"distance":471,"i_lat":-6.20132,"station_id":"KAT","station_name":"Karet"},{"is_transit":false,"line":1,"time":5,"i_long":106.811091,"distance":2029,"i_lat":-6.185545,"station_name":"Tanah Abang","station_id":"THB","transit":false},{"is_transit":false,"line":1,"station_id":"DU","station_name":"Duri","distance":3632,"transit":false,"i_lat":-6.155215,"i_long":106.800832,"time":8},{"station_id":"AK","time":4,"i_lat":-6.144674,"transit":false,"distance":1230,"station_name":"Angke","line":1,"is_transit":false,"i_long":106.79867},{"line":4,"station_name":"Kampung Bandan","i_lat":-6.132549,"i_long":106.826365,"station_id":"KPB","is_transit":true,"distance":4102,"transit":true,"time":9},{"line":11,"distance":1444,"i_long":106.836569,"time":3,"station_name":"Rajawali","is_transit":false,"transit":false,"station_id":"RJW","i_lat":-6.14505}],[{"station_name":"Manggarai","i_long":106.84912,"transit":false,"line":2,"station_id":"MRI","time":0,"is_transit":false,"i_lat":-6.209883,"distance":0},{"i_long":106.840169,"distance":1590,"station_id":"CKI","time":4,"i_lat":-6.198556,"is_transit":false,"line":2,"station_name":"Cikini","transit":false},{"distance":1750,"time":3,"transit":false,"i_lat":-6.186295,"station_name":"Gondangdia","station_id":"GDD","is_transit":false,"line":2,"i_long":106.832183},{"station_name":"Juanda","is_transit":false,"distance":2015,"line":2,"station_id":"JUA","i_lat":-6.166716,"transit":false,"time":4,"i_long":106.828284},{"line":2,"station_id":"SW","transit":false,"station_name":"Sawah Besar","is_transit":false,"i_lat":-6.160725,"time":2,"distance":1149,"i_long":106.827103},{"station_name":"Manggabesar","i_long":106.82482,"line":2,"transit":false,"distance":906,"i_lat":-6.149769,"time":2,"is_transit":false,"station_id":"MGB"},{"distance":1080,"station_name":"Jayakarta","time":2,"line":2,"transit":false,"station_id":"JAY","i_lat":-6.141205,"i_long":106.820901,"is_transit":false},{"line":2,"distance":1264,"i_long":106.812439,"station_id":"JAKK","is_transit":true,"station_name":"Jakarta Kota","i_lat":-6.137569,"time":4,"transit":true},{"is_transit":true,"distance":1364,"line":4,"i_long":106.826365,"time":3,"i_lat":-6.132549,"transit":true,"station_name":"Kampung Bandan","station_id":"KPB"},{"station_id":"RJW","i_long":106.836569,"distance":1444,"station_name":"Rajawali","is_transit":false,"i_lat":-6.14505,"line":11,"transit":false,"time":3}]]}