{"data":[[{"station_id":"MRI","transit":false,"i_lat":-6.209883,"is_transit":false,"time":0,"station_name":"Manggarai","i_long":106.84912,"distance":0,"line":2},{"station_name":"Cikini","time":4,"distance":1590,"is_transit":false,"transit":false,"station_id":"CKI","i_lat":-6.198556,"line":2,"i_long":106.840169},{"line":2,"transit":false,"station_id":"GDD","station_name":"Gondangdia","is_transit":false,"time":3,"i_lat":-6.186295,"i_long":106.832183,"distance":1750}],[{"station_name":"Manggarai","is_transit":false,"time":0,"i_lat":-6.209883,"i_long":106.84912,"line":2,"distance":0,"station_id":"MRI","transit":false},{"i_lat":-6.202263,"is_transit":false,"line":1,"transit":false,"distance":3186,"time":4,"station_id":"SUD","i_long":106.822649,"station_name":"Sudirman"},{"distance":280,"i_long":106.819881,"time":1,"transit":false,"is_transit":false,"line":1,"i_lat":-6.201433,"station_id":"SUDB","station_name":"Sudirman Baru"},{"line":1,"time":1,"station_id":"KAT","transit":false,"i_lat":-6.20132,"distance":471,"i_long":106.816351,"is_transit":false,"station_name":"Karet"},{"station_id":"THB","i_long":106.811091,"station_name":"Tanah Abang","distance":2029,"i_lat":-6.185545,"line":1,"transit":false,"is_transit":false,"time":5},{"time":8,"station_id":"DU","distance":3632,"i_long":106.800832,"line":1,"transit":false,"station_name":"Duri","i_lat":-6.155215,"is_transit":false},{"time":4,"distance":1230,"is_transit":false,"i_lat":-6.144674,"transit":false,"i_long":106.79867,"line":1,"station_name":"Angke","station_id":"AK"},{"transit":true,"is_transit":true,"station_id":"KPB","station_name":"Kampung Bandan","time":9,"i_lat":-6.132549,"i_long":106.826365,"distance":4102,"line":4},{"i_lat":-6.137569,"station_id":"JAKK","is_transit":true,"distance":1364,"transit":true,"i_long":106.812439,"time":3,"station_name":"Jakarta Kota","line":2},{"station_id":"JAY","transit":false,"time":4,"distance":1264,"station_name":"Jayakarta","i_long":106.820901,"is_transit":false,"i_lat":-6.141205,"line":2},{"distance":1080,"i_long":106.82482,"station_name":"Manggabesar","i_lat":-6.149769,"station_id":"MGB","line":2,"transit":false,"time":2,"is_transit":false},{"time":2,"distance":906,"is_transit":false,"station_name":"Sawah Besar","i_long":106.827103,"line":2,"transit":false,"i_lat":-6.160725,"station_id":"SW"},{"line":2,"i_long":106.828284,"time":2,"station_id":"JUA","distance":1149,"i_lat":-6.166716,"transit":false,"station_name":"Juanda","is_transit":false},{"station_id":"GDD","is_transit":false,"distance":2015,"line":2,"i_long":106.832183,"transit":false,"station_name":"Gondangdia","time":4,"i_lat":-6.186295}],[{"time":0,"station_name":"Manggarai","i_long":106.84912,"station_id":"MRI","is_transit":false,"i_lat":-6.209883,"line":2,"distance":0,"transit":false},{"distance":1275,"station_name":"Matraman","station_id":"MTR","transit":false,"line":1,"time":2,"i_lat":-6.212485,"i_long":106.858896,"is_transit":false},{"i_lat":-6.215091,"transit":true,"line":1,"station_name":"Jatinegara","station_id":"JNG","distance":1377,"i_long":106.86807400000001,"is_transit":true,"time":8},{"station_id":"POK","transit":false,"i_long":106.861737,"line":11,"distance":1236,"station_name":"Pondok Jati","time":2,"i_lat":-6.209188,"is_transit":false},{"distance":1829,"i_lat":-6.193792,"time":2,"transit":false,"station_name":"Kramat","line":11,"station_id":"KMT","is_transit":false,"i_long":106.855437},{"time":1,"station_id":"GST","is_transit":false,"i_lat":-6.185975,"line":11,"transit":false,"station_name":"Gang Sentiong","distance":973,"i_long":106.850107},{"is_transit":false,"time":8,"distance":1567,"i_lat":-6.174784,"line":11,"station_name":"Pasar Senen","i_long":106.84368,"transit":false,"station_id":"PSE"},{"distance":1436,"station_id":"KMO","line":11,"transit":false,"is_transit":false,"station_name":"Kemayoran","i_long":106.839204,"time":4,"i_lat":-6.161728},{"line":11,"i_long":106.836569,"transit":false,"distance":1901,"i_lat":-6.14505,"station_name":"Rajawali","is_transit":false,"time":5,"station_id":"RJW"},{"i_lat":-6.132549,"is_transit":true,"line":4,"time":3,"transit":true,"station_id":"KPB","distance":1444,"i_long":106.826365,"station_name":"Kampung Bandan"},{"transit":true,"time":3,"distance":1364,"i_lat":-6.137569,"station_id":"JAKK","i_long":106.812439,"station_name":"Jakarta Kota","is_transit":true,"line":2},{"i_lat":-6.141205,"transit":false,"is_transit":false,"line":2,"station_id":"JAY","station_name":"Jayakarta","distance":1264,"time":4,"i_long":106.820901},{"i_lat":-6.149769,"time":2,"line":2,"transit":false,"station_id":"MGB","is_transit":false,"station_name":"Manggabesar","distance":1080,"i_long":106.82482},{"distance":906,"line":2,"transit":false,"station_name":"Sawah Besar","time":2,"station_id":"SW","is_transit":false,"i_lat":-6.160725,"i_long":106.827103},{"transit":false,"is_transit":false,"station_id":"JUA","i_lat":-6.166716,"distance":1149,"line":2,"i_long":106.828284,"time":2,"station_name":"Juanda"},{"transit":false,"time":4,"station_name":"Gondangdia","is_transit":false,"line":2,"station_id":"GDD","distance":2015,"i_long":106.832183,"i_lat":-6.186295}]]}