{"data":[[{"station_id":"MRI","time":0,"transit":false,"line":2,"i_lat":-6.209883,"distance":0,"is_transit":false,"i_long":106.84912,"station_name":"Manggarai"},{"i_lat":-6.212485,"i_long":106.858896,"line":1,"time":2,"station_name":"Matraman","is_transit":false,"station_id":"MTR","distance":1275,"transit":false},{"time":8,"is_transit":true,"distance":1377,"transit":true,"i_long":106.86807400000001,"station_name":"Jatinegara","i_lat":-6.215091,"station_id":"JNG","line":1},{"is_transit":false,"station_id":"POK","time":2,"distance":1236,"station_name":"Pondok Jati","line":11,"transit":false,"i_lat":-6.209188,"i_long":106.861737},{"station_name":"Kramat","distance":1829,"transit":false,"i_lat":-6.193792,"line":11,"i_long":106.855437,"station_id":"KMT","is_transit":false,"time":2},{"station_name":"Gang Sentiong","time":1,"distance":973,"line":11,"i_long":106.850107,"station_id":"GST","i_lat":-6.185975,"transit":false,"is_transit":false}],[{"i_long":106.84912,"line":2,"is_transit":false,"distance":0,"i_lat":-6.209883,"time":0,"transit":false,"station_id":"MRI","station_name":"Manggarai"},{"station_name":"Sudirman","transit":false,"station_id":"SUD","is_transit":false,"time":4,"i_lat":-6.202263,"distance":3186,"i_long":106.822649,"line":1},{"i_lat":-6.201433,"i_long":106.819881,"transit":false,"station_id":"SUDB","is_transit":false,"station_name":"Sudirman Baru","time":1,"distance":280,"line":1},{"i_lat":-6.20132,"station_id":"KAT","i_long":106.816351,"time":1,"line":1,"is_transit":false,"distance":471,"transit":false,"station_name":"Karet"},{"transit":false,"line":1,"station_id":"THB","i_lat":-6.185545,"i_long":106.811091,"is_transit":false,"station_name":"Tanah Abang","time":5,"distance":2029},{"station_name":"Duri","i_long":106.800832,"time":8,"transit":false,"is_transit":false,"station_id":"DU","i_lat":-6.155215,"line":1,"distance":3632},{"i_lat":-6.144674,"station_name":"Angke","transit":false,"station_id":"AK","time":4,"distance":1230,"is_transit":false,"line":1,"i_long":106.79867},{"station_name":"Kampung Bandan","transit":true,"distance":4102,"time":9,"i_lat":-6.132549,"line":4,"is_transit":true,"i_long":106.826365,"station_id":"KPB"},{"distance":1444,"i_lat":-6.14505,"is_transit":false,"time":3,"i_long":106.836569,"station_name":"Rajawali","station_id":"RJW","line":11,"transit":false},{"i_lat":-6.161728,"station_id":"KMO","i_long":106.839204,"transit":false,"station_name":"Kemayoran","time":5,"is_transit":false,"distance":1901,"line":11},{"distance":1436,"i_long":106.84368,"station_name":"Pasar Senen","line":11,"is_transit":false,"transit":false,"station_id":"PSE","i_lat":-6.174784,"time":4},{"i_long":106.850107,"station_id":"GST","line":11,"transit":false,"is_transit":false,"station_name":"Gang Sentiong","distance":1567,"i_lat":-6.185975,"time":8}],[{"i_long":106.84912,"time":0,"station_id":"MRI","distance":0,"i_lat":-6.209883,"station_name":"Manggarai","transit":false,"is_transit":false,"line":2},{"i_lat":-6.198556,"is_transit":false,"i_long":106.840169,"distance":1590,"transit":false,"time":4,"station_id":"CKI","station_name":"Cikini","line":2},{"i_lat":-6.186295,"time":3,"is_transit":false,"i_long":106.832183,"transit":false,"line":2,"station_id":"GDD","distance":1750,"station_name":"Gondangdia"},{"station_id":"JUA","station_name":"Juanda","is_transit":false,"transit":false,"distance":2015,"i_long":106.828284,"line":2,"i_lat":-6.166716,"time":4},{"i_long":106.827103,"distance":1149,"is_transit":false,"transit":false,"i_lat":-6.160725,"station_id":"SW","time":2,"station_name":"Sawah Besar","line":2},{"time":2,"transit":false,"station_name":"Manggabesar","distance":906,"line":2,"i_lat":-6.149769,"station_id":"MGB","i_long":106.82482,"is_transit":false},{"distance":1080,"line":2,"is_transit":false,"transit":false,"station_id":"JAY","station_name":"Jayakarta","time":2,"i_lat":-6.141205,"i_long":106.820901},{"station_name":"Jakarta Kota","i_lat":-6.137569,"is_transit":true,"line":2,"transit":true,"time":4,"distance":1264,"i_long":106.812439,"station_id":"JAKK"},{"station_name":"Kampung Bandan","line":4,"i_lat":-6.132549,"time":3,"i_long":106.826365,"station_id":"KPB","distance":1364,"transit":true,"is_transit":true},{"station_id":"RJW","i_long":106.836569,"line":11,"is_transit":false,"distance":1444,"transit":false,"time":3,"station_name":"Rajawali","i_lat":-6.14505},{"station_id":"KMO","station_name":"Kemayoran","i_lat":-6.161728,"is_transit":false,"time":5,"i_long":106.839204,"transit":false,"distance":1901,"line":11},{"i_long":106.84368,"distance":1436,"time":4,"station_id":"PSE","transit":false,"line":11,"station_name":"Pasar Senen","i_lat":-6.174784,"is_transit":false},{"is_transit":false,"distance":1567,"time":8,"i_lat":-6.185975,"transit":false,"station_id":"GST","line":11,"i_long":106.850107,"station_name":"Gang Sentiong"}]]}