{"data":[[{"station_name":"Manggarai","station_id":"MRI","transit":false,"distance":0,"i_lat":-6.209883,"i_long":106.84912,"line":2,"is_transit":false,"time":0},{"transit":false,"time":4,"is_transit":false,"station_id":"TEB","distance":2610,"i_lat":-6.226659,"i_long":106.857948,"line":2,"station_name":"Tebet"},{"i_lat":-6.242512,"transit":false,"is_transit":false,"station_id":"CW","station_name":"Cawang","i_long":106.856607,"distance":1230,"time":2,"line":2},{"transit":false,"i_lat":-6.255332,"distance":1546,"i_long":106.85449,"line":2,"station_name":"Duren Kalibata","station_id":"DRN","time":3,"is_transit":false},{"is_transit":false,"station_name":"Pasar Minggu Baru","station_id":"PSMB","distance":824,"i_long":106.851577,"time":2,"i_lat":-6.263214,"transit":false,"line":2}]]}