{"data":[[{"i_lat":-6.212485,"distance":0,"station_id":"MTR","is_transit":false,"i_long":106.858896,"transit":false,"time":0,"line":1,"station_name":"Matraman"},{"line":2,"station_id":"MRI","is_transit":false,"transit":false,"i_lat":-6.209883,"distance":1275,"time":2,"i_long":106.84912,"station_name":"Manggarai"},{"time":4,"distance":3186,"is_transit":false,"i_long":106.822649,"line":1,"station_id":"SUD","i_lat":-6.202263,"transit":false,"station_name":"Sudirman"},{"line":1,"is_transit":false,"time":1,"distance":280,"station_id":"SUDB","station_name":"Sudirman Baru","transit":false,"i_lat":-6.201433,"i_long":106.819881},{"i_lat":-6.20132,"i_long":106.816351,"line":1,"transit":false,"distance":471,"station_id":"KAT","station_name":"Karet","time":1,"is_transit":false},{"station_id":"THB","transit":true,"i_long":106.811091,"station_name":"Tanah Abang","time":5,"i_lat":-6.185545,"distance":2029,"is_transit":true,"line":1},{"distance":3191,"i_lat":-6.207404,"i_long":106.79689,"time":6,"station_id":"PLM","line":6,"is_transit":false,"transit":false,"station_name":"Palmerah"},{"distance":3737,"i_long":106.780334,"line":6,"station_name":"Kebayoran","station_id":"KBY","time":7,"is_transit":false,"i_lat":-6.237242,"transit":false},{"line":6,"station_name":"Pondokranji","i_lat":-6.276362,"station_id":"PDJ","distance":6218,"time":8,"is_transit":false,"transit":false,"i_long":106.74273},{"time":3,"distance":2179,"is_transit":false,"station_id":"JMU","transit":false,"station_name":"Jurangmangu","i_lat":-6.288927,"line":6,"i_long":106.728916},{"i_long":106.712277,"i_lat":-6.296963,"station_name":"Sudimara","line":6,"time":4,"distance":1994,"is_transit":false,"station_id":"SDM","transit":false},{"is_transit":false,"distance":4566,"i_lat":-6.314823,"station_id":"RU","transit":false,"i_long":106.675475,"line":6,"time":6,"station_name":"Rawa Buntu"},{"distance":2413,"time":4,"i_lat":-6.319871,"station_name":"Serpong","transit":false,"is_transit":false,"line":6,"station_id":"SRP","i_long":106.66566},{"distance":1784,"time":4,"station_name":"Cisauk","line":3,"i_lat":-6.32484,"i_long":106.640411,"is_transit":false,"station_id":"CSK","transit":false},{"i_lat":-6.329547,"line":3,"is_transit":false,"i_long":106.617853,"time":4,"station_id":"CC","station_name":"Cicayur","distance":2519,"transit":false},{"i_long":106.568863,"line":6,"transit":false,"station_id":"PRP","station_name":"Parung Panjang","time":8,"distance":5968,"is_transit":false,"i_lat":-6.3441410000000005},{"time":9,"station_name":"Cilejit","transit":false,"station_id":"CJT","i_lat":-6.354349,"i_long":106.508482,"distance":7025,"is_transit":false,"line":3},{"transit":false,"station_name":"Daru","i_lat":-6.338021,"is_transit":false,"i_long":106.491338,"station_id":"DAR","distance":2675,"line":0,"time":6},{"time":5,"distance":3902,"station_name":"Tenjo","transit":false,"station_id":"TEJ","i_long":106.460812,"line":6,"i_lat":-6.327251,"is_transit":false},{"is_transit":false,"transit":false,"i_long":106.425991,"i_lat":-6.328533,"time":5,"line":6,"station_id":"TGS","distance":2974,"station_name":"Tigaraksa"},{"i_lat":-6.33561,"distance":2651,"transit":false,"line":3,"i_long":106.411216,"is_transit":false,"time":3,"station_name":"Cikoya","station_id":"CKY"},{"i_lat":-6.332307,"i_long":106.394373,"is_transit":false,"station_name":"Maja","line":6,"station_id":"MJ","distance":1853,"transit":false,"time":4},{"station_name":"Citeras","i_lat":-6.334892,"time":10,"line":3,"station_id":"CTR","distance":7293,"transit":false,"is_transit":false,"i_long":106.332092},{"i_long":106.250396,"time":13,"line":3,"station_id":"RK","i_lat":-6.352675,"station_name":"Rangkasbitung","distance":9847,"transit":false,"is_transit":false}],[{"distance":0,"is_transit":false,"station_id":"MTR","i_long":106.858896,"station_name":"Matraman","line":1,"transit":false,"i_lat":-6.212485,"time":0},{"line":1,"time":8,"distance":1377,"station_name":"Jatinegara","station_id":"JNG","transit":true,"i_lat":-6.215091,"is_transit":true,"i_long":106.86807400000001},{"is_transit":false,"station_name":"Pondok Jati","station_id":"POK","line":11,"time":2,"i_lat":-6.209188,"distance":1236,"transit":false,"i_long":106.861737},{"is_transit":false,"time":2,"distance":1829,"station_id":"KMT","i_long":106.855437,"transit":false,"i_lat":-6.193792,"station_name":"Kramat","line":11},{"is_transit":false,"transit":false,"i_long":106.850107,"station_name":"Gang Sentiong","i_lat":-6.185975,"time":1,"distance":973,"station_id":"GST","line":11},{"station_id":"PSE","distance":1567,"i_long":106.84368,"time":8,"is_transit":false,"station_name":"Pasar Senen","i_lat":-6.174784,"line":11,"transit":false},{"is_transit":false,"line":11,"station_name":"Kemayoran","time":4,"distance":1436,"station_id":"KMO","i_long":106.839204,"i_lat":-6.161728,"transit":false},{"station_name":"Rajawali","i_lat":-6.14505,"i_long":106.836569,"distance":1901,"station_id":"RJW","line":11,"time":5,"is_transit":false,"transit":false},{"transit":true,"i_lat":-6.132549,"i_long":106.826365,"time":3,"is_transit":true,"station_id":"KPB","station_name":"Kampung Bandan","line":4,"distance":1444},{"transit":false,"i_lat":-6.144674,"is_transit":false,"station_name":"Angke","i_long":106.79867,"time":9,"distance":4102,"line":1,"station_id":"AK"},{"is_transit":false,"transit":false,"line":1,"time":4,"station_id":"DU","i_lat":-6.155215,"i_long":106.800832,"distance":1230,"station_name":"Duri"},{"i_long":106.811091,"line":1,"time":8,"is_transit":true,"distance":3632,"station_id":"THB","transit":true,"i_lat":-6.185545,"station_name":"Tanah Abang"},{"is_transit":false,"time":6,"line":6,"i_lat":-6.207404,"i_long":106.79689,"distance":3191,"station_name":"Palmerah","station_id":"PLM","transit":false},{"i_lat":-6.237242,"station_id":"KBY","is_transit":false,"line":6,"transit":false,"station_name":"Kebayoran","i_long":106.780334,"time":7,"distance":3737},{"i_long":106.74273,"distance":6218,"transit":false,"station_id":"PDJ","line":6,"station_name":"Pondokranji","time":8,"i_lat":-6.276362,"is_transit":false},{"time":3,"i_lat":-6.288927,"station_name":"Jurangmangu","station_id":"JMU","line":6,"distance":2179,"i_long":106.728916,"is_transit":false,"transit":false},{"distance":1994,"line":6,"i_long":106.712277,"time":4,"i_lat":-6.296963,"station_name":"Sudimara","is_transit":false,"transit":false,"station_id":"SDM"},{"is_transit":false,"station_id":"RU","i_long":106.675475,"transit":false,"line":6,"time":6,"station_name":"Rawa Buntu","i_lat":-6.314823,"distance":4566},{"station_id":"SRP","distance":2413,"i_long":106.66566,"i_lat":-6.319871,"time":4,"station_name":"Serpong","transit":false,"line":6,"is_transit":false},{"line":3,"transit":false,"i_lat":-6.32484,"time":4,"station_name":"Cisauk","distance":1784,"station_id":"CSK","i_long":106.640411,"is_transit":false},{"line":3,"station_id":"CC","station_name":"Cicayur","i_lat":-6.329547,"transit":false,"i_long":106.617853,"distance":2519,"is_transit":false,"time":4},{"station_id":"PRP","time":8,"station_name":"Parung Panjang","distance":5968,"i_lat":-6.3441410000000005,"is_transit":false,"i_long":106.568863,"transit":false,"line":6},{"line":3,"distance":7025,"station_name":"Cilejit","station_id":"CJT","is_transit":false,"time":9,"i_lat":-6.354349,"i_long":106.508482,"transit":false},{"line":0,"transit":false,"i_long":106.491338,"distance":2675,"is_transit":false,"station_id":"DAR","i_lat":-6.338021,"time":6,"station_name":"Daru"},{"distance":3902,"time":5,"station_id":"TEJ","transit":false,"is_transit":false,"station_name":"Tenjo","i_long":106.460812,"i_lat":-6.327251,"line":6},{"transit":false,"station_name":"Tigaraksa","i_long":106.425991,"time":5,"i_lat":-6.328533,"distance":2974,"line":6,"is_transit":false,"station_id":"TGS"},{"station_name":"Cikoya","station_id":"CKY","i_lat":-6.33561,"distance":2651,"i_long":106.411216,"time":3,"transit":false,"line":3,"is_transit":false},{"is_transit":false,"line":6,"distance":1853,"station_name":"Maja","i_lat":-6.332307,"time":4,"station_id":"MJ","i_long":106.394373,"transit":false},{"time":10,"transit":false,"line":3,"station_id":"CTR","station_name":"Citeras","distance":7293,"i_lat":-6.334892,"i_long":106.332092,"is_transit":false},{"i_lat":-6.352675,"i_long":106.250396,"line":3,"station_id":"RK","station_name":"Rangkasbitung","distance":9847,"is_transit":false,"transit":false,"time":13}],[{"distance":0,"time":0,"line":1,"station_id":"MTR","i_long":106.858896,"station_name":"Matraman","i_lat":-6.212485,"is_transit":false,"transit":false},{"is_transit":true,"transit":true,"distance":1275,"i_lat":-6.209883,"station_name":"Manggarai","i_long":106.84912,"station_id":"MRI","time":2,"line":2},{"station_id":"CKI","i_lat":-6.198556,"transit":false,"line":2,"station_name":"Cikini","is_transit":false,"time":4,"i_long":106.840169,"distance":1590},{"line":2,"is_transit":false,"time":3,"transit":false,"distance":1750,"station_name":"Gondangdia","station_id":"GDD","i_long":106.832183,"i_lat":-6.186295},{"distance":2015,"i_lat":-6.166716,"station_id":"JUA","time":4,"station_name":"Juanda","i_long":106.828284,"is_transit":false,"line":2,"transit":false},{"i_long":106.827103,"distance":1149,"transit":false,"time":2,"i_lat":-6.160725,"is_transit":false,"station_name":"Sawah Besar","line":2,"station_id":"SW"},{"i_lat":-6.149769,"distance":906,"is_transit":false,"time":2,"i_long":106.82482,"line":2,"transit":false,"station_id":"MGB","station_name":"Manggabesar"},{"i_lat":-6.141205,"station_id":"JAY","distance":1080,"transit":false,"station_name":"Jayakarta","i_long":106.820901,"line":2,"is_transit":false,"time":2},{"distance":1264,"is_transit":true,"i_long":106.812439,"time":4,"station_name":"Jakarta Kota","station_id":"JAKK","line":2,"transit":true,"i_lat":-6.137569},{"i_long":106.826365,"station_id":"KPB","line":4,"is_transit":true,"time":3,"transit":true,"station_name":"Kampung Bandan","distance":1364,"i_lat":-6.132549},{"station_id":"AK","is_transit":false,"transit":false,"time":9,"i_lat":-6.144674,"line":1,"distance":4102,"station_name":"Angke","i_long":106.79867},{"is_transit":false,"station_id":"DU","line":1,"distance":1230,"station_name":"Duri","time":4,"i_long":106.800832,"i_lat":-6.155215,"transit":false},{"is_transit":true,"line":1,"distance":3632,"transit":true,"station_id":"THB","station_name":"Tanah Abang","i_long":106.811091,"i_lat":-6.185545,"time":8},{"i_lat":-6.207404,"station_name":"Palmerah","station_id":"PLM","i_long":106.79689,"distance":3191,"line":6,"time":6,"transit":false,"is_transit":false},{"station_id":"KBY","is_transit":false,"transit":false,"time":7,"i_lat":-6.237242,"i_long":106.780334,"distance":3737,"line":6,"station_name":"Kebayoran"},{"time":8,"line":6,"is_transit":false,"distance":6218,"transit":false,"i_lat":-6.276362,"station_id":"PDJ","i_long":106.74273,"station_name":"Pondokranji"},{"transit":false,"is_transit":false,"distance":2179,"station_id":"JMU","i_long":106.728916,"line":6,"time":3,"station_name":"Jurangmangu","i_lat":-6.288927},{"station_id":"SDM","station_name":"Sudimara","line":6,"is_transit":false,"transit":false,"i_lat":-6.296963,"i_long":106.712277,"time":4,"distance":1994},{"i_lat":-6.314823,"line":6,"station_id":"RU","time":6,"station_name":"Rawa Buntu","is_transit":false,"transit":false,"i_long":106.675475,"distance":4566},{"i_lat":-6.319871,"i_long":106.66566,"line":6,"time":4,"station_id":"SRP","is_transit":false,"transit":false,"station_name":"Serpong","distance":2413},{"distance":1784,"time":4,"i_long":106.640411,"station_id":"CSK","line":3,"transit":false,"station_name":"Cisauk","is_transit":false,"i_lat":-6.32484},{"distance":2519,"line":3,"transit":false,"i_lat":-6.329547,"is_transit":false,"i_long":106.617853,"station_id":"CC","time":4,"station_name":"Cicayur"},{"station_name":"Parung Panjang","transit":false,"is_transit":false,"station_id":"PRP","time":8,"i_lat":-6.3441410000000005,"distance":5968,"i_long":106.568863,"line":6},{"time":9,"i_lat":-6.354349,"station_id":"CJT","line":3,"station_name":"Cilejit","transit":false,"i_long":106.508482,"distance":7025,"is_transit":false},{"time":6,"station_name":"Daru","i_long":106.491338,"distance":2675,"is_transit":false,"i_lat":-6.338021,"station_id":"DAR","transit":false,"line":0},{"is_transit":false,"transit":false,"station_id":"TEJ","station_name":"Tenjo","line":6,"distance":3902,"time":5,"i_lat":-6.327251,"i_long":106.460812},{"station_name":"Tigaraksa","i_lat":-6.328533,"is_transit":false,"distance":2974,"i_long":106.425991,"transit":false,"time":5,"line":6,"station_id":"TGS"},{"i_lat":-6.33561,"line":3,"station_id":"CKY","is_transit":false,"transit":false,"time":3,"distance":2651,"i_long":106.411216,"station_name":"Cikoya"},{"i_long":106.394373,"line":6,"distance":1853,"time":4,"transit":false,"i_lat":-6.332307,"station_name":"Maja","is_transit":false,"station_id":"MJ"},{"distance":7293,"i_long":106.332092,"is_transit":false,"station_name":"Citeras","transit":false,"station_id":"CTR","i_lat":-6.334892,"line":3,"time":10},{"station_id":"RK","i_long":106.250396,"transit":false,"time":13,"is_transit":false,"distance":9847,"station_name":"Rangkasbitung","i_lat":-6.352675,"line":3}],[{"is_transit":false,"i_long":106.858896,"distance":0,"station_name":"Matraman","transit":false,"time":0,"station_id":"MTR","line":1,"i_lat":-6.212485},{"line":1,"station_id":"JNG","is_transit":true,"time":8,"i_long":106.86807400000001,"station_name":"Jatinegara","transit":true,"i_lat":-6.215091,"distance":1377},{"i_long":106.861737,"transit":false,"line":11,"station_name":"Pondok Jati","i_lat":-6.209188,"station_id":"POK","distance":1236,"time":2,"is_transit":false},{"transit":false,"i_long":106.855437,"is_transit":false,"station_id":"KMT","time":2,"i_lat":-6.193792,"line":11,"station_name":"Kramat","distance":1829},{"distance":973,"transit":false,"i_lat":-6.185975,"i_long":106.850107,"station_name":"Gang Sentiong","line":11,"time":1,"station_id":"GST","is_transit":false},{"is_transit":false,"transit":false,"i_long":106.84368,"i_lat":-6.174784,"time":8,"distance":1567,"line":11,"station_id":"PSE","station_name":"Pasar Senen"},{"is_transit":false,"transit":false,"station_name":"Kemayoran","station_id":"KMO","time":4,"i_lat":-6.161728,"i_long":106.839204,"distance":1436,"line":11},{"station_id":"RJW","i_long":106.836569,"time":5,"station_name":"Rajawali","transit":false,"distance":1901,"i_lat":-6.14505,"line":11,"is_transit":false},{"time":3,"i_lat":-6.132549,"line":4,"distance":1444,"station_id":"KPB","i_long":106.826365,"transit":true,"station_name":"Kampung Bandan","is_transit":true},{"line":2,"station_id":"JAKK","is_transit":true,"time":3,"i_lat":-6.137569,"station_name":"Jakarta Kota","distance":1364,"i_long":106.812439,"transit":true},{"is_transit":false,"station_name":"Jayakarta","line":2,"distance":1264,"time":4,"i_long":106.820901,"i_lat":-6.141205,"station_id":"JAY","transit":false},{"i_lat":-6.149769,"time":2,"i_long":106.82482,"line":2,"station_id":"MGB","transit":false,"station_name":"Manggabesar","distance":1080,"is_transit":false},{"i_long":106.827103,"station_id":"SW","is_transit":false,"station_name":"Sawah Besar","distance":906,"i_lat":-6.160725,"line":2,"time":2,"transit":false},{"i_lat":-6.166716,"station_name":"Juanda","transit":false,"station_id":"JUA","distance":1149,"is_transit":false,"time":2,"i_long":106.828284,"line":2},{"time":4,"station_name":"Gondangdia","i_lat":-6.186295,"line":2,"is_transit":false,"transit":false,"station_id":"GDD","distance":2015,"i_long":106.832183},{"i_long":106.840169,"station_id":"CKI","station_name":"Cikini","is_transit":false,"time":3,"distance":1750,"transit":false,"i_lat":-6.198556,"line":2},{"i_long":106.84912,"station_name":"Manggarai","is_transit":true,"line":2,"transit":true,"i_lat":-6.209883,"distance":1590,"time":4,"station_id":"MRI"},{"line":1,"i_long":106.822649,"transit":false,"station_name":"Sudirman","i_lat":-6.202263,"station_id":"SUD","time":4,"distance":3186,"is_transit":false},{"time":1,"i_long":106.819881,"line":1,"is_transit":false,"transit":false,"station_name":"Sudirman Baru","i_lat":-6.201433,"distance":280,"station_id":"SUDB"},{"transit":false,"distance":471,"i_long":106.816351,"station_name":"Karet","line":1,"time":1,"i_lat":-6.20132,"is_transit":false,"station_id":"KAT"},{"line":1,"time":5,"station_name":"Tanah Abang","transit":true,"i_long":106.811091,"station_id":"THB","is_transit":true,"distance":2029,"i_lat":-6.185545},{"is_transit":false,"distance":3191,"time":6,"i_long":106.79689,"i_lat":-6.207404,"line":6,"transit":false,"station_id":"PLM","station_name":"Palmerah"},{"station_id":"KBY","line":6,"i_lat":-6.237242,"is_transit":false,"i_long":106.780334,"distance":3737,"transit":false,"station_name":"Kebayoran","time":7},{"station_id":"PDJ","station_name":"Pondokranji","transit":false,"i_long":106.74273,"is_transit":false,"line":6,"time":8,"distance":6218,"i_lat":-6.276362},{"line":6,"time":3,"transit":false,"station_id":"JMU","distance":2179,"station_name":"Jurangmangu","is_transit":false,"i_lat":-6.288927,"i_long":106.728916},{"distance":1994,"i_long":106.712277,"station_name":"Sudimara","line":6,"is_transit":false,"time":4,"i_lat":-6.296963,"station_id":"SDM","transit":false},{"transit":false,"station_id":"RU","time":6,"distance":4566,"is_transit":false,"i_lat":-6.314823,"station_name":"Rawa Buntu","i_long":106.675475,"line":6},{"is_transit":false,"transit":false,"time":4,"station_id":"SRP","i_long":106.66566,"station_name":"Serpong","distance":2413,"line":6,"i_lat":-6.319871},{"i_lat":-6.32484,"station_id":"CSK","is_transit":false,"distance":1784,"i_long":106.640411,"transit":false,"station_name":"Cisauk","time":4,"line":3},{"line":3,"is_transit":false,"time":4,"station_name":"Cicayur","transit":false,"distance":2519,"i_lat":-6.329547,"i_long":106.617853,"station_id":"CC"},{"station_name":"Parung Panjang","distance":5968,"time":8,"station_id":"PRP","is_transit":false,"transit":false,"i_long":106.568863,"i_lat":-6.3441410000000005,"line":6},{"transit":false,"station_id":"CJT","station_name":"Cilejit","distance":7025,"i_long":106.508482,"line":3,"time":9,"is_transit":false,"i_lat":-6.354349},{"station_id":"DAR","is_transit":false,"station_name":"Daru","i_lat":-6.338021,"transit":false,"time":6,"line":0,"distance":2675,"i_long":106.491338},{"transit":false,"station_name":"Tenjo","is_transit":false,"i_lat":-6.327251,"station_id":"TEJ","distance":3902,"line":6,"time":5,"i_long":106.460812},{"station_id":"TGS","i_long":106.425991,"is_transit":false,"transit":false,"distance":2974,"i_lat":-6.328533,"station_name":"Tigaraksa","time":5,"line":6},{"station_name":"Cikoya","i_long":106.411216,"i_lat":-6.33561,"time":3,"line":3,"transit":false,"distance":2651,"is_transit":false,"station_id":"CKY"},{"i_long":106.394373,"i_lat":-6.332307,"station_id":"MJ","line":6,"time":4,"station_name":"Maja","distance":1853,"transit":false,"is_transit":false},{"transit":false,"time":10,"distance":7293,"i_lat":-6.334892,"i_long":106.332092,"station_name":"Citeras","is_transit":false,"line":3,"station_id":"CTR"},{"i_long":106.250396,"station_id":"RK","i_lat":-6.352675,"station_name":"Rangkasbitung","is_transit":false,"line":3,"distance":9847,"transit":false,"time":13}]]}