{"data":[[{"is_transit":false,"i_lat":-6.212485,"time":0,"station_id":"MTR","i_long":106.858896,"line":1,"distance":0,"transit":false,"station_name":"Matraman"},{"time":8,"is_transit":false,"line":1,"i_lat":-6.215091,"distance":1377,"station_id":"JNG","station_name":"Jatinegara","i_long":106.86807400000001,"transit":false},{"line":1,"time":3,"station_id":"KLD","distance":3395,"transit":false,"i_long":106.899548,"is_transit":false,"station_name":"Klender","i_lat":-6.2135},{"distance":3100,"is_transit":false,"station_id":"BUA","i_lat":-6.215568,"transit":false,"time":2,"station_name":"Buaran","i_long":106.922662,"line":1},{"distance":1305,"i_long":106.939679,"is_transit":false,"station_id":"KLDB","transit":false,"line":1,"i_lat":-6.217455,"time":1,"station_name":"Klenderbaru"},{"is_transit":false,"station_id":"CUK","i_lat":-6.219053,"station_name":"Cakung","time":8,"line":1,"distance":1385,"transit":false,"i_long":106.951283},{"line":1,"station_name":"Kranji","time":3,"distance":3097,"station_id":"KRI","i_long":106.977657,"transit":false,"i_lat":-6.224515,"is_transit":false},{"is_transit":false,"station_id":"BKS","time":4,"station_name":"Bekasi","line":1,"distance":2520,"i_lat":-6.236616,"transit":false,"i_long":106.997013},{"station_id":"BKST","line":1,"station_name":"Bekasi Timur","distance":2368,"is_transit":false,"transit":false,"i_lat":-6.248029,"i_long":107.016735,"time":2},{"station_name":"Tambun","i_long":107.055722,"time":7,"station_id":"TB","transit":false,"i_lat":-6.258864,"distance":4460,"is_transit":false,"line":1}],[{"distance":0,"station_id":"MTR","time":0,"i_lat":-6.212485,"i_long":106.858896,"station_name":"Matraman","line":1,"transit":false,"is_transit":false},{"line":2,"is_transit":false,"i_lat":-6.209883,"station_name":"Manggarai","i_long":106.84912,"station_id":"MRI","transit":false,"distance":1275,"time":2},{"i_lat":-6.202263,"distance":3186,"line":1,"time":4,"station_id":"SUD","station_name":"Sudirman","i_long":106.822649,"is_transit":false,"transit":false},{"i_long":106.819881,"line":1,"is_transit":false,"distance":280,"station_name":"Sudirman Baru","station_id":"SUDB","i_lat":-6.201433,"transit":false,"time":1},{"station_name":"Karet","time":1,"line":1,"is_transit":false,"transit":false,"i_lat":-6.20132,"distance":471,"station_id":"KAT","i_long":106.816351},{"station_name":"Tanah Abang","is_transit":false,"i_long":106.811091,"i_lat":-6.185545,"transit":false,"line":1,"station_id":"THB","time":5,"distance":2029},{"is_transit":false,"time":8,"distance":3632,"transit":false,"station_name":"Duri","i_long":106.800832,"i_lat":-6.155215,"station_id":"DU","line":1},{"station_id":"AK","station_name":"Angke","transit":false,"time":4,"line":1,"is_transit":false,"distance":1230,"i_lat":-6.144674,"i_long":106.79867},{"station_name":"Kampung Bandan","line":4,"time":9,"is_transit":true,"i_lat":-6.132549,"i_long":106.826365,"station_id":"KPB","distance":4102,"transit":true},{"transit":false,"line":11,"station_name":"Rajawali","is_transit":false,"time":3,"distance":1444,"station_id":"RJW","i_lat":-6.14505,"i_long":106.836569},{"time":5,"station_name":"Kemayoran","distance":1901,"line":11,"station_id":"KMO","transit":false,"i_long":106.839204,"i_lat":-6.161728,"is_transit":false},{"station_id":"PSE","transit":false,"time":4,"station_name":"Pasar Senen","i_lat":-6.174784,"line":11,"is_transit":false,"i_long":106.84368,"distance":1436},{"station_id":"GST","i_lat":-6.185975,"line":11,"time":8,"distance":1567,"station_name":"Gang Sentiong","is_transit":false,"i_long":106.850107,"transit":false},{"distance":973,"transit":false,"station_name":"Kramat","i_long":106.855437,"station_id":"KMT","is_transit":false,"i_lat":-6.193792,"line":11,"time":1},{"time":2,"station_name":"Pondok Jati","distance":1829,"i_lat":-6.209188,"is_transit":false,"i_long":106.861737,"line":11,"transit":false,"station_id":"POK"},{"station_id":"JNG","time":9,"is_transit":true,"i_long":106.86807400000001,"distance":1236,"line":1,"i_lat":-6.215091,"station_name":"Jatinegara","transit":true},{"line":1,"i_lat":-6.2135,"transit":false,"distance":3395,"station_name":"Klender","station_id":"KLD","time":3,"is_transit":false,"i_long":106.899548},{"station_id":"BUA","distance":3100,"i_lat":-6.215568,"line":1,"is_transit":false,"time":2,"i_long":106.922662,"station_name":"Buaran","transit":false},{"i_long":106.939679,"line":1,"station_name":"Klenderbaru","distance":1305,"transit":false,"is_transit":false,"i_lat":-6.217455,"station_id":"KLDB","time":1},{"distance":1385,"is_transit":false,"station_name":"Cakung","time":8,"transit":false,"i_long":106.951283,"i_lat":-6.219053,"station_id":"CUK","line":1},{"time":3,"i_long":106.977657,"line":1,"transit":false,"station_name":"Kranji","i_lat":-6.224515,"distance":3097,"is_transit":false,"station_id":"KRI"},{"transit":false,"time":4,"i_long":106.997013,"station_name":"Bekasi","is_transit":false,"distance":2520,"station_id":"BKS","i_lat":-6.236616,"line":1},{"distance":2368,"i_long":107.016735,"time":2,"transit":false,"i_lat":-6.248029,"station_name":"Bekasi Timur","is_transit":false,"station_id":"BKST","line":1},{"i_lat":-6.258864,"transit":false,"is_transit":false,"distance":4460,"station_name":"Tambun","i_long":107.055722,"station_id":"TB","line":1,"time":7}],[{"time":0,"is_transit":false,"transit":false,"station_id":"MTR","i_long":106.858896,"distance":0,"line":1,"station_name":"Matraman","i_lat":-6.212485},{"i_lat":-6.209883,"time":2,"i_long":106.84912,"transit":true,"station_id":"MRI","line":2,"distance":1275,"is_transit":true,"station_name":"Manggarai"},{"distance":1590,"i_long":106.840169,"station_id":"CKI","transit":false,"is_transit":false,"i_lat":-6.198556,"station_name":"Cikini","line":2,"time":4},{"i_lat":-6.186295,"line":2,"station_id":"GDD","time":3,"distance":1750,"transit":false,"station_name":"Gondangdia","is_transit":false,"i_long":106.832183},{"i_long":106.828284,"distance":2015,"time":4,"station_name":"Juanda","transit":false,"i_lat":-6.166716,"line":2,"is_transit":false,"station_id":"JUA"},{"transit":false,"i_long":106.827103,"line":2,"station_name":"Sawah Besar","time":2,"distance":1149,"is_transit":false,"station_id":"SW","i_lat":-6.160725},{"i_lat":-6.149769,"is_transit":false,"time":2,"transit":false,"distance":906,"station_name":"Manggabesar","station_id":"MGB","line":2,"i_long":106.82482},{"i_lat":-6.141205,"station_id":"JAY","distance":1080,"line":2,"is_transit":false,"time":2,"transit":false,"station_name":"Jayakarta","i_long":106.820901},{"is_transit":true,"station_id":"JAKK","i_lat":-6.137569,"line":2,"transit":true,"distance":1264,"station_name":"Jakarta Kota","time":4,"i_long":106.812439},{"is_transit":true,"station_id":"KPB","i_lat":-6.132549,"transit":true,"time":3,"station_name":"Kampung Bandan","distance":1364,"i_long":106.826365,"line":4},{"distance":1444,"station_id":"RJW","is_transit":false,"transit":false,"i_long":106.836569,"line":11,"time":3,"station_name":"Rajawali","i_lat":-6.14505},{"station_name":"Kemayoran","line":11,"i_long":106.839204,"transit":false,"is_transit":false,"station_id":"KMO","distance":1901,"time":5,"i_lat":-6.161728},{"transit":false,"is_transit":false,"station_id":"PSE","line":11,"distance":1436,"station_name":"Pasar Senen","i_long":106.84368,"i_lat":-6.174784,"time":4},{"time":8,"station_id":"GST","distance":1567,"transit":false,"station_name":"Gang Sentiong","is_transit":false,"line":11,"i_lat":-6.185975,"i_long":106.850107},{"line":11,"station_id":"KMT","is_transit":false,"i_long":106.855437,"transit":false,"i_lat":-6.193792,"distance":973,"station_name":"Kramat","time":1},{"i_lat":-6.209188,"time":2,"distance":1829,"transit":false,"i_long":106.861737,"line":11,"station_id":"POK","station_name":"Pondok Jati","is_transit":false},{"distance":1236,"i_long":106.86807400000001,"time":9,"station_id":"JNG","is_transit":true,"transit":true,"station_name":"Jatinegara","i_lat":-6.215091,"line":1},{"time":3,"line":1,"is_transit":false,"station_name":"Klender","distance":3395,"transit":false,"i_lat":-6.2135,"i_long":106.899548,"station_id":"KLD"},{"i_long":106.922662,"transit":false,"is_transit":false,"station_id":"BUA","i_lat":-6.215568,"line":1,"time":2,"station_name":"Buaran","distance":3100},{"line":1,"distance":1305,"station_name":"Klenderbaru","i_long":106.939679,"transit":false,"is_transit":false,"time":1,"i_lat":-6.217455,"station_id":"KLDB"},{"station_id":"CUK","distance":1385,"time":8,"i_lat":-6.219053,"is_transit":false,"transit":false,"i_long":106.951283,"station_name":"Cakung","line":1},{"transit":false,"i_long":106.977657,"station_name":"Kranji","is_transit":false,"time":3,"station_id":"KRI","line":1,"distance":3097,"i_lat":-6.224515},{"is_transit":false,"transit":false,"line":1,"i_lat":-6.236616,"station_name":"Bekasi","time":4,"i_long":106.997013,"station_id":"BKS","distance":2520},{"transit":false,"i_lat":-6.248029,"distance":2368,"time":2,"station_name":"Bekasi Timur","is_transit":false,"i_long":107.016735,"line":1,"station_id":"BKST"},{"i_lat":-6.258864,"distance":4460,"line":1,"station_name":"Tambun","time":7,"i_long":107.055722,"is_transit":false,"transit":false,"station_id":"TB"}]]}