{"data":[[{"i_lat":-6.212485,"station_name":"Matraman","transit":false,"is_transit":false,"distance":0,"station_id":"MTR","time":0,"i_long":106.858896,"line":1},{"line":2,"time":2,"i_long":106.84912,"station_name":"Manggarai","distance":1275,"transit":false,"is_transit":false,"i_lat":-6.209883,"station_id":"MRI"},{"distance":3186,"i_long":106.822649,"time":4,"line":1,"is_transit":false,"station_id":"SUD","station_name":"Sudirman","transit":false,"i_lat":-6.202263},{"i_long":106.819881,"time":1,"station_id":"SUDB","line":1,"transit":false,"distance":280,"is_transit":false,"station_name":"Sudirman Baru","i_lat":-6.201433},{"station_name":"Karet","distance":471,"transit":false,"i_lat":-6.20132,"station_id":"KAT","line":1,"time":1,"i_long":106.816351,"is_transit":false},{"line":1,"station_id":"THB","i_lat":-6.185545,"is_transit":false,"time":5,"transit":false,"distance":2029,"station_name":"Tanah Abang","i_long":106.811091},{"is_transit":true,"time":8,"transit":true,"station_id":"DU","line":1,"i_long":106.800832,"station_name":"Duri","i_lat":-6.155215,"distance":3632},{"i_long":106.788277,"line":5,"distance":1700,"time":3,"i_lat":-6.162021,"station_id":"GGL","station_name":"Grogol","transit":false,"is_transit":false},{"station_name":"Pesing","station_id":"PSG","i_long":106.771379,"line":5,"i_lat":-6.161433,"is_transit":false,"time":2,"distance":2036,"transit":false},{"station_name":"Taman Kota","time":2,"i_long":106.756522,"i_lat":-6.1587309999999995,"station_id":"TKO","transit":false,"is_transit":false,"line":5,"distance":1614},{"transit":false,"is_transit":false,"line":5,"distance":2334,"station_name":"Bojongindah","i_long":106.737035,"time":2,"station_id":"BOI","i_lat":-6.159876},{"i_long":106.723064,"transit":false,"station_id":"RW","line":5,"distance":1152,"i_lat":-6.162758,"time":4,"station_name":"Rawa Buaya","is_transit":false},{"i_long":106.701612,"time":3,"transit":false,"distance":2504,"line":5,"i_lat":-6.166068,"is_transit":false,"station_name":"Kalideres","station_id":"KDS"},{"is_transit":false,"distance":2548,"i_lat":-6.169933,"line":5,"transit":false,"time":3,"i_long":106.679458,"station_id":"PI","station_name":"Poris"}],[{"station_name":"Matraman","transit":false,"i_lat":-6.212485,"distance":0,"line":1,"time":0,"is_transit":false,"station_id":"MTR","i_long":106.858896},{"line":1,"is_transit":true,"station_name":"Jatinegara","transit":true,"station_id":"JNG","distance":1377,"time":8,"i_lat":-6.215091,"i_long":106.86807400000001},{"is_transit":false,"transit":false,"i_lat":-6.209188,"station_id":"POK","time":2,"i_long":106.861737,"distance":1236,"station_name":"Pondok Jati","line":11},{"is_transit":false,"i_lat":-6.193792,"line":11,"distance":1829,"i_long":106.855437,"transit":false,"station_name":"Kramat","station_id":"KMT","time":2},{"i_long":106.850107,"line":11,"time":1,"station_name":"Gang Sentiong","station_id":"GST","i_lat":-6.185975,"distance":973,"transit":false,"is_transit":false},{"station_id":"PSE","is_transit":false,"transit":false,"i_long":106.84368,"time":8,"distance":1567,"station_name":"Pasar Senen","i_lat":-6.174784,"line":11},{"station_name":"Kemayoran","transit":false,"i_lat":-6.161728,"is_transit":false,"time":4,"distance":1436,"i_long":106.839204,"line":11,"station_id":"KMO"},{"line":11,"station_name":"Rajawali","transit":false,"time":5,"i_long":106.836569,"station_id":"RJW","distance":1901,"i_lat":-6.14505,"is_transit":false},{"transit":true,"i_lat":-6.132549,"time":3,"station_id":"KPB","is_transit":true,"i_long":106.826365,"distance":1444,"line":4,"station_name":"Kampung Bandan"},{"distance":4102,"station_name":"Angke","i_lat":-6.144674,"i_long":106.79867,"station_id":"AK","time":9,"transit":false,"line":1,"is_transit":false},{"station_name":"Duri","distance":1230,"line":1,"i_lat":-6.155215,"is_transit":true,"time":4,"transit":true,"i_long":106.800832,"station_id":"DU"},{"is_transit":false,"station_name":"Grogol","line":5,"transit":false,"i_lat":-6.162021,"i_long":106.788277,"distance":1700,"time":3,"station_id":"GGL"},{"transit":false,"is_transit":false,"station_id":"PSG","line":5,"station_name":"Pesing","time":2,"i_long":106.771379,"distance":2036,"i_lat":-6.161433},{"is_transit":false,"transit":false,"i_lat":-6.1587309999999995,"i_long":106.756522,"distance":1614,"line":5,"station_name":"Taman Kota","time":2,"station_id":"TKO"},{"distance":2334,"line":5,"transit":false,"station_id":"BOI","is_transit":false,"i_long":106.737035,"i_lat":-6.159876,"station_name":"Bojongindah","time":2},{"is_transit":false,"i_lat":-6.162758,"i_long":106.723064,"transit":false,"line":5,"time":4,"station_id":"RW","distance":1152,"station_name":"Rawa Buaya"},{"time":3,"i_long":106.701612,"station_name":"Kalideres","i_lat":-6.166068,"is_transit":false,"line":5,"distance":2504,"station_id":"KDS","transit":false},{"distance":2548,"i_lat":-6.169933,"i_long":106.679458,"line":5,"station_name":"Poris","is_transit":false,"time":3,"transit":false,"station_id":"PI"}],[{"line":1,"station_name":"Matraman","station_id":"MTR","transit":false,"time":0,"i_long":106.858896,"is_transit":false,"distance":0,"i_lat":-6.212485},{"station_name":"Manggarai","line":2,"i_lat":-6.209883,"transit":true,"i_long":106.84912,"time":2,"station_id":"MRI","distance":1275,"is_transit":true},{"time":4,"is_transit":false,"i_lat":-6.198556,"line":2,"distance":1590,"i_long":106.840169,"transit":false,"station_name":"Cikini","station_id":"CKI"},{"transit":false,"station_name":"Gondangdia","station_id":"GDD","is_transit":false,"time":3,"i_long":106.832183,"i_lat":-6.186295,"line":2,"distance":1750},{"is_transit":false,"i_lat":-6.166716,"station_id":"JUA","time":4,"i_long":106.828284,"line":2,"transit":false,"distance":2015,"station_name":"Juanda"},{"station_name":"Sawah Besar","distance":1149,"station_id":"SW","i_long":106.827103,"time":2,"line":2,"transit":false,"i_lat":-6.160725,"is_transit":false},{"time":2,"station_id":"MGB","distance":906,"i_long":106.82482,"is_transit":false,"i_lat":-6.149769,"line":2,"transit":false,"station_name":"Manggabesar"},{"time":2,"distance":1080,"i_lat":-6.141205,"line":2,"station_id":"JAY","station_name":"Jayakarta","transit":false,"is_transit":false,"i_long":106.820901},{"i_lat":-6.137569,"is_transit":true,"station_id":"JAKK","i_long":106.812439,"transit":true,"station_name":"Jakarta Kota","distance":1264,"time":4,"line":2},{"transit":true,"station_name":"Kampung Bandan","is_transit":true,"i_long":106.826365,"station_id":"KPB","time":3,"i_lat":-6.132549,"line":4,"distance":1364},{"station_id":"AK","line":1,"is_transit":false,"time":9,"distance":4102,"i_lat":-6.144674,"transit":false,"i_long":106.79867,"station_name":"Angke"},{"time":4,"station_name":"Duri","transit":true,"i_lat":-6.155215,"station_id":"DU","i_long":106.800832,"is_transit":true,"line":1,"distance":1230},{"i_long":106.788277,"line":5,"transit":false,"station_name":"Grogol","is_transit":false,"time":3,"distance":1700,"station_id":"GGL","i_lat":-6.162021},{"time":2,"distance":2036,"station_id":"PSG","i_lat":-6.161433,"i_long":106.771379,"line":5,"transit":false,"station_name":"Pesing","is_transit":false},{"time":2,"i_long":106.756522,"line":5,"station_name":"Taman Kota","transit":false,"distance":1614,"station_id":"TKO","is_transit":false,"i_lat":-6.1587309999999995},{"distance":2334,"transit":false,"station_name":"Bojongindah","station_id":"BOI","i_lat":-6.159876,"i_long":106.737035,"line":5,"is_transit":false,"time":2},{"line":5,"i_long":106.723064,"distance":1152,"is_transit":false,"time":4,"station_id":"RW","transit":false,"station_name":"Rawa Buaya","i_lat":-6.162758},{"station_name":"Kalideres","i_long":106.701612,"is_transit":false,"station_id":"KDS","i_lat":-6.166068,"transit":false,"line":5,"time":3,"distance":2504},{"station_name":"Poris","transit":false,"distance":2548,"station_id":"PI","i_lat":-6.169933,"is_transit":false,"line":5,"time":3,"i_long":106.679458}],[{"transit":false,"station_id":"MTR","is_transit":false,"line":1,"station_name":"Matraman","i_lat":-6.212485,"time":0,"distance":0,"i_long":106.858896},{"i_long":106.86807400000001,"line":1,"is_transit":true,"time":8,"station_name":"Jatinegara","station_id":"JNG","distance":1377,"transit":true,"i_lat":-6.215091},{"line":11,"i_lat":-6.209188,"i_long":106.861737,"transit":false,"time":2,"is_transit":false,"station_name":"Pondok Jati","station_id":"POK","distance":1236},{"distance":1829,"i_long":106.855437,"station_id":"KMT","i_lat":-6.193792,"is_transit":false,"time":2,"station_name":"Kramat","transit":false,"line":11},{"line":11,"transit":false,"distance":973,"station_name":"Gang Sentiong","is_transit":false,"time":1,"i_lat":-6.185975,"i_long":106.850107,"station_id":"GST"},{"i_lat":-6.174784,"i_long":106.84368,"is_transit":false,"distance":1567,"transit":false,"time":8,"station_id":"PSE","line":11,"station_name":"Pasar Senen"},{"station_name":"Kemayoran","i_lat":-6.161728,"i_long":106.839204,"is_transit":false,"distance":1436,"transit":false,"line":11,"station_id":"KMO","time":4},{"station_name":"Rajawali","distance":1901,"i_lat":-6.14505,"line":11,"station_id":"RJW","is_transit":false,"time":5,"i_long":106.836569,"transit":false},{"i_lat":-6.132549,"line":4,"station_name":"Kampung Bandan","is_transit":true,"time":3,"distance":1444,"i_long":106.826365,"transit":true,"station_id":"KPB"},{"time":3,"station_name":"Jakarta Kota","transit":true,"distance":1364,"i_lat":-6.137569,"i_long":106.812439,"line":2,"station_id":"JAKK","is_transit":true},{"distance":1264,"transit":false,"station_name":"Jayakarta","i_lat":-6.141205,"is_transit":false,"i_long":106.820901,"station_id":"JAY","time":4,"line":2},{"time":2,"station_name":"Manggabesar","distance":1080,"station_id":"MGB","i_lat":-6.149769,"i_long":106.82482,"transit":false,"line":2,"is_transit":false},{"i_lat":-6.160725,"station_id":"SW","is_transit":false,"i_long":106.827103,"time":2,"transit":false,"station_name":"Sawah Besar","distance":906,"line":2},{"i_lat":-6.166716,"transit":false,"station_name":"Juanda","station_id":"JUA","distance":1149,"time":2,"line":2,"is_transit":false,"i_long":106.828284},{"line":2,"is_transit":false,"i_lat":-6.186295,"time":4,"station_id":"GDD","distance":2015,"i_long":106.832183,"station_name":"Gondangdia","transit":false},{"is_transit":false,"distance":1750,"i_lat":-6.198556,"station_name":"Cikini","i_long":106.840169,"transit":false,"station_id":"CKI","time":3,"line":2},{"is_transit":true,"station_id":"MRI","line":2,"distance":1590,"transit":true,"station_name":"Manggarai","i_lat":-6.209883,"i_long":106.84912,"time":4},{"time":4,"distance":3186,"i_lat":-6.202263,"i_long":106.822649,"line":1,"station_id":"SUD","transit":false,"station_name":"Sudirman","is_transit":false},{"i_long":106.819881,"line":1,"i_lat":-6.201433,"station_name":"Sudirman Baru","distance":280,"is_transit":false,"transit":false,"station_id":"SUDB","time":1},{"is_transit":false,"station_id":"KAT","time":1,"distance":471,"i_long":106.816351,"line":1,"station_name":"Karet","i_lat":-6.20132,"transit":false},{"time":5,"line":1,"station_name":"Tanah Abang","distance":2029,"is_transit":false,"transit":false,"station_id":"THB","i_long":106.811091,"i_lat":-6.185545},{"transit":true,"distance":3632,"station_id":"DU","is_transit":true,"station_name":"Duri","i_lat":-6.155215,"time":8,"i_long":106.800832,"line":1},{"i_long":106.788277,"is_transit":false,"i_lat":-6.162021,"time":3,"transit":false,"line":5,"distance":1700,"station_id":"GGL","station_name":"Grogol"},{"distance":2036,"time":2,"is_transit":false,"i_long":106.771379,"i_lat":-6.161433,"station_id":"PSG","transit":false,"station_name":"Pesing","line":5},{"station_id":"TKO","is_transit":false,"transit":false,"time":2,"i_long":106.756522,"line":5,"distance":1614,"i_lat":-6.1587309999999995,"station_name":"Taman Kota"},{"i_lat":-6.159876,"time":2,"station_id":"BOI","transit":false,"is_transit":false,"line":5,"station_name":"Bojongindah","distance":2334,"i_long":106.737035},{"i_long":106.723064,"station_name":"Rawa Buaya","station_id":"RW","is_transit":false,"line":5,"time":4,"distance":1152,"transit":false,"i_lat":-6.162758},{"is_transit":false,"station_id":"KDS","transit":false,"station_name":"Kalideres","time":3,"line":5,"distance":2504,"i_long":106.701612,"i_lat":-6.166068},{"station_name":"Poris","time":3,"i_lat":-6.169933,"i_long":106.679458,"line":5,"transit":false,"station_id":"PI","is_transit":false,"distance":2548}]]}