{"data":[[{"is_transit":false,"distance":0,"station_name":"Matraman","line":1,"i_lat":-6.212485,"time":0,"station_id":"MTR","transit":false,"i_long":106.858896},{"line":2,"distance":1275,"i_long":106.84912,"station_name":"Manggarai","station_id":"MRI","transit":true,"i_lat":-6.209883,"is_transit":true,"time":2},{"i_lat":-6.198556,"is_transit":false,"station_id":"CKI","time":4,"transit":false,"i_long":106.840169,"distance":1590,"station_name":"Cikini","line":2},{"time":3,"i_long":106.832183,"line":2,"station_id":"GDD","is_transit":false,"station_name":"Gondangdia","distance":1750,"i_lat":-6.186295,"transit":false},{"i_long":106.828284,"line":2,"station_id":"JUA","station_name":"Juanda","i_lat":-6.166716,"distance":2015,"time":4,"transit":false,"is_transit":false},{"time":2,"station_name":"Sawah Besar","is_transit":false,"transit":false,"station_id":"SW","distance":1149,"i_lat":-6.160725,"line":2,"i_long":106.827103},{"distance":906,"line":2,"transit":false,"station_name":"Manggabesar","station_id":"MGB","i_long":106.82482,"is_transit":false,"time":2,"i_lat":-6.149769},{"transit":false,"distance":1080,"line":2,"is_transit":false,"i_lat":-6.141205,"i_long":106.820901,"station_name":"Jayakarta","station_id":"JAY","time":2},{"distance":1264,"i_lat":-6.137569,"station_id":"JAKK","i_long":106.812439,"station_name":"Jakarta Kota","line":2,"transit":false,"is_transit":false,"time":4}],[{"station_id":"MTR","i_lat":-6.212485,"station_name":"Matraman","is_transit":false,"distance":0,"time":0,"i_long":106.858896,"transit":false,"line":1},{"time":8,"i_lat":-6.215091,"transit":true,"is_transit":true,"i_long":106.86807400000001,"line":1,"station_name":"Jatinegara","station_id":"JNG","distance":1377},{"line":11,"transit":false,"is_transit":false,"time":2,"station_id":"POK","i_long":106.861737,"distance":1236,"i_lat":-6.209188,"station_name":"Pondok Jati"},{"i_lat":-6.193792,"is_transit":false,"station_id":"KMT","transit":false,"distance":1829,"station_name":"Kramat","i_long":106.855437,"line":11,"time":2},{"transit":false,"station_id":"GST","i_lat":-6.185975,"distance":973,"i_long":106.850107,"line":11,"station_name":"Gang Sentiong","time":1,"is_transit":false},{"time":8,"station_name":"Pasar Senen","station_id":"PSE","is_transit":false,"distance":1567,"line":11,"transit":false,"i_long":106.84368,"i_lat":-6.174784},{"transit":false,"station_id":"KMO","is_transit":false,"i_lat":-6.161728,"line":11,"time":4,"distance":1436,"station_name":"Kemayoran","i_long":106.839204},{"distance":1901,"is_transit":false,"time":5,"station_name":"Rajawali","transit":false,"line":11,"i_lat":-6.14505,"i_long":106.836569,"station_id":"RJW"},{"i_lat":-6.132549,"time":3,"i_long":106.826365,"line":4,"transit":true,"station_name":"Kampung Bandan","distance":1444,"station_id":"KPB","is_transit":true},{"i_long":106.812439,"is_transit":false,"time":3,"station_name":"Jakarta Kota","distance":1364,"i_lat":-6.137569,"transit":false,"station_id":"JAKK","line":2}],[{"transit":false,"distance":0,"i_long":106.858896,"time":0,"station_id":"MTR","is_transit":false,"line":1,"i_lat":-6.212485,"station_name":"Matraman"},{"distance":1275,"i_lat":-6.209883,"station_name":"Manggarai","is_transit":false,"i_long":106.84912,"transit":false,"line":2,"station_id":"MRI","time":2},{"transit":false,"i_lat":-6.202263,"station_id":"SUD","is_transit":false,"time":4,"line":1,"distance":3186,"station_name":"Sudirman","i_long":106.822649},{"transit":false,"distance":280,"i_lat":-6.201433,"i_long":106.819881,"station_id":"SUDB","time":1,"line":1,"station_name":"Sudirman Baru","is_transit":false},{"station_name":"Karet","time":1,"i_long":106.816351,"distance":471,"line":1,"i_lat":-6.20132,"transit":false,"station_id":"KAT","is_transit":false},{"transit":false,"i_long":106.811091,"line":1,"time":5,"is_transit":false,"distance":2029,"station_id":"THB","i_lat":-6.185545,"station_name":"Tanah Abang"},{"line":1,"transit":false,"i_long":106.800832,"station_name":"Duri","station_id":"DU","is_transit":false,"time":8,"distance":3632,"i_lat":-6.155215},{"line":1,"is_transit":false,"i_lat":-6.144674,"station_id":"AK","transit":false,"time":4,"distance":1230,"station_name":"Angke","i_long":106.79867},{"time":9,"transit":true,"station_id":"KPB","i_lat":-6.132549,"i_long":106.826365,"line":4,"station_name":"Kampung Bandan","distance":4102,"is_transit":true},{"transit":false,"station_name":"Jakarta Kota","line":2,"i_long":106.812439,"station_id":"JAKK","is_transit":false,"time":3,"distance":1364,"i_lat":-6.137569}],[{"line":1,"i_long":106.858896,"station_name":"Matraman","time":0,"is_transit":false,"transit":false,"station_id":"MTR","i_lat":-6.212485,"distance":0},{"i_long":106.86807400000001,"station_name":"Jatinegara","is_transit":true,"i_lat":-6.215091,"line":1,"time":8,"distance":1377,"station_id":"JNG","transit":true},{"transit":false,"is_transit":false,"distance":1236,"i_lat":-6.209188,"i_long":106.861737,"station_name":"Pondok Jati","line":11,"time":2,"station_id":"POK"},{"distance":1829,"station_name":"Kramat","station_id":"KMT","i_lat":-6.193792,"time":2,"transit":false,"i_long":106.855437,"line":11,"is_transit":false},{"transit":false,"i_long":106.850107,"station_id":"GST","time":1,"station_name":"Gang Sentiong","is_transit":false,"line":11,"distance":973,"i_lat":-6.185975},{"station_name":"Pasar Senen","transit":false,"i_lat":-6.174784,"station_id":"PSE","is_transit":false,"distance":1567,"time":8,"i_long":106.84368,"line":11},{"transit":false,"is_transit":false,"time":4,"distance":1436,"i_lat":-6.161728,"i_long":106.839204,"line":11,"station_id":"KMO","station_name":"Kemayoran"},{"i_long":106.836569,"line":11,"transit":false,"station_name":"Rajawali","is_transit":false,"distance":1901,"station_id":"RJW","time":5,"i_lat":-6.14505},{"transit":true,"i_lat":-6.132549,"line":4,"station_name":"Kampung Bandan","time":3,"i_long":106.826365,"station_id":"KPB","is_transit":true,"distance":1444},{"distance":4102,"i_lat":-6.144674,"is_transit":false,"i_long":106.79867,"line":1,"station_id":"AK","time":9,"station_name":"Angke","transit":false},{"station_id":"DU","time":4,"transit":false,"station_name":"Duri","distance":1230,"i_lat":-6.155215,"is_transit":false,"line":1,"i_long":106.800832},{"station_name":"Tanah Abang","station_id":"THB","transit":false,"distance":3632,"i_lat":-6.185545,"i_long":106.811091,"time":8,"is_transit":false,"line":1},{"station_id":"KAT","i_lat":-6.20132,"line":1,"transit":false,"i_long":106.816351,"is_transit":false,"station_name":"Karet","time":5,"distance":2029},{"station_name":"Sudirman Baru","i_long":106.819881,"line":1,"station_id":"SUDB","transit":false,"i_lat":-6.201433,"time":1,"is_transit":false,"distance":471},{"transit":false,"i_lat":-6.202263,"i_long":106.822649,"station_id":"SUD","line":1,"is_transit":false,"station_name":"Sudirman","distance":280,"time":1},{"station_id":"MRI","distance":3186,"transit":true,"line":2,"time":4,"station_name":"Manggarai","is_transit":true,"i_long":106.84912,"i_lat":-6.209883},{"station_id":"CKI","i_lat":-6.198556,"time":4,"line":2,"distance":1590,"transit":false,"station_name":"Cikini","is_transit":false,"i_long":106.840169},{"i_lat":-6.186295,"station_name":"Gondangdia","time":3,"transit":false,"distance":1750,"is_transit":false,"line":2,"station_id":"GDD","i_long":106.832183},{"i_lat":-6.166716,"station_id":"JUA","is_transit":false,"time":4,"transit":false,"distance":2015,"station_name":"Juanda","i_long":106.828284,"line":2},{"line":2,"station_id":"SW","i_lat":-6.160725,"i_long":106.827103,"time":2,"transit":false,"is_transit":false,"distance":1149,"station_name":"Sawah Besar"},{"is_transit":false,"transit":false,"i_lat":-6.149769,"distance":906,"station_id":"MGB","time":2,"station_name":"Manggabesar","i_long":106.82482,"line":2},{"line":2,"distance":1080,"station_id":"JAY","time":2,"i_long":106.820901,"transit":false,"i_lat":-6.141205,"station_name":"Jayakarta","is_transit":false},{"distance":1264,"i_long":106.812439,"line":2,"is_transit":false,"time":4,"i_lat":-6.137569,"transit":false,"station_name":"Jakarta Kota","station_id":"JAKK"}]]}