{"data":[[{"line":1,"station_id":"MTR","distance":0,"i_long":106.858896,"i_lat":-6.212485,"transit":false,"is_transit":false,"station_name":"Matraman","time":0},{"station_id":"MRI","i_long":106.84912,"transit":false,"is_transit":false,"time":2,"distance":1275,"line":2,"i_lat":-6.209883,"station_name":"Manggarai"},{"i_long":106.822649,"i_lat":-6.202263,"line":1,"transit":false,"time":4,"station_id":"SUD","distance":3186,"station_name":"Sudirman","is_transit":false},{"station_id":"SUDB","i_lat":-6.201433,"line":1,"distance":280,"transit":false,"is_transit":false,"i_long":106.819881,"time":1,"station_name":"Sudirman Baru"},{"time":1,"distance":471,"i_lat":-6.20132,"line":1,"i_long":106.816351,"transit":false,"station_name":"Karet","station_id":"KAT","is_transit":false},{"is_transit":true,"time":5,"i_long":106.811091,"distance":2029,"line":1,"i_lat":-6.185545,"station_id":"THB","station_name":"Tanah Abang","transit":true},{"transit":false,"i_long":106.79689,"is_transit":false,"i_lat":-6.207404,"distance":3191,"station_name":"Palmerah","time":6,"line":6,"station_id":"PLM"},{"line":6,"station_name":"Kebayoran","transit":false,"time":7,"distance":3737,"i_long":106.780334,"station_id":"KBY","is_transit":false,"i_lat":-6.237242},{"is_transit":false,"time":8,"line":6,"distance":6218,"i_lat":-6.276362,"station_name":"Pondokranji","i_long":106.74273,"transit":false,"station_id":"PDJ"},{"transit":false,"time":3,"line":6,"i_lat":-6.288927,"i_long":106.728916,"station_name":"Jurangmangu","is_transit":false,"station_id":"JMU","distance":2179},{"station_id":"SDM","transit":false,"line":6,"distance":1994,"time":4,"station_name":"Sudimara","i_long":106.712277,"is_transit":false,"i_lat":-6.296963},{"distance":4566,"line":6,"transit":false,"station_name":"Rawa Buntu","time":6,"i_long":106.675475,"is_transit":false,"i_lat":-6.314823,"station_id":"RU"},{"i_lat":-6.319871,"station_id":"SRP","is_transit":false,"time":4,"distance":2413,"station_name":"Serpong","i_long":106.66566,"line":6,"transit":false},{"station_name":"Cisauk","time":4,"transit":false,"distance":1784,"i_lat":-6.32484,"is_transit":false,"i_long":106.640411,"station_id":"CSK","line":3},{"station_id":"CC","i_lat":-6.329547,"transit":false,"i_long":106.617853,"distance":2519,"is_transit":false,"time":4,"line":3,"station_name":"Cicayur"},{"is_transit":false,"transit":false,"station_id":"PRP","station_name":"Parung Panjang","time":8,"distance":5968,"line":6,"i_long":106.568863,"i_lat":-6.3441410000000005},{"transit":false,"time":9,"i_long":106.508482,"station_id":"CJT","station_name":"Cilejit","distance":7025,"line":3,"i_lat":-6.354349,"is_transit":false},{"station_name":"Daru","time":6,"transit":false,"i_lat":-6.338021,"i_long":106.491338,"station_id":"DAR","distance":2675,"is_transit":false,"line":0},{"transit":false,"station_id":"TEJ","i_long":106.460812,"is_transit":false,"distance":3902,"line":6,"time":5,"station_name":"Tenjo","i_lat":-6.327251},{"i_long":106.425991,"line":6,"i_lat":-6.328533,"station_id":"TGS","distance":2974,"transit":false,"time":5,"station_name":"Tigaraksa","is_transit":false},{"line":3,"i_lat":-6.33561,"distance":2651,"is_transit":false,"station_id":"CKY","transit":false,"station_name":"Cikoya","time":3,"i_long":106.411216},{"time":4,"i_lat":-6.332307,"distance":1853,"i_long":106.394373,"line":6,"station_name":"Maja","transit":false,"station_id":"MJ","is_transit":false},{"is_transit":false,"line":3,"station_name":"Citeras","distance":7293,"i_lat":-6.334892,"i_long":106.332092,"transit":false,"station_id":"CTR","time":10},{"line":3,"station_id":"RK","station_name":"Rangkasbitung","is_transit":false,"i_long":106.250396,"transit":false,"time":13,"distance":9847,"i_lat":-6.352675}],[{"station_name":"Matraman","distance":0,"i_lat":-6.212485,"transit":false,"station_id":"MTR","is_transit":false,"time":0,"line":1,"i_long":106.858896},{"i_lat":-6.215091,"i_long":106.86807400000001,"time":8,"transit":true,"line":1,"station_name":"Jatinegara","distance":1377,"station_id":"JNG","is_transit":true},{"station_id":"POK","i_long":106.861737,"distance":1236,"station_name":"Pondok Jati","is_transit":false,"time":2,"i_lat":-6.209188,"transit":false,"line":11},{"is_transit":false,"station_id":"KMT","distance":1829,"i_long":106.855437,"time":2,"line":11,"transit":false,"i_lat":-6.193792,"station_name":"Kramat"},{"time":1,"i_lat":-6.185975,"station_id":"GST","line":11,"transit":false,"is_transit":false,"i_long":106.850107,"distance":973,"station_name":"Gang Sentiong"},{"time":8,"line":11,"transit":false,"i_lat":-6.174784,"station_name":"Pasar Senen","station_id":"PSE","is_transit":false,"i_long":106.84368,"distance":1567},{"distance":1436,"station_id":"KMO","i_lat":-6.161728,"is_transit":false,"transit":false,"line":11,"station_name":"Kemayoran","i_long":106.839204,"time":4},{"station_id":"RJW","is_transit":false,"station_name":"Rajawali","time":5,"transit":false,"distance":1901,"i_lat":-6.14505,"i_long":106.836569,"line":11},{"i_long":106.826365,"station_name":"Kampung Bandan","time":3,"distance":1444,"transit":true,"i_lat":-6.132549,"station_id":"KPB","is_transit":true,"line":4},{"i_lat":-6.144674,"transit":false,"is_transit":false,"line":1,"distance":4102,"i_long":106.79867,"time":9,"station_id":"AK","station_name":"Angke"},{"station_id":"DU","distance":1230,"i_lat":-6.155215,"station_name":"Duri","i_long":106.800832,"line":1,"transit":false,"is_transit":false,"time":4},{"i_lat":-6.185545,"station_id":"THB","time":8,"line":1,"is_transit":true,"i_long":106.811091,"distance":3632,"station_name":"Tanah Abang","transit":true},{"transit":false,"station_name":"Palmerah","i_lat":-6.207404,"line":6,"time":6,"is_transit":false,"station_id":"PLM","distance":3191,"i_long":106.79689},{"i_lat":-6.237242,"line":6,"station_name":"Kebayoran","i_long":106.780334,"transit":false,"station_id":"KBY","is_transit":false,"time":7,"distance":3737},{"time":8,"line":6,"transit":false,"station_name":"Pondokranji","i_long":106.74273,"distance":6218,"is_transit":false,"i_lat":-6.276362,"station_id":"PDJ"},{"station_name":"Jurangmangu","is_transit":false,"station_id":"JMU","time":3,"transit":false,"distance":2179,"i_long":106.728916,"i_lat":-6.288927,"line":6},{"distance":1994,"transit":false,"station_id":"SDM","is_transit":false,"station_name":"Sudimara","line":6,"time":4,"i_lat":-6.296963,"i_long":106.712277},{"distance":4566,"station_name":"Rawa Buntu","is_transit":false,"transit":false,"station_id":"RU","time":6,"i_lat":-6.314823,"line":6,"i_long":106.675475},{"is_transit":false,"i_long":106.66566,"distance":2413,"i_lat":-6.319871,"station_id":"SRP","station_name":"Serpong","time":4,"transit":false,"line":6},{"station_name":"Cisauk","i_long":106.640411,"is_transit":false,"distance":1784,"i_lat":-6.32484,"line":3,"transit":false,"station_id":"CSK","time":4},{"station_name":"Cicayur","i_long":106.617853,"transit":false,"distance":2519,"i_lat":-6.329547,"is_transit":false,"line":3,"station_id":"CC","time":4},{"i_lat":-6.3441410000000005,"is_transit":false,"distance":5968,"line":6,"station_name":"Parung Panjang","station_id":"PRP","time":8,"transit":false,"i_long":106.568863},{"line":3,"i_lat":-6.354349,"is_transit":false,"i_long":106.508482,"station_name":"Cilejit","time":9,"distance":7025,"station_id":"CJT","transit":false},{"station_name":"Daru","station_id":"DAR","transit":false,"i_long":106.491338,"line":0,"is_transit":false,"time":6,"i_lat":-6.338021,"distance":2675},{"i_lat":-6.327251,"is_transit":false,"distance":3902,"i_long":106.460812,"station_id":"TEJ","transit":false,"time":5,"line":6,"station_name":"Tenjo"},{"time":5,"i_long":106.425991,"is_transit":false,"distance":2974,"line":6,"station_name":"Tigaraksa","station_id":"TGS","transit":false,"i_lat":-6.328533},{"transit":false,"station_id":"CKY","distance":2651,"is_transit":false,"i_lat":-6.33561,"station_name":"Cikoya","time":3,"i_long":106.411216,"line":3},{"distance":1853,"time":4,"line":6,"station_name":"Maja","is_transit":false,"i_lat":-6.332307,"station_id":"MJ","transit":false,"i_long":106.394373},{"i_long":106.332092,"i_lat":-6.334892,"station_id":"CTR","transit":false,"station_name":"Citeras","distance":7293,"line":3,"is_transit":false,"time":10},{"station_id":"RK","line":3,"distance":9847,"i_long":106.250396,"i_lat":-6.352675,"time":13,"is_transit":false,"transit":false,"station_name":"Rangkasbitung"}],[{"is_transit":false,"i_long":106.858896,"station_id":"MTR","transit":false,"station_name":"Matraman","distance":0,"i_lat":-6.212485,"line":1,"time":0},{"line":2,"station_id":"MRI","distance":1275,"station_name":"Manggarai","i_lat":-6.209883,"time":2,"transit":true,"is_transit":true,"i_long":106.84912},{"i_long":106.840169,"station_name":"Cikini","time":4,"station_id":"CKI","is_transit":false,"i_lat":-6.198556,"distance":1590,"line":2,"transit":false},{"line":2,"i_lat":-6.186295,"station_id":"GDD","station_name":"Gondangdia","i_long":106.832183,"transit":false,"distance":1750,"is_transit":false,"time":3},{"time":4,"is_transit":false,"i_lat":-6.166716,"transit":false,"i_long":106.828284,"line":2,"station_name":"Juanda","distance":2015,"station_id":"JUA"},{"i_long":106.827103,"station_name":"Sawah Besar","is_transit":false,"line":2,"i_lat":-6.160725,"transit":false,"time":2,"station_id":"SW","distance":1149},{"station_id":"MGB","transit":false,"station_name":"Manggabesar","distance":906,"i_lat":-6.149769,"time":2,"i_long":106.82482,"line":2,"is_transit":false},{"distance":1080,"time":2,"transit":false,"station_name":"Jayakarta","is_transit":false,"i_long":106.820901,"station_id":"JAY","i_lat":-6.141205,"line":2},{"i_long":106.812439,"is_transit":true,"transit":true,"i_lat":-6.137569,"station_name":"Jakarta Kota","distance":1264,"station_id":"JAKK","time":4,"line":2},{"station_name":"Kampung Bandan","i_long":106.826365,"distance":1364,"is_transit":true,"time":3,"line":4,"i_lat":-6.132549,"station_id":"KPB","transit":true},{"line":1,"station_name":"Angke","time":9,"distance":4102,"i_lat":-6.144674,"transit":false,"station_id":"AK","is_transit":false,"i_long":106.79867},{"station_name":"Duri","line":1,"is_transit":false,"distance":1230,"transit":false,"time":4,"i_lat":-6.155215,"station_id":"DU","i_long":106.800832},{"transit":true,"time":8,"i_lat":-6.185545,"i_long":106.811091,"station_id":"THB","is_transit":true,"line":1,"distance":3632,"station_name":"Tanah Abang"},{"time":6,"distance":3191,"station_name":"Palmerah","transit":false,"line":6,"i_long":106.79689,"is_transit":false,"i_lat":-6.207404,"station_id":"PLM"},{"distance":3737,"station_name":"Kebayoran","line":6,"transit":false,"station_id":"KBY","time":7,"i_lat":-6.237242,"i_long":106.780334,"is_transit":false},{"time":8,"i_lat":-6.276362,"transit":false,"distance":6218,"i_long":106.74273,"station_name":"Pondokranji","is_transit":false,"line":6,"station_id":"PDJ"},{"is_transit":false,"transit":false,"i_lat":-6.288927,"line":6,"i_long":106.728916,"station_id":"JMU","distance":2179,"station_name":"Jurangmangu","time":3},{"distance":1994,"line":6,"station_name":"Sudimara","time":4,"station_id":"SDM","i_lat":-6.296963,"i_long":106.712277,"transit":false,"is_transit":false},{"i_lat":-6.314823,"time":6,"transit":false,"station_name":"Rawa Buntu","station_id":"RU","i_long":106.675475,"line":6,"distance":4566,"is_transit":false},{"station_id":"SRP","distance":2413,"transit":false,"i_lat":-6.319871,"line":6,"i_long":106.66566,"is_transit":false,"time":4,"station_name":"Serpong"},{"line":3,"transit":false,"station_name":"Cisauk","is_transit":false,"i_long":106.640411,"distance":1784,"station_id":"CSK","i_lat":-6.32484,"time":4},{"i_lat":-6.329547,"station_name":"Cicayur","distance":2519,"line":3,"transit":false,"station_id":"CC","is_transit":false,"time":4,"i_long":106.617853},{"is_transit":false,"distance":5968,"station_id":"PRP","station_name":"Parung Panjang","line":6,"transit":false,"i_lat":-6.3441410000000005,"i_long":106.568863,"time":8},{"station_id":"CJT","i_lat":-6.354349,"i_long":106.508482,"transit":false,"station_name":"Cilejit","time":9,"distance":7025,"line":3,"is_transit":false},{"time":6,"i_lat":-6.338021,"station_name":"Daru","station_id":"DAR","distance":2675,"transit":false,"is_transit":false,"line":0,"i_long":106.491338},{"station_name":"Tenjo","line":6,"transit":false,"i_lat":-6.327251,"i_long":106.460812,"station_id":"TEJ","distance":3902,"is_transit":false,"time":5},{"is_transit":false,"line":6,"i_long":106.425991,"time":5,"i_lat":-6.328533,"station_id":"TGS","distance":2974,"station_name":"Tigaraksa","transit":false},{"time":3,"i_long":106.411216,"station_id":"CKY","line":3,"i_lat":-6.33561,"station_name":"Cikoya","transit":false,"is_transit":false,"distance":2651},{"time":4,"is_transit":false,"station_name":"Maja","i_long":106.394373,"line":6,"distance":1853,"i_lat":-6.332307,"transit":false,"station_id":"MJ"},{"line":3,"station_id":"CTR","distance":7293,"i_lat":-6.334892,"transit":false,"station_name":"Citeras","is_transit":false,"time":10,"i_long":106.332092},{"transit":false,"i_lat":-6.352675,"line":3,"station_id":"RK","distance":9847,"time":13,"is_transit":false,"i_long":106.250396,"station_name":"Rangkasbitung"}],[{"time":0,"is_transit":false,"distance":0,"station_id":"MTR","i_lat":-6.212485,"line":1,"transit":false,"i_long":106.858896,"station_name":"Matraman"},{"station_name":"Jatinegara","station_id":"JNG","distance":1377,"i_long":106.86807400000001,"line":1,"time":8,"is_transit":true,"transit":true,"i_lat":-6.215091},{"i_long":106.861737,"time":2,"transit":false,"is_transit":false,"distance":1236,"line":11,"station_name":"Pondok Jati","i_lat":-6.209188,"station_id":"POK"},{"distance":1829,"transit":false,"is_transit":false,"station_name":"Kramat","i_long":106.855437,"station_id":"KMT","i_lat":-6.193792,"line":11,"time":2},{"time":1,"station_id":"GST","transit":false,"i_lat":-6.185975,"station_name":"Gang Sentiong","is_transit":false,"distance":973,"line":11,"i_long":106.850107},{"line":11,"is_transit":false,"i_lat":-6.174784,"transit":false,"i_long":106.84368,"station_id":"PSE","station_name":"Pasar Senen","time":8,"distance":1567},{"i_long":106.839204,"transit":false,"station_name":"Kemayoran","time":4,"distance":1436,"i_lat":-6.161728,"line":11,"station_id":"KMO","is_transit":false},{"time":5,"i_long":106.836569,"transit":false,"station_id":"RJW","station_name":"Rajawali","distance":1901,"line":11,"i_lat":-6.14505,"is_transit":false},{"i_long":106.826365,"time":3,"line":4,"station_id":"KPB","is_transit":true,"distance":1444,"station_name":"Kampung Bandan","transit":true,"i_lat":-6.132549},{"transit":true,"i_lat":-6.137569,"line":2,"i_long":106.812439,"time":3,"is_transit":true,"distance":1364,"station_name":"Jakarta Kota","station_id":"JAKK"},{"station_id":"JAY","i_lat":-6.141205,"line":2,"time":4,"distance":1264,"is_transit":false,"transit":false,"station_name":"Jayakarta","i_long":106.820901},{"is_transit":false,"i_long":106.82482,"i_lat":-6.149769,"line":2,"station_name":"Manggabesar","distance":1080,"station_id":"MGB","transit":false,"time":2},{"is_transit":false,"i_long":106.827103,"station_name":"Sawah Besar","distance":906,"station_id":"SW","line":2,"time":2,"i_lat":-6.160725,"transit":false},{"i_long":106.828284,"station_name":"Juanda","distance":1149,"station_id":"JUA","time":2,"transit":false,"is_transit":false,"i_lat":-6.166716,"line":2},{"transit":false,"station_name":"Gondangdia","station_id":"GDD","time":4,"distance":2015,"i_lat":-6.186295,"i_long":106.832183,"is_transit":false,"line":2},{"i_long":106.840169,"station_id":"CKI","time":3,"distance":1750,"is_transit":false,"i_lat":-6.198556,"transit":false,"line":2,"station_name":"Cikini"},{"station_id":"MRI","distance":1590,"line":2,"i_long":106.84912,"transit":true,"station_name":"Manggarai","is_transit":true,"i_lat":-6.209883,"time":4},{"distance":3186,"station_name":"Sudirman","transit":false,"time":4,"station_id":"SUD","i_lat":-6.202263,"is_transit":false,"i_long":106.822649,"line":1},{"i_lat":-6.201433,"i_long":106.819881,"station_id":"SUDB","transit":false,"station_name":"Sudirman Baru","line":1,"is_transit":false,"time":1,"distance":280},{"distance":471,"line":1,"i_long":106.816351,"transit":false,"is_transit":false,"station_name":"Karet","time":1,"station_id":"KAT","i_lat":-6.20132},{"i_lat":-6.185545,"i_long":106.811091,"time":5,"distance":2029,"is_transit":true,"line":1,"station_name":"Tanah Abang","transit":true,"station_id":"THB"},{"i_long":106.79689,"line":6,"station_id":"PLM","time":6,"station_name":"Palmerah","i_lat":-6.207404,"transit":false,"is_transit":false,"distance":3191},{"distance":3737,"transit":false,"station_name":"Kebayoran","is_transit":false,"time":7,"i_lat":-6.237242,"i_long":106.780334,"station_id":"KBY","line":6},{"station_id":"PDJ","time":8,"station_name":"Pondokranji","distance":6218,"is_transit":false,"i_lat":-6.276362,"i_long":106.74273,"line":6,"transit":false},{"station_name":"Jurangmangu","transit":false,"is_transit":false,"time":3,"line":6,"station_id":"JMU","distance":2179,"i_lat":-6.288927,"i_long":106.728916},{"distance":1994,"is_transit":false,"line":6,"transit":false,"i_lat":-6.296963,"time":4,"station_name":"Sudimara","station_id":"SDM","i_long":106.712277},{"i_long":106.675475,"station_id":"RU","transit":false,"is_transit":false,"time":6,"distance":4566,"i_lat":-6.314823,"station_name":"Rawa Buntu","line":6},{"i_lat":-6.319871,"distance":2413,"transit":false,"station_name":"Serpong","is_transit":false,"station_id":"SRP","time":4,"i_long":106.66566,"line":6},{"line":3,"i_lat":-6.32484,"distance":1784,"i_long":106.640411,"transit":false,"station_name":"Cisauk","station_id":"CSK","time":4,"is_transit":false},{"is_transit":false,"transit":false,"station_id":"CC","i_long":106.617853,"time":4,"i_lat":-6.329547,"line":3,"distance":2519,"station_name":"Cicayur"},{"i_lat":-6.3441410000000005,"is_transit":false,"distance":5968,"station_id":"PRP","time":8,"transit":false,"line":6,"i_long":106.568863,"station_name":"Parung Panjang"},{"transit":false,"is_transit":false,"station_id":"CJT","distance":7025,"time":9,"i_lat":-6.354349,"i_long":106.508482,"station_name":"Cilejit","line":3},{"transit":false,"is_transit":false,"i_long":106.491338,"station_name":"Daru","i_lat":-6.338021,"distance":2675,"line":0,"station_id":"DAR","time":6},{"i_lat":-6.327251,"line":6,"time":5,"distance":3902,"i_long":106.460812,"station_name":"Tenjo","transit":false,"station_id":"TEJ","is_transit":false},{"station_id":"TGS","line":6,"i_long":106.425991,"is_transit":false,"time":5,"station_name":"Tigaraksa","distance":2974,"i_lat":-6.328533,"transit":false},{"line":3,"time":3,"i_lat":-6.33561,"transit":false,"i_long":106.411216,"distance":2651,"station_id":"CKY","station_name":"Cikoya","is_transit":false},{"distance":1853,"line":6,"i_lat":-6.332307,"transit":false,"station_id":"MJ","is_transit":false,"station_name":"Maja","time":4,"i_long":106.394373},{"time":10,"i_long":106.332092,"station_name":"Citeras","distance":7293,"station_id":"CTR","line":3,"transit":false,"i_lat":-6.334892,"is_transit":false},{"station_id":"RK","line":3,"station_name":"Rangkasbitung","distance":9847,"time":13,"transit":false,"i_long":106.250396,"i_lat":-6.352675,"is_transit":false}]]}