{"data":[[{"time":0,"distance":0,"i_long":106.858896,"station_name":"Matraman","i_lat":-6.212485,"station_id":"MTR","line":1,"is_transit":false,"transit":false},{"i_lat":-6.209883,"station_name":"Manggarai","is_transit":false,"i_long":106.84912,"station_id":"MRI","distance":1275,"line":2,"time":2,"transit":false},{"line":1,"transit":false,"time":4,"station_id":"SUD","is_transit":false,"i_lat":-6.202263,"i_long":106.822649,"station_name":"Sudirman","distance":3186},{"station_name":"Sudirman Baru","transit":false,"is_transit":false,"station_id":"SUDB","i_lat":-6.201433,"i_long":106.819881,"distance":280,"line":1,"time":1},{"i_long":106.816351,"station_id":"KAT","distance":471,"line":1,"transit":false,"is_transit":false,"time":1,"i_lat":-6.20132,"station_name":"Karet"},{"line":1,"transit":true,"i_long":106.811091,"distance":2029,"station_id":"THB","time":5,"station_name":"Tanah Abang","is_transit":true,"i_lat":-6.185545},{"i_long":106.79689,"i_lat":-6.207404,"transit":false,"station_id":"PLM","is_transit":false,"time":6,"line":6,"distance":3191,"station_name":"Palmerah"},{"i_lat":-6.237242,"is_transit":false,"station_id":"KBY","i_long":106.780334,"distance":3737,"time":7,"line":6,"transit":false,"station_name":"Kebayoran"},{"station_id":"PDJ","i_lat":-6.276362,"i_long":106.74273,"line":6,"is_transit":false,"transit":false,"station_name":"Pondokranji","time":8,"distance":6218},{"time":3,"is_transit":false,"i_lat":-6.288927,"distance":2179,"i_long":106.728916,"line":6,"transit":false,"station_name":"Jurangmangu","station_id":"JMU"},{"time":4,"station_id":"SDM","i_lat":-6.296963,"station_name":"Sudimara","i_long":106.712277,"transit":false,"is_transit":false,"distance":1994,"line":6},{"station_name":"Rawa Buntu","i_long":106.675475,"line":6,"station_id":"RU","transit":false,"time":6,"distance":4566,"is_transit":false,"i_lat":-6.314823}],[{"is_transit":false,"line":1,"station_id":"MTR","station_name":"Matraman","distance":0,"i_lat":-6.212485,"i_long":106.858896,"time":0,"transit":false},{"line":1,"transit":true,"is_transit":true,"station_id":"JNG","i_lat":-6.215091,"distance":1377,"time":8,"i_long":106.86807400000001,"station_name":"Jatinegara"},{"i_lat":-6.209188,"transit":false,"i_long":106.861737,"is_transit":false,"station_name":"Pondok Jati","time":2,"distance":1236,"line":11,"station_id":"POK"},{"time":2,"is_transit":false,"transit":false,"station_id":"KMT","line":11,"distance":1829,"i_long":106.855437,"station_name":"Kramat","i_lat":-6.193792},{"line":11,"station_id":"GST","time":1,"is_transit":false,"i_lat":-6.185975,"station_name":"Gang Sentiong","transit":false,"distance":973,"i_long":106.850107},{"line":11,"station_id":"PSE","time":8,"transit":false,"i_long":106.84368,"distance":1567,"i_lat":-6.174784,"is_transit":false,"station_name":"Pasar Senen"},{"transit":false,"time":4,"station_name":"Kemayoran","i_lat":-6.161728,"i_long":106.839204,"line":11,"is_transit":false,"station_id":"KMO","distance":1436},{"i_lat":-6.14505,"transit":false,"station_name":"Rajawali","is_transit":false,"i_long":106.836569,"time":5,"distance":1901,"station_id":"RJW","line":11},{"i_lat":-6.132549,"i_long":106.826365,"distance":1444,"line":4,"station_name":"Kampung Bandan","station_id":"KPB","transit":true,"is_transit":true,"time":3},{"line":1,"is_transit":false,"distance":4102,"transit":false,"station_id":"AK","i_long":106.79867,"station_name":"Angke","time":9,"i_lat":-6.144674},{"station_name":"Duri","transit":false,"time":4,"is_transit":false,"station_id":"DU","distance":1230,"line":1,"i_long":106.800832,"i_lat":-6.155215},{"i_long":106.811091,"transit":true,"station_name":"Tanah Abang","distance":3632,"station_id":"THB","is_transit":true,"line":1,"time":8,"i_lat":-6.185545},{"station_name":"Palmerah","station_id":"PLM","is_transit":false,"i_lat":-6.207404,"line":6,"time":6,"i_long":106.79689,"distance":3191,"transit":false},{"time":7,"transit":false,"station_name":"Kebayoran","station_id":"KBY","is_transit":false,"i_lat":-6.237242,"i_long":106.780334,"line":6,"distance":3737},{"station_name":"Pondokranji","i_lat":-6.276362,"transit":false,"line":6,"i_long":106.74273,"distance":6218,"is_transit":false,"time":8,"station_id":"PDJ"},{"i_lat":-6.288927,"transit":false,"station_name":"Jurangmangu","is_transit":false,"time":3,"distance":2179,"i_long":106.728916,"station_id":"JMU","line":6},{"time":4,"i_long":106.712277,"station_id":"SDM","is_transit":false,"station_name":"Sudimara","i_lat":-6.296963,"line":6,"transit":false,"distance":1994},{"time":6,"is_transit":false,"i_long":106.675475,"station_name":"Rawa Buntu","transit":false,"line":6,"station_id":"RU","i_lat":-6.314823,"distance":4566}],[{"i_lat":-6.212485,"time":0,"transit":false,"line":1,"i_long":106.858896,"distance":0,"station_name":"Matraman","station_id":"MTR","is_transit":false},{"distance":1275,"station_id":"MRI","time":2,"line":2,"i_long":106.84912,"transit":true,"station_name":"Manggarai","i_lat":-6.209883,"is_transit":true},{"distance":1590,"time":4,"is_transit":false,"transit":false,"station_id":"CKI","line":2,"station_name":"Cikini","i_lat":-6.198556,"i_long":106.840169},{"station_id":"GDD","i_lat":-6.186295,"distance":1750,"station_name":"Gondangdia","transit":false,"line":2,"is_transit":false,"time":3,"i_long":106.832183},{"distance":2015,"station_id":"JUA","transit":false,"station_name":"Juanda","is_transit":false,"i_long":106.828284,"i_lat":-6.166716,"time":4,"line":2},{"i_long":106.827103,"i_lat":-6.160725,"time":2,"is_transit":false,"transit":false,"station_id":"SW","line":2,"distance":1149,"station_name":"Sawah Besar"},{"time":2,"is_transit":false,"transit":false,"i_long":106.82482,"i_lat":-6.149769,"station_name":"Manggabesar","station_id":"MGB","distance":906,"line":2},{"i_long":106.820901,"line":2,"is_transit":false,"transit":false,"time":2,"distance":1080,"i_lat":-6.141205,"station_name":"Jayakarta","station_id":"JAY"},{"i_long":106.812439,"is_transit":true,"transit":true,"line":2,"time":4,"station_id":"JAKK","station_name":"Jakarta Kota","distance":1264,"i_lat":-6.137569},{"i_lat":-6.132549,"is_transit":true,"time":3,"transit":true,"line":4,"station_id":"KPB","distance":1364,"i_long":106.826365,"station_name":"Kampung Bandan"},{"transit":false,"station_id":"AK","distance":4102,"time":9,"line":1,"station_name":"Angke","is_transit":false,"i_long":106.79867,"i_lat":-6.144674},{"distance":1230,"transit":false,"i_lat":-6.155215,"line":1,"time":4,"station_name":"Duri","i_long":106.800832,"station_id":"DU","is_transit":false},{"time":8,"station_id":"THB","line":1,"distance":3632,"station_name":"Tanah Abang","transit":true,"is_transit":true,"i_lat":-6.185545,"i_long":106.811091},{"station_id":"PLM","i_lat":-6.207404,"station_name":"Palmerah","line":6,"i_long":106.79689,"is_transit":false,"time":6,"distance":3191,"transit":false},{"station_name":"Kebayoran","time":7,"distance":3737,"line":6,"transit":false,"i_lat":-6.237242,"i_long":106.780334,"station_id":"KBY","is_transit":false},{"i_lat":-6.276362,"station_id":"PDJ","distance":6218,"transit":false,"i_long":106.74273,"station_name":"Pondokranji","time":8,"line":6,"is_transit":false},{"transit":false,"time":3,"station_id":"JMU","i_lat":-6.288927,"station_name":"Jurangmangu","i_long":106.728916,"line":6,"is_transit":false,"distance":2179},{"i_long":106.712277,"distance":1994,"line":6,"transit":false,"is_transit":false,"station_id":"SDM","i_lat":-6.296963,"station_name":"Sudimara","time":4},{"transit":false,"distance":4566,"i_lat":-6.314823,"is_transit":false,"i_long":106.675475,"line":6,"station_name":"Rawa Buntu","time":6,"station_id":"RU"}],[{"time":0,"transit":false,"station_id":"MTR","distance":0,"i_lat":-6.212485,"is_transit":false,"station_name":"Matraman","i_long":106.858896,"line":1},{"station_name":"Jatinegara","station_id":"JNG","transit":true,"i_lat":-6.215091,"i_long":106.86807400000001,"line":1,"distance":1377,"is_transit":true,"time":8},{"time":2,"line":11,"station_id":"POK","station_name":"Pondok Jati","is_transit":false,"distance":1236,"i_long":106.861737,"transit":false,"i_lat":-6.209188},{"time":2,"transit":false,"line":11,"station_name":"Kramat","is_transit":false,"distance":1829,"i_lat":-6.193792,"station_id":"KMT","i_long":106.855437},{"i_long":106.850107,"transit":false,"station_name":"Gang Sentiong","time":1,"line":11,"station_id":"GST","i_lat":-6.185975,"is_transit":false,"distance":973},{"station_name":"Pasar Senen","distance":1567,"transit":false,"i_long":106.84368,"station_id":"PSE","time":8,"is_transit":false,"i_lat":-6.174784,"line":11},{"station_id":"KMO","i_long":106.839204,"distance":1436,"i_lat":-6.161728,"is_transit":false,"station_name":"Kemayoran","line":11,"time":4,"transit":false},{"i_lat":-6.14505,"station_id":"RJW","transit":false,"i_long":106.836569,"distance":1901,"line":11,"station_name":"Rajawali","is_transit":false,"time":5},{"station_id":"KPB","is_transit":true,"time":3,"line":4,"i_long":106.826365,"distance":1444,"transit":true,"station_name":"Kampung Bandan","i_lat":-6.132549},{"i_lat":-6.137569,"i_long":106.812439,"line":2,"transit":true,"station_name":"Jakarta Kota","is_transit":true,"time":3,"station_id":"JAKK","distance":1364},{"line":2,"transit":false,"station_id":"JAY","time":4,"is_transit":false,"station_name":"Jayakarta","distance":1264,"i_lat":-6.141205,"i_long":106.820901},{"time":2,"i_lat":-6.149769,"is_transit":false,"transit":false,"i_long":106.82482,"line":2,"distance":1080,"station_name":"Manggabesar","station_id":"MGB"},{"i_long":106.827103,"transit":false,"station_id":"SW","line":2,"time":2,"distance":906,"i_lat":-6.160725,"station_name":"Sawah Besar","is_transit":false},{"station_id":"JUA","distance":1149,"is_transit":false,"transit":false,"station_name":"Juanda","i_lat":-6.166716,"i_long":106.828284,"line":2,"time":2},{"is_transit":false,"station_id":"GDD","time":4,"distance":2015,"i_long":106.832183,"station_name":"Gondangdia","line":2,"i_lat":-6.186295,"transit":false},{"station_id":"CKI","i_lat":-6.198556,"line":2,"station_name":"Cikini","is_transit":false,"distance":1750,"transit":false,"i_long":106.840169,"time":3},{"is_transit":true,"transit":true,"time":4,"station_id":"MRI","distance":1590,"i_lat":-6.209883,"line":2,"station_name":"Manggarai","i_long":106.84912},{"station_name":"Sudirman","is_transit":false,"i_lat":-6.202263,"station_id":"SUD","distance":3186,"transit":false,"time":4,"line":1,"i_long":106.822649},{"i_long":106.819881,"station_name":"Sudirman Baru","transit":false,"line":1,"is_transit":false,"distance":280,"i_lat":-6.201433,"station_id":"SUDB","time":1},{"transit":false,"i_long":106.816351,"distance":471,"time":1,"is_transit":false,"i_lat":-6.20132,"station_id":"KAT","line":1,"station_name":"Karet"},{"distance":2029,"transit":true,"time":5,"station_id":"THB","i_lat":-6.185545,"line":1,"i_long":106.811091,"is_transit":true,"station_name":"Tanah Abang"},{"station_id":"PLM","station_name":"Palmerah","i_long":106.79689,"transit":false,"line":6,"time":6,"is_transit":false,"i_lat":-6.207404,"distance":3191},{"i_lat":-6.237242,"time":7,"i_long":106.780334,"line":6,"transit":false,"station_id":"KBY","station_name":"Kebayoran","is_transit":false,"distance":3737},{"i_long":106.74273,"station_name":"Pondokranji","time":8,"is_transit":false,"station_id":"PDJ","i_lat":-6.276362,"distance":6218,"line":6,"transit":false},{"line":6,"transit":false,"station_name":"Jurangmangu","distance":2179,"i_lat":-6.288927,"i_long":106.728916,"station_id":"JMU","is_transit":false,"time":3},{"station_id":"SDM","i_lat":-6.296963,"is_transit":false,"distance":1994,"station_name":"Sudimara","i_long":106.712277,"line":6,"transit":false,"time":4},{"line":6,"station_name":"Rawa Buntu","station_id":"RU","is_transit":false,"i_lat":-6.314823,"i_long":106.675475,"transit":false,"time":6,"distance":4566}]]}