{"data":[[{"transit":false,"i_long":106.858896,"line":1,"station_name":"Matraman","i_lat":-6.212485,"station_id":"MTR","time":0,"distance":0,"is_transit":false},{"station_name":"Manggarai","i_long":106.84912,"distance":1275,"line":2,"transit":false,"station_id":"MRI","time":2,"is_transit":false,"i_lat":-6.209883},{"i_long":106.822649,"station_id":"SUD","is_transit":false,"i_lat":-6.202263,"station_name":"Sudirman","distance":3186,"line":1,"transit":false,"time":4},{"distance":280,"i_lat":-6.201433,"i_long":106.819881,"station_id":"SUDB","is_transit":false,"time":1,"line":1,"station_name":"Sudirman Baru","transit":false},{"station_name":"Karet","i_long":106.816351,"station_id":"KAT","line":1,"is_transit":false,"time":1,"distance":471,"transit":false,"i_lat":-6.20132},{"is_transit":true,"station_name":"Tanah Abang","station_id":"THB","time":5,"transit":true,"distance":2029,"i_lat":-6.185545,"i_long":106.811091,"line":1},{"i_long":106.79689,"transit":false,"station_id":"PLM","line":6,"time":6,"is_transit":false,"station_name":"Palmerah","i_lat":-6.207404,"distance":3191},{"i_lat":-6.237242,"time":7,"station_name":"Kebayoran","station_id":"KBY","line":6,"is_transit":false,"i_long":106.780334,"distance":3737,"transit":false},{"station_name":"Pondokranji","i_lat":-6.276362,"time":8,"i_long":106.74273,"line":6,"station_id":"PDJ","is_transit":false,"transit":false,"distance":6218},{"i_lat":-6.288927,"distance":2179,"station_id":"JMU","transit":false,"line":6,"station_name":"Jurangmangu","i_long":106.728916,"time":3,"is_transit":false},{"station_name":"Sudimara","i_long":106.712277,"distance":1994,"station_id":"SDM","line":6,"time":4,"is_transit":false,"i_lat":-6.296963,"transit":false},{"is_transit":false,"distance":4566,"station_name":"Rawa Buntu","transit":false,"time":6,"i_lat":-6.314823,"i_long":106.675475,"station_id":"RU","line":6}],[{"time":0,"distance":0,"is_transit":false,"station_id":"MTR","transit":false,"station_name":"Matraman","i_lat":-6.212485,"line":1,"i_long":106.858896},{"i_long":106.86807400000001,"distance":1377,"is_transit":true,"transit":true,"time":8,"station_name":"Jatinegara","line":1,"station_id":"JNG","i_lat":-6.215091},{"station_id":"POK","station_name":"Pondok Jati","time":2,"i_long":106.861737,"i_lat":-6.209188,"is_transit":false,"line":11,"transit":false,"distance":1236},{"line":11,"transit":false,"is_transit":false,"i_lat":-6.193792,"time":2,"station_name":"Kramat","distance":1829,"station_id":"KMT","i_long":106.855437},{"transit":false,"i_lat":-6.185975,"i_long":106.850107,"station_id":"GST","line":11,"distance":973,"time":1,"station_name":"Gang Sentiong","is_transit":false},{"line":11,"transit":false,"distance":1567,"i_lat":-6.174784,"station_name":"Pasar Senen","station_id":"PSE","is_transit":false,"time":8,"i_long":106.84368},{"station_id":"KMO","is_transit":false,"i_long":106.839204,"station_name":"Kemayoran","distance":1436,"transit":false,"line":11,"time":4,"i_lat":-6.161728},{"time":5,"station_name":"Rajawali","transit":false,"station_id":"RJW","is_transit":false,"i_long":106.836569,"line":11,"i_lat":-6.14505,"distance":1901},{"time":3,"is_transit":true,"transit":true,"i_lat":-6.132549,"distance":1444,"station_name":"Kampung Bandan","station_id":"KPB","i_long":106.826365,"line":4},{"transit":false,"line":1,"time":9,"i_long":106.79867,"station_id":"AK","station_name":"Angke","distance":4102,"is_transit":false,"i_lat":-6.144674},{"transit":false,"station_id":"DU","is_transit":false,"station_name":"Duri","i_long":106.800832,"line":1,"i_lat":-6.155215,"distance":1230,"time":4},{"i_long":106.811091,"i_lat":-6.185545,"transit":true,"distance":3632,"is_transit":true,"station_name":"Tanah Abang","station_id":"THB","time":8,"line":1},{"i_lat":-6.207404,"line":6,"time":6,"distance":3191,"station_id":"PLM","is_transit":false,"transit":false,"i_long":106.79689,"station_name":"Palmerah"},{"distance":3737,"i_lat":-6.237242,"transit":false,"line":6,"i_long":106.780334,"time":7,"station_id":"KBY","station_name":"Kebayoran","is_transit":false},{"is_transit":false,"i_long":106.74273,"line":6,"time":8,"transit":false,"station_name":"Pondokranji","i_lat":-6.276362,"distance":6218,"station_id":"PDJ"},{"station_id":"JMU","transit":false,"line":6,"is_transit":false,"time":3,"i_lat":-6.288927,"distance":2179,"i_long":106.728916,"station_name":"Jurangmangu"},{"line":6,"i_lat":-6.296963,"distance":1994,"time":4,"is_transit":false,"i_long":106.712277,"station_id":"SDM","station_name":"Sudimara","transit":false},{"distance":4566,"line":6,"transit":false,"station_name":"Rawa Buntu","i_lat":-6.314823,"is_transit":false,"station_id":"RU","time":6,"i_long":106.675475}],[{"is_transit":false,"transit":false,"station_id":"MTR","i_long":106.858896,"line":1,"i_lat":-6.212485,"time":0,"station_name":"Matraman","distance":0},{"station_id":"MRI","i_lat":-6.209883,"i_long":106.84912,"distance":1275,"time":2,"line":2,"is_transit":true,"station_name":"Manggarai","transit":true},{"is_transit":false,"station_name":"Cikini","transit":false,"time":4,"distance":1590,"i_lat":-6.198556,"i_long":106.840169,"station_id":"CKI","line":2},{"i_long":106.832183,"line":2,"station_id":"GDD","distance":1750,"i_lat":-6.186295,"time":3,"transit":false,"station_name":"Gondangdia","is_transit":false},{"line":2,"station_id":"JUA","i_long":106.828284,"time":4,"i_lat":-6.166716,"distance":2015,"is_transit":false,"station_name":"Juanda","transit":false},{"is_transit":false,"i_lat":-6.160725,"station_id":"SW","transit":false,"i_long":106.827103,"station_name":"Sawah Besar","line":2,"time":2,"distance":1149},{"station_id":"MGB","distance":906,"transit":false,"i_long":106.82482,"time":2,"is_transit":false,"i_lat":-6.149769,"station_name":"Manggabesar","line":2},{"i_lat":-6.141205,"time":2,"is_transit":false,"line":2,"distance":1080,"transit":false,"station_name":"Jayakarta","station_id":"JAY","i_long":106.820901},{"distance":1264,"time":4,"line":2,"i_long":106.812439,"i_lat":-6.137569,"station_id":"JAKK","is_transit":true,"transit":true,"station_name":"Jakarta Kota"},{"distance":1364,"time":3,"is_transit":true,"station_id":"KPB","transit":true,"station_name":"Kampung Bandan","i_lat":-6.132549,"line":4,"i_long":106.826365},{"is_transit":false,"transit":false,"station_name":"Angke","station_id":"AK","line":1,"i_long":106.79867,"distance":4102,"time":9,"i_lat":-6.144674},{"line":1,"i_long":106.800832,"time":4,"distance":1230,"transit":false,"station_name":"Duri","station_id":"DU","i_lat":-6.155215,"is_transit":false},{"i_long":106.811091,"is_transit":true,"station_id":"THB","distance":3632,"i_lat":-6.185545,"station_name":"Tanah Abang","line":1,"time":8,"transit":true},{"transit":false,"distance":3191,"time":6,"i_long":106.79689,"station_name":"Palmerah","station_id":"PLM","i_lat":-6.207404,"line":6,"is_transit":false},{"i_lat":-6.237242,"distance":3737,"transit":false,"time":7,"i_long":106.780334,"station_id":"KBY","station_name":"Kebayoran","is_transit":false,"line":6},{"i_long":106.74273,"time":8,"transit":false,"station_id":"PDJ","distance":6218,"station_name":"Pondokranji","is_transit":false,"i_lat":-6.276362,"line":6},{"is_transit":false,"i_lat":-6.288927,"distance":2179,"time":3,"station_id":"JMU","station_name":"Jurangmangu","transit":false,"line":6,"i_long":106.728916},{"station_id":"SDM","is_transit":false,"line":6,"i_lat":-6.296963,"station_name":"Sudimara","transit":false,"i_long":106.712277,"distance":1994,"time":4},{"time":6,"is_transit":false,"line":6,"distance":4566,"i_long":106.675475,"i_lat":-6.314823,"station_name":"Rawa Buntu","transit":false,"station_id":"RU"}],[{"is_transit":false,"i_lat":-6.212485,"time":0,"station_id":"MTR","distance":0,"station_name":"Matraman","i_long":106.858896,"line":1,"transit":false},{"i_long":106.86807400000001,"station_id":"JNG","line":1,"is_transit":true,"i_lat":-6.215091,"station_name":"Jatinegara","transit":true,"distance":1377,"time":8},{"transit":false,"time":2,"distance":1236,"line":11,"i_lat":-6.209188,"i_long":106.861737,"station_id":"POK","station_name":"Pondok Jati","is_transit":false},{"distance":1829,"station_id":"KMT","transit":false,"time":2,"line":11,"station_name":"Kramat","is_transit":false,"i_lat":-6.193792,"i_long":106.855437},{"station_id":"GST","time":1,"i_lat":-6.185975,"station_name":"Gang Sentiong","is_transit":false,"distance":973,"i_long":106.850107,"transit":false,"line":11},{"time":8,"transit":false,"is_transit":false,"station_name":"Pasar Senen","distance":1567,"i_lat":-6.174784,"station_id":"PSE","i_long":106.84368,"line":11},{"station_id":"KMO","transit":false,"i_lat":-6.161728,"line":11,"station_name":"Kemayoran","distance":1436,"is_transit":false,"i_long":106.839204,"time":4},{"transit":false,"station_name":"Rajawali","distance":1901,"i_long":106.836569,"line":11,"is_transit":false,"i_lat":-6.14505,"station_id":"RJW","time":5},{"i_lat":-6.132549,"time":3,"distance":1444,"station_name":"Kampung Bandan","transit":true,"is_transit":true,"i_long":106.826365,"line":4,"station_id":"KPB"},{"station_id":"JAKK","time":3,"i_long":106.812439,"distance":1364,"line":2,"station_name":"Jakarta Kota","transit":true,"i_lat":-6.137569,"is_transit":true},{"i_lat":-6.141205,"line":2,"station_id":"JAY","time":4,"station_name":"Jayakarta","is_transit":false,"transit":false,"distance":1264,"i_long":106.820901},{"station_id":"MGB","distance":1080,"i_long":106.82482,"time":2,"transit":false,"line":2,"is_transit":false,"station_name":"Manggabesar","i_lat":-6.149769},{"line":2,"station_id":"SW","is_transit":false,"i_lat":-6.160725,"i_long":106.827103,"distance":906,"station_name":"Sawah Besar","time":2,"transit":false},{"i_lat":-6.166716,"is_transit":false,"transit":false,"time":2,"line":2,"station_name":"Juanda","distance":1149,"station_id":"JUA","i_long":106.828284},{"i_long":106.832183,"line":2,"distance":2015,"time":4,"station_name":"Gondangdia","transit":false,"is_transit":false,"station_id":"GDD","i_lat":-6.186295},{"line":2,"time":3,"transit":false,"station_id":"CKI","is_transit":false,"i_lat":-6.198556,"distance":1750,"station_name":"Cikini","i_long":106.840169},{"i_long":106.84912,"transit":true,"distance":1590,"line":2,"time":4,"station_name":"Manggarai","is_transit":true,"station_id":"MRI","i_lat":-6.209883},{"station_id":"SUD","station_name":"Sudirman","is_transit":false,"distance":3186,"transit":false,"i_lat":-6.202263,"line":1,"time":4,"i_long":106.822649},{"distance":280,"i_lat":-6.201433,"line":1,"transit":false,"i_long":106.819881,"is_transit":false,"time":1,"station_name":"Sudirman Baru","station_id":"SUDB"},{"i_lat":-6.20132,"is_transit":false,"i_long":106.816351,"time":1,"station_id":"KAT","transit":false,"line":1,"distance":471,"station_name":"Karet"},{"distance":2029,"i_long":106.811091,"station_name":"Tanah Abang","line":1,"is_transit":true,"transit":true,"time":5,"station_id":"THB","i_lat":-6.185545},{"distance":3191,"station_id":"PLM","time":6,"i_lat":-6.207404,"is_transit":false,"i_long":106.79689,"transit":false,"line":6,"station_name":"Palmerah"},{"station_id":"KBY","is_transit":false,"i_lat":-6.237242,"line":6,"distance":3737,"station_name":"Kebayoran","i_long":106.780334,"transit":false,"time":7},{"i_long":106.74273,"transit":false,"distance":6218,"station_name":"Pondokranji","i_lat":-6.276362,"line":6,"station_id":"PDJ","is_transit":false,"time":8},{"station_name":"Jurangmangu","is_transit":false,"station_id":"JMU","transit":false,"i_lat":-6.288927,"line":6,"time":3,"i_long":106.728916,"distance":2179},{"station_id":"SDM","line":6,"i_long":106.712277,"distance":1994,"transit":false,"is_transit":false,"i_lat":-6.296963,"time":4,"station_name":"Sudimara"},{"distance":4566,"line":6,"transit":false,"i_long":106.675475,"station_id":"RU","time":6,"station_name":"Rawa Buntu","is_transit":false,"i_lat":-6.314823}]]}