{"data":[[{"i_long":106.858896,"station_id":"MTR","transit":false,"is_transit":false,"line":1,"distance":0,"station_name":"Matraman","i_lat":-6.212485,"time":0},{"station_id":"JNG","i_lat":-6.215091,"line":1,"is_transit":false,"i_long":106.86807400000001,"transit":false,"distance":1377,"station_name":"Jatinegara","time":8},{"transit":false,"station_id":"KLD","station_name":"Klender","time":3,"line":1,"distance":3395,"i_lat":-6.2135,"is_transit":false,"i_long":106.899548},{"i_lat":-6.215568,"i_long":106.922662,"line":1,"is_transit":false,"time":2,"transit":false,"distance":3100,"station_id":"BUA","station_name":"Buaran"},{"i_long":106.939679,"line":1,"time":1,"distance":1305,"transit":false,"station_id":"KLDB","is_transit":false,"station_name":"Klenderbaru","i_lat":-6.217455},{"transit":false,"line":1,"time":8,"distance":1385,"is_transit":false,"i_lat":-6.219053,"station_id":"CUK","i_long":106.951283,"station_name":"Cakung"},{"station_id":"KRI","is_transit":false,"transit":false,"distance":3097,"time":3,"station_name":"Kranji","i_long":106.977657,"line":1,"i_lat":-6.224515},{"i_long":106.997013,"station_name":"Bekasi","distance":2520,"is_transit":false,"time":4,"station_id":"BKS","line":1,"transit":false,"i_lat":-6.236616},{"i_lat":-6.248029,"station_id":"BKST","distance":2368,"time":2,"station_name":"Bekasi Timur","line":1,"is_transit":false,"transit":false,"i_long":107.016735},{"is_transit":false,"station_name":"Tambun","time":7,"i_long":107.055722,"transit":false,"i_lat":-6.258864,"station_id":"TB","line":1,"distance":4460}],[{"line":1,"transit":false,"distance":0,"i_lat":-6.212485,"station_name":"Matraman","station_id":"MTR","i_long":106.858896,"is_transit":false,"time":0},{"distance":1275,"station_id":"MRI","is_transit":false,"line":2,"station_name":"Manggarai","transit":false,"time":2,"i_lat":-6.209883,"i_long":106.84912},{"station_name":"Sudirman","i_lat":-6.202263,"line":1,"time":4,"station_id":"SUD","is_transit":false,"distance":3186,"transit":false,"i_long":106.822649},{"i_lat":-6.201433,"i_long":106.819881,"line":1,"distance":280,"is_transit":false,"transit":false,"station_id":"SUDB","station_name":"Sudirman Baru","time":1},{"i_lat":-6.20132,"i_long":106.816351,"distance":471,"station_id":"KAT","line":1,"station_name":"Karet","time":1,"is_transit":false,"transit":false},{"time":5,"station_id":"THB","is_transit":false,"i_lat":-6.185545,"station_name":"Tanah Abang","transit":false,"distance":2029,"line":1,"i_long":106.811091},{"is_transit":false,"distance":3632,"transit":false,"line":1,"i_lat":-6.155215,"station_id":"DU","i_long":106.800832,"time":8,"station_name":"Duri"},{"station_id":"AK","station_name":"Angke","is_transit":false,"time":4,"distance":1230,"transit":false,"i_long":106.79867,"line":1,"i_lat":-6.144674},{"transit":true,"distance":4102,"station_name":"Kampung Bandan","i_lat":-6.132549,"line":4,"time":9,"station_id":"KPB","is_transit":true,"i_long":106.826365},{"station_name":"Rajawali","distance":1444,"station_id":"RJW","i_lat":-6.14505,"is_transit":false,"transit":false,"i_long":106.836569,"time":3,"line":11},{"i_lat":-6.161728,"time":5,"i_long":106.839204,"distance":1901,"transit":false,"line":11,"station_id":"KMO","is_transit":false,"station_name":"Kemayoran"},{"distance":1436,"transit":false,"i_lat":-6.174784,"station_name":"Pasar Senen","time":4,"station_id":"PSE","line":11,"i_long":106.84368,"is_transit":false},{"transit":false,"i_long":106.850107,"distance":1567,"time":8,"station_name":"Gang Sentiong","is_transit":false,"station_id":"GST","i_lat":-6.185975,"line":11},{"line":11,"i_long":106.855437,"station_id":"KMT","station_name":"Kramat","is_transit":false,"transit":false,"i_lat":-6.193792,"distance":973,"time":1},{"station_id":"POK","time":2,"i_lat":-6.209188,"i_long":106.861737,"line":11,"is_transit":false,"distance":1829,"transit":false,"station_name":"Pondok Jati"},{"is_transit":true,"time":9,"line":1,"station_name":"Jatinegara","station_id":"JNG","i_lat":-6.215091,"i_long":106.86807400000001,"distance":1236,"transit":true},{"is_transit":false,"transit":false,"i_lat":-6.2135,"time":3,"station_id":"KLD","i_long":106.899548,"line":1,"distance":3395,"station_name":"Klender"},{"station_id":"BUA","distance":3100,"is_transit":false,"transit":false,"i_lat":-6.215568,"station_name":"Buaran","i_long":106.922662,"line":1,"time":2},{"distance":1305,"i_long":106.939679,"time":1,"line":1,"station_name":"Klenderbaru","is_transit":false,"transit":false,"station_id":"KLDB","i_lat":-6.217455},{"is_transit":false,"i_long":106.951283,"station_id":"CUK","line":1,"time":8,"transit":false,"distance":1385,"station_name":"Cakung","i_lat":-6.219053},{"distance":3097,"transit":false,"station_name":"Kranji","is_transit":false,"station_id":"KRI","i_long":106.977657,"time":3,"line":1,"i_lat":-6.224515},{"station_id":"BKS","time":4,"transit":false,"i_lat":-6.236616,"line":1,"station_name":"Bekasi","distance":2520,"is_transit":false,"i_long":106.997013},{"time":2,"transit":false,"station_id":"BKST","station_name":"Bekasi Timur","is_transit":false,"i_lat":-6.248029,"i_long":107.016735,"distance":2368,"line":1},{"distance":4460,"i_long":107.055722,"is_transit":false,"station_name":"Tambun","station_id":"TB","transit":false,"i_lat":-6.258864,"time":7,"line":1}],[{"station_name":"Matraman","time":0,"transit":false,"line":1,"station_id":"MTR","i_long":106.858896,"is_transit":false,"i_lat":-6.212485,"distance":0},{"station_name":"Manggarai","is_transit":true,"line":2,"time":2,"transit":true,"station_id":"MRI","i_long":106.84912,"i_lat":-6.209883,"distance":1275},{"i_lat":-6.198556,"station_name":"Cikini","transit":false,"station_id":"CKI","is_transit":false,"distance":1590,"time":4,"i_long":106.840169,"line":2},{"i_lat":-6.186295,"distance":1750,"station_id":"GDD","transit":false,"station_name":"Gondangdia","is_transit":false,"i_long":106.832183,"time":3,"line":2},{"distance":2015,"is_transit":false,"line":2,"i_long":106.828284,"station_name":"Juanda","station_id":"JUA","i_lat":-6.166716,"time":4,"transit":false},{"station_name":"Sawah Besar","is_transit":false,"i_lat":-6.160725,"time":2,"distance":1149,"transit":false,"station_id":"SW","i_long":106.827103,"line":2},{"distance":906,"line":2,"transit":false,"is_transit":false,"time":2,"i_lat":-6.149769,"station_name":"Manggabesar","station_id":"MGB","i_long":106.82482},{"time":2,"station_id":"JAY","transit":false,"line":2,"distance":1080,"i_lat":-6.141205,"station_name":"Jayakarta","is_transit":false,"i_long":106.820901},{"distance":1264,"is_transit":true,"transit":true,"time":4,"i_lat":-6.137569,"line":2,"station_id":"JAKK","station_name":"Jakarta Kota","i_long":106.812439},{"transit":true,"line":4,"station_name":"Kampung Bandan","i_long":106.826365,"distance":1364,"station_id":"KPB","is_transit":true,"i_lat":-6.132549,"time":3},{"is_transit":false,"station_id":"RJW","transit":false,"line":11,"i_lat":-6.14505,"distance":1444,"time":3,"i_long":106.836569,"station_name":"Rajawali"},{"distance":1901,"i_long":106.839204,"i_lat":-6.161728,"is_transit":false,"line":11,"time":5,"station_name":"Kemayoran","transit":false,"station_id":"KMO"},{"line":11,"distance":1436,"station_name":"Pasar Senen","station_id":"PSE","is_transit":false,"transit":false,"i_lat":-6.174784,"time":4,"i_long":106.84368},{"i_long":106.850107,"line":11,"transit":false,"time":8,"station_name":"Gang Sentiong","i_lat":-6.185975,"distance":1567,"station_id":"GST","is_transit":false},{"i_long":106.855437,"distance":973,"station_name":"Kramat","is_transit":false,"time":1,"line":11,"i_lat":-6.193792,"station_id":"KMT","transit":false},{"station_name":"Pondok Jati","transit":false,"station_id":"POK","line":11,"time":2,"distance":1829,"i_lat":-6.209188,"is_transit":false,"i_long":106.861737},{"i_long":106.86807400000001,"is_transit":true,"time":9,"line":1,"transit":true,"station_id":"JNG","i_lat":-6.215091,"distance":1236,"station_name":"Jatinegara"},{"i_lat":-6.2135,"distance":3395,"station_name":"Klender","time":3,"i_long":106.899548,"station_id":"KLD","is_transit":false,"transit":false,"line":1},{"distance":3100,"station_id":"BUA","i_long":106.922662,"line":1,"station_name":"Buaran","is_transit":false,"transit":false,"time":2,"i_lat":-6.215568},{"time":1,"i_lat":-6.217455,"station_id":"KLDB","i_long":106.939679,"transit":false,"distance":1305,"station_name":"Klenderbaru","line":1,"is_transit":false},{"transit":false,"distance":1385,"station_name":"Cakung","i_lat":-6.219053,"line":1,"station_id":"CUK","is_transit":false,"time":8,"i_long":106.951283},{"station_name":"Kranji","i_long":106.977657,"is_transit":false,"distance":3097,"time":3,"line":1,"i_lat":-6.224515,"station_id":"KRI","transit":false},{"station_id":"BKS","is_transit":false,"station_name":"Bekasi","time":4,"i_long":106.997013,"line":1,"i_lat":-6.236616,"distance":2520,"transit":false},{"i_long":107.016735,"station_id":"BKST","i_lat":-6.248029,"station_name":"Bekasi Timur","time":2,"transit":false,"is_transit":false,"line":1,"distance":2368},{"distance":4460,"station_id":"TB","transit":false,"i_lat":-6.258864,"line":1,"time":7,"is_transit":false,"i_long":107.055722,"station_name":"Tambun"}]]}