{"data":[[{"line":1,"transit":false,"time":0,"distance":0,"i_long":106.858896,"station_name":"Matraman","is_transit":false,"i_lat":-6.212485,"station_id":"MTR"},{"transit":false,"i_lat":-6.209883,"distance":1275,"line":2,"is_transit":false,"station_id":"MRI","station_name":"Manggarai","time":2,"i_long":106.84912},{"time":4,"transit":false,"station_name":"Sudirman","i_long":106.822649,"line":1,"i_lat":-6.202263,"station_id":"SUD","is_transit":false,"distance":3186},{"i_long":106.819881,"is_transit":false,"transit":false,"distance":280,"i_lat":-6.201433,"time":1,"line":1,"station_name":"Sudirman Baru","station_id":"SUDB"},{"station_id":"KAT","time":1,"is_transit":false,"i_long":106.816351,"distance":471,"line":1,"i_lat":-6.20132,"transit":false,"station_name":"Karet"},{"transit":true,"time":5,"distance":2029,"i_long":106.811091,"station_id":"THB","line":1,"station_name":"Tanah Abang","is_transit":true,"i_lat":-6.185545},{"transit":false,"is_transit":false,"station_name":"Palmerah","i_long":106.79689,"station_id":"PLM","line":6,"time":6,"distance":3191,"i_lat":-6.207404},{"time":7,"line":6,"is_transit":false,"distance":3737,"station_id":"KBY","i_long":106.780334,"transit":false,"i_lat":-6.237242,"station_name":"Kebayoran"},{"distance":6218,"station_id":"PDJ","line":6,"is_transit":false,"i_lat":-6.276362,"i_long":106.74273,"transit":false,"station_name":"Pondokranji","time":8},{"i_long":106.728916,"station_id":"JMU","is_transit":false,"transit":false,"distance":2179,"line":6,"station_name":"Jurangmangu","i_lat":-6.288927,"time":3},{"station_name":"Sudimara","distance":1994,"i_lat":-6.296963,"i_long":106.712277,"station_id":"SDM","is_transit":false,"time":4,"line":6,"transit":false}],[{"i_long":106.858896,"station_id":"MTR","is_transit":false,"station_name":"Matraman","transit":false,"time":0,"distance":0,"line":1,"i_lat":-6.212485},{"distance":1377,"transit":true,"time":8,"station_id":"JNG","is_transit":true,"i_long":106.86807400000001,"line":1,"station_name":"Jatinegara","i_lat":-6.215091},{"is_transit":false,"transit":false,"i_long":106.861737,"distance":1236,"station_name":"Pondok Jati","time":2,"line":11,"station_id":"POK","i_lat":-6.209188},{"station_name":"Kramat","i_lat":-6.193792,"is_transit":false,"i_long":106.855437,"line":11,"transit":false,"time":2,"station_id":"KMT","distance":1829},{"station_id":"GST","time":1,"transit":false,"station_name":"Gang Sentiong","is_transit":false,"line":11,"i_long":106.850107,"distance":973,"i_lat":-6.185975},{"time":8,"station_id":"PSE","i_long":106.84368,"i_lat":-6.174784,"transit":false,"station_name":"Pasar Senen","distance":1567,"is_transit":false,"line":11},{"time":4,"is_transit":false,"station_id":"KMO","i_lat":-6.161728,"line":11,"i_long":106.839204,"station_name":"Kemayoran","transit":false,"distance":1436},{"time":5,"i_long":106.836569,"i_lat":-6.14505,"station_name":"Rajawali","line":11,"is_transit":false,"transit":false,"distance":1901,"station_id":"RJW"},{"distance":1444,"i_lat":-6.132549,"i_long":106.826365,"time":3,"line":4,"station_name":"Kampung Bandan","is_transit":true,"station_id":"KPB","transit":true},{"i_lat":-6.144674,"is_transit":false,"station_id":"AK","station_name":"Angke","distance":4102,"transit":false,"i_long":106.79867,"line":1,"time":9},{"distance":1230,"station_name":"Duri","station_id":"DU","i_lat":-6.155215,"transit":false,"time":4,"line":1,"i_long":106.800832,"is_transit":false},{"i_lat":-6.185545,"station_id":"THB","distance":3632,"time":8,"transit":true,"is_transit":true,"station_name":"Tanah Abang","i_long":106.811091,"line":1},{"line":6,"is_transit":false,"station_id":"PLM","time":6,"transit":false,"i_long":106.79689,"i_lat":-6.207404,"station_name":"Palmerah","distance":3191},{"transit":false,"station_id":"KBY","station_name":"Kebayoran","time":7,"distance":3737,"i_lat":-6.237242,"i_long":106.780334,"line":6,"is_transit":false},{"line":6,"distance":6218,"station_id":"PDJ","time":8,"i_lat":-6.276362,"transit":false,"station_name":"Pondokranji","is_transit":false,"i_long":106.74273},{"station_id":"JMU","time":3,"i_lat":-6.288927,"station_name":"Jurangmangu","distance":2179,"transit":false,"i_long":106.728916,"line":6,"is_transit":false},{"i_lat":-6.296963,"i_long":106.712277,"line":6,"station_id":"SDM","is_transit":false,"distance":1994,"transit":false,"station_name":"Sudimara","time":4}],[{"time":0,"i_lat":-6.212485,"station_id":"MTR","is_transit":false,"transit":false,"line":1,"i_long":106.858896,"station_name":"Matraman","distance":0},{"line":2,"station_id":"MRI","transit":true,"station_name":"Manggarai","time":2,"distance":1275,"is_transit":true,"i_lat":-6.209883,"i_long":106.84912},{"station_name":"Cikini","station_id":"CKI","is_transit":false,"i_lat":-6.198556,"time":4,"distance":1590,"transit":false,"i_long":106.840169,"line":2},{"is_transit":false,"i_lat":-6.186295,"time":3,"station_id":"GDD","distance":1750,"station_name":"Gondangdia","transit":false,"i_long":106.832183,"line":2},{"station_id":"JUA","time":4,"distance":2015,"i_long":106.828284,"transit":false,"is_transit":false,"line":2,"station_name":"Juanda","i_lat":-6.166716},{"time":2,"is_transit":false,"i_long":106.827103,"line":2,"i_lat":-6.160725,"station_name":"Sawah Besar","distance":1149,"transit":false,"station_id":"SW"},{"station_id":"MGB","i_lat":-6.149769,"distance":906,"is_transit":false,"line":2,"station_name":"Manggabesar","transit":false,"time":2,"i_long":106.82482},{"is_transit":false,"time":2,"station_name":"Jayakarta","line":2,"i_lat":-6.141205,"transit":false,"distance":1080,"i_long":106.820901,"station_id":"JAY"},{"is_transit":true,"station_id":"JAKK","time":4,"i_lat":-6.137569,"i_long":106.812439,"station_name":"Jakarta Kota","transit":true,"line":2,"distance":1264},{"station_name":"Kampung Bandan","is_transit":true,"station_id":"KPB","transit":true,"time":3,"i_lat":-6.132549,"line":4,"i_long":106.826365,"distance":1364},{"transit":false,"i_lat":-6.144674,"station_id":"AK","distance":4102,"i_long":106.79867,"line":1,"station_name":"Angke","is_transit":false,"time":9},{"station_name":"Duri","time":4,"is_transit":false,"distance":1230,"transit":false,"station_id":"DU","i_long":106.800832,"line":1,"i_lat":-6.155215},{"is_transit":true,"distance":3632,"station_id":"THB","i_long":106.811091,"station_name":"Tanah Abang","transit":true,"line":1,"time":8,"i_lat":-6.185545},{"line":6,"time":6,"station_name":"Palmerah","is_transit":false,"transit":false,"distance":3191,"i_long":106.79689,"i_lat":-6.207404,"station_id":"PLM"},{"transit":false,"line":6,"station_name":"Kebayoran","station_id":"KBY","is_transit":false,"time":7,"i_lat":-6.237242,"distance":3737,"i_long":106.780334},{"distance":6218,"transit":false,"is_transit":false,"i_lat":-6.276362,"time":8,"station_name":"Pondokranji","i_long":106.74273,"station_id":"PDJ","line":6},{"is_transit":false,"time":3,"line":6,"station_name":"Jurangmangu","i_long":106.728916,"station_id":"JMU","i_lat":-6.288927,"transit":false,"distance":2179},{"time":4,"i_lat":-6.296963,"is_transit":false,"station_id":"SDM","transit":false,"distance":1994,"station_name":"Sudimara","i_long":106.712277,"line":6}],[{"transit":false,"i_lat":-6.212485,"station_id":"MTR","time":0,"station_name":"Matraman","distance":0,"i_long":106.858896,"line":1,"is_transit":false},{"i_lat":-6.215091,"i_long":106.86807400000001,"line":1,"transit":true,"time":8,"is_transit":true,"station_name":"Jatinegara","station_id":"JNG","distance":1377},{"station_name":"Pondok Jati","transit":false,"is_transit":false,"line":11,"i_lat":-6.209188,"station_id":"POK","distance":1236,"time":2,"i_long":106.861737},{"i_long":106.855437,"line":11,"station_id":"KMT","transit":false,"i_lat":-6.193792,"time":2,"station_name":"Kramat","is_transit":false,"distance":1829},{"i_lat":-6.185975,"transit":false,"i_long":106.850107,"distance":973,"line":11,"is_transit":false,"time":1,"station_name":"Gang Sentiong","station_id":"GST"},{"station_id":"PSE","time":8,"i_lat":-6.174784,"line":11,"transit":false,"station_name":"Pasar Senen","is_transit":false,"distance":1567,"i_long":106.84368},{"time":4,"line":11,"distance":1436,"transit":false,"is_transit":false,"i_lat":-6.161728,"i_long":106.839204,"station_name":"Kemayoran","station_id":"KMO"},{"line":11,"i_long":106.836569,"station_name":"Rajawali","is_transit":false,"distance":1901,"i_lat":-6.14505,"station_id":"RJW","transit":false,"time":5},{"time":3,"distance":1444,"station_name":"Kampung Bandan","transit":true,"is_transit":true,"i_long":106.826365,"line":4,"station_id":"KPB","i_lat":-6.132549},{"transit":true,"distance":1364,"station_name":"Jakarta Kota","station_id":"JAKK","time":3,"is_transit":true,"i_long":106.812439,"i_lat":-6.137569,"line":2},{"time":4,"station_id":"JAY","i_lat":-6.141205,"distance":1264,"is_transit":false,"i_long":106.820901,"station_name":"Jayakarta","line":2,"transit":false},{"is_transit":false,"transit":false,"i_lat":-6.149769,"i_long":106.82482,"time":2,"distance":1080,"station_name":"Manggabesar","line":2,"station_id":"MGB"},{"line":2,"i_lat":-6.160725,"station_name":"Sawah Besar","i_long":106.827103,"time":2,"station_id":"SW","distance":906,"transit":false,"is_transit":false},{"is_transit":false,"time":2,"line":2,"i_lat":-6.166716,"transit":false,"station_name":"Juanda","i_long":106.828284,"station_id":"JUA","distance":1149},{"i_long":106.832183,"line":2,"i_lat":-6.186295,"station_name":"Gondangdia","is_transit":false,"transit":false,"distance":2015,"time":4,"station_id":"GDD"},{"i_lat":-6.198556,"station_name":"Cikini","transit":false,"time":3,"distance":1750,"station_id":"CKI","line":2,"i_long":106.840169,"is_transit":false},{"transit":true,"station_name":"Manggarai","i_long":106.84912,"line":2,"distance":1590,"time":4,"station_id":"MRI","i_lat":-6.209883,"is_transit":true},{"time":4,"station_name":"Sudirman","i_long":106.822649,"is_transit":false,"i_lat":-6.202263,"station_id":"SUD","transit":false,"line":1,"distance":3186},{"line":1,"station_id":"SUDB","time":1,"transit":false,"distance":280,"is_transit":false,"i_lat":-6.201433,"i_long":106.819881,"station_name":"Sudirman Baru"},{"transit":false,"time":1,"station_name":"Karet","i_lat":-6.20132,"line":1,"distance":471,"i_long":106.816351,"station_id":"KAT","is_transit":false},{"line":1,"time":5,"i_lat":-6.185545,"transit":true,"station_name":"Tanah Abang","station_id":"THB","i_long":106.811091,"distance":2029,"is_transit":true},{"i_lat":-6.207404,"transit":false,"time":6,"distance":3191,"i_long":106.79689,"line":6,"station_id":"PLM","station_name":"Palmerah","is_transit":false},{"i_lat":-6.237242,"station_id":"KBY","distance":3737,"is_transit":false,"i_long":106.780334,"line":6,"transit":false,"time":7,"station_name":"Kebayoran"},{"line":6,"station_name":"Pondokranji","i_long":106.74273,"i_lat":-6.276362,"station_id":"PDJ","is_transit":false,"time":8,"distance":6218,"transit":false},{"time":3,"i_lat":-6.288927,"i_long":106.728916,"transit":false,"distance":2179,"station_id":"JMU","is_transit":false,"station_name":"Jurangmangu","line":6},{"line":6,"i_long":106.712277,"time":4,"distance":1994,"station_name":"Sudimara","is_transit":false,"station_id":"SDM","transit":false,"i_lat":-6.296963}]]}