{"data":[[{"distance":0,"station_name":"Matraman","station_id":"MTR","transit":false,"is_transit":false,"time":0,"i_lat":-6.212485,"line":1,"i_long":106.858896},{"i_long":106.84912,"is_transit":false,"line":2,"station_name":"Manggarai","transit":false,"i_lat":-6.209883,"time":2,"station_id":"MRI","distance":1275},{"is_transit":false,"distance":3186,"i_lat":-6.202263,"station_name":"Sudirman","transit":false,"i_long":106.822649,"line":1,"station_id":"SUD","time":4},{"i_lat":-6.201433,"is_transit":false,"i_long":106.819881,"distance":280,"transit":false,"station_id":"SUDB","time":1,"station_name":"Sudirman Baru","line":1},{"station_name":"Karet","line":1,"station_id":"KAT","is_transit":false,"time":1,"transit":false,"distance":471,"i_lat":-6.20132,"i_long":106.816351},{"transit":false,"is_transit":false,"time":5,"i_lat":-6.185545,"line":1,"i_long":106.811091,"station_id":"THB","distance":2029,"station_name":"Tanah Abang"},{"distance":3632,"line":1,"station_name":"Duri","i_lat":-6.155215,"transit":true,"is_transit":true,"time":8,"station_id":"DU","i_long":106.800832},{"transit":false,"time":3,"line":5,"station_id":"GGL","station_name":"Grogol","distance":1700,"i_long":106.788277,"i_lat":-6.162021,"is_transit":false},{"line":5,"station_id":"PSG","is_transit":false,"i_lat":-6.161433,"i_long":106.771379,"time":2,"transit":false,"station_name":"Pesing","distance":2036},{"distance":1614,"i_long":106.756522,"line":5,"time":2,"is_transit":false,"station_name":"Taman Kota","station_id":"TKO","transit":false,"i_lat":-6.1587309999999995},{"time":2,"transit":false,"i_lat":-6.159876,"distance":2334,"station_name":"Bojongindah","i_long":106.737035,"line":5,"station_id":"BOI","is_transit":false},{"transit":false,"time":4,"station_name":"Rawa Buaya","i_lat":-6.162758,"station_id":"RW","line":5,"distance":1152,"is_transit":false,"i_long":106.723064},{"station_id":"KDS","station_name":"Kalideres","distance":2504,"i_long":106.701612,"i_lat":-6.166068,"transit":false,"time":3,"line":5,"is_transit":false},{"transit":false,"i_lat":-6.169933,"station_name":"Poris","distance":2548,"is_transit":false,"i_long":106.679458,"station_id":"PI","line":5,"time":3},{"i_long":106.665036,"station_name":"Batuceper","i_lat":-6.171811,"station_id":"BPR","line":5,"is_transit":false,"time":3,"transit":false,"distance":1834}],[{"time":0,"distance":0,"transit":false,"station_id":"MTR","i_lat":-6.212485,"i_long":106.858896,"is_transit":false,"station_name":"Matraman","line":1},{"station_name":"Jatinegara","transit":true,"distance":1377,"line":1,"is_transit":true,"i_lat":-6.215091,"time":8,"station_id":"JNG","i_long":106.86807400000001},{"station_name":"Pondok Jati","station_id":"POK","is_transit":false,"distance":1236,"i_long":106.861737,"line":11,"time":2,"transit":false,"i_lat":-6.209188},{"i_long":106.855437,"time":2,"distance":1829,"station_name":"Kramat","station_id":"KMT","transit":false,"line":11,"i_lat":-6.193792,"is_transit":false},{"time":1,"i_long":106.850107,"station_name":"Gang Sentiong","station_id":"GST","distance":973,"i_lat":-6.185975,"transit":false,"is_transit":false,"line":11},{"line":11,"is_transit":false,"i_long":106.84368,"time":8,"station_id":"PSE","distance":1567,"station_name":"Pasar Senen","i_lat":-6.174784,"transit":false},{"is_transit":false,"distance":1436,"transit":false,"station_name":"Kemayoran","line":11,"i_long":106.839204,"i_lat":-6.161728,"station_id":"KMO","time":4},{"transit":false,"i_lat":-6.14505,"distance":1901,"is_transit":false,"station_id":"RJW","time":5,"i_long":106.836569,"line":11,"station_name":"Rajawali"},{"is_transit":true,"i_long":106.826365,"distance":1444,"transit":true,"station_name":"Kampung Bandan","station_id":"KPB","i_lat":-6.132549,"line":4,"time":3},{"line":1,"i_long":106.79867,"distance":4102,"i_lat":-6.144674,"station_name":"Angke","is_transit":false,"transit":false,"station_id":"AK","time":9},{"station_name":"Duri","is_transit":true,"transit":true,"time":4,"i_lat":-6.155215,"station_id":"DU","line":1,"distance":1230,"i_long":106.800832},{"station_id":"GGL","transit":false,"is_transit":false,"distance":1700,"i_lat":-6.162021,"station_name":"Grogol","time":3,"i_long":106.788277,"line":5},{"line":5,"is_transit":false,"i_lat":-6.161433,"transit":false,"station_id":"PSG","distance":2036,"i_long":106.771379,"station_name":"Pesing","time":2},{"station_name":"Taman Kota","time":2,"line":5,"i_lat":-6.1587309999999995,"distance":1614,"station_id":"TKO","is_transit":false,"transit":false,"i_long":106.756522},{"i_lat":-6.159876,"i_long":106.737035,"station_name":"Bojongindah","line":5,"distance":2334,"time":2,"transit":false,"is_transit":false,"station_id":"BOI"},{"i_long":106.723064,"station_name":"Rawa Buaya","station_id":"RW","line":5,"is_transit":false,"i_lat":-6.162758,"transit":false,"time":4,"distance":1152},{"i_lat":-6.166068,"line":5,"i_long":106.701612,"transit":false,"station_name":"Kalideres","is_transit":false,"time":3,"station_id":"KDS","distance":2504},{"line":5,"is_transit":false,"time":3,"distance":2548,"i_long":106.679458,"station_id":"PI","transit":false,"station_name":"Poris","i_lat":-6.169933},{"line":5,"station_id":"BPR","i_long":106.665036,"distance":1834,"i_lat":-6.171811,"time":3,"transit":false,"is_transit":false,"station_name":"Batuceper"}],[{"station_name":"Matraman","distance":0,"time":0,"transit":false,"i_long":106.858896,"i_lat":-6.212485,"station_id":"MTR","line":1,"is_transit":false},{"station_name":"Manggarai","station_id":"MRI","time":2,"transit":true,"distance":1275,"i_long":106.84912,"line":2,"i_lat":-6.209883,"is_transit":true},{"distance":1590,"station_id":"CKI","is_transit":false,"station_name":"Cikini","i_long":106.840169,"i_lat":-6.198556,"transit":false,"line":2,"time":4},{"station_id":"GDD","is_transit":false,"station_name":"Gondangdia","line":2,"transit":false,"distance":1750,"i_long":106.832183,"i_lat":-6.186295,"time":3},{"transit":false,"i_lat":-6.166716,"station_name":"Juanda","station_id":"JUA","is_transit":false,"time":4,"line":2,"distance":2015,"i_long":106.828284},{"is_transit":false,"time":2,"transit":false,"i_long":106.827103,"station_name":"Sawah Besar","distance":1149,"i_lat":-6.160725,"line":2,"station_id":"SW"},{"station_id":"MGB","distance":906,"is_transit":false,"i_lat":-6.149769,"i_long":106.82482,"transit":false,"line":2,"time":2,"station_name":"Manggabesar"},{"station_name":"Jayakarta","i_long":106.820901,"transit":false,"station_id":"JAY","i_lat":-6.141205,"distance":1080,"is_transit":false,"line":2,"time":2},{"time":4,"transit":true,"station_id":"JAKK","i_long":106.812439,"station_name":"Jakarta Kota","is_transit":true,"distance":1264,"line":2,"i_lat":-6.137569},{"station_id":"KPB","time":3,"station_name":"Kampung Bandan","i_lat":-6.132549,"i_long":106.826365,"distance":1364,"line":4,"transit":true,"is_transit":true},{"i_lat":-6.144674,"distance":4102,"i_long":106.79867,"station_id":"AK","time":9,"transit":false,"is_transit":false,"line":1,"station_name":"Angke"},{"station_name":"Duri","distance":1230,"i_lat":-6.155215,"i_long":106.800832,"line":1,"station_id":"DU","is_transit":true,"time":4,"transit":true},{"time":3,"line":5,"station_id":"GGL","transit":false,"i_long":106.788277,"i_lat":-6.162021,"is_transit":false,"station_name":"Grogol","distance":1700},{"station_name":"Pesing","i_long":106.771379,"transit":false,"time":2,"station_id":"PSG","distance":2036,"i_lat":-6.161433,"is_transit":false,"line":5},{"distance":1614,"transit":false,"is_transit":false,"i_lat":-6.1587309999999995,"station_name":"Taman Kota","i_long":106.756522,"line":5,"time":2,"station_id":"TKO"},{"station_name":"Bojongindah","i_lat":-6.159876,"line":5,"is_transit":false,"transit":false,"station_id":"BOI","time":2,"distance":2334,"i_long":106.737035},{"line":5,"transit":false,"time":4,"station_name":"Rawa Buaya","i_lat":-6.162758,"station_id":"RW","i_long":106.723064,"is_transit":false,"distance":1152},{"line":5,"is_transit":false,"transit":false,"station_id":"KDS","distance":2504,"time":3,"i_lat":-6.166068,"i_long":106.701612,"station_name":"Kalideres"},{"station_id":"PI","i_long":106.679458,"transit":false,"distance":2548,"line":5,"is_transit":false,"time":3,"i_lat":-6.169933,"station_name":"Poris"},{"station_name":"Batuceper","station_id":"BPR","transit":false,"i_long":106.665036,"time":3,"line":5,"i_lat":-6.171811,"distance":1834,"is_transit":false}],[{"transit":false,"i_long":106.858896,"station_id":"MTR","station_name":"Matraman","is_transit":false,"i_lat":-6.212485,"time":0,"distance":0,"line":1},{"time":8,"is_transit":true,"distance":1377,"transit":true,"station_id":"JNG","i_lat":-6.215091,"station_name":"Jatinegara","i_long":106.86807400000001,"line":1},{"station_name":"Pondok Jati","station_id":"POK","is_transit":false,"time":2,"i_lat":-6.209188,"i_long":106.861737,"transit":false,"distance":1236,"line":11},{"transit":false,"line":11,"time":2,"is_transit":false,"distance":1829,"station_id":"KMT","i_long":106.855437,"station_name":"Kramat","i_lat":-6.193792},{"distance":973,"line":11,"time":1,"transit":false,"station_name":"Gang Sentiong","is_transit":false,"i_long":106.850107,"station_id":"GST","i_lat":-6.185975},{"is_transit":false,"station_id":"PSE","line":11,"transit":false,"station_name":"Pasar Senen","time":8,"distance":1567,"i_long":106.84368,"i_lat":-6.174784},{"line":11,"transit":false,"station_id":"KMO","time":4,"is_transit":false,"i_long":106.839204,"distance":1436,"i_lat":-6.161728,"station_name":"Kemayoran"},{"line":11,"station_id":"RJW","distance":1901,"station_name":"Rajawali","is_transit":false,"i_lat":-6.14505,"transit":false,"time":5,"i_long":106.836569},{"is_transit":true,"station_id":"KPB","distance":1444,"i_long":106.826365,"transit":true,"i_lat":-6.132549,"station_name":"Kampung Bandan","time":3,"line":4},{"transit":true,"is_transit":true,"time":3,"line":2,"i_lat":-6.137569,"i_long":106.812439,"station_id":"JAKK","distance":1364,"station_name":"Jakarta Kota"},{"station_name":"Jayakarta","time":4,"station_id":"JAY","i_long":106.820901,"transit":false,"is_transit":false,"i_lat":-6.141205,"distance":1264,"line":2},{"line":2,"time":2,"is_transit":false,"transit":false,"i_lat":-6.149769,"distance":1080,"station_name":"Manggabesar","i_long":106.82482,"station_id":"MGB"},{"transit":false,"distance":906,"time":2,"is_transit":false,"i_lat":-6.160725,"i_long":106.827103,"line":2,"station_name":"Sawah Besar","station_id":"SW"},{"station_name":"Juanda","transit":false,"i_lat":-6.166716,"station_id":"JUA","i_long":106.828284,"distance":1149,"line":2,"time":2,"is_transit":false},{"i_long":106.832183,"i_lat":-6.186295,"time":4,"is_transit":false,"station_name":"Gondangdia","distance":2015,"line":2,"station_id":"GDD","transit":false},{"distance":1750,"i_lat":-6.198556,"line":2,"i_long":106.840169,"station_id":"CKI","is_transit":false,"time":3,"station_name":"Cikini","transit":false},{"station_id":"MRI","transit":true,"station_name":"Manggarai","is_transit":true,"distance":1590,"i_lat":-6.209883,"time":4,"i_long":106.84912,"line":2},{"transit":false,"time":4,"station_id":"SUD","is_transit":false,"line":1,"station_name":"Sudirman","i_long":106.822649,"distance":3186,"i_lat":-6.202263},{"station_id":"SUDB","time":1,"distance":280,"i_lat":-6.201433,"i_long":106.819881,"is_transit":false,"line":1,"transit":false,"station_name":"Sudirman Baru"},{"station_name":"Karet","is_transit":false,"i_lat":-6.20132,"time":1,"transit":false,"station_id":"KAT","i_long":106.816351,"distance":471,"line":1},{"distance":2029,"line":1,"station_id":"THB","i_lat":-6.185545,"station_name":"Tanah Abang","time":5,"transit":false,"is_transit":false,"i_long":106.811091},{"station_name":"Duri","line":1,"station_id":"DU","is_transit":true,"transit":true,"time":8,"i_long":106.800832,"distance":3632,"i_lat":-6.155215},{"station_name":"Grogol","transit":false,"station_id":"GGL","time":3,"line":5,"distance":1700,"is_transit":false,"i_lat":-6.162021,"i_long":106.788277},{"station_id":"PSG","transit":false,"station_name":"Pesing","i_long":106.771379,"is_transit":false,"distance":2036,"i_lat":-6.161433,"line":5,"time":2},{"time":2,"i_lat":-6.1587309999999995,"i_long":106.756522,"station_name":"Taman Kota","line":5,"distance":1614,"station_id":"TKO","is_transit":false,"transit":false},{"distance":2334,"i_lat":-6.159876,"station_name":"Bojongindah","transit":false,"station_id":"BOI","is_transit":false,"time":2,"i_long":106.737035,"line":5},{"i_long":106.723064,"i_lat":-6.162758,"transit":false,"distance":1152,"station_name":"Rawa Buaya","time":4,"line":5,"station_id":"RW","is_transit":false},{"i_lat":-6.166068,"distance":2504,"station_name":"Kalideres","transit":false,"station_id":"KDS","is_transit":false,"line":5,"i_long":106.701612,"time":3},{"is_transit":false,"distance":2548,"i_lat":-6.169933,"time":3,"station_id":"PI","i_long":106.679458,"line":5,"transit":false,"station_name":"Poris"},{"station_name":"Batuceper","i_long":106.665036,"line":5,"time":3,"distance":1834,"i_lat":-6.171811,"transit":false,"is_transit":false,"station_id":"BPR"}]]}