{"data":[[{"i_lat":-6.212485,"is_transit":false,"time":0,"station_name":"Matraman","i_long":106.858896,"transit":false,"line":1,"station_id":"MTR","distance":0},{"distance":1275,"time":2,"is_transit":true,"i_lat":-6.209883,"i_long":106.84912,"station_name":"Manggarai","transit":false,"line":0,"station_id":"MRI"},{"station_id":"SUD","distance":3186,"is_transit":false,"station_name":"Sudirman","transit":false,"time":4,"i_lat":-6.202263,"i_long":106.822649,"line":1},{"station_name":"Sudirman Baru","is_transit":false,"transit":false,"i_lat":-6.201433,"line":1,"station_id":"SUDB","time":1,"distance":280,"i_long":106.819881},{"time":1,"i_long":106.816351,"line":1,"station_name":"Karet","station_id":"KAT","i_lat":-6.20132,"transit":false,"distance":471,"is_transit":false},{"i_long":106.811091,"station_id":"THB","transit":true,"i_lat":-6.185545,"time":5,"distance":2029,"is_transit":true,"line":1,"station_name":"Tanah Abang"},{"transit":false,"time":6,"station_id":"PLM","is_transit":false,"i_long":106.79689,"i_lat":-6.207404,"line":6,"distance":3191,"station_name":"Palmerah"},{"line":6,"i_lat":-6.237242,"i_long":106.780334,"transit":false,"time":7,"station_id":"KBY","is_transit":false,"distance":3737,"station_name":"Kebayoran"},{"time":8,"station_name":"Pondokranji","i_long":106.74273,"is_transit":false,"line":6,"station_id":"PDJ","distance":6218,"transit":false,"i_lat":-6.276362},{"line":6,"is_transit":false,"station_id":"JMU","time":3,"i_lat":-6.288927,"i_long":106.728916,"station_name":"Jurangmangu","transit":false,"distance":2179},{"transit":false,"station_name":"Sudimara","is_transit":false,"distance":1994,"i_long":106.712277,"i_lat":-6.296963,"time":4,"line":6,"station_id":"SDM"},{"transit":false,"i_lat":-6.314823,"i_long":106.675475,"line":6,"distance":4566,"is_transit":false,"station_id":"RU","time":6,"station_name":"Rawa Buntu"}],[{"i_lat":-6.212485,"line":1,"i_long":106.858896,"is_transit":false,"distance":0,"time":0,"station_id":"MTR","station_name":"Matraman","transit":false},{"i_lat":-6.215091,"is_transit":true,"station_name":"Jatinegara","transit":true,"time":8,"distance":1377,"i_long":106.86807400000001,"line":0,"station_id":"JNG"},{"transit":false,"time":2,"i_long":106.861737,"is_transit":false,"station_id":"POK","station_name":"Pondok Jati","i_lat":-6.209188,"distance":1236,"line":11},{"station_name":"Kramat","line":11,"is_transit":false,"i_lat":-6.193792,"i_long":106.855437,"time":2,"distance":1829,"station_id":"KMT","transit":false},{"station_name":"Gang Sentiong","line":11,"is_transit":false,"transit":false,"i_lat":-6.185975,"time":1,"distance":973,"station_id":"GST","i_long":106.850107},{"distance":1567,"line":11,"i_long":106.84368,"is_transit":false,"transit":false,"station_name":"Pasar Senen","station_id":"PSE","i_lat":-6.174784,"time":8},{"transit":false,"distance":1436,"time":4,"is_transit":false,"line":11,"station_id":"KMO","station_name":"Kemayoran","i_long":106.839204,"i_lat":-6.161728},{"station_id":"RJW","transit":false,"i_long":106.836569,"distance":1901,"line":11,"station_name":"Rajawali","i_lat":-6.14505,"time":5,"is_transit":false},{"is_transit":true,"i_long":106.826365,"time":3,"transit":true,"distance":1444,"station_id":"KPB","line":0,"i_lat":-6.132549,"station_name":"Kampung Bandan"},{"station_id":"AK","distance":4102,"transit":false,"station_name":"Angke","i_long":106.79867,"time":9,"line":0,"i_lat":-6.144674,"is_transit":false},{"time":4,"i_long":106.800832,"station_name":"Duri","station_id":"DU","i_lat":-6.155215,"transit":true,"line":1,"distance":1230,"is_transit":true},{"distance":3632,"i_lat":-6.185545,"transit":true,"i_long":106.811091,"time":8,"station_id":"THB","is_transit":true,"line":1,"station_name":"Tanah Abang"},{"station_id":"PLM","i_lat":-6.207404,"station_name":"Palmerah","is_transit":false,"time":6,"distance":3191,"line":6,"i_long":106.79689,"transit":false},{"time":7,"station_name":"Kebayoran","transit":false,"i_long":106.780334,"station_id":"KBY","i_lat":-6.237242,"is_transit":false,"line":6,"distance":3737},{"station_name":"Pondokranji","line":6,"transit":false,"i_long":106.74273,"station_id":"PDJ","is_transit":false,"i_lat":-6.276362,"time":8,"distance":6218},{"distance":2179,"station_id":"JMU","station_name":"Jurangmangu","transit":false,"time":3,"i_lat":-6.288927,"i_long":106.728916,"line":6,"is_transit":false},{"time":4,"line":6,"station_id":"SDM","i_lat":-6.296963,"distance":1994,"transit":false,"station_name":"Sudimara","i_long":106.712277,"is_transit":false},{"station_id":"RU","station_name":"Rawa Buntu","transit":false,"distance":4566,"time":6,"i_long":106.675475,"i_lat":-6.314823,"line":6,"is_transit":false}],[{"station_id":"MTR","distance":0,"i_lat":-6.212485,"line":1,"is_transit":false,"transit":false,"station_name":"Matraman","time":0,"i_long":106.858896},{"is_transit":true,"station_name":"Manggarai","i_long":106.84912,"time":2,"line":0,"station_id":"MRI","i_lat":-6.209883,"transit":true,"distance":1275},{"line":0,"station_id":"CKI","distance":1590,"station_name":"Cikini","time":4,"i_long":106.840169,"is_transit":false,"i_lat":-6.198556,"transit":false},{"is_transit":false,"distance":1750,"station_name":"Gondangdia","i_lat":-6.186295,"line":2,"station_id":"GDD","transit":false,"i_long":106.832183,"time":3},{"distance":2015,"station_name":"Juanda","station_id":"JUA","line":2,"i_long":106.828284,"transit":false,"i_lat":-6.166716,"time":4,"is_transit":false},{"distance":1149,"line":2,"station_name":"Sawah Besar","transit":false,"time":2,"i_lat":-6.160725,"station_id":"SW","i_long":106.827103,"is_transit":false},{"station_name":"Manggabesar","line":2,"time":2,"is_transit":false,"transit":false,"i_lat":-6.149769,"station_id":"MGB","i_long":106.82482,"distance":906},{"station_id":"JAY","is_transit":false,"transit":false,"station_name":"Jayakarta","i_long":106.820901,"line":7,"i_lat":-6.141205,"time":2,"distance":1080},{"station_id":"JAKK","i_long":106.812439,"line":0,"is_transit":true,"station_name":"Jakarta Kota","transit":true,"distance":1264,"time":4,"i_lat":-6.137569},{"is_transit":true,"i_lat":-6.132549,"line":0,"transit":false,"station_id":"KPB","station_name":"Kampung Bandan","i_long":106.826365,"distance":1364,"time":3},{"i_long":106.79867,"is_transit":false,"line":0,"i_lat":-6.144674,"time":9,"distance":4102,"station_name":"Angke","transit":false,"station_id":"AK"},{"line":1,"distance":1230,"time":4,"i_long":106.800832,"i_lat":-6.155215,"transit":true,"is_transit":true,"station_id":"DU","station_name":"Duri"},{"transit":true,"line":1,"is_transit":true,"i_long":106.811091,"time":8,"distance":3632,"station_id":"THB","station_name":"Tanah Abang","i_lat":-6.185545},{"time":6,"i_lat":-6.207404,"is_transit":false,"i_long":106.79689,"line":6,"station_id":"PLM","station_name":"Palmerah","distance":3191,"transit":false},{"is_transit":false,"i_long":106.780334,"distance":3737,"station_id":"KBY","i_lat":-6.237242,"time":7,"line":6,"station_name":"Kebayoran","transit":false},{"i_long":106.74273,"distance":6218,"line":6,"i_lat":-6.276362,"is_transit":false,"station_name":"Pondokranji","station_id":"PDJ","time":8,"transit":false},{"i_long":106.728916,"line":6,"is_transit":false,"i_lat":-6.288927,"station_id":"JMU","transit":false,"time":3,"distance":2179,"station_name":"Jurangmangu"},{"distance":1994,"i_lat":-6.296963,"transit":false,"is_transit":false,"line":6,"i_long":106.712277,"station_id":"SDM","station_name":"Sudimara","time":4},{"i_lat":-6.314823,"time":6,"i_long":106.675475,"line":6,"distance":4566,"station_id":"RU","transit":false,"station_name":"Rawa Buntu","is_transit":false}],[{"i_lat":-6.212485,"distance":0,"is_transit":false,"time":0,"i_long":106.858896,"station_id":"MTR","transit":false,"station_name":"Matraman","line":1},{"i_lat":-6.215091,"line":0,"station_name":"Jatinegara","distance":1377,"station_id":"JNG","i_long":106.86807400000001,"time":8,"is_transit":true,"transit":true},{"time":2,"is_transit":false,"transit":false,"station_name":"Pondok Jati","distance":1236,"i_lat":-6.209188,"station_id":"POK","i_long":106.861737,"line":11},{"line":11,"i_long":106.855437,"distance":1829,"station_id":"KMT","is_transit":false,"time":2,"i_lat":-6.193792,"transit":false,"station_name":"Kramat"},{"distance":973,"i_lat":-6.185975,"station_id":"GST","is_transit":false,"i_long":106.850107,"line":11,"station_name":"Gang Sentiong","transit":false,"time":1},{"line":11,"i_lat":-6.174784,"time":8,"distance":1567,"is_transit":false,"i_long":106.84368,"station_id":"PSE","station_name":"Pasar Senen","transit":false},{"station_name":"Kemayoran","time":4,"i_long":106.839204,"distance":1436,"transit":false,"line":11,"station_id":"KMO","i_lat":-6.161728,"is_transit":false},{"line":11,"distance":1901,"station_id":"RJW","i_lat":-6.14505,"is_transit":false,"transit":false,"station_name":"Rajawali","time":5,"i_long":106.836569},{"station_name":"Kampung Bandan","i_lat":-6.132549,"i_long":106.826365,"is_transit":true,"time":3,"distance":1444,"station_id":"KPB","line":0,"transit":true},{"time":3,"station_name":"Jakarta Kota","i_long":106.812439,"station_id":"JAKK","line":0,"is_transit":true,"transit":true,"i_lat":-6.137569,"distance":1364},{"station_id":"JAY","station_name":"Jayakarta","time":4,"distance":1264,"i_long":106.820901,"line":7,"is_transit":false,"i_lat":-6.141205,"transit":false},{"station_id":"MGB","i_lat":-6.149769,"i_long":106.82482,"is_transit":false,"transit":false,"line":2,"time":2,"distance":1080,"station_name":"Manggabesar"},{"station_name":"Sawah Besar","line":2,"transit":false,"i_lat":-6.160725,"station_id":"SW","distance":906,"time":2,"i_long":106.827103,"is_transit":false},{"i_lat":-6.166716,"line":2,"station_name":"Juanda","transit":false,"time":2,"distance":1149,"i_long":106.828284,"is_transit":false,"station_id":"JUA"},{"station_name":"Gondangdia","transit":false,"is_transit":false,"time":4,"i_long":106.832183,"distance":2015,"i_lat":-6.186295,"station_id":"GDD","line":2},{"station_id":"CKI","station_name":"Cikini","time":3,"transit":false,"distance":1750,"i_lat":-6.198556,"is_transit":false,"line":0,"i_long":106.840169},{"i_lat":-6.209883,"i_long":106.84912,"line":0,"transit":true,"station_name":"Manggarai","distance":1590,"is_transit":true,"station_id":"MRI","time":4},{"time":4,"i_lat":-6.202263,"i_long":106.822649,"distance":3186,"line":1,"is_transit":false,"station_name":"Sudirman","transit":false,"station_id":"SUD"},{"station_name":"Sudirman Baru","i_lat":-6.201433,"is_transit":false,"distance":280,"transit":false,"i_long":106.819881,"station_id":"SUDB","time":1,"line":1},{"line":1,"station_name":"Karet","distance":471,"is_transit":false,"transit":false,"station_id":"KAT","time":1,"i_lat":-6.20132,"i_long":106.816351},{"distance":2029,"station_name":"Tanah Abang","transit":true,"is_transit":true,"i_long":106.811091,"line":1,"station_id":"THB","time":5,"i_lat":-6.185545},{"distance":3191,"station_id":"PLM","i_lat":-6.207404,"i_long":106.79689,"is_transit":false,"time":6,"transit":false,"station_name":"Palmerah","line":6},{"transit":false,"is_transit":false,"station_name":"Kebayoran","i_long":106.780334,"time":7,"i_lat":-6.237242,"station_id":"KBY","line":6,"distance":3737},{"station_name":"Pondokranji","distance":6218,"i_lat":-6.276362,"station_id":"PDJ","i_long":106.74273,"time":8,"is_transit":false,"transit":false,"line":6},{"transit":false,"station_id":"JMU","time":3,"i_lat":-6.288927,"is_transit":false,"line":6,"i_long":106.728916,"distance":2179,"station_name":"Jurangmangu"},{"station_name":"Sudimara","is_transit":false,"transit":false,"i_lat":-6.296963,"distance":1994,"i_long":106.712277,"station_id":"SDM","line":6,"time":4},{"line":6,"is_transit":false,"distance":4566,"station_name":"Rawa Buntu","time":6,"station_id":"RU","i_lat":-6.314823,"transit":false,"i_long":106.675475}]]}