{"data":[[{"i_lat":-6.212485,"is_transit":false,"distance":0,"i_long":106.858896,"station_id":"MTR","transit":false,"time":0,"line":1,"station_name":"Matraman"},{"transit":false,"is_transit":false,"i_long":106.84912,"station_name":"Manggarai","time":2,"distance":1275,"line":2,"i_lat":-6.209883,"station_id":"MRI"},{"time":4,"transit":false,"i_lat":-6.202263,"line":1,"station_name":"Sudirman","station_id":"SUD","distance":3186,"is_transit":false,"i_long":106.822649},{"i_lat":-6.201433,"time":1,"distance":280,"station_id":"SUDB","transit":false,"station_name":"Sudirman Baru","i_long":106.819881,"is_transit":false,"line":1},{"is_transit":false,"time":1,"i_long":106.816351,"i_lat":-6.20132,"distance":471,"line":1,"station_id":"KAT","station_name":"Karet","transit":false},{"station_name":"Tanah Abang","i_long":106.811091,"is_transit":true,"i_lat":-6.185545,"line":1,"time":5,"distance":2029,"transit":true,"station_id":"THB"},{"i_lat":-6.207404,"i_long":106.79689,"station_name":"Palmerah","is_transit":false,"distance":3191,"station_id":"PLM","time":6,"transit":false,"line":6},{"station_name":"Kebayoran","i_long":106.780334,"is_transit":false,"transit":false,"i_lat":-6.237242,"line":6,"time":7,"distance":3737,"station_id":"KBY"},{"i_lat":-6.276362,"line":6,"distance":6218,"time":8,"station_id":"PDJ","i_long":106.74273,"station_name":"Pondokranji","transit":false,"is_transit":false},{"transit":false,"is_transit":false,"i_long":106.728916,"station_id":"JMU","i_lat":-6.288927,"station_name":"Jurangmangu","line":6,"time":3,"distance":2179},{"i_long":106.712277,"station_name":"Sudimara","line":6,"transit":false,"time":4,"distance":1994,"station_id":"SDM","is_transit":false,"i_lat":-6.296963}],[{"station_id":"MTR","i_long":106.858896,"is_transit":false,"transit":false,"distance":0,"i_lat":-6.212485,"line":1,"station_name":"Matraman","time":0},{"distance":1377,"transit":true,"i_long":106.86807400000001,"i_lat":-6.215091,"station_id":"JNG","station_name":"Jatinegara","line":1,"time":8,"is_transit":true},{"is_transit":false,"i_long":106.861737,"time":2,"distance":1236,"station_name":"Pondok Jati","transit":false,"line":11,"i_lat":-6.209188,"station_id":"POK"},{"station_id":"KMT","transit":false,"distance":1829,"i_lat":-6.193792,"line":11,"i_long":106.855437,"time":2,"station_name":"Kramat","is_transit":false},{"time":1,"is_transit":false,"i_lat":-6.185975,"distance":973,"i_long":106.850107,"line":11,"station_name":"Gang Sentiong","transit":false,"station_id":"GST"},{"time":8,"is_transit":false,"transit":false,"line":11,"station_name":"Pasar Senen","i_long":106.84368,"i_lat":-6.174784,"distance":1567,"station_id":"PSE"},{"line":11,"i_lat":-6.161728,"i_long":106.839204,"distance":1436,"station_id":"KMO","time":4,"is_transit":false,"transit":false,"station_name":"Kemayoran"},{"time":5,"transit":false,"i_long":106.836569,"line":11,"station_name":"Rajawali","is_transit":false,"station_id":"RJW","i_lat":-6.14505,"distance":1901},{"time":3,"distance":1444,"transit":true,"station_id":"KPB","line":4,"station_name":"Kampung Bandan","is_transit":true,"i_lat":-6.132549,"i_long":106.826365},{"distance":4102,"transit":false,"is_transit":false,"time":9,"i_lat":-6.144674,"i_long":106.79867,"station_name":"Angke","line":1,"station_id":"AK"},{"transit":false,"i_long":106.800832,"i_lat":-6.155215,"is_transit":false,"time":4,"line":1,"distance":1230,"station_id":"DU","station_name":"Duri"},{"distance":3632,"i_lat":-6.185545,"line":1,"time":8,"is_transit":true,"transit":true,"station_name":"Tanah Abang","station_id":"THB","i_long":106.811091},{"is_transit":false,"station_name":"Palmerah","line":6,"station_id":"PLM","transit":false,"time":6,"i_long":106.79689,"distance":3191,"i_lat":-6.207404},{"is_transit":false,"distance":3737,"time":7,"i_lat":-6.237242,"station_name":"Kebayoran","station_id":"KBY","i_long":106.780334,"transit":false,"line":6},{"time":8,"is_transit":false,"transit":false,"i_lat":-6.276362,"station_name":"Pondokranji","station_id":"PDJ","line":6,"distance":6218,"i_long":106.74273},{"i_lat":-6.288927,"i_long":106.728916,"station_name":"Jurangmangu","line":6,"time":3,"distance":2179,"transit":false,"is_transit":false,"station_id":"JMU"},{"station_name":"Sudimara","i_lat":-6.296963,"i_long":106.712277,"time":4,"distance":1994,"line":6,"station_id":"SDM","is_transit":false,"transit":false}],[{"station_id":"MTR","is_transit":false,"i_lat":-6.212485,"distance":0,"station_name":"Matraman","i_long":106.858896,"line":1,"transit":false,"time":0},{"station_name":"Manggarai","distance":1275,"time":2,"i_lat":-6.209883,"i_long":106.84912,"is_transit":true,"line":2,"transit":true,"station_id":"MRI"},{"is_transit":false,"transit":false,"i_lat":-6.198556,"station_id":"CKI","line":2,"station_name":"Cikini","i_long":106.840169,"time":4,"distance":1590},{"distance":1750,"i_long":106.832183,"transit":false,"is_transit":false,"station_id":"GDD","line":2,"station_name":"Gondangdia","time":3,"i_lat":-6.186295},{"distance":2015,"transit":false,"time":4,"station_name":"Juanda","i_long":106.828284,"is_transit":false,"line":2,"i_lat":-6.166716,"station_id":"JUA"},{"i_long":106.827103,"is_transit":false,"distance":1149,"transit":false,"station_id":"SW","line":2,"station_name":"Sawah Besar","i_lat":-6.160725,"time":2},{"station_name":"Manggabesar","i_long":106.82482,"is_transit":false,"distance":906,"station_id":"MGB","time":2,"line":2,"transit":false,"i_lat":-6.149769},{"transit":false,"i_lat":-6.141205,"i_long":106.820901,"time":2,"station_id":"JAY","is_transit":false,"distance":1080,"station_name":"Jayakarta","line":2},{"i_long":106.812439,"line":2,"station_name":"Jakarta Kota","time":4,"is_transit":true,"station_id":"JAKK","distance":1264,"transit":true,"i_lat":-6.137569},{"i_lat":-6.132549,"transit":true,"station_id":"KPB","distance":1364,"i_long":106.826365,"is_transit":true,"time":3,"station_name":"Kampung Bandan","line":4},{"distance":4102,"station_name":"Angke","i_lat":-6.144674,"transit":false,"i_long":106.79867,"is_transit":false,"line":1,"station_id":"AK","time":9},{"i_lat":-6.155215,"distance":1230,"is_transit":false,"i_long":106.800832,"station_id":"DU","time":4,"station_name":"Duri","transit":false,"line":1},{"is_transit":true,"i_lat":-6.185545,"i_long":106.811091,"time":8,"station_id":"THB","transit":true,"station_name":"Tanah Abang","line":1,"distance":3632},{"station_name":"Palmerah","distance":3191,"station_id":"PLM","i_lat":-6.207404,"time":6,"is_transit":false,"transit":false,"i_long":106.79689,"line":6},{"distance":3737,"is_transit":false,"time":7,"station_name":"Kebayoran","i_lat":-6.237242,"transit":false,"i_long":106.780334,"station_id":"KBY","line":6},{"transit":false,"line":6,"time":8,"distance":6218,"i_long":106.74273,"station_id":"PDJ","station_name":"Pondokranji","is_transit":false,"i_lat":-6.276362},{"time":3,"is_transit":false,"station_name":"Jurangmangu","i_long":106.728916,"transit":false,"i_lat":-6.288927,"line":6,"station_id":"JMU","distance":2179},{"station_name":"Sudimara","transit":false,"i_long":106.712277,"distance":1994,"is_transit":false,"line":6,"time":4,"station_id":"SDM","i_lat":-6.296963}],[{"station_name":"Matraman","is_transit":false,"station_id":"MTR","transit":false,"i_lat":-6.212485,"i_long":106.858896,"distance":0,"time":0,"line":1},{"distance":1377,"i_lat":-6.215091,"station_id":"JNG","time":8,"station_name":"Jatinegara","transit":true,"i_long":106.86807400000001,"is_transit":true,"line":1},{"i_lat":-6.209188,"station_id":"POK","i_long":106.861737,"is_transit":false,"transit":false,"time":2,"distance":1236,"station_name":"Pondok Jati","line":11},{"transit":false,"station_id":"KMT","distance":1829,"line":11,"i_lat":-6.193792,"station_name":"Kramat","i_long":106.855437,"time":2,"is_transit":false},{"is_transit":false,"distance":973,"time":1,"i_long":106.850107,"station_id":"GST","line":11,"transit":false,"i_lat":-6.185975,"station_name":"Gang Sentiong"},{"station_name":"Pasar Senen","distance":1567,"transit":false,"time":8,"line":11,"is_transit":false,"i_long":106.84368,"station_id":"PSE","i_lat":-6.174784},{"station_name":"Kemayoran","transit":false,"time":4,"line":11,"distance":1436,"i_long":106.839204,"is_transit":false,"station_id":"KMO","i_lat":-6.161728},{"i_long":106.836569,"is_transit":false,"station_id":"RJW","i_lat":-6.14505,"station_name":"Rajawali","time":5,"distance":1901,"line":11,"transit":false},{"transit":true,"i_lat":-6.132549,"station_name":"Kampung Bandan","is_transit":true,"time":3,"line":4,"distance":1444,"station_id":"KPB","i_long":106.826365},{"station_name":"Jakarta Kota","transit":true,"i_lat":-6.137569,"time":3,"distance":1364,"station_id":"JAKK","is_transit":true,"i_long":106.812439,"line":2},{"station_id":"JAY","station_name":"Jayakarta","is_transit":false,"transit":false,"time":4,"i_lat":-6.141205,"i_long":106.820901,"line":2,"distance":1264},{"time":2,"i_lat":-6.149769,"is_transit":false,"station_id":"MGB","i_long":106.82482,"distance":1080,"transit":false,"line":2,"station_name":"Manggabesar"},{"station_id":"SW","station_name":"Sawah Besar","transit":false,"line":2,"i_lat":-6.160725,"i_long":106.827103,"is_transit":false,"time":2,"distance":906},{"is_transit":false,"distance":1149,"transit":false,"station_name":"Juanda","station_id":"JUA","time":2,"i_lat":-6.166716,"i_long":106.828284,"line":2},{"station_id":"GDD","line":2,"distance":2015,"i_long":106.832183,"i_lat":-6.186295,"is_transit":false,"time":4,"transit":false,"station_name":"Gondangdia"},{"is_transit":false,"i_lat":-6.198556,"line":2,"distance":1750,"station_id":"CKI","station_name":"Cikini","time":3,"i_long":106.840169,"transit":false},{"i_long":106.84912,"line":2,"transit":true,"distance":1590,"station_name":"Manggarai","is_transit":true,"station_id":"MRI","time":4,"i_lat":-6.209883},{"is_transit":false,"station_id":"SUD","i_long":106.822649,"distance":3186,"station_name":"Sudirman","transit":false,"time":4,"i_lat":-6.202263,"line":1},{"is_transit":false,"time":1,"station_id":"SUDB","i_long":106.819881,"station_name":"Sudirman Baru","transit":false,"i_lat":-6.201433,"line":1,"distance":280},{"i_long":106.816351,"is_transit":false,"transit":false,"station_id":"KAT","i_lat":-6.20132,"time":1,"line":1,"station_name":"Karet","distance":471},{"i_lat":-6.185545,"line":1,"is_transit":true,"station_id":"THB","distance":2029,"station_name":"Tanah Abang","time":5,"i_long":106.811091,"transit":true},{"line":6,"time":6,"transit":false,"i_lat":-6.207404,"station_name":"Palmerah","i_long":106.79689,"station_id":"PLM","distance":3191,"is_transit":false},{"line":6,"distance":3737,"transit":false,"station_id":"KBY","station_name":"Kebayoran","i_lat":-6.237242,"time":7,"is_transit":false,"i_long":106.780334},{"transit":false,"i_long":106.74273,"station_id":"PDJ","distance":6218,"station_name":"Pondokranji","line":6,"is_transit":false,"time":8,"i_lat":-6.276362},{"line":6,"transit":false,"distance":2179,"i_lat":-6.288927,"i_long":106.728916,"time":3,"station_name":"Jurangmangu","is_transit":false,"station_id":"JMU"},{"station_id":"SDM","distance":1994,"i_lat":-6.296963,"line":6,"is_transit":false,"transit":false,"station_name":"Sudimara","time":4,"i_long":106.712277}]]}