{"data":[[{"distance":0,"station_name":"Matraman","station_id":"MTR","time":0,"i_long":106.858896,"line":1,"is_transit":false,"transit":false,"i_lat":-6.212485},{"distance":1275,"line":2,"i_lat":-6.209883,"transit":true,"station_name":"Manggarai","i_long":106.84912,"is_transit":true,"time":2,"station_id":"MRI"},{"line":2,"transit":false,"station_id":"TEB","time":4,"station_name":"Tebet","is_transit":false,"distance":2610,"i_lat":-6.226659,"i_long":106.857948},{"time":2,"station_name":"Cawang","transit":false,"station_id":"CW","i_long":106.856607,"i_lat":-6.242512,"distance":1230,"is_transit":false,"line":2},{"transit":false,"station_name":"Duren Kalibata","is_transit":false,"i_lat":-6.255332,"i_long":106.85449,"time":3,"line":2,"station_id":"DRN","distance":1546},{"station_id":"PSMB","is_transit":false,"i_lat":-6.263214,"time":2,"line":2,"i_long":106.851577,"distance":824,"station_name":"Pasar Minggu Baru","transit":false},{"i_long":106.843999,"time":2,"is_transit":false,"station_name":"Pasar Minggu","line":2,"i_lat":-6.2842400000000005,"transit":false,"distance":2380,"station_id":"PSM"},{"distance":2820,"i_lat":-6.3080680000000005,"station_name":"Tanjung Barat","station_id":"TNT","i_long":106.838896,"transit":false,"time":4,"is_transit":false,"line":2},{"i_lat":-6.330363,"station_id":"LNA","i_long":106.832616,"line":2,"time":3,"transit":false,"station_name":"Lenteng Agung","is_transit":false,"distance":2671},{"distance":1029,"is_transit":false,"line":2,"time":2,"station_id":"UP","i_lat":-6.339291,"i_long":106.834175,"transit":false,"station_name":"Univ. Pancasila"},{"station_name":"Univ. Indonesia","station_id":"UI","i_lat":-6.360749,"is_transit":false,"line":2,"distance":2264,"transit":false,"time":3,"i_long":106.831474},{"station_id":"POC","station_name":"Pondok Cina","i_long":106.831114,"line":2,"time":2,"distance":1109,"i_lat":-6.369073,"transit":false,"is_transit":false},{"distance":2727,"i_lat":-6.391065,"is_transit":false,"transit":false,"line":2,"station_name":"Depokbaru","station_id":"DPB","i_long":106.819451,"time":4},{"station_id":"DP","i_long":106.816926,"is_transit":false,"i_lat":-6.405256,"line":2,"time":3,"distance":1584,"station_name":"Depok","transit":false},{"i_long":106.800298,"transit":false,"time":6,"station_name":"Citayam","distance":5084,"station_id":"CTA","line":2,"is_transit":false,"i_lat":-6.448811},{"distance":5197,"station_id":"BJD","is_transit":false,"time":5,"i_lat":-6.493243,"i_long":106.792719,"transit":false,"station_name":"Bojonggede","line":2},{"i_long":106.800016,"station_id":"CLT","is_transit":false,"time":5,"transit":false,"station_name":"Cilebut","distance":4331,"line":2,"i_lat":-6.530544},{"i_long":106.790574,"line":2,"time":9,"i_lat":-6.594596,"station_name":"Bogor","distance":7514,"station_id":"BOO","transit":false,"is_transit":false}],[{"time":0,"line":1,"is_transit":false,"station_name":"Matraman","i_long":106.858896,"distance":0,"i_lat":-6.212485,"station_id":"MTR","transit":false},{"distance":1377,"transit":true,"station_name":"Jatinegara","i_lat":-6.215091,"i_long":106.86807400000001,"time":8,"is_transit":true,"station_id":"JNG","line":1},{"distance":1236,"is_transit":false,"i_lat":-6.209188,"line":11,"i_long":106.861737,"time":2,"station_name":"Pondok Jati","station_id":"POK","transit":false},{"distance":1829,"i_lat":-6.193792,"time":2,"i_long":106.855437,"station_id":"KMT","is_transit":false,"station_name":"Kramat","line":11,"transit":false},{"station_name":"Gang Sentiong","station_id":"GST","transit":false,"distance":973,"time":1,"i_long":106.850107,"line":11,"i_lat":-6.185975,"is_transit":false},{"station_id":"PSE","i_lat":-6.174784,"i_long":106.84368,"is_transit":false,"transit":false,"distance":1567,"time":8,"line":11,"station_name":"Pasar Senen"},{"station_name":"Kemayoran","is_transit":false,"i_lat":-6.161728,"station_id":"KMO","distance":1436,"transit":false,"time":4,"i_long":106.839204,"line":11},{"i_long":106.836569,"time":5,"transit":false,"station_id":"RJW","distance":1901,"is_transit":false,"i_lat":-6.14505,"line":11,"station_name":"Rajawali"},{"station_id":"KPB","is_transit":true,"distance":1444,"i_lat":-6.132549,"station_name":"Kampung Bandan","line":4,"i_long":106.826365,"transit":true,"time":3},{"station_name":"Angke","distance":4102,"line":1,"i_lat":-6.144674,"station_id":"AK","is_transit":false,"time":9,"i_long":106.79867,"transit":false},{"i_lat":-6.155215,"line":1,"station_name":"Duri","distance":1230,"is_transit":false,"transit":false,"i_long":106.800832,"time":4,"station_id":"DU"},{"is_transit":false,"transit":false,"i_lat":-6.185545,"station_name":"Tanah Abang","distance":3632,"station_id":"THB","line":1,"time":8,"i_long":106.811091},{"i_long":106.816351,"i_lat":-6.20132,"distance":2029,"time":5,"line":1,"is_transit":false,"transit":false,"station_name":"Karet","station_id":"KAT"},{"station_id":"SUDB","time":1,"i_long":106.819881,"station_name":"Sudirman Baru","distance":471,"is_transit":false,"transit":false,"i_lat":-6.201433,"line":1},{"line":1,"station_id":"SUD","distance":280,"is_transit":false,"i_long":106.822649,"transit":false,"station_name":"Sudirman","i_lat":-6.202263,"time":1},{"station_name":"Manggarai","distance":3186,"is_transit":true,"station_id":"MRI","transit":true,"i_lat":-6.209883,"time":4,"i_long":106.84912,"line":2},{"is_transit":false,"i_lat":-6.226659,"i_long":106.857948,"station_name":"Tebet","line":2,"time":4,"transit":false,"station_id":"TEB","distance":2610},{"line":2,"transit":false,"station_id":"CW","time":2,"is_transit":false,"i_lat":-6.242512,"i_long":106.856607,"station_name":"Cawang","distance":1230},{"time":3,"station_id":"DRN","is_transit":false,"distance":1546,"line":2,"i_long":106.85449,"i_lat":-6.255332,"station_name":"Duren Kalibata","transit":false},{"station_name":"Pasar Minggu Baru","time":2,"is_transit":false,"i_lat":-6.263214,"i_long":106.851577,"line":2,"transit":false,"distance":824,"station_id":"PSMB"},{"i_long":106.843999,"station_id":"PSM","station_name":"Pasar Minggu","is_transit":false,"i_lat":-6.2842400000000005,"distance":2380,"transit":false,"line":2,"time":2},{"transit":false,"station_name":"Tanjung Barat","time":4,"distance":2820,"i_lat":-6.3080680000000005,"i_long":106.838896,"station_id":"TNT","line":2,"is_transit":false},{"transit":false,"station_id":"LNA","is_transit":false,"i_long":106.832616,"i_lat":-6.330363,"station_name":"Lenteng Agung","time":3,"distance":2671,"line":2},{"time":2,"station_name":"Univ. Pancasila","distance":1029,"transit":false,"is_transit":false,"i_lat":-6.339291,"i_long":106.834175,"station_id":"UP","line":2},{"distance":2264,"station_name":"Univ. Indonesia","is_transit":false,"time":3,"line":2,"i_lat":-6.360749,"station_id":"UI","transit":false,"i_long":106.831474},{"distance":1109,"station_id":"POC","line":2,"i_lat":-6.369073,"transit":false,"time":2,"is_transit":false,"i_long":106.831114,"station_name":"Pondok Cina"},{"station_name":"Depokbaru","is_transit":false,"i_lat":-6.391065,"line":2,"transit":false,"station_id":"DPB","time":4,"i_long":106.819451,"distance":2727},{"i_long":106.816926,"distance":1584,"is_transit":false,"station_id":"DP","time":3,"transit":false,"station_name":"Depok","i_lat":-6.405256,"line":2},{"transit":false,"distance":5084,"line":2,"station_id":"CTA","station_name":"Citayam","i_lat":-6.448811,"time":6,"is_transit":false,"i_long":106.800298},{"distance":5197,"time":5,"i_lat":-6.493243,"station_name":"Bojonggede","line":2,"is_transit":false,"station_id":"BJD","transit":false,"i_long":106.792719},{"line":2,"distance":4331,"station_name":"Cilebut","i_lat":-6.530544,"station_id":"CLT","is_transit":false,"transit":false,"time":5,"i_long":106.800016},{"transit":false,"i_lat":-6.594596,"i_long":106.790574,"time":9,"distance":7514,"station_name":"Bogor","is_transit":false,"station_id":"BOO","line":2}],[{"distance":0,"transit":false,"is_transit":false,"line":1,"i_long":106.858896,"i_lat":-6.212485,"time":0,"station_name":"Matraman","station_id":"MTR"},{"time":8,"station_name":"Jatinegara","station_id":"JNG","i_lat":-6.215091,"is_transit":true,"transit":true,"i_long":106.86807400000001,"line":1,"distance":1377},{"station_name":"Pondok Jati","i_long":106.861737,"distance":1236,"transit":false,"station_id":"POK","line":11,"time":2,"is_transit":false,"i_lat":-6.209188},{"station_name":"Kramat","transit":false,"station_id":"KMT","distance":1829,"i_long":106.855437,"time":2,"is_transit":false,"line":11,"i_lat":-6.193792},{"line":11,"station_id":"GST","is_transit":false,"station_name":"Gang Sentiong","transit":false,"time":1,"distance":973,"i_lat":-6.185975,"i_long":106.850107},{"i_long":106.84368,"line":11,"station_id":"PSE","is_transit":false,"transit":false,"station_name":"Pasar Senen","distance":1567,"time":8,"i_lat":-6.174784},{"station_id":"KMO","line":11,"transit":false,"station_name":"Kemayoran","distance":1436,"is_transit":false,"i_lat":-6.161728,"i_long":106.839204,"time":4},{"transit":false,"distance":1901,"station_name":"Rajawali","i_lat":-6.14505,"i_long":106.836569,"time":5,"is_transit":false,"line":11,"station_id":"RJW"},{"distance":1444,"station_id":"KPB","is_transit":true,"transit":true,"i_long":106.826365,"time":3,"line":4,"station_name":"Kampung Bandan","i_lat":-6.132549},{"transit":true,"i_lat":-6.137569,"station_id":"JAKK","i_long":106.812439,"station_name":"Jakarta Kota","line":2,"time":3,"is_transit":true,"distance":1364},{"transit":false,"is_transit":false,"station_name":"Jayakarta","station_id":"JAY","distance":1264,"i_lat":-6.141205,"i_long":106.820901,"line":2,"time":4},{"transit":false,"line":2,"i_long":106.82482,"is_transit":false,"station_id":"MGB","station_name":"Manggabesar","time":2,"distance":1080,"i_lat":-6.149769},{"is_transit":false,"station_id":"SW","i_lat":-6.160725,"station_name":"Sawah Besar","transit":false,"i_long":106.827103,"line":2,"time":2,"distance":906},{"station_id":"JUA","i_long":106.828284,"i_lat":-6.166716,"line":2,"time":2,"transit":false,"station_name":"Juanda","distance":1149,"is_transit":false},{"line":2,"station_id":"GDD","station_name":"Gondangdia","is_transit":false,"i_lat":-6.186295,"transit":false,"time":4,"i_long":106.832183,"distance":2015},{"is_transit":false,"distance":1750,"i_long":106.840169,"transit":false,"station_name":"Cikini","time":3,"i_lat":-6.198556,"station_id":"CKI","line":2},{"i_lat":-6.209883,"distance":1590,"i_long":106.84912,"station_id":"MRI","time":4,"station_name":"Manggarai","transit":false,"is_transit":false,"line":2},{"transit":false,"is_transit":false,"time":4,"distance":2610,"i_long":106.857948,"station_name":"Tebet","station_id":"TEB","i_lat":-6.226659,"line":2},{"is_transit":false,"station_id":"CW","distance":1230,"i_long":106.856607,"line":2,"station_name":"Cawang","i_lat":-6.242512,"transit":false,"time":2},{"line":2,"i_lat":-6.255332,"time":3,"distance":1546,"is_transit":false,"i_long":106.85449,"station_name":"Duren Kalibata","station_id":"DRN","transit":false},{"station_name":"Pasar Minggu Baru","station_id":"PSMB","distance":824,"is_transit":false,"i_long":106.851577,"transit":false,"line":2,"time":2,"i_lat":-6.263214},{"distance":2380,"station_name":"Pasar Minggu","is_transit":false,"i_long":106.843999,"time":2,"station_id":"PSM","transit":false,"i_lat":-6.2842400000000005,"line":2},{"line":2,"transit":false,"i_lat":-6.3080680000000005,"distance":2820,"is_transit":false,"station_name":"Tanjung Barat","i_long":106.838896,"station_id":"TNT","time":4},{"is_transit":false,"station_name":"Lenteng Agung","time":3,"station_id":"LNA","i_long":106.832616,"transit":false,"distance":2671,"line":2,"i_lat":-6.330363},{"i_lat":-6.339291,"time":2,"is_transit":false,"transit":false,"station_id":"UP","line":2,"distance":1029,"station_name":"Univ. Pancasila","i_long":106.834175},{"i_lat":-6.360749,"time":3,"distance":2264,"is_transit":false,"transit":false,"i_long":106.831474,"station_name":"Univ. Indonesia","station_id":"UI","line":2},{"station_id":"POC","transit":false,"time":2,"distance":1109,"is_transit":false,"i_long":106.831114,"line":2,"station_name":"Pondok Cina","i_lat":-6.369073},{"station_name":"Depokbaru","distance":2727,"i_long":106.819451,"time":4,"i_lat":-6.391065,"line":2,"transit":false,"is_transit":false,"station_id":"DPB"},{"is_transit":false,"station_name":"Depok","transit":false,"line":2,"time":3,"i_lat":-6.405256,"distance":1584,"i_long":106.816926,"station_id":"DP"},{"i_lat":-6.448811,"transit":false,"station_id":"CTA","distance":5084,"line":2,"i_long":106.800298,"station_name":"Citayam","time":6,"is_transit":false},{"line":2,"station_name":"Bojonggede","i_long":106.792719,"is_transit":false,"station_id":"BJD","transit":false,"time":5,"distance":5197,"i_lat":-6.493243},{"transit":false,"i_lat":-6.530544,"distance":4331,"station_id":"CLT","station_name":"Cilebut","time":5,"i_long":106.800016,"line":2,"is_transit":false},{"is_transit":false,"i_lat":-6.594596,"station_id":"BOO","time":9,"distance":7514,"i_long":106.790574,"line":2,"transit":false,"station_name":"Bogor"}]]}