{"data":[[{"station_name":"Matraman","i_lat":-6.212485,"transit":false,"i_long":106.858896,"line":1,"time":0,"distance":0,"station_id":"MTR","is_transit":false},{"distance":1275,"station_id":"MRI","i_long":106.84912,"line":0,"is_transit":true,"station_name":"Manggarai","transit":false,"i_lat":-6.209883,"time":2},{"distance":3186,"station_id":"SUD","station_name":"Sudirman","time":4,"i_lat":-6.202263,"line":1,"i_long":106.822649,"transit":false,"is_transit":false},{"station_name":"Sudirman Baru","time":1,"line":1,"is_transit":false,"distance":280,"i_long":106.819881,"transit":false,"station_id":"SUDB","i_lat":-6.201433},{"distance":471,"is_transit":false,"station_id":"KAT","time":1,"transit":false,"i_lat":-6.20132,"i_long":106.816351,"line":1,"station_name":"Karet"},{"distance":2029,"transit":false,"line":1,"i_long":106.811091,"station_name":"Tanah Abang","i_lat":-6.185545,"is_transit":true,"station_id":"THB","time":5},{"line":1,"time":8,"i_long":106.800832,"transit":true,"distance":3632,"is_transit":true,"i_lat":-6.155215,"station_name":"Duri","station_id":"DU"},{"distance":1700,"line":5,"transit":false,"station_name":"Grogol","station_id":"GGL","i_lat":-6.162021,"time":3,"i_long":106.788277,"is_transit":false},{"station_name":"Pesing","i_lat":-6.161433,"transit":false,"distance":2036,"is_transit":false,"line":5,"station_id":"PSG","i_long":106.771379,"time":2},{"i_long":106.756522,"line":5,"is_transit":false,"station_id":"TKO","station_name":"Taman Kota","distance":1614,"time":2,"i_lat":-6.1587309999999995,"transit":false},{"time":2,"station_id":"BOI","distance":2334,"transit":false,"i_lat":-6.159876,"i_long":106.737035,"line":0,"is_transit":false,"station_name":"Bojongindah"},{"station_name":"Rawa Buaya","station_id":"RW","is_transit":false,"line":5,"distance":1152,"transit":false,"time":4,"i_lat":-6.162758,"i_long":106.723064},{"station_name":"Kalideres","line":5,"i_lat":-6.166068,"i_long":106.701612,"is_transit":false,"distance":2504,"station_id":"KDS","transit":false,"time":3},{"time":3,"station_id":"PI","is_transit":false,"i_long":106.679458,"line":5,"transit":false,"station_name":"Poris","distance":2548,"i_lat":-6.169933}],[{"i_long":106.858896,"is_transit":false,"transit":false,"distance":0,"station_name":"Matraman","i_lat":-6.212485,"line":1,"station_id":"MTR","time":0},{"transit":true,"line":0,"station_id":"JNG","i_long":106.86807400000001,"time":8,"is_transit":true,"station_name":"Jatinegara","distance":1377,"i_lat":-6.215091},{"i_lat":-6.209188,"time":2,"transit":false,"station_id":"POK","station_name":"Pondok Jati","is_transit":false,"distance":1236,"line":11,"i_long":106.861737},{"station_id":"KMT","is_transit":false,"station_name":"Kramat","i_lat":-6.193792,"line":11,"i_long":106.855437,"transit":false,"time":2,"distance":1829},{"is_transit":false,"station_id":"GST","line":11,"i_long":106.850107,"time":1,"transit":false,"distance":973,"station_name":"Gang Sentiong","i_lat":-6.185975},{"distance":1567,"is_transit":false,"station_name":"Pasar Senen","line":11,"i_long":106.84368,"station_id":"PSE","transit":false,"i_lat":-6.174784,"time":8},{"time":4,"station_id":"KMO","station_name":"Kemayoran","line":11,"is_transit":false,"distance":1436,"transit":false,"i_long":106.839204,"i_lat":-6.161728},{"i_long":106.836569,"i_lat":-6.14505,"line":11,"is_transit":false,"station_name":"Rajawali","distance":1901,"station_id":"RJW","transit":false,"time":5},{"station_id":"KPB","line":0,"station_name":"Kampung Bandan","transit":true,"distance":1444,"time":3,"i_lat":-6.132549,"i_long":106.826365,"is_transit":true},{"station_id":"AK","i_lat":-6.144674,"station_name":"Angke","transit":false,"distance":4102,"time":9,"line":0,"i_long":106.79867,"is_transit":false},{"distance":1230,"station_name":"Duri","is_transit":true,"i_lat":-6.155215,"i_long":106.800832,"station_id":"DU","transit":true,"time":4,"line":1},{"transit":false,"line":5,"time":3,"i_long":106.788277,"station_name":"Grogol","station_id":"GGL","i_lat":-6.162021,"distance":1700,"is_transit":false},{"distance":2036,"is_transit":false,"transit":false,"station_name":"Pesing","i_lat":-6.161433,"line":5,"time":2,"station_id":"PSG","i_long":106.771379},{"station_name":"Taman Kota","station_id":"TKO","transit":false,"time":2,"i_lat":-6.1587309999999995,"is_transit":false,"i_long":106.756522,"distance":1614,"line":5},{"station_id":"BOI","i_lat":-6.159876,"distance":2334,"line":0,"is_transit":false,"station_name":"Bojongindah","transit":false,"time":2,"i_long":106.737035},{"line":5,"time":4,"station_id":"RW","i_lat":-6.162758,"station_name":"Rawa Buaya","distance":1152,"i_long":106.723064,"is_transit":false,"transit":false},{"is_transit":false,"station_name":"Kalideres","time":3,"i_lat":-6.166068,"transit":false,"distance":2504,"i_long":106.701612,"line":5,"station_id":"KDS"},{"station_id":"PI","distance":2548,"is_transit":false,"i_long":106.679458,"station_name":"Poris","time":3,"i_lat":-6.169933,"line":5,"transit":false}],[{"station_name":"Matraman","transit":false,"i_lat":-6.212485,"line":1,"is_transit":false,"i_long":106.858896,"time":0,"distance":0,"station_id":"MTR"},{"station_id":"MRI","transit":true,"time":2,"i_long":106.84912,"line":0,"distance":1275,"station_name":"Manggarai","i_lat":-6.209883,"is_transit":true},{"i_long":106.840169,"distance":1590,"station_id":"CKI","transit":false,"i_lat":-6.198556,"is_transit":false,"time":4,"line":0,"station_name":"Cikini"},{"station_name":"Gondangdia","transit":false,"distance":1750,"station_id":"GDD","time":3,"i_lat":-6.186295,"i_long":106.832183,"line":2,"is_transit":false},{"line":2,"distance":2015,"i_long":106.828284,"transit":false,"station_name":"Juanda","is_transit":false,"i_lat":-6.166716,"station_id":"JUA","time":4},{"station_id":"SW","distance":1149,"i_lat":-6.160725,"is_transit":false,"time":2,"i_long":106.827103,"transit":false,"station_name":"Sawah Besar","line":2},{"is_transit":false,"line":2,"station_id":"MGB","i_lat":-6.149769,"time":2,"station_name":"Manggabesar","distance":906,"transit":false,"i_long":106.82482},{"distance":1080,"is_transit":false,"i_long":106.820901,"station_id":"JAY","station_name":"Jayakarta","time":2,"transit":false,"i_lat":-6.141205,"line":7},{"station_id":"JAKK","i_long":106.812439,"line":0,"is_transit":true,"transit":true,"station_name":"Jakarta Kota","distance":1264,"time":4,"i_lat":-6.137569},{"transit":false,"time":3,"i_lat":-6.132549,"distance":1364,"line":0,"is_transit":true,"station_id":"KPB","station_name":"Kampung Bandan","i_long":106.826365},{"i_long":106.79867,"i_lat":-6.144674,"time":9,"transit":false,"station_name":"Angke","distance":4102,"line":0,"is_transit":false,"station_id":"AK"},{"i_lat":-6.155215,"time":4,"transit":true,"distance":1230,"station_id":"DU","is_transit":true,"i_long":106.800832,"line":1,"station_name":"Duri"},{"station_id":"GGL","i_long":106.788277,"distance":1700,"time":3,"i_lat":-6.162021,"is_transit":false,"station_name":"Grogol","line":5,"transit":false},{"station_id":"PSG","i_lat":-6.161433,"is_transit":false,"i_long":106.771379,"transit":false,"time":2,"line":5,"station_name":"Pesing","distance":2036},{"station_id":"TKO","is_transit":false,"station_name":"Taman Kota","transit":false,"i_lat":-6.1587309999999995,"time":2,"i_long":106.756522,"line":5,"distance":1614},{"line":0,"is_transit":false,"time":2,"transit":false,"i_lat":-6.159876,"i_long":106.737035,"distance":2334,"station_name":"Bojongindah","station_id":"BOI"},{"station_id":"RW","time":4,"is_transit":false,"i_long":106.723064,"line":5,"transit":false,"i_lat":-6.162758,"distance":1152,"station_name":"Rawa Buaya"},{"time":3,"line":5,"i_lat":-6.166068,"distance":2504,"is_transit":false,"station_id":"KDS","transit":false,"station_name":"Kalideres","i_long":106.701612},{"distance":2548,"is_transit":false,"i_long":106.679458,"i_lat":-6.169933,"transit":false,"line":5,"time":3,"station_id":"PI","station_name":"Poris"}],[{"distance":0,"station_name":"Matraman","i_long":106.858896,"i_lat":-6.212485,"time":0,"line":1,"is_transit":false,"station_id":"MTR","transit":false},{"is_transit":true,"station_id":"JNG","station_name":"Jatinegara","line":0,"time":8,"i_long":106.86807400000001,"transit":true,"i_lat":-6.215091,"distance":1377},{"distance":1236,"station_name":"Pondok Jati","transit":false,"time":2,"station_id":"POK","is_transit":false,"i_lat":-6.209188,"i_long":106.861737,"line":11},{"i_long":106.855437,"station_id":"KMT","is_transit":false,"time":2,"i_lat":-6.193792,"station_name":"Kramat","line":11,"transit":false,"distance":1829},{"station_id":"GST","distance":973,"is_transit":false,"transit":false,"time":1,"i_lat":-6.185975,"station_name":"Gang Sentiong","i_long":106.850107,"line":11},{"i_long":106.84368,"is_transit":false,"station_name":"Pasar Senen","line":11,"i_lat":-6.174784,"distance":1567,"station_id":"PSE","transit":false,"time":8},{"distance":1436,"station_name":"Kemayoran","transit":false,"line":11,"time":4,"i_long":106.839204,"is_transit":false,"i_lat":-6.161728,"station_id":"KMO"},{"time":5,"i_long":106.836569,"i_lat":-6.14505,"station_id":"RJW","line":11,"station_name":"Rajawali","is_transit":false,"transit":false,"distance":1901},{"station_name":"Kampung Bandan","line":0,"distance":1444,"is_transit":true,"transit":true,"station_id":"KPB","time":3,"i_lat":-6.132549,"i_long":106.826365},{"station_name":"Jakarta Kota","distance":1364,"time":3,"i_long":106.812439,"station_id":"JAKK","transit":true,"line":0,"i_lat":-6.137569,"is_transit":true},{"time":4,"distance":1264,"i_long":106.820901,"is_transit":false,"i_lat":-6.141205,"station_name":"Jayakarta","line":7,"station_id":"JAY","transit":false},{"is_transit":false,"time":2,"station_id":"MGB","i_lat":-6.149769,"line":2,"distance":1080,"transit":false,"station_name":"Manggabesar","i_long":106.82482},{"transit":false,"station_id":"SW","line":2,"i_lat":-6.160725,"is_transit":false,"time":2,"distance":906,"i_long":106.827103,"station_name":"Sawah Besar"},{"i_long":106.828284,"distance":1149,"time":2,"is_transit":false,"station_id":"JUA","transit":false,"station_name":"Juanda","i_lat":-6.166716,"line":2},{"station_name":"Gondangdia","i_long":106.832183,"station_id":"GDD","line":2,"is_transit":false,"time":4,"transit":false,"distance":2015,"i_lat":-6.186295},{"transit":false,"i_long":106.840169,"line":0,"distance":1750,"station_id":"CKI","station_name":"Cikini","time":3,"i_lat":-6.198556,"is_transit":false},{"line":0,"station_name":"Manggarai","i_lat":-6.209883,"station_id":"MRI","transit":true,"distance":1590,"is_transit":true,"time":4,"i_long":106.84912},{"i_lat":-6.202263,"station_name":"Sudirman","distance":3186,"transit":false,"time":4,"line":1,"is_transit":false,"station_id":"SUD","i_long":106.822649},{"station_id":"SUDB","time":1,"i_long":106.819881,"line":1,"is_transit":false,"station_name":"Sudirman Baru","transit":false,"distance":280,"i_lat":-6.201433},{"i_long":106.816351,"is_transit":false,"transit":false,"time":1,"i_lat":-6.20132,"line":1,"distance":471,"station_id":"KAT","station_name":"Karet"},{"i_long":106.811091,"line":1,"distance":2029,"station_name":"Tanah Abang","transit":false,"is_transit":true,"station_id":"THB","i_lat":-6.185545,"time":5},{"station_name":"Duri","transit":true,"time":8,"distance":3632,"is_transit":true,"i_lat":-6.155215,"i_long":106.800832,"line":1,"station_id":"DU"},{"station_name":"Grogol","station_id":"GGL","time":3,"i_lat":-6.162021,"transit":false,"distance":1700,"line":5,"i_long":106.788277,"is_transit":false},{"station_id":"PSG","is_transit":false,"transit":false,"time":2,"i_long":106.771379,"distance":2036,"i_lat":-6.161433,"line":5,"station_name":"Pesing"},{"is_transit":false,"transit":false,"station_id":"TKO","i_lat":-6.1587309999999995,"time":2,"i_long":106.756522,"line":5,"distance":1614,"station_name":"Taman Kota"},{"i_lat":-6.159876,"distance":2334,"station_id":"BOI","station_name":"Bojongindah","transit":false,"line":0,"is_transit":false,"i_long":106.737035,"time":2},{"i_lat":-6.162758,"i_long":106.723064,"station_name":"Rawa Buaya","time":4,"line":5,"transit":false,"distance":1152,"is_transit":false,"station_id":"RW"},{"station_name":"Kalideres","i_lat":-6.166068,"is_transit":false,"station_id":"KDS","time":3,"i_long":106.701612,"line":5,"transit":false,"distance":2504},{"time":3,"is_transit":false,"i_lat":-6.169933,"line":5,"station_id":"PI","transit":false,"station_name":"Poris","i_long":106.679458,"distance":2548}]]}