{"data":[[{"station_id":"MTR","distance":0,"time":0,"is_transit":false,"transit":false,"i_long":106.858896,"line":1,"station_name":"Matraman","i_lat":-6.212485},{"i_long":106.84912,"i_lat":-6.209883,"time":2,"line":2,"distance":1275,"station_name":"Manggarai","transit":true,"is_transit":true,"station_id":"MRI"},{"time":4,"is_transit":false,"station_name":"Cikini","i_lat":-6.198556,"i_long":106.840169,"distance":1590,"line":2,"transit":false,"station_id":"CKI"},{"distance":1750,"i_long":106.832183,"time":3,"line":2,"station_name":"Gondangdia","station_id":"GDD","i_lat":-6.186295,"transit":false,"is_transit":false},{"distance":2015,"is_transit":false,"station_id":"JUA","i_lat":-6.166716,"transit":false,"line":2,"i_long":106.828284,"station_name":"Juanda","time":4},{"station_id":"SW","distance":1149,"time":2,"station_name":"Sawah Besar","transit":false,"i_lat":-6.160725,"is_transit":false,"line":2,"i_long":106.827103},{"is_transit":false,"distance":906,"station_id":"MGB","time":2,"station_name":"Manggabesar","i_lat":-6.149769,"transit":false,"i_long":106.82482,"line":2},{"distance":1080,"station_id":"JAY","time":2,"i_long":106.820901,"transit":false,"i_lat":-6.141205,"is_transit":false,"line":2,"station_name":"Jayakarta"},{"station_id":"JAKK","distance":1264,"station_name":"Jakarta Kota","i_lat":-6.137569,"is_transit":false,"line":2,"time":4,"transit":false,"i_long":106.812439}],[{"i_lat":-6.212485,"station_name":"Matraman","is_transit":false,"i_long":106.858896,"station_id":"MTR","time":0,"line":1,"distance":0,"transit":false},{"i_long":106.86807400000001,"distance":1377,"station_name":"Jatinegara","is_transit":true,"i_lat":-6.215091,"station_id":"JNG","transit":true,"time":8,"line":1},{"station_name":"Pondok Jati","is_transit":false,"i_long":106.861737,"line":11,"time":2,"distance":1236,"station_id":"POK","transit":false,"i_lat":-6.209188},{"i_long":106.855437,"transit":false,"i_lat":-6.193792,"station_id":"KMT","distance":1829,"is_transit":false,"line":11,"time":2,"station_name":"Kramat"},{"time":1,"i_long":106.850107,"i_lat":-6.185975,"station_name":"Gang Sentiong","distance":973,"station_id":"GST","transit":false,"is_transit":false,"line":11},{"station_id":"PSE","station_name":"Pasar Senen","transit":false,"time":8,"line":11,"i_long":106.84368,"distance":1567,"is_transit":false,"i_lat":-6.174784},{"i_lat":-6.161728,"distance":1436,"station_name":"Kemayoran","line":11,"i_long":106.839204,"is_transit":false,"time":4,"transit":false,"station_id":"KMO"},{"time":5,"station_id":"RJW","is_transit":false,"distance":1901,"station_name":"Rajawali","transit":false,"i_lat":-6.14505,"i_long":106.836569,"line":11},{"time":3,"line":4,"station_name":"Kampung Bandan","is_transit":true,"i_lat":-6.132549,"station_id":"KPB","distance":1444,"transit":true,"i_long":106.826365},{"transit":false,"station_id":"JAKK","station_name":"Jakarta Kota","i_lat":-6.137569,"is_transit":false,"distance":1364,"time":3,"i_long":106.812439,"line":2}],[{"transit":false,"i_long":106.858896,"station_id":"MTR","station_name":"Matraman","distance":0,"is_transit":false,"time":0,"i_lat":-6.212485,"line":1},{"transit":false,"line":2,"distance":1275,"is_transit":false,"i_lat":-6.209883,"time":2,"i_long":106.84912,"station_id":"MRI","station_name":"Manggarai"},{"time":4,"i_lat":-6.202263,"station_id":"SUD","is_transit":false,"transit":false,"i_long":106.822649,"distance":3186,"station_name":"Sudirman","line":1},{"distance":280,"time":1,"i_lat":-6.201433,"is_transit":false,"transit":false,"i_long":106.819881,"line":1,"station_id":"SUDB","station_name":"Sudirman Baru"},{"is_transit":false,"line":1,"transit":false,"station_name":"Karet","i_long":106.816351,"distance":471,"station_id":"KAT","i_lat":-6.20132,"time":1},{"station_name":"Tanah Abang","i_lat":-6.185545,"is_transit":false,"i_long":106.811091,"line":1,"time":5,"distance":2029,"station_id":"THB","transit":false},{"line":1,"distance":3632,"station_name":"Duri","is_transit":false,"time":8,"i_lat":-6.155215,"i_long":106.800832,"station_id":"DU","transit":false},{"i_lat":-6.144674,"is_transit":false,"time":4,"transit":false,"station_id":"AK","distance":1230,"i_long":106.79867,"station_name":"Angke","line":1},{"distance":4102,"i_lat":-6.132549,"i_long":106.826365,"station_id":"KPB","time":9,"station_name":"Kampung Bandan","is_transit":true,"transit":true,"line":4},{"line":2,"station_name":"Jakarta Kota","i_lat":-6.137569,"distance":1364,"is_transit":false,"i_long":106.812439,"transit":false,"time":3,"station_id":"JAKK"}],[{"time":0,"distance":0,"line":1,"transit":false,"i_long":106.858896,"is_transit":false,"station_id":"MTR","i_lat":-6.212485,"station_name":"Matraman"},{"transit":true,"station_name":"Jatinegara","i_lat":-6.215091,"station_id":"JNG","distance":1377,"line":1,"i_long":106.86807400000001,"time":8,"is_transit":true},{"line":11,"time":2,"transit":false,"i_lat":-6.209188,"station_id":"POK","station_name":"Pondok Jati","is_transit":false,"distance":1236,"i_long":106.861737},{"is_transit":false,"station_name":"Kramat","distance":1829,"station_id":"KMT","transit":false,"line":11,"i_lat":-6.193792,"time":2,"i_long":106.855437},{"is_transit":false,"line":11,"i_lat":-6.185975,"transit":false,"distance":973,"station_id":"GST","i_long":106.850107,"station_name":"Gang Sentiong","time":1},{"transit":false,"time":8,"i_long":106.84368,"i_lat":-6.174784,"station_id":"PSE","is_transit":false,"station_name":"Pasar Senen","line":11,"distance":1567},{"i_long":106.839204,"station_id":"KMO","distance":1436,"is_transit":false,"line":11,"time":4,"i_lat":-6.161728,"station_name":"Kemayoran","transit":false},{"distance":1901,"i_long":106.836569,"line":11,"i_lat":-6.14505,"station_name":"Rajawali","is_transit":false,"transit":false,"station_id":"RJW","time":5},{"time":3,"station_name":"Kampung Bandan","is_transit":true,"distance":1444,"i_long":106.826365,"line":4,"transit":true,"station_id":"KPB","i_lat":-6.132549},{"distance":4102,"station_id":"AK","i_lat":-6.144674,"station_name":"Angke","is_transit":false,"i_long":106.79867,"transit":false,"line":1,"time":9},{"distance":1230,"station_name":"Duri","is_transit":false,"transit":false,"station_id":"DU","i_lat":-6.155215,"line":1,"time":4,"i_long":106.800832},{"i_lat":-6.185545,"i_long":106.811091,"line":1,"time":8,"station_name":"Tanah Abang","is_transit":false,"transit":false,"station_id":"THB","distance":3632},{"station_name":"Karet","station_id":"KAT","distance":2029,"transit":false,"is_transit":false,"i_lat":-6.20132,"line":1,"i_long":106.816351,"time":5},{"line":1,"station_id":"SUDB","station_name":"Sudirman Baru","is_transit":false,"time":1,"transit":false,"i_lat":-6.201433,"i_long":106.819881,"distance":471},{"transit":false,"time":1,"is_transit":false,"station_name":"Sudirman","i_long":106.822649,"distance":280,"station_id":"SUD","i_lat":-6.202263,"line":1},{"transit":true,"i_long":106.84912,"station_name":"Manggarai","time":4,"line":2,"is_transit":true,"station_id":"MRI","distance":3186,"i_lat":-6.209883},{"distance":1590,"station_id":"CKI","transit":false,"line":2,"i_lat":-6.198556,"time":4,"is_transit":false,"i_long":106.840169,"station_name":"Cikini"},{"transit":false,"station_id":"GDD","time":3,"i_lat":-6.186295,"station_name":"Gondangdia","distance":1750,"i_long":106.832183,"line":2,"is_transit":false},{"distance":2015,"station_name":"Juanda","i_long":106.828284,"is_transit":false,"station_id":"JUA","i_lat":-6.166716,"line":2,"time":4,"transit":false},{"station_id":"SW","time":2,"station_name":"Sawah Besar","transit":false,"i_lat":-6.160725,"i_long":106.827103,"line":2,"is_transit":false,"distance":1149},{"distance":906,"transit":false,"station_name":"Manggabesar","i_lat":-6.149769,"i_long":106.82482,"line":2,"time":2,"is_transit":false,"station_id":"MGB"},{"station_id":"JAY","i_lat":-6.141205,"time":2,"is_transit":false,"transit":false,"station_name":"Jayakarta","i_long":106.820901,"distance":1080,"line":2},{"time":4,"distance":1264,"is_transit":false,"transit":false,"station_name":"Jakarta Kota","i_lat":-6.137569,"line":2,"i_long":106.812439,"station_id":"JAKK"}]]}