{"data":[[{"station_id":"MTR","i_lat":-6.212485,"distance":0,"station_name":"Matraman","i_long":106.858896,"transit":false,"is_transit":false,"line":1,"time":0},{"i_long":106.86807400000001,"line":0,"is_transit":true,"station_id":"JNG","station_name":"Jatinegara","transit":false,"time":8,"distance":1377,"i_lat":-6.215091},{"station_name":"Klender","i_long":106.899548,"line":1,"distance":3395,"i_lat":-6.2135,"transit":false,"time":3,"is_transit":false,"station_id":"KLD"},{"transit":false,"time":2,"line":0,"i_long":106.922662,"station_id":"BUA","station_name":"Buaran","distance":3100,"is_transit":false,"i_lat":-6.215568},{"transit":false,"i_long":106.939679,"station_name":"Klenderbaru","line":1,"is_transit":false,"station_id":"KLDB","distance":1305,"time":1,"i_lat":-6.217455},{"transit":false,"time":8,"i_lat":-6.219053,"i_long":106.951283,"is_transit":false,"station_id":"CUK","distance":1385,"line":0,"station_name":"Cakung"},{"distance":3097,"is_transit":false,"station_name":"Kranji","station_id":"KRI","transit":false,"time":3,"i_long":106.977657,"line":1,"i_lat":-6.224515},{"transit":false,"is_transit":false,"station_id":"BKS","station_name":"Bekasi","i_lat":-6.236616,"line":0,"time":4,"distance":2520,"i_long":106.997013},{"time":2,"transit":false,"line":0,"distance":2368,"station_name":"Bekasi Timur","station_id":"BKST","i_lat":-6.248029,"i_long":107.016735,"is_transit":false},{"station_id":"TB","distance":4460,"transit":false,"is_transit":false,"i_lat":-6.258864,"line":1,"station_name":"Tambun","time":7,"i_long":107.055722}],[{"i_long":106.858896,"transit":false,"station_id":"MTR","line":1,"distance":0,"station_name":"Matraman","time":0,"is_transit":false,"i_lat":-6.212485},{"i_lat":-6.209883,"time":2,"station_id":"MRI","distance":1275,"station_name":"Manggarai","transit":false,"i_long":106.84912,"is_transit":true,"line":0},{"station_id":"SUD","is_transit":false,"i_long":106.822649,"station_name":"Sudirman","i_lat":-6.202263,"transit":false,"distance":3186,"time":4,"line":1},{"distance":280,"i_lat":-6.201433,"station_name":"Sudirman Baru","transit":false,"station_id":"SUDB","time":1,"is_transit":false,"i_long":106.819881,"line":1},{"distance":471,"i_lat":-6.20132,"transit":false,"line":1,"is_transit":false,"time":1,"station_name":"Karet","station_id":"KAT","i_long":106.816351},{"distance":2029,"transit":false,"station_id":"THB","line":1,"station_name":"Tanah Abang","is_transit":true,"time":5,"i_long":106.811091,"i_lat":-6.185545},{"station_name":"Duri","transit":true,"is_transit":true,"i_long":106.800832,"time":8,"i_lat":-6.155215,"line":1,"distance":3632,"station_id":"DU"},{"is_transit":false,"time":4,"i_lat":-6.144674,"line":0,"station_id":"AK","distance":1230,"station_name":"Angke","transit":false,"i_long":106.79867},{"distance":4102,"i_long":106.826365,"i_lat":-6.132549,"transit":true,"is_transit":true,"station_id":"KPB","time":9,"station_name":"Kampung Bandan","line":0},{"is_transit":false,"station_id":"RJW","i_lat":-6.14505,"distance":1444,"transit":false,"station_name":"Rajawali","line":11,"time":3,"i_long":106.836569},{"transit":false,"i_long":106.839204,"distance":1901,"line":11,"is_transit":false,"time":5,"i_lat":-6.161728,"station_name":"Kemayoran","station_id":"KMO"},{"station_id":"PSE","station_name":"Pasar Senen","distance":1436,"line":11,"transit":false,"i_long":106.84368,"i_lat":-6.174784,"time":4,"is_transit":false},{"station_name":"Gang Sentiong","transit":false,"is_transit":false,"i_lat":-6.185975,"i_long":106.850107,"line":11,"station_id":"GST","distance":1567,"time":8},{"is_transit":false,"station_name":"Kramat","line":11,"i_long":106.855437,"time":1,"distance":973,"transit":false,"i_lat":-6.193792,"station_id":"KMT"},{"is_transit":false,"transit":false,"line":11,"i_lat":-6.209188,"time":2,"station_id":"POK","distance":1829,"station_name":"Pondok Jati","i_long":106.861737},{"time":9,"distance":1236,"transit":true,"i_long":106.86807400000001,"line":0,"i_lat":-6.215091,"station_id":"JNG","is_transit":true,"station_name":"Jatinegara"},{"transit":false,"i_long":106.899548,"time":3,"station_name":"Klender","distance":3395,"line":1,"is_transit":false,"i_lat":-6.2135,"station_id":"KLD"},{"transit":false,"line":0,"station_id":"BUA","i_long":106.922662,"i_lat":-6.215568,"time":2,"is_transit":false,"station_name":"Buaran","distance":3100},{"line":1,"is_transit":false,"distance":1305,"time":1,"station_name":"Klenderbaru","i_long":106.939679,"i_lat":-6.217455,"transit":false,"station_id":"KLDB"},{"line":0,"distance":1385,"is_transit":false,"station_id":"CUK","i_lat":-6.219053,"transit":false,"station_name":"Cakung","i_long":106.951283,"time":8},{"distance":3097,"time":3,"station_name":"Kranji","transit":false,"is_transit":false,"station_id":"KRI","i_lat":-6.224515,"i_long":106.977657,"line":1},{"station_name":"Bekasi","i_lat":-6.236616,"i_long":106.997013,"transit":false,"is_transit":false,"distance":2520,"station_id":"BKS","time":4,"line":0},{"i_lat":-6.248029,"is_transit":false,"line":0,"i_long":107.016735,"transit":false,"time":2,"distance":2368,"station_id":"BKST","station_name":"Bekasi Timur"},{"station_id":"TB","distance":4460,"time":7,"i_lat":-6.258864,"station_name":"Tambun","is_transit":false,"line":1,"transit":false,"i_long":107.055722}],[{"i_long":106.858896,"time":0,"transit":false,"station_id":"MTR","is_transit":false,"station_name":"Matraman","i_lat":-6.212485,"distance":0,"line":1},{"station_id":"MRI","transit":true,"station_name":"Manggarai","time":2,"line":0,"i_lat":-6.209883,"i_long":106.84912,"distance":1275,"is_transit":true},{"i_long":106.840169,"is_transit":false,"station_id":"CKI","time":4,"station_name":"Cikini","i_lat":-6.198556,"distance":1590,"transit":false,"line":0},{"is_transit":false,"transit":false,"i_long":106.832183,"station_name":"Gondangdia","station_id":"GDD","i_lat":-6.186295,"distance":1750,"time":3,"line":2},{"time":4,"i_lat":-6.166716,"i_long":106.828284,"line":2,"transit":false,"distance":2015,"is_transit":false,"station_name":"Juanda","station_id":"JUA"},{"station_id":"SW","transit":false,"station_name":"Sawah Besar","is_transit":false,"time":2,"i_long":106.827103,"line":2,"distance":1149,"i_lat":-6.160725},{"i_lat":-6.149769,"station_name":"Manggabesar","transit":false,"time":2,"i_long":106.82482,"line":2,"is_transit":false,"distance":906,"station_id":"MGB"},{"is_transit":false,"line":7,"distance":1080,"station_name":"Jayakarta","transit":false,"time":2,"station_id":"JAY","i_long":106.820901,"i_lat":-6.141205},{"time":4,"i_long":106.812439,"transit":true,"station_name":"Jakarta Kota","line":0,"station_id":"JAKK","i_lat":-6.137569,"is_transit":true,"distance":1264},{"distance":1364,"is_transit":true,"transit":true,"time":3,"i_lat":-6.132549,"i_long":106.826365,"station_id":"KPB","line":0,"station_name":"Kampung Bandan"},{"station_id":"RJW","station_name":"Rajawali","is_transit":false,"distance":1444,"transit":false,"time":3,"i_long":106.836569,"line":11,"i_lat":-6.14505},{"is_transit":false,"transit":false,"i_lat":-6.161728,"distance":1901,"station_id":"KMO","station_name":"Kemayoran","time":5,"i_long":106.839204,"line":11},{"distance":1436,"station_id":"PSE","i_lat":-6.174784,"station_name":"Pasar Senen","is_transit":false,"i_long":106.84368,"line":11,"time":4,"transit":false},{"transit":false,"station_id":"GST","time":8,"is_transit":false,"station_name":"Gang Sentiong","distance":1567,"line":11,"i_long":106.850107,"i_lat":-6.185975},{"i_long":106.855437,"transit":false,"station_id":"KMT","distance":973,"station_name":"Kramat","line":11,"is_transit":false,"time":1,"i_lat":-6.193792},{"distance":1829,"transit":false,"station_id":"POK","line":11,"station_name":"Pondok Jati","i_long":106.861737,"i_lat":-6.209188,"is_transit":false,"time":2},{"distance":1236,"station_id":"JNG","time":9,"i_lat":-6.215091,"transit":true,"line":0,"station_name":"Jatinegara","i_long":106.86807400000001,"is_transit":true},{"line":1,"transit":false,"i_lat":-6.2135,"station_id":"KLD","time":3,"distance":3395,"i_long":106.899548,"is_transit":false,"station_name":"Klender"},{"i_long":106.922662,"station_name":"Buaran","distance":3100,"time":2,"i_lat":-6.215568,"station_id":"BUA","transit":false,"line":0,"is_transit":false},{"distance":1305,"i_lat":-6.217455,"i_long":106.939679,"line":1,"is_transit":false,"station_id":"KLDB","station_name":"Klenderbaru","transit":false,"time":1},{"time":8,"is_transit":false,"station_id":"CUK","distance":1385,"i_long":106.951283,"line":0,"transit":false,"i_lat":-6.219053,"station_name":"Cakung"},{"transit":false,"i_long":106.977657,"distance":3097,"station_name":"Kranji","time":3,"station_id":"KRI","is_transit":false,"i_lat":-6.224515,"line":1},{"station_name":"Bekasi","is_transit":false,"time":4,"distance":2520,"transit":false,"station_id":"BKS","i_long":106.997013,"i_lat":-6.236616,"line":0},{"transit":false,"distance":2368,"i_lat":-6.248029,"line":0,"time":2,"is_transit":false,"station_id":"BKST","i_long":107.016735,"station_name":"Bekasi Timur"},{"transit":false,"is_transit":false,"station_id":"TB","i_lat":-6.258864,"i_long":107.055722,"line":1,"station_name":"Tambun","distance":4460,"time":7}]]}