{"data":[[{"station_id":"MTR","time":0,"i_lat":-6.212485,"i_long":106.858896,"is_transit":false,"distance":0,"station_name":"Matraman","line":1,"transit":false},{"time":2,"station_id":"MRI","is_transit":true,"line":2,"i_lat":-6.209883,"station_name":"Manggarai","i_long":106.84912,"distance":1275,"transit":true},{"station_name":"Tebet","i_lat":-6.226659,"line":2,"i_long":106.857948,"is_transit":false,"distance":2610,"time":4,"transit":false,"station_id":"TEB"},{"time":2,"line":2,"station_id":"CW","i_lat":-6.242512,"distance":1230,"transit":false,"station_name":"Cawang","is_transit":false,"i_long":106.856607},{"i_lat":-6.255332,"line":2,"station_id":"DRN","is_transit":false,"time":3,"transit":false,"distance":1546,"station_name":"Duren Kalibata","i_long":106.85449},{"transit":false,"distance":824,"i_lat":-6.263214,"station_id":"PSMB","i_long":106.851577,"is_transit":false,"time":2,"line":2,"station_name":"Pasar Minggu Baru"},{"station_name":"Pasar Minggu","time":2,"i_long":106.843999,"line":2,"transit":false,"station_id":"PSM","is_transit":false,"distance":2380,"i_lat":-6.2842400000000005},{"i_long":106.838896,"line":2,"transit":false,"station_id":"TNT","is_transit":false,"distance":2820,"time":4,"station_name":"Tanjung Barat","i_lat":-6.3080680000000005},{"i_long":106.832616,"is_transit":false,"station_name":"Lenteng Agung","transit":false,"station_id":"LNA","distance":2671,"i_lat":-6.330363,"time":3,"line":2},{"transit":false,"i_lat":-6.339291,"station_id":"UP","line":2,"is_transit":false,"i_long":106.834175,"distance":1029,"station_name":"Univ. Pancasila","time":2},{"distance":2264,"is_transit":false,"time":3,"line":2,"transit":false,"station_id":"UI","i_lat":-6.360749,"i_long":106.831474,"station_name":"Univ. Indonesia"},{"time":2,"distance":1109,"station_name":"Pondok Cina","line":2,"transit":false,"station_id":"POC","is_transit":false,"i_lat":-6.369073,"i_long":106.831114},{"i_lat":-6.391065,"line":2,"transit":false,"distance":2727,"i_long":106.819451,"station_name":"Depokbaru","station_id":"DPB","is_transit":false,"time":4},{"is_transit":false,"distance":1584,"i_long":106.816926,"transit":false,"station_name":"Depok","line":2,"station_id":"DP","time":3,"i_lat":-6.405256},{"is_transit":false,"station_name":"Citayam","time":6,"distance":5084,"i_lat":-6.448811,"i_long":106.800298,"line":2,"transit":false,"station_id":"CTA"},{"station_name":"Bojonggede","is_transit":false,"i_lat":-6.493243,"line":2,"station_id":"BJD","transit":false,"time":5,"distance":5197,"i_long":106.792719},{"i_lat":-6.530544,"transit":false,"time":5,"station_id":"CLT","i_long":106.800016,"distance":4331,"station_name":"Cilebut","is_transit":false,"line":2},{"station_name":"Bogor","line":2,"transit":false,"station_id":"BOO","i_long":106.790574,"i_lat":-6.594596,"distance":7514,"is_transit":false,"time":9}],[{"i_lat":-6.212485,"line":1,"i_long":106.858896,"distance":0,"transit":false,"station_name":"Matraman","station_id":"MTR","is_transit":false,"time":0},{"transit":true,"is_transit":true,"distance":1377,"i_long":106.86807400000001,"station_name":"Jatinegara","line":1,"station_id":"JNG","i_lat":-6.215091,"time":8},{"i_long":106.861737,"distance":1236,"station_id":"POK","is_transit":false,"transit":false,"line":11,"time":2,"station_name":"Pondok Jati","i_lat":-6.209188},{"transit":false,"station_id":"KMT","is_transit":false,"distance":1829,"time":2,"i_long":106.855437,"line":11,"station_name":"Kramat","i_lat":-6.193792},{"distance":973,"station_name":"Gang Sentiong","station_id":"GST","i_lat":-6.185975,"is_transit":false,"i_long":106.850107,"line":11,"transit":false,"time":1},{"i_long":106.84368,"distance":1567,"is_transit":false,"station_id":"PSE","i_lat":-6.174784,"line":11,"time":8,"transit":false,"station_name":"Pasar Senen"},{"distance":1436,"line":11,"station_id":"KMO","i_long":106.839204,"is_transit":false,"time":4,"transit":false,"station_name":"Kemayoran","i_lat":-6.161728},{"is_transit":false,"station_id":"RJW","i_lat":-6.14505,"i_long":106.836569,"distance":1901,"line":11,"transit":false,"time":5,"station_name":"Rajawali"},{"i_lat":-6.132549,"line":4,"i_long":106.826365,"transit":true,"station_name":"Kampung Bandan","station_id":"KPB","distance":1444,"is_transit":true,"time":3},{"line":1,"transit":false,"station_name":"Angke","station_id":"AK","time":9,"distance":4102,"i_lat":-6.144674,"is_transit":false,"i_long":106.79867},{"is_transit":false,"i_lat":-6.155215,"station_id":"DU","station_name":"Duri","distance":1230,"i_long":106.800832,"line":1,"time":4,"transit":false},{"station_name":"Tanah Abang","distance":3632,"i_long":106.811091,"i_lat":-6.185545,"is_transit":false,"time":8,"transit":false,"station_id":"THB","line":1},{"i_lat":-6.20132,"time":5,"line":1,"is_transit":false,"transit":false,"station_name":"Karet","station_id":"KAT","distance":2029,"i_long":106.816351},{"i_lat":-6.201433,"transit":false,"i_long":106.819881,"distance":471,"time":1,"is_transit":false,"station_name":"Sudirman Baru","station_id":"SUDB","line":1},{"station_id":"SUD","line":1,"station_name":"Sudirman","is_transit":false,"i_long":106.822649,"time":1,"distance":280,"transit":false,"i_lat":-6.202263},{"distance":3186,"station_name":"Manggarai","i_lat":-6.209883,"station_id":"MRI","i_long":106.84912,"transit":true,"line":2,"is_transit":true,"time":4},{"station_id":"TEB","line":2,"is_transit":false,"time":4,"i_lat":-6.226659,"i_long":106.857948,"transit":false,"station_name":"Tebet","distance":2610},{"station_id":"CW","station_name":"Cawang","time":2,"is_transit":false,"distance":1230,"transit":false,"i_lat":-6.242512,"i_long":106.856607,"line":2},{"is_transit":false,"distance":1546,"station_name":"Duren Kalibata","line":2,"i_lat":-6.255332,"time":3,"station_id":"DRN","transit":false,"i_long":106.85449},{"line":2,"distance":824,"i_long":106.851577,"station_name":"Pasar Minggu Baru","station_id":"PSMB","transit":false,"i_lat":-6.263214,"is_transit":false,"time":2},{"i_lat":-6.2842400000000005,"is_transit":false,"station_id":"PSM","time":2,"transit":false,"i_long":106.843999,"distance":2380,"station_name":"Pasar Minggu","line":2},{"time":4,"i_long":106.838896,"line":2,"station_id":"TNT","is_transit":false,"station_name":"Tanjung Barat","distance":2820,"i_lat":-6.3080680000000005,"transit":false},{"i_long":106.832616,"line":2,"station_id":"LNA","station_name":"Lenteng Agung","i_lat":-6.330363,"distance":2671,"time":3,"transit":false,"is_transit":false},{"time":2,"station_name":"Univ. Pancasila","is_transit":false,"transit":false,"station_id":"UP","distance":1029,"i_lat":-6.339291,"line":2,"i_long":106.834175},{"distance":2264,"line":2,"transit":false,"station_name":"Univ. Indonesia","station_id":"UI","i_long":106.831474,"is_transit":false,"time":3,"i_lat":-6.360749},{"transit":false,"distance":1109,"line":2,"is_transit":false,"i_lat":-6.369073,"i_long":106.831114,"station_name":"Pondok Cina","station_id":"POC","time":2},{"distance":2727,"i_lat":-6.391065,"station_id":"DPB","i_long":106.819451,"station_name":"Depokbaru","line":2,"transit":false,"is_transit":false,"time":4},{"station_id":"DP","i_lat":-6.405256,"station_name":"Depok","is_transit":false,"distance":1584,"time":3,"i_long":106.816926,"transit":false,"line":2},{"time":6,"i_lat":-6.448811,"transit":false,"is_transit":false,"i_long":106.800298,"line":2,"station_name":"Citayam","station_id":"CTA","distance":5084},{"line":2,"transit":false,"is_transit":false,"time":5,"station_id":"BJD","i_long":106.792719,"distance":5197,"i_lat":-6.493243,"station_name":"Bojonggede"},{"i_lat":-6.530544,"is_transit":false,"station_id":"CLT","transit":false,"distance":4331,"station_name":"Cilebut","i_long":106.800016,"line":2,"time":5},{"transit":false,"station_id":"BOO","i_lat":-6.594596,"distance":7514,"i_long":106.790574,"line":2,"station_name":"Bogor","time":9,"is_transit":false}],[{"time":0,"station_name":"Matraman","station_id":"MTR","is_transit":false,"distance":0,"line":1,"transit":false,"i_long":106.858896,"i_lat":-6.212485},{"transit":true,"station_id":"JNG","is_transit":true,"i_lat":-6.215091,"line":1,"time":8,"distance":1377,"station_name":"Jatinegara","i_long":106.86807400000001},{"distance":1236,"is_transit":false,"time":2,"station_name":"Pondok Jati","transit":false,"line":11,"i_lat":-6.209188,"i_long":106.861737,"station_id":"POK"},{"i_lat":-6.193792,"time":2,"i_long":106.855437,"line":11,"transit":false,"station_name":"Kramat","distance":1829,"station_id":"KMT","is_transit":false},{"i_long":106.850107,"is_transit":false,"time":1,"station_name":"Gang Sentiong","distance":973,"i_lat":-6.185975,"transit":false,"station_id":"GST","line":11},{"transit":false,"distance":1567,"i_long":106.84368,"time":8,"station_id":"PSE","is_transit":false,"line":11,"i_lat":-6.174784,"station_name":"Pasar Senen"},{"distance":1436,"i_lat":-6.161728,"station_name":"Kemayoran","is_transit":false,"i_long":106.839204,"transit":false,"line":11,"station_id":"KMO","time":4},{"transit":false,"i_lat":-6.14505,"station_id":"RJW","is_transit":false,"time":5,"line":11,"distance":1901,"station_name":"Rajawali","i_long":106.836569},{"transit":true,"distance":1444,"i_lat":-6.132549,"i_long":106.826365,"station_id":"KPB","time":3,"line":4,"station_name":"Kampung Bandan","is_transit":true},{"station_name":"Jakarta Kota","time":3,"i_long":106.812439,"distance":1364,"line":2,"i_lat":-6.137569,"transit":true,"station_id":"JAKK","is_transit":true},{"transit":false,"i_long":106.820901,"line":2,"time":4,"is_transit":false,"distance":1264,"station_id":"JAY","i_lat":-6.141205,"station_name":"Jayakarta"},{"line":2,"transit":false,"i_long":106.82482,"station_name":"Manggabesar","station_id":"MGB","is_transit":false,"time":2,"distance":1080,"i_lat":-6.149769},{"line":2,"is_transit":false,"i_lat":-6.160725,"station_id":"SW","transit":false,"time":2,"distance":906,"station_name":"Sawah Besar","i_long":106.827103},{"time":2,"transit":false,"station_id":"JUA","i_lat":-6.166716,"i_long":106.828284,"line":2,"station_name":"Juanda","distance":1149,"is_transit":false},{"transit":false,"station_name":"Gondangdia","line":2,"i_long":106.832183,"station_id":"GDD","is_transit":false,"time":4,"distance":2015,"i_lat":-6.186295},{"line":2,"i_long":106.840169,"station_name":"Cikini","time":3,"is_transit":false,"transit":false,"station_id":"CKI","i_lat":-6.198556,"distance":1750},{"i_long":106.84912,"station_name":"Manggarai","is_transit":false,"i_lat":-6.209883,"line":2,"time":4,"distance":1590,"station_id":"MRI","transit":false},{"time":4,"is_transit":false,"i_long":106.857948,"transit":false,"distance":2610,"i_lat":-6.226659,"station_name":"Tebet","line":2,"station_id":"TEB"},{"i_lat":-6.242512,"line":2,"distance":1230,"station_id":"CW","station_name":"Cawang","is_transit":false,"transit":false,"time":2,"i_long":106.856607},{"station_name":"Duren Kalibata","distance":1546,"time":3,"station_id":"DRN","i_lat":-6.255332,"transit":false,"i_long":106.85449,"line":2,"is_transit":false},{"station_id":"PSMB","transit":false,"station_name":"Pasar Minggu Baru","i_long":106.851577,"distance":824,"line":2,"time":2,"i_lat":-6.263214,"is_transit":false},{"transit":false,"i_lat":-6.2842400000000005,"is_transit":false,"i_long":106.843999,"time":2,"distance":2380,"station_name":"Pasar Minggu","station_id":"PSM","line":2},{"station_name":"Tanjung Barat","time":4,"i_long":106.838896,"is_transit":false,"station_id":"TNT","transit":false,"i_lat":-6.3080680000000005,"line":2,"distance":2820},{"station_id":"LNA","station_name":"Lenteng Agung","is_transit":false,"distance":2671,"time":3,"transit":false,"i_long":106.832616,"line":2,"i_lat":-6.330363},{"station_name":"Univ. Pancasila","i_lat":-6.339291,"distance":1029,"station_id":"UP","time":2,"i_long":106.834175,"transit":false,"line":2,"is_transit":false},{"i_lat":-6.360749,"transit":false,"station_name":"Univ. Indonesia","line":2,"station_id":"UI","i_long":106.831474,"is_transit":false,"time":3,"distance":2264},{"station_id":"POC","i_long":106.831114,"i_lat":-6.369073,"time":2,"transit":false,"station_name":"Pondok Cina","distance":1109,"line":2,"is_transit":false},{"transit":false,"i_lat":-6.391065,"time":4,"is_transit":false,"line":2,"i_long":106.819451,"station_name":"Depokbaru","station_id":"DPB","distance":2727},{"transit":false,"station_name":"Depok","is_transit":false,"time":3,"line":2,"i_lat":-6.405256,"distance":1584,"station_id":"DP","i_long":106.816926},{"station_name":"Citayam","is_transit":false,"i_lat":-6.448811,"i_long":106.800298,"line":2,"station_id":"CTA","time":6,"transit":false,"distance":5084},{"transit":false,"line":2,"is_transit":false,"station_name":"Bojonggede","i_lat":-6.493243,"distance":5197,"time":5,"i_long":106.792719,"station_id":"BJD"},{"i_lat":-6.530544,"transit":false,"line":2,"station_name":"Cilebut","station_id":"CLT","time":5,"i_long":106.800016,"is_transit":false,"distance":4331},{"i_lat":-6.594596,"station_name":"Bogor","time":9,"transit":false,"distance":7514,"is_transit":false,"line":2,"station_id":"BOO","i_long":106.790574}]]}