{"data":[[{"i_long":106.858896,"line":1,"transit":false,"station_name":"Matraman","is_transit":false,"i_lat":-6.212485,"station_id":"MTR","distance":0,"time":0},{"distance":1275,"transit":true,"station_id":"MRI","line":2,"i_long":106.84912,"time":2,"is_transit":true,"i_lat":-6.209883,"station_name":"Manggarai"},{"line":2,"station_name":"Cikini","i_lat":-6.198556,"distance":1590,"time":4,"transit":false,"station_id":"CKI","i_long":106.840169,"is_transit":false},{"time":3,"station_name":"Gondangdia","i_lat":-6.186295,"line":2,"distance":1750,"is_transit":false,"station_id":"GDD","i_long":106.832183,"transit":false},{"time":4,"transit":false,"i_long":106.828284,"station_name":"Juanda","is_transit":false,"distance":2015,"i_lat":-6.166716,"line":2,"station_id":"JUA"},{"transit":false,"line":2,"station_id":"SW","time":2,"distance":1149,"is_transit":false,"station_name":"Sawah Besar","i_lat":-6.160725,"i_long":106.827103},{"station_id":"MGB","line":2,"transit":false,"distance":906,"time":2,"station_name":"Manggabesar","i_lat":-6.149769,"i_long":106.82482,"is_transit":false},{"i_long":106.820901,"line":2,"station_id":"JAY","distance":1080,"time":2,"is_transit":false,"transit":false,"station_name":"Jayakarta","i_lat":-6.141205},{"is_transit":false,"time":4,"distance":1264,"i_lat":-6.137569,"line":2,"station_id":"JAKK","station_name":"Jakarta Kota","transit":false,"i_long":106.812439}],[{"i_long":106.858896,"is_transit":false,"station_id":"MTR","station_name":"Matraman","transit":false,"time":0,"line":1,"distance":0,"i_lat":-6.212485},{"station_id":"JNG","i_lat":-6.215091,"is_transit":true,"time":8,"transit":true,"i_long":106.86807400000001,"distance":1377,"station_name":"Jatinegara","line":1},{"station_id":"POK","is_transit":false,"transit":false,"station_name":"Pondok Jati","distance":1236,"line":11,"i_lat":-6.209188,"i_long":106.861737,"time":2},{"station_id":"KMT","distance":1829,"time":2,"is_transit":false,"transit":false,"station_name":"Kramat","i_long":106.855437,"i_lat":-6.193792,"line":11},{"i_lat":-6.185975,"i_long":106.850107,"time":1,"station_id":"GST","distance":973,"station_name":"Gang Sentiong","line":11,"transit":false,"is_transit":false},{"time":8,"distance":1567,"is_transit":false,"transit":false,"i_lat":-6.174784,"station_id":"PSE","i_long":106.84368,"station_name":"Pasar Senen","line":11},{"distance":1436,"time":4,"i_lat":-6.161728,"line":11,"i_long":106.839204,"transit":false,"station_name":"Kemayoran","station_id":"KMO","is_transit":false},{"transit":false,"time":5,"station_id":"RJW","i_long":106.836569,"distance":1901,"i_lat":-6.14505,"line":11,"station_name":"Rajawali","is_transit":false},{"time":3,"transit":true,"is_transit":true,"station_id":"KPB","i_long":106.826365,"line":4,"station_name":"Kampung Bandan","i_lat":-6.132549,"distance":1444},{"line":2,"is_transit":false,"transit":false,"station_name":"Jakarta Kota","time":3,"distance":1364,"i_long":106.812439,"station_id":"JAKK","i_lat":-6.137569}],[{"distance":0,"transit":false,"line":1,"i_long":106.858896,"station_name":"Matraman","station_id":"MTR","time":0,"i_lat":-6.212485,"is_transit":false},{"line":2,"is_transit":false,"time":2,"i_long":106.84912,"distance":1275,"station_id":"MRI","transit":false,"station_name":"Manggarai","i_lat":-6.209883},{"station_name":"Sudirman","time":4,"station_id":"SUD","transit":false,"line":1,"i_lat":-6.202263,"distance":3186,"is_transit":false,"i_long":106.822649},{"i_lat":-6.201433,"is_transit":false,"line":1,"transit":false,"station_name":"Sudirman Baru","station_id":"SUDB","time":1,"distance":280,"i_long":106.819881},{"i_long":106.816351,"station_name":"Karet","line":1,"transit":false,"time":1,"is_transit":false,"station_id":"KAT","distance":471,"i_lat":-6.20132},{"is_transit":false,"i_long":106.811091,"time":5,"station_id":"THB","distance":2029,"station_name":"Tanah Abang","line":1,"transit":false,"i_lat":-6.185545},{"is_transit":false,"transit":false,"line":1,"distance":3632,"station_name":"Duri","i_long":106.800832,"time":8,"i_lat":-6.155215,"station_id":"DU"},{"i_lat":-6.144674,"time":4,"is_transit":false,"distance":1230,"transit":false,"i_long":106.79867,"line":1,"station_id":"AK","station_name":"Angke"},{"is_transit":true,"i_lat":-6.132549,"station_name":"Kampung Bandan","i_long":106.826365,"line":4,"station_id":"KPB","transit":true,"distance":4102,"time":9},{"time":3,"station_name":"Jakarta Kota","distance":1364,"i_long":106.812439,"is_transit":false,"line":2,"transit":false,"station_id":"JAKK","i_lat":-6.137569}],[{"station_id":"MTR","time":0,"is_transit":false,"station_name":"Matraman","distance":0,"transit":false,"i_lat":-6.212485,"i_long":106.858896,"line":1},{"station_name":"Jatinegara","is_transit":true,"i_long":106.86807400000001,"station_id":"JNG","distance":1377,"time":8,"line":1,"transit":true,"i_lat":-6.215091},{"line":11,"is_transit":false,"time":2,"transit":false,"station_id":"POK","station_name":"Pondok Jati","i_lat":-6.209188,"i_long":106.861737,"distance":1236},{"i_lat":-6.193792,"time":2,"i_long":106.855437,"line":11,"is_transit":false,"station_name":"Kramat","distance":1829,"transit":false,"station_id":"KMT"},{"time":1,"is_transit":false,"station_name":"Gang Sentiong","distance":973,"transit":false,"station_id":"GST","i_long":106.850107,"line":11,"i_lat":-6.185975},{"time":8,"station_name":"Pasar Senen","distance":1567,"transit":false,"i_lat":-6.174784,"is_transit":false,"station_id":"PSE","line":11,"i_long":106.84368},{"station_name":"Kemayoran","transit":false,"line":11,"station_id":"KMO","is_transit":false,"distance":1436,"time":4,"i_long":106.839204,"i_lat":-6.161728},{"i_long":106.836569,"station_name":"Rajawali","transit":false,"i_lat":-6.14505,"line":11,"time":5,"station_id":"RJW","distance":1901,"is_transit":false},{"station_name":"Kampung Bandan","i_lat":-6.132549,"station_id":"KPB","i_long":106.826365,"is_transit":true,"distance":1444,"transit":true,"line":4,"time":3},{"station_id":"AK","distance":4102,"time":9,"i_lat":-6.144674,"line":1,"i_long":106.79867,"station_name":"Angke","is_transit":false,"transit":false},{"station_id":"DU","i_long":106.800832,"i_lat":-6.155215,"is_transit":false,"transit":false,"station_name":"Duri","line":1,"distance":1230,"time":4},{"line":1,"distance":3632,"i_lat":-6.185545,"station_id":"THB","i_long":106.811091,"is_transit":false,"time":8,"station_name":"Tanah Abang","transit":false},{"is_transit":false,"line":1,"i_long":106.816351,"distance":2029,"time":5,"station_name":"Karet","transit":false,"station_id":"KAT","i_lat":-6.20132},{"station_name":"Sudirman Baru","distance":471,"time":1,"i_lat":-6.201433,"i_long":106.819881,"transit":false,"station_id":"SUDB","line":1,"is_transit":false},{"line":1,"i_lat":-6.202263,"transit":false,"station_id":"SUD","time":1,"station_name":"Sudirman","is_transit":false,"distance":280,"i_long":106.822649},{"time":4,"station_id":"MRI","i_long":106.84912,"line":2,"distance":3186,"is_transit":true,"station_name":"Manggarai","transit":true,"i_lat":-6.209883},{"line":2,"transit":false,"is_transit":false,"i_long":106.840169,"station_id":"CKI","distance":1590,"station_name":"Cikini","time":4,"i_lat":-6.198556},{"transit":false,"station_name":"Gondangdia","i_long":106.832183,"is_transit":false,"i_lat":-6.186295,"time":3,"station_id":"GDD","distance":1750,"line":2},{"station_name":"Juanda","is_transit":false,"time":4,"station_id":"JUA","transit":false,"distance":2015,"line":2,"i_lat":-6.166716,"i_long":106.828284},{"time":2,"distance":1149,"station_id":"SW","station_name":"Sawah Besar","is_transit":false,"i_lat":-6.160725,"transit":false,"line":2,"i_long":106.827103},{"i_long":106.82482,"transit":false,"station_id":"MGB","station_name":"Manggabesar","line":2,"is_transit":false,"distance":906,"time":2,"i_lat":-6.149769},{"station_name":"Jayakarta","distance":1080,"time":2,"i_long":106.820901,"line":2,"station_id":"JAY","is_transit":false,"i_lat":-6.141205,"transit":false},{"station_id":"JAKK","station_name":"Jakarta Kota","distance":1264,"i_lat":-6.137569,"line":2,"transit":false,"i_long":106.812439,"is_transit":false,"time":4}]]}