{"data":[[{"station_id":"MTR","time":0,"transit":false,"i_long":106.858896,"station_name":"Matraman","line":1,"is_transit":false,"i_lat":-6.212485,"distance":0},{"is_transit":false,"station_id":"MRI","i_lat":-6.209883,"distance":1275,"i_long":106.84912,"transit":false,"time":2,"station_name":"Manggarai","line":2},{"is_transit":false,"i_lat":-6.202263,"i_long":106.822649,"time":4,"transit":false,"distance":3186,"station_id":"SUD","line":1,"station_name":"Sudirman"},{"distance":280,"i_long":106.819881,"i_lat":-6.201433,"station_name":"Sudirman Baru","station_id":"SUDB","time":1,"is_transit":false,"transit":false,"line":1},{"transit":false,"i_long":106.816351,"station_name":"Karet","line":1,"distance":471,"station_id":"KAT","i_lat":-6.20132,"is_transit":false,"time":1},{"time":5,"transit":false,"distance":2029,"station_id":"THB","i_lat":-6.185545,"station_name":"Tanah Abang","i_long":106.811091,"line":1,"is_transit":false},{"is_transit":true,"station_name":"Duri","time":8,"i_lat":-6.155215,"i_long":106.800832,"distance":3632,"transit":true,"line":1,"station_id":"DU"},{"time":3,"distance":1700,"transit":false,"i_lat":-6.162021,"is_transit":false,"i_long":106.788277,"station_name":"Grogol","line":5,"station_id":"GRG"},{"line":5,"distance":2036,"i_long":106.771379,"station_name":"Pesing","i_lat":-6.161433,"station_id":"PSG","time":2,"is_transit":false,"transit":false},{"station_id":"TKO","station_name":"Taman Kota","time":2,"is_transit":false,"transit":false,"i_long":106.756522,"i_lat":-6.1587309999999995,"distance":1614,"line":5},{"i_long":106.737035,"time":2,"station_name":"Bojongindah","is_transit":false,"i_lat":-6.159876,"line":5,"distance":2334,"transit":false,"station_id":"BOI"},{"station_id":"RW","station_name":"Rawa Buaya","transit":false,"i_long":106.723064,"time":4,"line":5,"is_transit":false,"distance":1152,"i_lat":-6.162758},{"station_id":"KDS","time":3,"i_lat":-6.166068,"transit":false,"i_long":106.701612,"distance":2504,"station_name":"Kalideres","is_transit":false,"line":5},{"time":3,"station_id":"PI","station_name":"Poris","is_transit":false,"transit":false,"distance":2548,"i_lat":-6.169933,"i_long":106.679458,"line":5}],[{"is_transit":false,"i_lat":-6.212485,"distance":0,"station_name":"Matraman","i_long":106.858896,"line":1,"transit":false,"time":0,"station_id":"MTR"},{"i_long":106.86807400000001,"distance":1377,"is_transit":true,"transit":true,"i_lat":-6.215091,"line":1,"station_name":"Jatinegara","station_id":"JNG","time":8},{"distance":1236,"is_transit":false,"i_lat":-6.209188,"transit":false,"line":11,"i_long":106.861737,"station_name":"Pondok Jati","time":2,"station_id":"POK"},{"line":11,"i_long":106.855437,"transit":false,"station_id":"KMT","distance":1829,"i_lat":-6.193792,"time":2,"station_name":"Kramat","is_transit":false},{"station_name":"Gang Sentiong","is_transit":false,"distance":973,"i_long":106.850107,"line":11,"transit":false,"station_id":"GST","i_lat":-6.185975,"time":1},{"is_transit":false,"i_long":106.84368,"station_id":"PSE","station_name":"Pasar Senen","transit":false,"time":8,"line":11,"distance":1567,"i_lat":-6.174784},{"station_id":"KMO","station_name":"Kemayoran","transit":false,"i_long":106.839204,"time":4,"distance":1436,"i_lat":-6.161728,"line":11,"is_transit":false},{"station_name":"Rajawali","line":11,"transit":false,"station_id":"RJW","distance":1901,"i_lat":-6.14505,"i_long":106.836569,"time":5,"is_transit":false},{"distance":1444,"station_name":"Kampung Bandan","i_long":106.826365,"time":3,"station_id":"KPB","transit":true,"i_lat":-6.132549,"line":4,"is_transit":true},{"line":1,"distance":4102,"transit":false,"time":9,"is_transit":false,"station_name":"Angke","i_lat":-6.144674,"i_long":106.79867,"station_id":"AK"},{"line":1,"time":4,"transit":true,"i_long":106.800832,"distance":1230,"station_id":"DU","station_name":"Duri","is_transit":true,"i_lat":-6.155215},{"is_transit":false,"line":5,"time":3,"distance":1700,"station_name":"Grogol","i_lat":-6.162021,"station_id":"GRG","i_long":106.788277,"transit":false},{"line":5,"station_name":"Pesing","time":2,"distance":2036,"i_long":106.771379,"i_lat":-6.161433,"transit":false,"station_id":"PSG","is_transit":false},{"distance":1614,"i_long":106.756522,"i_lat":-6.1587309999999995,"station_id":"TKO","time":2,"line":5,"transit":false,"station_name":"Taman Kota","is_transit":false},{"line":5,"i_lat":-6.159876,"station_id":"BOI","i_long":106.737035,"station_name":"Bojongindah","is_transit":false,"distance":2334,"time":2,"transit":false},{"station_id":"RW","station_name":"Rawa Buaya","i_lat":-6.162758,"i_long":106.723064,"time":4,"line":5,"distance":1152,"is_transit":false,"transit":false},{"transit":false,"station_name":"Kalideres","distance":2504,"i_long":106.701612,"time":3,"station_id":"KDS","is_transit":false,"line":5,"i_lat":-6.166068},{"i_long":106.679458,"station_id":"PI","station_name":"Poris","is_transit":false,"transit":false,"line":5,"distance":2548,"i_lat":-6.169933,"time":3}],[{"station_name":"Matraman","transit":false,"i_lat":-6.212485,"is_transit":false,"i_long":106.858896,"line":1,"time":0,"distance":0,"station_id":"MTR"},{"station_id":"MRI","line":2,"i_lat":-6.209883,"i_long":106.84912,"distance":1275,"time":2,"is_transit":true,"transit":true,"station_name":"Manggarai"},{"distance":1590,"is_transit":false,"time":4,"transit":false,"i_long":106.840169,"i_lat":-6.198556,"line":2,"station_name":"Cikini","station_id":"CKI"},{"station_id":"GDD","line":2,"distance":1750,"time":3,"transit":false,"i_lat":-6.186295,"is_transit":false,"station_name":"Gondangdia","i_long":106.832183},{"time":4,"is_transit":false,"transit":false,"distance":2015,"station_name":"Juanda","station_id":"JUA","line":2,"i_lat":-6.166716,"i_long":106.828284},{"i_long":106.827103,"station_name":"Sawah Besar","transit":false,"distance":1149,"is_transit":false,"i_lat":-6.160725,"time":2,"station_id":"SW","line":2},{"time":2,"station_name":"Manggabesar","station_id":"MGB","i_long":106.82482,"line":2,"is_transit":false,"distance":906,"i_lat":-6.149769,"transit":false},{"i_long":106.820901,"station_id":"JAY","line":2,"station_name":"Jayakarta","time":2,"is_transit":false,"distance":1080,"transit":false,"i_lat":-6.141205},{"distance":1264,"is_transit":true,"station_id":"JAKK","i_lat":-6.137569,"line":2,"i_long":106.812439,"transit":true,"station_name":"Jakarta Kota","time":4},{"station_name":"Kampung Bandan","distance":1364,"station_id":"KPB","i_lat":-6.132549,"transit":true,"time":3,"line":4,"i_long":106.826365,"is_transit":true},{"time":9,"station_id":"AK","station_name":"Angke","i_long":106.79867,"transit":false,"line":1,"is_transit":false,"distance":4102,"i_lat":-6.144674},{"time":4,"station_name":"Duri","is_transit":true,"distance":1230,"i_long":106.800832,"i_lat":-6.155215,"transit":true,"line":1,"station_id":"DU"},{"station_name":"Grogol","distance":1700,"transit":false,"station_id":"GRG","line":5,"i_long":106.788277,"i_lat":-6.162021,"is_transit":false,"time":3},{"i_long":106.771379,"line":5,"transit":false,"distance":2036,"station_name":"Pesing","is_transit":false,"i_lat":-6.161433,"time":2,"station_id":"PSG"},{"station_id":"TKO","i_long":106.756522,"distance":1614,"station_name":"Taman Kota","i_lat":-6.1587309999999995,"is_transit":false,"transit":false,"line":5,"time":2},{"i_long":106.737035,"distance":2334,"is_transit":false,"transit":false,"station_name":"Bojongindah","time":2,"station_id":"BOI","i_lat":-6.159876,"line":5},{"transit":false,"station_id":"RW","i_lat":-6.162758,"time":4,"i_long":106.723064,"distance":1152,"is_transit":false,"station_name":"Rawa Buaya","line":5},{"i_lat":-6.166068,"transit":false,"station_name":"Kalideres","time":3,"distance":2504,"station_id":"KDS","i_long":106.701612,"is_transit":false,"line":5},{"distance":2548,"i_long":106.679458,"transit":false,"i_lat":-6.169933,"station_name":"Poris","line":5,"station_id":"PI","time":3,"is_transit":false}],[{"time":0,"station_id":"MTR","station_name":"Matraman","i_long":106.858896,"line":1,"i_lat":-6.212485,"distance":0,"transit":false,"is_transit":false},{"station_id":"JNG","transit":true,"is_transit":true,"station_name":"Jatinegara","distance":1377,"line":1,"i_lat":-6.215091,"time":8,"i_long":106.86807400000001},{"time":2,"is_transit":false,"transit":false,"i_lat":-6.209188,"station_id":"POK","line":11,"i_long":106.861737,"distance":1236,"station_name":"Pondok Jati"},{"time":2,"i_lat":-6.193792,"is_transit":false,"station_id":"KMT","station_name":"Kramat","line":11,"transit":false,"distance":1829,"i_long":106.855437},{"time":1,"i_long":106.850107,"is_transit":false,"station_name":"Gang Sentiong","i_lat":-6.185975,"distance":973,"transit":false,"line":11,"station_id":"GST"},{"transit":false,"is_transit":false,"time":8,"distance":1567,"i_lat":-6.174784,"station_id":"PSE","line":11,"i_long":106.84368,"station_name":"Pasar Senen"},{"station_id":"KMO","is_transit":false,"distance":1436,"i_long":106.839204,"i_lat":-6.161728,"line":11,"transit":false,"time":4,"station_name":"Kemayoran"},{"transit":false,"is_transit":false,"time":5,"station_id":"RJW","distance":1901,"line":11,"station_name":"Rajawali","i_long":106.836569,"i_lat":-6.14505},{"station_name":"Kampung Bandan","is_transit":true,"i_lat":-6.132549,"i_long":106.826365,"distance":1444,"time":3,"station_id":"KPB","transit":true,"line":4},{"station_id":"JAKK","time":3,"station_name":"Jakarta Kota","is_transit":true,"distance":1364,"transit":true,"i_lat":-6.137569,"i_long":106.812439,"line":2},{"i_long":106.820901,"is_transit":false,"i_lat":-6.141205,"station_id":"JAY","line":2,"distance":1264,"time":4,"station_name":"Jayakarta","transit":false},{"station_id":"MGB","station_name":"Manggabesar","transit":false,"line":2,"i_long":106.82482,"is_transit":false,"distance":1080,"i_lat":-6.149769,"time":2},{"station_name":"Sawah Besar","station_id":"SW","is_transit":false,"line":2,"time":2,"distance":906,"i_lat":-6.160725,"transit":false,"i_long":106.827103},{"is_transit":false,"transit":false,"station_name":"Juanda","line":2,"distance":1149,"station_id":"JUA","i_long":106.828284,"i_lat":-6.166716,"time":2},{"distance":2015,"i_long":106.832183,"is_transit":false,"i_lat":-6.186295,"transit":false,"station_name":"Gondangdia","station_id":"GDD","time":4,"line":2},{"time":3,"i_long":106.840169,"line":2,"station_id":"CKI","distance":1750,"is_transit":false,"station_name":"Cikini","transit":false,"i_lat":-6.198556},{"i_lat":-6.209883,"time":4,"station_name":"Manggarai","is_transit":true,"distance":1590,"station_id":"MRI","transit":true,"i_long":106.84912,"line":2},{"i_lat":-6.202263,"i_long":106.822649,"time":4,"is_transit":false,"station_id":"SUD","line":1,"station_name":"Sudirman","transit":false,"distance":3186},{"line":1,"distance":280,"station_id":"SUDB","i_long":106.819881,"time":1,"transit":false,"station_name":"Sudirman Baru","is_transit":false,"i_lat":-6.201433},{"station_name":"Karet","transit":false,"i_long":106.816351,"distance":471,"i_lat":-6.20132,"line":1,"is_transit":false,"station_id":"KAT","time":1},{"is_transit":false,"distance":2029,"station_id":"THB","i_long":106.811091,"station_name":"Tanah Abang","time":5,"i_lat":-6.185545,"line":1,"transit":false},{"distance":3632,"line":1,"time":8,"transit":true,"i_long":106.800832,"station_name":"Duri","i_lat":-6.155215,"station_id":"DU","is_transit":true},{"distance":1700,"transit":false,"station_name":"Grogol","station_id":"GRG","time":3,"i_long":106.788277,"is_transit":false,"i_lat":-6.162021,"line":5},{"station_name":"Pesing","distance":2036,"transit":false,"i_long":106.771379,"i_lat":-6.161433,"line":5,"station_id":"PSG","is_transit":false,"time":2},{"time":2,"i_lat":-6.1587309999999995,"i_long":106.756522,"station_name":"Taman Kota","station_id":"TKO","line":5,"distance":1614,"transit":false,"is_transit":false},{"line":5,"time":2,"is_transit":false,"station_id":"BOI","i_lat":-6.159876,"transit":false,"i_long":106.737035,"distance":2334,"station_name":"Bojongindah"},{"station_id":"RW","station_name":"Rawa Buaya","is_transit":false,"distance":1152,"i_long":106.723064,"line":5,"i_lat":-6.162758,"transit":false,"time":4},{"distance":2504,"station_id":"KDS","transit":false,"i_lat":-6.166068,"station_name":"Kalideres","line":5,"is_transit":false,"time":3,"i_long":106.701612},{"i_lat":-6.169933,"line":5,"station_id":"PI","transit":false,"distance":2548,"station_name":"Poris","is_transit":false,"time":3,"i_long":106.679458}]]}