{"data":[[{"is_transit":false,"distance":0,"i_lat":-6.212485,"line":1,"time":0,"station_name":"Matraman","station_id":"MTR","i_long":106.858896,"transit":false},{"distance":1377,"time":8,"line":1,"i_lat":-6.215091,"station_id":"JNG","transit":true,"i_long":106.86807400000001,"is_transit":true,"station_name":"Jatinegara"},{"is_transit":false,"station_name":"Pondok Jati","i_lat":-6.209188,"i_long":106.861737,"distance":1236,"transit":false,"station_id":"POK","time":2,"line":11},{"station_name":"Kramat","i_lat":-6.193792,"distance":1829,"is_transit":false,"line":11,"station_id":"KMT","i_long":106.855437,"time":2,"transit":false},{"line":11,"distance":973,"is_transit":false,"i_long":106.850107,"station_id":"GST","time":1,"station_name":"Gang Sentiong","i_lat":-6.185975,"transit":false},{"transit":false,"i_long":106.84368,"station_id":"PSE","is_transit":false,"i_lat":-6.174784,"line":11,"distance":1567,"time":8,"station_name":"Pasar Senen"},{"is_transit":false,"station_id":"KMO","i_long":106.839204,"time":4,"transit":false,"distance":1436,"line":11,"i_lat":-6.161728,"station_name":"Kemayoran"},{"is_transit":false,"distance":1901,"station_id":"RJW","transit":false,"station_name":"Rajawali","i_lat":-6.14505,"time":5,"i_long":106.836569,"line":11},{"i_lat":-6.132549,"line":4,"distance":1444,"is_transit":false,"time":3,"station_id":"KPB","transit":false,"station_name":"Kampung Bandan","i_long":106.826365}],[{"line":1,"i_long":106.858896,"distance":0,"transit":false,"station_id":"MTR","is_transit":false,"station_name":"Matraman","time":0,"i_lat":-6.212485},{"distance":1275,"i_long":106.84912,"is_transit":false,"time":2,"station_id":"MRI","i_lat":-6.209883,"station_name":"Manggarai","transit":false,"line":2},{"line":1,"i_lat":-6.202263,"station_id":"SUD","time":4,"transit":false,"distance":3186,"station_name":"Sudirman","i_long":106.822649,"is_transit":false},{"is_transit":false,"i_lat":-6.201433,"i_long":106.819881,"line":1,"time":1,"station_id":"SUDB","distance":280,"transit":false,"station_name":"Sudirman Baru"},{"time":1,"transit":false,"station_name":"Karet","i_long":106.816351,"i_lat":-6.20132,"line":1,"station_id":"KAT","distance":471,"is_transit":false},{"time":5,"station_name":"Tanah Abang","distance":2029,"station_id":"THB","i_lat":-6.185545,"i_long":106.811091,"line":1,"transit":false,"is_transit":false},{"time":8,"station_id":"DU","line":1,"station_name":"Duri","i_long":106.800832,"distance":3632,"transit":false,"is_transit":false,"i_lat":-6.155215},{"station_id":"AK","is_transit":false,"transit":false,"distance":1230,"station_name":"Angke","i_long":106.79867,"line":1,"i_lat":-6.144674,"time":4},{"line":4,"station_name":"Kampung Bandan","transit":false,"station_id":"KPB","i_lat":-6.132549,"distance":4102,"time":9,"i_long":106.826365,"is_transit":false}],[{"transit":false,"line":1,"is_transit":false,"time":0,"distance":0,"station_name":"Matraman","i_long":106.858896,"station_id":"MTR","i_lat":-6.212485},{"i_long":106.84912,"is_transit":true,"time":2,"distance":1275,"transit":true,"line":2,"station_id":"MRI","station_name":"Manggarai","i_lat":-6.209883},{"time":4,"transit":false,"is_transit":false,"station_name":"Cikini","distance":1590,"i_long":106.840169,"line":2,"i_lat":-6.198556,"station_id":"CKI"},{"time":3,"station_name":"Gondangdia","is_transit":false,"i_long":106.832183,"i_lat":-6.186295,"distance":1750,"line":2,"transit":false,"station_id":"GDD"},{"station_id":"JUA","distance":2015,"i_long":106.828284,"line":2,"time":4,"is_transit":false,"transit":false,"station_name":"Juanda","i_lat":-6.166716},{"station_name":"Sawah Besar","distance":1149,"is_transit":false,"i_lat":-6.160725,"i_long":106.827103,"line":2,"station_id":"SW","transit":false,"time":2},{"time":2,"is_transit":false,"station_name":"Manggabesar","i_long":106.82482,"line":2,"distance":906,"station_id":"MGB","transit":false,"i_lat":-6.149769},{"i_lat":-6.141205,"station_name":"Jayakarta","is_transit":false,"transit":false,"line":2,"time":2,"distance":1080,"station_id":"JAY","i_long":106.820901},{"i_long":106.812439,"line":2,"station_name":"Jakarta Kota","time":4,"is_transit":true,"station_id":"JAKK","transit":true,"i_lat":-6.137569,"distance":1264},{"transit":false,"is_transit":false,"distance":1364,"station_id":"KPB","station_name":"Kampung Bandan","i_lat":-6.132549,"time":3,"i_long":106.826365,"line":4}]]}