{"data":[[{"distance":0,"i_lat":-6.212485,"transit":false,"station_name":"Matraman","station_id":"MTR","i_long":106.858896,"line":1,"time":0,"is_transit":false},{"distance":1377,"time":8,"transit":true,"station_id":"JNG","i_lat":-6.215091,"line":1,"station_name":"Jatinegara","is_transit":true,"i_long":106.86807400000001},{"is_transit":false,"line":11,"i_lat":-6.209188,"transit":false,"distance":1236,"time":2,"station_id":"POK","i_long":106.861737,"station_name":"Pondok Jati"},{"is_transit":false,"station_name":"Kramat","line":11,"station_id":"KMT","transit":false,"i_lat":-6.193792,"i_long":106.855437,"time":2,"distance":1829},{"transit":false,"i_long":106.850107,"line":11,"is_transit":false,"i_lat":-6.185975,"station_id":"GST","distance":973,"time":1,"station_name":"Gang Sentiong"},{"transit":false,"i_lat":-6.174784,"distance":1567,"time":8,"station_name":"Pasar Senen","line":11,"i_long":106.84368,"is_transit":false,"station_id":"PSE"},{"i_lat":-6.161728,"station_id":"KMO","transit":false,"time":4,"is_transit":false,"i_long":106.839204,"station_name":"Kemayoran","distance":1436,"line":11},{"i_lat":-6.14505,"line":11,"transit":false,"distance":1901,"time":5,"is_transit":false,"i_long":106.836569,"station_id":"RJW","station_name":"Rajawali"},{"i_long":106.826365,"line":4,"time":3,"station_name":"Kampung Bandan","distance":1444,"transit":true,"i_lat":-6.132549,"station_id":"KPB","is_transit":true},{"time":4,"distance":2185,"station_name":"Ancol","line":4,"is_transit":false,"i_long":106.84464,"transit":false,"i_lat":-6.128023,"station_id":"AC"}],[{"station_id":"MTR","line":1,"station_name":"Matraman","distance":0,"time":0,"is_transit":false,"i_lat":-6.212485,"i_long":106.858896,"transit":false},{"station_name":"Manggarai","transit":false,"station_id":"MRI","i_lat":-6.209883,"time":2,"i_long":106.84912,"distance":1275,"is_transit":false,"line":2},{"time":4,"station_id":"SUD","station_name":"Sudirman","i_lat":-6.202263,"i_long":106.822649,"line":1,"is_transit":false,"transit":false,"distance":3186},{"time":1,"transit":false,"station_name":"Sudirman Baru","i_long":106.819881,"distance":280,"is_transit":false,"line":1,"i_lat":-6.201433,"station_id":"SUDB"},{"time":1,"is_transit":false,"station_id":"KAT","transit":false,"line":1,"station_name":"Karet","i_long":106.816351,"i_lat":-6.20132,"distance":471},{"time":5,"distance":2029,"i_lat":-6.185545,"line":1,"transit":false,"i_long":106.811091,"is_transit":false,"station_name":"Tanah Abang","station_id":"THB"},{"station_id":"DU","i_lat":-6.155215,"distance":3632,"time":8,"is_transit":false,"i_long":106.800832,"station_name":"Duri","line":1,"transit":false},{"station_id":"AK","is_transit":false,"i_lat":-6.144674,"i_long":106.79867,"line":1,"time":4,"station_name":"Angke","transit":false,"distance":1230},{"line":4,"transit":true,"distance":4102,"station_name":"Kampung Bandan","i_lat":-6.132549,"station_id":"KPB","is_transit":true,"i_long":106.826365,"time":9},{"i_long":106.84464,"time":4,"i_lat":-6.128023,"station_id":"AC","distance":2185,"line":4,"is_transit":false,"station_name":"Ancol","transit":false}],[{"i_long":106.858896,"i_lat":-6.212485,"transit":false,"station_id":"MTR","time":0,"distance":0,"line":1,"station_name":"Matraman","is_transit":false},{"i_long":106.84912,"time":2,"station_name":"Manggarai","line":2,"i_lat":-6.209883,"distance":1275,"is_transit":true,"station_id":"MRI","transit":true},{"is_transit":false,"line":2,"distance":1590,"i_long":106.840169,"station_name":"Cikini","time":4,"i_lat":-6.198556,"transit":false,"station_id":"CKI"},{"i_long":106.832183,"station_name":"Gondangdia","transit":false,"is_transit":false,"station_id":"GDD","time":3,"i_lat":-6.186295,"line":2,"distance":1750},{"is_transit":false,"line":2,"i_long":106.828284,"transit":false,"distance":2015,"time":4,"i_lat":-6.166716,"station_name":"Juanda","station_id":"JUA"},{"i_long":106.827103,"station_id":"SW","distance":1149,"is_transit":false,"transit":false,"station_name":"Sawah Besar","line":2,"time":2,"i_lat":-6.160725},{"station_id":"MGB","is_transit":false,"i_long":106.82482,"line":2,"i_lat":-6.149769,"distance":906,"station_name":"Manggabesar","transit":false,"time":2},{"line":2,"transit":false,"station_id":"JAY","distance":1080,"time":2,"is_transit":false,"station_name":"Jayakarta","i_lat":-6.141205,"i_long":106.820901},{"station_id":"JAKK","time":4,"is_transit":true,"station_name":"Jakarta Kota","i_lat":-6.137569,"transit":true,"distance":1264,"line":2,"i_long":106.812439},{"time":3,"station_id":"KPB","transit":true,"i_long":106.826365,"i_lat":-6.132549,"line":4,"is_transit":true,"station_name":"Kampung Bandan","distance":1364},{"station_id":"AC","transit":false,"station_name":"Ancol","i_long":106.84464,"is_transit":false,"i_lat":-6.128023,"line":4,"distance":2185,"time":4}]]}