{"data":[[{"station_id":"MTR","line":1,"distance":0,"time":0,"transit":false,"is_transit":false,"i_long":106.858896,"station_name":"Matraman","i_lat":-6.212485},{"i_lat":-6.215091,"distance":1377,"station_id":"JNG","transit":true,"time":8,"i_long":106.86807400000001,"line":1,"is_transit":true,"station_name":"Jatinegara"},{"station_name":"Pondok Jati","time":2,"station_id":"POK","is_transit":false,"i_long":106.861737,"distance":1236,"line":11,"transit":false,"i_lat":-6.209188},{"station_name":"Kramat","i_lat":-6.193792,"distance":1829,"time":2,"i_long":106.855437,"transit":false,"line":11,"station_id":"KMT","is_transit":false},{"is_transit":false,"i_long":106.850107,"time":1,"station_name":"Gang Sentiong","transit":false,"station_id":"GST","distance":973,"i_lat":-6.185975,"line":11},{"i_long":106.84368,"station_name":"Pasar Senen","i_lat":-6.174784,"transit":false,"distance":1567,"time":8,"station_id":"PSE","is_transit":false,"line":11},{"transit":false,"line":11,"time":4,"station_id":"KMO","i_lat":-6.161728,"i_long":106.839204,"is_transit":false,"station_name":"Kemayoran","distance":1436},{"time":5,"station_id":"RJW","is_transit":false,"line":11,"i_lat":-6.14505,"station_name":"Rajawali","i_long":106.836569,"transit":false,"distance":1901},{"i_lat":-6.132549,"transit":true,"line":4,"time":3,"i_long":106.826365,"distance":1444,"station_name":"Kampung Bandan","station_id":"KPB","is_transit":true},{"station_id":"AC","distance":2185,"line":4,"i_lat":-6.128023,"is_transit":false,"time":4,"station_name":"Ancol","i_long":106.84464,"transit":false}],[{"station_name":"Matraman","station_id":"MTR","i_lat":-6.212485,"distance":0,"time":0,"i_long":106.858896,"transit":false,"is_transit":false,"line":1},{"i_lat":-6.209883,"station_id":"MRI","time":2,"i_long":106.84912,"is_transit":false,"distance":1275,"transit":false,"station_name":"Manggarai","line":2},{"i_long":106.822649,"station_name":"Sudirman","time":4,"transit":false,"line":1,"i_lat":-6.202263,"is_transit":false,"station_id":"SUD","distance":3186},{"station_name":"Sudirman Baru","distance":280,"is_transit":false,"transit":false,"i_lat":-6.201433,"line":1,"i_long":106.819881,"time":1,"station_id":"SUDB"},{"line":1,"i_lat":-6.20132,"i_long":106.816351,"station_name":"Karet","station_id":"KAT","is_transit":false,"distance":471,"time":1,"transit":false},{"i_lat":-6.185545,"distance":2029,"i_long":106.811091,"time":5,"transit":false,"line":1,"is_transit":false,"station_id":"THB","station_name":"Tanah Abang"},{"transit":false,"is_transit":false,"i_lat":-6.155215,"i_long":106.800832,"line":1,"time":8,"distance":3632,"station_name":"Duri","station_id":"DU"},{"transit":false,"is_transit":false,"i_long":106.79867,"station_id":"AK","time":4,"line":1,"station_name":"Angke","distance":1230,"i_lat":-6.144674},{"station_name":"Kampung Bandan","distance":4102,"i_long":106.826365,"station_id":"KPB","transit":true,"line":4,"is_transit":true,"i_lat":-6.132549,"time":9},{"transit":false,"station_name":"Ancol","line":4,"station_id":"AC","time":4,"i_lat":-6.128023,"distance":2185,"is_transit":false,"i_long":106.84464}],[{"i_long":106.858896,"i_lat":-6.212485,"distance":0,"line":1,"time":0,"is_transit":false,"transit":false,"station_id":"MTR","station_name":"Matraman"},{"line":2,"station_id":"MRI","distance":1275,"is_transit":true,"time":2,"transit":true,"station_name":"Manggarai","i_lat":-6.209883,"i_long":106.84912},{"i_long":106.840169,"line":2,"i_lat":-6.198556,"transit":false,"distance":1590,"station_id":"CKI","station_name":"Cikini","time":4,"is_transit":false},{"transit":false,"is_transit":false,"i_lat":-6.186295,"station_id":"GDD","time":3,"station_name":"Gondangdia","distance":1750,"line":2,"i_long":106.832183},{"station_id":"JUA","time":4,"i_lat":-6.166716,"distance":2015,"i_long":106.828284,"line":2,"is_transit":false,"station_name":"Juanda","transit":false},{"is_transit":false,"time":2,"distance":1149,"station_id":"SW","i_lat":-6.160725,"i_long":106.827103,"line":2,"station_name":"Sawah Besar","transit":false},{"i_lat":-6.149769,"i_long":106.82482,"station_id":"MGB","time":2,"distance":906,"is_transit":false,"station_name":"Manggabesar","line":2,"transit":false},{"station_id":"JAY","is_transit":false,"station_name":"Jayakarta","line":2,"transit":false,"distance":1080,"i_lat":-6.141205,"i_long":106.820901,"time":2},{"line":2,"station_id":"JAKK","station_name":"Jakarta Kota","distance":1264,"time":4,"transit":true,"i_lat":-6.137569,"i_long":106.812439,"is_transit":true},{"distance":1364,"i_long":106.826365,"transit":true,"is_transit":true,"time":3,"line":4,"station_id":"KPB","i_lat":-6.132549,"station_name":"Kampung Bandan"},{"is_transit":false,"i_lat":-6.128023,"line":4,"transit":false,"i_long":106.84464,"time":4,"station_id":"AC","distance":2185,"station_name":"Ancol"}]]}