{"data":[[{"is_transit":false,"transit":false,"i_long":106.858896,"station_name":"Matraman","line":1,"station_id":"MTR","distance":0,"i_lat":-6.212485,"time":0},{"time":8,"line":1,"i_lat":-6.215091,"station_name":"Jatinegara","station_id":"JNG","is_transit":false,"i_long":106.86807400000001,"distance":1377,"transit":false},{"line":1,"distance":3395,"is_transit":false,"time":3,"transit":false,"i_long":106.899548,"i_lat":-6.2135,"station_name":"Klender","station_id":"KLD"},{"i_long":106.922662,"i_lat":-6.215568,"transit":false,"station_id":"BUA","time":2,"distance":3100,"line":1,"station_name":"Buaran","is_transit":false},{"transit":false,"i_lat":-6.217455,"line":1,"time":1,"distance":1305,"i_long":106.939679,"is_transit":false,"station_id":"KLDB","station_name":"Klenderbaru"},{"line":1,"transit":false,"distance":1385,"station_name":"Cakung","time":8,"is_transit":false,"station_id":"CUK","i_lat":-6.219053,"i_long":106.951283},{"i_long":106.977657,"i_lat":-6.224515,"transit":false,"is_transit":false,"station_name":"Kranji","line":1,"station_id":"KRI","time":3,"distance":3097},{"time":4,"line":1,"i_long":106.997013,"station_id":"BKS","station_name":"Bekasi","is_transit":false,"distance":2520,"transit":false,"i_lat":-6.236616},{"transit":false,"time":2,"station_id":"BKST","line":1,"station_name":"Bekasi Timur","i_lat":-6.248029,"i_long":107.016735,"is_transit":false,"distance":2368},{"i_lat":-6.258864,"i_long":107.055722,"distance":4460,"station_id":"TB","line":1,"is_transit":false,"time":7,"transit":false,"station_name":"Tambun"},{"time":3,"i_lat":-6.261877,"distance":3420,"station_name":"Cibitung","is_transit":false,"i_long":107.083084,"station_id":"CIT","transit":false,"line":1},{"is_transit":false,"i_lat":-6.262938,"i_long":107.093313,"line":1,"distance":2800,"station_name":"Metland Telaga Murni","transit":false,"time":2,"station_id":"TLM"},{"i_lat":-6.2553149999999995,"station_id":"CKR","time":4,"is_transit":false,"transit":false,"i_long":107.144613,"distance":3689,"line":1,"station_name":"Cikarang"}],[{"time":0,"i_lat":-6.212485,"station_name":"Matraman","i_long":106.858896,"station_id":"MTR","is_transit":false,"transit":false,"line":1,"distance":0},{"station_id":"MRI","station_name":"Manggarai","i_long":106.84912,"is_transit":false,"i_lat":-6.209883,"time":2,"transit":false,"line":2,"distance":1275},{"i_lat":-6.202263,"distance":3186,"transit":false,"time":4,"is_transit":false,"i_long":106.822649,"station_id":"SUD","station_name":"Sudirman","line":1},{"is_transit":false,"i_long":106.819881,"line":1,"i_lat":-6.201433,"distance":280,"station_id":"SUDB","station_name":"Sudirman Baru","transit":false,"time":1},{"station_name":"Karet","station_id":"KAT","i_long":106.816351,"line":1,"transit":false,"i_lat":-6.20132,"time":1,"distance":471,"is_transit":false},{"station_id":"THB","i_long":106.811091,"is_transit":false,"transit":false,"line":1,"distance":2029,"station_name":"Tanah Abang","i_lat":-6.185545,"time":5},{"transit":false,"station_id":"DU","station_name":"Duri","line":1,"distance":3632,"is_transit":false,"time":8,"i_lat":-6.155215,"i_long":106.800832},{"transit":false,"time":4,"station_id":"AK","is_transit":false,"i_lat":-6.144674,"i_long":106.79867,"distance":1230,"station_name":"Angke","line":1},{"time":9,"distance":4102,"i_long":106.826365,"transit":true,"is_transit":true,"line":4,"station_id":"KPB","i_lat":-6.132549,"station_name":"Kampung Bandan"},{"i_lat":-6.14505,"station_id":"RJW","i_long":106.836569,"distance":1444,"transit":false,"line":11,"station_name":"Rajawali","is_transit":false,"time":3},{"time":5,"distance":1901,"station_id":"KMO","station_name":"Kemayoran","i_long":106.839204,"is_transit":false,"i_lat":-6.161728,"line":11,"transit":false},{"transit":false,"time":4,"distance":1436,"i_long":106.84368,"line":11,"station_name":"Pasar Senen","station_id":"PSE","i_lat":-6.174784,"is_transit":false},{"i_long":106.850107,"station_name":"Gang Sentiong","i_lat":-6.185975,"distance":1567,"station_id":"GST","line":11,"is_transit":false,"transit":false,"time":8},{"line":11,"i_long":106.855437,"time":1,"station_id":"KMT","station_name":"Kramat","distance":973,"i_lat":-6.193792,"is_transit":false,"transit":false},{"i_lat":-6.209188,"station_name":"Pondok Jati","i_long":106.861737,"is_transit":false,"line":11,"time":2,"transit":false,"distance":1829,"station_id":"POK"},{"transit":true,"line":1,"time":9,"i_lat":-6.215091,"is_transit":true,"i_long":106.86807400000001,"station_id":"JNG","distance":1236,"station_name":"Jatinegara"},{"time":3,"station_id":"KLD","distance":3395,"station_name":"Klender","i_lat":-6.2135,"line":1,"transit":false,"i_long":106.899548,"is_transit":false},{"i_lat":-6.215568,"time":2,"line":1,"transit":false,"is_transit":false,"distance":3100,"station_name":"Buaran","station_id":"BUA","i_long":106.922662},{"i_long":106.939679,"line":1,"i_lat":-6.217455,"distance":1305,"station_id":"KLDB","transit":false,"time":1,"station_name":"Klenderbaru","is_transit":false},{"time":8,"station_id":"CUK","i_long":106.951283,"transit":false,"station_name":"Cakung","i_lat":-6.219053,"is_transit":false,"distance":1385,"line":1},{"time":3,"station_id":"KRI","station_name":"Kranji","transit":false,"line":1,"is_transit":false,"i_lat":-6.224515,"distance":3097,"i_long":106.977657},{"station_id":"BKS","is_transit":false,"transit":false,"i_long":106.997013,"line":1,"station_name":"Bekasi","i_lat":-6.236616,"time":4,"distance":2520},{"station_id":"BKST","i_lat":-6.248029,"line":1,"station_name":"Bekasi Timur","i_long":107.016735,"time":2,"is_transit":false,"distance":2368,"transit":false},{"transit":false,"time":7,"station_name":"Tambun","station_id":"TB","line":1,"is_transit":false,"i_long":107.055722,"i_lat":-6.258864,"distance":4460},{"time":3,"station_name":"Cibitung","station_id":"CIT","transit":false,"i_long":107.083084,"distance":3420,"i_lat":-6.261877,"is_transit":false,"line":1},{"transit":false,"i_lat":-6.262938,"distance":2800,"station_name":"Metland Telaga Murni","time":2,"is_transit":false,"station_id":"TLM","i_long":107.093313,"line":1},{"transit":false,"station_id":"CKR","line":1,"i_long":107.144613,"station_name":"Cikarang","i_lat":-6.2553149999999995,"time":4,"distance":3689,"is_transit":false}],[{"i_long":106.858896,"distance":0,"station_id":"MTR","station_name":"Matraman","transit":false,"i_lat":-6.212485,"line":1,"time":0,"is_transit":false},{"distance":1275,"line":2,"i_lat":-6.209883,"station_id":"MRI","is_transit":true,"time":2,"i_long":106.84912,"transit":true,"station_name":"Manggarai"},{"i_long":106.840169,"line":2,"i_lat":-6.198556,"is_transit":false,"time":4,"station_id":"CKI","distance":1590,"transit":false,"station_name":"Cikini"},{"distance":1750,"transit":false,"station_name":"Gondangdia","i_lat":-6.186295,"i_long":106.832183,"time":3,"is_transit":false,"station_id":"GDD","line":2},{"distance":2015,"transit":false,"station_name":"Juanda","station_id":"JUA","i_long":106.828284,"is_transit":false,"i_lat":-6.166716,"line":2,"time":4},{"i_long":106.827103,"transit":false,"i_lat":-6.160725,"station_name":"Sawah Besar","is_transit":false,"distance":1149,"time":2,"line":2,"station_id":"SW"},{"time":2,"i_lat":-6.149769,"i_long":106.82482,"transit":false,"distance":906,"station_name":"Manggabesar","station_id":"MGB","line":2,"is_transit":false},{"i_lat":-6.141205,"is_transit":false,"time":2,"line":2,"station_name":"Jayakarta","distance":1080,"i_long":106.820901,"transit":false,"station_id":"JAY"},{"is_transit":true,"transit":true,"station_name":"Jakarta Kota","station_id":"JAKK","i_lat":-6.137569,"line":2,"i_long":106.812439,"distance":1264,"time":4},{"station_id":"KPB","distance":1364,"is_transit":true,"station_name":"Kampung Bandan","i_lat":-6.132549,"time":3,"i_long":106.826365,"line":4,"transit":true},{"station_name":"Rajawali","line":11,"distance":1444,"i_long":106.836569,"i_lat":-6.14505,"is_transit":false,"station_id":"RJW","transit":false,"time":3},{"line":11,"time":5,"distance":1901,"station_id":"KMO","i_lat":-6.161728,"i_long":106.839204,"station_name":"Kemayoran","transit":false,"is_transit":false},{"transit":false,"line":11,"station_id":"PSE","i_lat":-6.174784,"distance":1436,"time":4,"station_name":"Pasar Senen","i_long":106.84368,"is_transit":false},{"station_id":"GST","i_long":106.850107,"time":8,"distance":1567,"transit":false,"station_name":"Gang Sentiong","i_lat":-6.185975,"line":11,"is_transit":false},{"time":1,"transit":false,"is_transit":false,"station_id":"KMT","distance":973,"station_name":"Kramat","line":11,"i_lat":-6.193792,"i_long":106.855437},{"transit":false,"i_long":106.861737,"is_transit":false,"distance":1829,"time":2,"i_lat":-6.209188,"station_id":"POK","station_name":"Pondok Jati","line":11},{"i_long":106.86807400000001,"time":9,"transit":true,"i_lat":-6.215091,"station_name":"Jatinegara","line":1,"distance":1236,"station_id":"JNG","is_transit":true},{"station_id":"KLD","transit":false,"i_long":106.899548,"is_transit":false,"line":1,"time":3,"station_name":"Klender","i_lat":-6.2135,"distance":3395},{"station_name":"Buaran","is_transit":false,"transit":false,"i_lat":-6.215568,"station_id":"BUA","distance":3100,"time":2,"i_long":106.922662,"line":1},{"i_lat":-6.217455,"is_transit":false,"transit":false,"i_long":106.939679,"line":1,"distance":1305,"time":1,"station_name":"Klenderbaru","station_id":"KLDB"},{"transit":false,"line":1,"i_long":106.951283,"distance":1385,"i_lat":-6.219053,"time":8,"station_name":"Cakung","station_id":"CUK","is_transit":false},{"line":1,"distance":3097,"transit":false,"station_name":"Kranji","i_lat":-6.224515,"is_transit":false,"time":3,"station_id":"KRI","i_long":106.977657},{"transit":false,"station_name":"Bekasi","station_id":"BKS","is_transit":false,"i_lat":-6.236616,"line":1,"distance":2520,"time":4,"i_long":106.997013},{"station_name":"Bekasi Timur","line":1,"station_id":"BKST","i_lat":-6.248029,"is_transit":false,"transit":false,"distance":2368,"i_long":107.016735,"time":2},{"i_lat":-6.258864,"i_long":107.055722,"line":1,"time":7,"is_transit":false,"station_name":"Tambun","distance":4460,"station_id":"TB","transit":false},{"line":1,"time":3,"distance":3420,"i_long":107.083084,"station_id":"CIT","station_name":"Cibitung","is_transit":false,"transit":false,"i_lat":-6.261877},{"distance":2800,"is_transit":false,"station_name":"Metland Telaga Murni","line":1,"i_lat":-6.262938,"i_long":107.093313,"time":2,"transit":false,"station_id":"TLM"},{"i_long":107.144613,"time":4,"i_lat":-6.2553149999999995,"station_id":"CKR","transit":false,"is_transit":false,"distance":3689,"station_name":"Cikarang","line":1}]]}