{"data":[[{"line":1,"is_transit":false,"distance":0,"transit":false,"i_lat":-6.212485,"i_long":106.858896,"time":0,"station_name":"Matraman","station_id":"MTR"},{"line":1,"station_name":"Jatinegara","is_transit":true,"i_long":106.86807400000001,"i_lat":-6.215091,"time":8,"station_id":"JNG","distance":1377,"transit":true},{"time":2,"station_name":"Pondok Jati","transit":false,"i_lat":-6.209188,"station_id":"POK","is_transit":false,"line":11,"distance":1236,"i_long":106.861737},{"station_name":"Kramat","i_long":106.855437,"time":2,"is_transit":false,"i_lat":-6.193792,"distance":1829,"station_id":"KMT","transit":false,"line":11},{"transit":false,"i_lat":-6.185975,"distance":973,"station_id":"GST","is_transit":false,"i_long":106.850107,"time":1,"line":11,"station_name":"Gang Sentiong"}],[{"distance":0,"station_id":"MTR","i_long":106.858896,"transit":false,"i_lat":-6.212485,"is_transit":false,"line":1,"station_name":"Matraman","time":0},{"distance":1275,"i_lat":-6.209883,"station_id":"MRI","station_name":"Manggarai","time":2,"line":2,"is_transit":false,"i_long":106.84912,"transit":false},{"i_long":106.822649,"time":4,"transit":false,"i_lat":-6.202263,"line":1,"station_id":"SUD","station_name":"Sudirman","distance":3186,"is_transit":false},{"i_lat":-6.201433,"station_id":"SUDB","i_long":106.819881,"line":1,"is_transit":false,"transit":false,"time":1,"station_name":"Sudirman Baru","distance":280},{"station_name":"Karet","is_transit":false,"i_long":106.816351,"transit":false,"time":1,"distance":471,"station_id":"KAT","line":1,"i_lat":-6.20132},{"station_id":"THB","time":5,"station_name":"Tanah Abang","i_long":106.811091,"is_transit":false,"transit":false,"line":1,"distance":2029,"i_lat":-6.185545},{"transit":false,"i_lat":-6.155215,"i_long":106.800832,"distance":3632,"is_transit":false,"time":8,"line":1,"station_id":"DU","station_name":"Duri"},{"line":1,"time":4,"station_name":"Angke","station_id":"AK","i_lat":-6.144674,"is_transit":false,"i_long":106.79867,"distance":1230,"transit":false},{"transit":true,"time":9,"is_transit":true,"i_lat":-6.132549,"distance":4102,"station_name":"Kampung Bandan","i_long":106.826365,"line":4,"station_id":"KPB"},{"transit":false,"line":11,"time":3,"distance":1444,"i_lat":-6.14505,"is_transit":false,"station_name":"Rajawali","station_id":"RJW","i_long":106.836569},{"time":5,"is_transit":false,"transit":false,"distance":1901,"i_lat":-6.161728,"station_id":"KMO","i_long":106.839204,"station_name":"Kemayoran","line":11},{"station_id":"PSE","is_transit":false,"distance":1436,"line":11,"time":4,"station_name":"Pasar Senen","transit":false,"i_lat":-6.174784,"i_long":106.84368},{"time":8,"station_id":"GST","transit":false,"station_name":"Gang Sentiong","line":11,"i_long":106.850107,"is_transit":false,"distance":1567,"i_lat":-6.185975}],[{"time":0,"station_id":"MTR","line":1,"distance":0,"transit":false,"station_name":"Matraman","i_long":106.858896,"is_transit":false,"i_lat":-6.212485},{"station_id":"MRI","i_long":106.84912,"time":2,"is_transit":true,"transit":true,"distance":1275,"station_name":"Manggarai","i_lat":-6.209883,"line":2},{"is_transit":false,"distance":1590,"station_name":"Cikini","line":2,"time":4,"i_long":106.840169,"station_id":"CKI","transit":false,"i_lat":-6.198556},{"time":3,"station_id":"GDD","station_name":"Gondangdia","transit":false,"i_long":106.832183,"distance":1750,"line":2,"i_lat":-6.186295,"is_transit":false},{"is_transit":false,"i_long":106.828284,"i_lat":-6.166716,"line":2,"station_name":"Juanda","time":4,"distance":2015,"transit":false,"station_id":"JUA"},{"i_lat":-6.160725,"is_transit":false,"line":2,"transit":false,"i_long":106.827103,"distance":1149,"time":2,"station_id":"SW","station_name":"Sawah Besar"},{"i_long":106.82482,"is_transit":false,"line":2,"station_name":"Manggabesar","station_id":"MGB","distance":906,"time":2,"transit":false,"i_lat":-6.149769},{"i_lat":-6.141205,"distance":1080,"line":2,"time":2,"station_name":"Jayakarta","i_long":106.820901,"station_id":"JAY","is_transit":false,"transit":false},{"time":4,"station_name":"Jakarta Kota","is_transit":true,"distance":1264,"station_id":"JAKK","transit":true,"i_long":106.812439,"i_lat":-6.137569,"line":2},{"station_name":"Kampung Bandan","distance":1364,"line":4,"transit":true,"is_transit":true,"station_id":"KPB","time":3,"i_lat":-6.132549,"i_long":106.826365},{"is_transit":false,"i_lat":-6.14505,"line":11,"transit":false,"i_long":106.836569,"time":3,"distance":1444,"station_id":"RJW","station_name":"Rajawali"},{"time":5,"i_long":106.839204,"distance":1901,"i_lat":-6.161728,"transit":false,"is_transit":false,"station_name":"Kemayoran","line":11,"station_id":"KMO"},{"time":4,"is_transit":false,"distance":1436,"line":11,"station_name":"Pasar Senen","i_long":106.84368,"station_id":"PSE","transit":false,"i_lat":-6.174784},{"line":11,"is_transit":false,"transit":false,"i_long":106.850107,"station_name":"Gang Sentiong","time":8,"distance":1567,"station_id":"GST","i_lat":-6.185975}]]}