{"data":[[{"transit":false,"i_long":106.858896,"i_lat":-6.212485,"is_transit":false,"station_id":"MTR","line":1,"distance":0,"time":0,"station_name":"Matraman"},{"distance":1275,"station_id":"MRI","transit":false,"station_name":"Manggarai","i_long":106.84912,"time":2,"is_transit":false,"i_lat":-6.209883,"line":2},{"transit":false,"is_transit":false,"station_name":"Sudirman","station_id":"SUD","i_long":106.822649,"line":1,"distance":3186,"time":4,"i_lat":-6.202263},{"station_id":"SUDB","is_transit":false,"transit":false,"i_lat":-6.201433,"i_long":106.819881,"line":1,"distance":280,"time":1,"station_name":"Sudirman Baru"},{"time":1,"is_transit":false,"i_long":106.816351,"i_lat":-6.20132,"distance":471,"station_id":"KAT","transit":false,"station_name":"Karet","line":1},{"time":5,"transit":true,"station_name":"Tanah Abang","line":1,"is_transit":true,"i_long":106.811091,"station_id":"THB","i_lat":-6.185545,"distance":2029},{"transit":false,"is_transit":false,"line":6,"i_lat":-6.207404,"time":6,"station_name":"Palmerah","station_id":"PLM","i_long":106.79689,"distance":3191},{"transit":false,"time":7,"i_long":106.780334,"is_transit":false,"distance":3737,"station_id":"KBY","station_name":"Kebayoran","line":6,"i_lat":-6.237242},{"line":6,"station_name":"Pondokranji","transit":false,"distance":6218,"station_id":"PDJ","is_transit":false,"i_lat":-6.276362,"i_long":106.74273,"time":8},{"station_id":"JMU","line":6,"time":3,"is_transit":false,"station_name":"Jurangmangu","distance":2179,"i_lat":-6.288927,"i_long":106.728916,"transit":false},{"distance":1994,"line":6,"transit":false,"i_lat":-6.296963,"station_id":"SDM","time":4,"station_name":"Sudimara","i_long":106.712277,"is_transit":false}],[{"time":0,"is_transit":false,"station_name":"Matraman","transit":false,"i_long":106.858896,"line":1,"distance":0,"i_lat":-6.212485,"station_id":"MTR"},{"transit":true,"i_lat":-6.215091,"distance":1377,"is_transit":true,"i_long":106.86807400000001,"time":8,"station_id":"JNG","line":1,"station_name":"Jatinegara"},{"line":11,"time":2,"is_transit":false,"distance":1236,"station_name":"Pondok Jati","station_id":"POK","transit":false,"i_lat":-6.209188,"i_long":106.861737},{"station_name":"Kramat","station_id":"KMT","i_long":106.855437,"distance":1829,"is_transit":false,"transit":false,"line":11,"i_lat":-6.193792,"time":2},{"i_lat":-6.185975,"line":11,"distance":973,"is_transit":false,"station_id":"GST","transit":false,"station_name":"Gang Sentiong","i_long":106.850107,"time":1},{"station_name":"Pasar Senen","i_long":106.84368,"time":8,"line":11,"station_id":"PSE","i_lat":-6.174784,"transit":false,"distance":1567,"is_transit":false},{"time":4,"transit":false,"i_lat":-6.161728,"line":11,"distance":1436,"i_long":106.839204,"is_transit":false,"station_name":"Kemayoran","station_id":"KMO"},{"line":11,"station_name":"Rajawali","time":5,"transit":false,"i_long":106.836569,"i_lat":-6.14505,"station_id":"RJW","is_transit":false,"distance":1901},{"station_id":"KPB","i_lat":-6.132549,"time":3,"distance":1444,"line":4,"is_transit":true,"transit":true,"station_name":"Kampung Bandan","i_long":106.826365},{"distance":4102,"time":9,"station_name":"Angke","is_transit":false,"transit":false,"i_lat":-6.144674,"station_id":"AK","i_long":106.79867,"line":1},{"transit":false,"i_long":106.800832,"time":4,"line":1,"station_name":"Duri","i_lat":-6.155215,"distance":1230,"station_id":"DU","is_transit":false},{"is_transit":true,"transit":true,"station_name":"Tanah Abang","i_lat":-6.185545,"station_id":"THB","i_long":106.811091,"line":1,"time":8,"distance":3632},{"station_name":"Palmerah","is_transit":false,"station_id":"PLM","line":6,"i_long":106.79689,"i_lat":-6.207404,"time":6,"distance":3191,"transit":false},{"i_long":106.780334,"transit":false,"line":6,"is_transit":false,"time":7,"station_id":"KBY","distance":3737,"station_name":"Kebayoran","i_lat":-6.237242},{"i_lat":-6.276362,"station_id":"PDJ","i_long":106.74273,"time":8,"transit":false,"line":6,"distance":6218,"is_transit":false,"station_name":"Pondokranji"},{"is_transit":false,"station_id":"JMU","transit":false,"line":6,"distance":2179,"time":3,"i_lat":-6.288927,"station_name":"Jurangmangu","i_long":106.728916},{"distance":1994,"station_id":"SDM","station_name":"Sudimara","is_transit":false,"i_lat":-6.296963,"i_long":106.712277,"time":4,"transit":false,"line":6}],[{"time":0,"i_long":106.858896,"distance":0,"station_name":"Matraman","station_id":"MTR","line":1,"i_lat":-6.212485,"transit":false,"is_transit":false},{"time":2,"i_long":106.84912,"station_id":"MRI","is_transit":true,"i_lat":-6.209883,"transit":true,"station_name":"Manggarai","line":2,"distance":1275},{"is_transit":false,"i_lat":-6.198556,"station_id":"CKI","station_name":"Cikini","time":4,"i_long":106.840169,"distance":1590,"line":2,"transit":false},{"is_transit":false,"transit":false,"time":3,"i_lat":-6.186295,"station_id":"GDD","distance":1750,"station_name":"Gondangdia","i_long":106.832183,"line":2},{"station_name":"Juanda","i_long":106.828284,"i_lat":-6.166716,"line":2,"distance":2015,"transit":false,"time":4,"is_transit":false,"station_id":"JUA"},{"transit":false,"station_id":"SW","distance":1149,"is_transit":false,"i_lat":-6.160725,"station_name":"Sawah Besar","i_long":106.827103,"line":2,"time":2},{"time":2,"station_id":"MGB","i_long":106.82482,"distance":906,"is_transit":false,"line":2,"station_name":"Manggabesar","i_lat":-6.149769,"transit":false},{"time":2,"i_lat":-6.141205,"transit":false,"station_id":"JAY","line":2,"station_name":"Jayakarta","is_transit":false,"distance":1080,"i_long":106.820901},{"distance":1264,"is_transit":true,"i_lat":-6.137569,"i_long":106.812439,"station_id":"JAKK","station_name":"Jakarta Kota","time":4,"line":2,"transit":true},{"i_long":106.826365,"i_lat":-6.132549,"distance":1364,"time":3,"is_transit":true,"line":4,"transit":true,"station_id":"KPB","station_name":"Kampung Bandan"},{"time":9,"is_transit":false,"i_lat":-6.144674,"i_long":106.79867,"line":1,"distance":4102,"station_name":"Angke","station_id":"AK","transit":false},{"distance":1230,"i_long":106.800832,"time":4,"station_id":"DU","station_name":"Duri","is_transit":false,"i_lat":-6.155215,"transit":false,"line":1},{"station_id":"THB","i_long":106.811091,"transit":true,"time":8,"station_name":"Tanah Abang","is_transit":true,"distance":3632,"i_lat":-6.185545,"line":1},{"time":6,"is_transit":false,"transit":false,"line":6,"i_lat":-6.207404,"station_name":"Palmerah","i_long":106.79689,"station_id":"PLM","distance":3191},{"station_name":"Kebayoran","transit":false,"i_lat":-6.237242,"distance":3737,"time":7,"i_long":106.780334,"is_transit":false,"line":6,"station_id":"KBY"},{"line":6,"transit":false,"station_name":"Pondokranji","is_transit":false,"distance":6218,"i_lat":-6.276362,"i_long":106.74273,"station_id":"PDJ","time":8},{"line":6,"transit":false,"i_lat":-6.288927,"station_name":"Jurangmangu","i_long":106.728916,"distance":2179,"station_id":"JMU","time":3,"is_transit":false},{"is_transit":false,"transit":false,"time":4,"i_lat":-6.296963,"line":6,"i_long":106.712277,"distance":1994,"station_name":"Sudimara","station_id":"SDM"}],[{"is_transit":false,"transit":false,"station_name":"Matraman","time":0,"i_lat":-6.212485,"station_id":"MTR","distance":0,"i_long":106.858896,"line":1},{"time":8,"i_lat":-6.215091,"station_name":"Jatinegara","i_long":106.86807400000001,"line":1,"distance":1377,"transit":true,"is_transit":true,"station_id":"JNG"},{"distance":1236,"station_name":"Pondok Jati","transit":false,"time":2,"line":11,"is_transit":false,"i_lat":-6.209188,"station_id":"POK","i_long":106.861737},{"station_name":"Kramat","is_transit":false,"transit":false,"line":11,"station_id":"KMT","distance":1829,"i_long":106.855437,"i_lat":-6.193792,"time":2},{"time":1,"station_id":"GST","i_long":106.850107,"distance":973,"is_transit":false,"line":11,"transit":false,"i_lat":-6.185975,"station_name":"Gang Sentiong"},{"time":8,"station_id":"PSE","distance":1567,"transit":false,"is_transit":false,"i_long":106.84368,"station_name":"Pasar Senen","line":11,"i_lat":-6.174784},{"transit":false,"i_lat":-6.161728,"time":4,"station_name":"Kemayoran","station_id":"KMO","distance":1436,"i_long":106.839204,"line":11,"is_transit":false},{"line":11,"station_name":"Rajawali","i_long":106.836569,"station_id":"RJW","time":5,"transit":false,"distance":1901,"i_lat":-6.14505,"is_transit":false},{"transit":true,"station_name":"Kampung Bandan","is_transit":true,"i_lat":-6.132549,"i_long":106.826365,"time":3,"line":4,"distance":1444,"station_id":"KPB"},{"line":2,"transit":true,"station_id":"JAKK","time":3,"distance":1364,"station_name":"Jakarta Kota","is_transit":true,"i_lat":-6.137569,"i_long":106.812439},{"line":2,"is_transit":false,"time":4,"i_lat":-6.141205,"station_id":"JAY","transit":false,"i_long":106.820901,"distance":1264,"station_name":"Jayakarta"},{"i_lat":-6.149769,"i_long":106.82482,"transit":false,"line":2,"station_id":"MGB","is_transit":false,"time":2,"distance":1080,"station_name":"Manggabesar"},{"i_lat":-6.160725,"distance":906,"line":2,"transit":false,"time":2,"is_transit":false,"station_name":"Sawah Besar","station_id":"SW","i_long":106.827103},{"station_name":"Juanda","time":2,"line":2,"station_id":"JUA","i_lat":-6.166716,"i_long":106.828284,"transit":false,"distance":1149,"is_transit":false},{"time":4,"distance":2015,"station_id":"GDD","i_long":106.832183,"is_transit":false,"i_lat":-6.186295,"station_name":"Gondangdia","line":2,"transit":false},{"i_lat":-6.198556,"distance":1750,"station_id":"CKI","line":2,"station_name":"Cikini","transit":false,"is_transit":false,"time":3,"i_long":106.840169},{"time":4,"distance":1590,"is_transit":true,"station_id":"MRI","i_long":106.84912,"transit":true,"i_lat":-6.209883,"station_name":"Manggarai","line":2},{"station_name":"Sudirman","station_id":"SUD","time":4,"is_transit":false,"i_lat":-6.202263,"distance":3186,"transit":false,"line":1,"i_long":106.822649},{"time":1,"i_lat":-6.201433,"distance":280,"transit":false,"is_transit":false,"line":1,"station_name":"Sudirman Baru","i_long":106.819881,"station_id":"SUDB"},{"transit":false,"distance":471,"is_transit":false,"station_id":"KAT","i_lat":-6.20132,"i_long":106.816351,"time":1,"station_name":"Karet","line":1},{"station_name":"Tanah Abang","is_transit":true,"i_long":106.811091,"distance":2029,"line":1,"i_lat":-6.185545,"station_id":"THB","time":5,"transit":true},{"station_name":"Palmerah","i_long":106.79689,"line":6,"distance":3191,"is_transit":false,"transit":false,"time":6,"station_id":"PLM","i_lat":-6.207404},{"line":6,"time":7,"station_id":"KBY","transit":false,"i_lat":-6.237242,"station_name":"Kebayoran","is_transit":false,"distance":3737,"i_long":106.780334},{"i_lat":-6.276362,"line":6,"transit":false,"i_long":106.74273,"station_id":"PDJ","time":8,"distance":6218,"station_name":"Pondokranji","is_transit":false},{"time":3,"line":6,"transit":false,"is_transit":false,"station_name":"Jurangmangu","i_long":106.728916,"station_id":"JMU","distance":2179,"i_lat":-6.288927},{"station_id":"SDM","time":4,"line":6,"i_lat":-6.296963,"station_name":"Sudimara","is_transit":false,"distance":1994,"i_long":106.712277,"transit":false}]]}