{"data":[[{"distance":0,"station_id":"MTR","i_lat":-6.212485,"station_name":"Matraman","time":0,"i_long":106.858896,"line":1,"is_transit":false,"transit":false},{"time":2,"line":0,"i_long":106.84912,"station_id":"MRI","station_name":"Manggarai","is_transit":true,"transit":false,"i_lat":-6.209883,"distance":1275},{"line":1,"distance":3186,"station_name":"Sudirman","is_transit":false,"time":4,"i_lat":-6.202263,"transit":false,"i_long":106.822649,"station_id":"SUD"},{"distance":280,"i_long":106.819881,"line":1,"is_transit":false,"station_id":"SUDB","i_lat":-6.201433,"time":1,"transit":false,"station_name":"Sudirman Baru"},{"time":1,"station_name":"Karet","is_transit":false,"distance":471,"i_lat":-6.20132,"line":1,"station_id":"KAT","transit":false,"i_long":106.816351},{"i_long":106.811091,"station_name":"Tanah Abang","transit":false,"distance":2029,"is_transit":true,"line":1,"station_id":"THB","time":5,"i_lat":-6.185545},{"station_id":"DU","station_name":"Duri","i_lat":-6.155215,"i_long":106.800832,"line":1,"time":8,"is_transit":true,"transit":true,"distance":3632},{"is_transit":false,"i_lat":-6.162021,"time":3,"transit":false,"station_id":"GGL","line":5,"i_long":106.788277,"station_name":"Grogol","distance":1700},{"is_transit":false,"station_id":"PSG","i_long":106.771379,"transit":false,"distance":2036,"time":2,"station_name":"Pesing","i_lat":-6.161433,"line":5},{"i_lat":-6.1587309999999995,"is_transit":false,"time":2,"distance":1614,"i_long":106.756522,"line":5,"station_name":"Taman Kota","station_id":"TKO","transit":false},{"i_long":106.737035,"time":2,"i_lat":-6.159876,"line":0,"distance":2334,"transit":false,"station_id":"BOI","is_transit":false,"station_name":"Bojongindah"},{"line":5,"distance":1152,"is_transit":false,"time":4,"station_id":"RW","i_long":106.723064,"transit":false,"station_name":"Rawa Buaya","i_lat":-6.162758},{"time":3,"is_transit":false,"i_lat":-6.166068,"transit":false,"distance":2504,"station_id":"KDS","i_long":106.701612,"line":5,"station_name":"Kalideres"},{"distance":2548,"is_transit":false,"station_name":"Poris","transit":false,"i_lat":-6.169933,"line":5,"station_id":"PI","i_long":106.679458,"time":3},{"i_long":106.665036,"line":0,"distance":1834,"station_id":"BPR","station_name":"Batuceper","time":3,"transit":false,"i_lat":-6.171811,"is_transit":false}],[{"i_lat":-6.212485,"time":0,"station_name":"Matraman","distance":0,"station_id":"MTR","is_transit":false,"line":1,"i_long":106.858896,"transit":false},{"is_transit":true,"station_name":"Jatinegara","time":8,"transit":true,"station_id":"JNG","line":0,"distance":1377,"i_lat":-6.215091,"i_long":106.86807400000001},{"i_long":106.861737,"is_transit":false,"station_name":"Pondok Jati","distance":1236,"i_lat":-6.209188,"time":2,"station_id":"POK","transit":false,"line":11},{"transit":false,"i_lat":-6.193792,"i_long":106.855437,"line":11,"time":2,"station_id":"KMT","distance":1829,"station_name":"Kramat","is_transit":false},{"station_name":"Gang Sentiong","distance":973,"line":11,"i_lat":-6.185975,"time":1,"i_long":106.850107,"station_id":"GST","is_transit":false,"transit":false},{"i_lat":-6.174784,"station_name":"Pasar Senen","transit":false,"distance":1567,"time":8,"station_id":"PSE","is_transit":false,"i_long":106.84368,"line":11},{"time":4,"transit":false,"station_name":"Kemayoran","station_id":"KMO","i_lat":-6.161728,"i_long":106.839204,"is_transit":false,"distance":1436,"line":11},{"i_lat":-6.14505,"is_transit":false,"station_name":"Rajawali","distance":1901,"i_long":106.836569,"time":5,"transit":false,"station_id":"RJW","line":11},{"station_name":"Kampung Bandan","transit":true,"i_long":106.826365,"i_lat":-6.132549,"station_id":"KPB","is_transit":true,"line":0,"distance":1444,"time":3},{"is_transit":false,"time":9,"distance":4102,"line":0,"station_id":"AK","transit":false,"i_long":106.79867,"station_name":"Angke","i_lat":-6.144674},{"time":4,"i_long":106.800832,"i_lat":-6.155215,"distance":1230,"transit":true,"station_id":"DU","is_transit":true,"station_name":"Duri","line":1},{"is_transit":false,"station_name":"Grogol","time":3,"transit":false,"i_long":106.788277,"i_lat":-6.162021,"station_id":"GGL","distance":1700,"line":5},{"distance":2036,"i_lat":-6.161433,"i_long":106.771379,"line":5,"station_name":"Pesing","time":2,"transit":false,"station_id":"PSG","is_transit":false},{"time":2,"transit":false,"i_lat":-6.1587309999999995,"station_name":"Taman Kota","line":5,"i_long":106.756522,"distance":1614,"is_transit":false,"station_id":"TKO"},{"time":2,"transit":false,"station_name":"Bojongindah","station_id":"BOI","distance":2334,"i_lat":-6.159876,"is_transit":false,"i_long":106.737035,"line":0},{"time":4,"station_id":"RW","line":5,"station_name":"Rawa Buaya","transit":false,"i_long":106.723064,"is_transit":false,"i_lat":-6.162758,"distance":1152},{"i_lat":-6.166068,"station_name":"Kalideres","transit":false,"distance":2504,"station_id":"KDS","line":5,"i_long":106.701612,"is_transit":false,"time":3},{"i_long":106.679458,"station_name":"Poris","i_lat":-6.169933,"line":5,"is_transit":false,"station_id":"PI","distance":2548,"transit":false,"time":3},{"i_long":106.665036,"station_id":"BPR","is_transit":false,"line":0,"transit":false,"distance":1834,"station_name":"Batuceper","time":3,"i_lat":-6.171811}],[{"distance":0,"i_lat":-6.212485,"station_id":"MTR","time":0,"transit":false,"station_name":"Matraman","i_long":106.858896,"is_transit":false,"line":1},{"line":0,"i_long":106.84912,"station_id":"MRI","distance":1275,"is_transit":true,"time":2,"i_lat":-6.209883,"transit":true,"station_name":"Manggarai"},{"i_long":106.840169,"transit":false,"station_name":"Cikini","distance":1590,"is_transit":false,"station_id":"CKI","time":4,"i_lat":-6.198556,"line":0},{"transit":false,"i_lat":-6.186295,"is_transit":false,"station_id":"GDD","line":2,"i_long":106.832183,"station_name":"Gondangdia","distance":1750,"time":3},{"transit":false,"distance":2015,"station_id":"JUA","i_lat":-6.166716,"time":4,"i_long":106.828284,"line":2,"station_name":"Juanda","is_transit":false},{"transit":false,"line":2,"time":2,"station_id":"SW","i_lat":-6.160725,"i_long":106.827103,"distance":1149,"is_transit":false,"station_name":"Sawah Besar"},{"distance":906,"i_lat":-6.149769,"is_transit":false,"station_name":"Manggabesar","i_long":106.82482,"transit":false,"station_id":"MGB","line":2,"time":2},{"line":7,"i_lat":-6.141205,"i_long":106.820901,"station_name":"Jayakarta","distance":1080,"time":2,"is_transit":false,"transit":false,"station_id":"JAY"},{"i_lat":-6.137569,"i_long":106.812439,"transit":true,"station_name":"Jakarta Kota","time":4,"station_id":"JAKK","line":0,"distance":1264,"is_transit":true},{"transit":false,"i_long":106.826365,"is_transit":true,"line":0,"station_name":"Kampung Bandan","time":3,"distance":1364,"i_lat":-6.132549,"station_id":"KPB"},{"distance":4102,"time":9,"line":0,"station_id":"AK","i_long":106.79867,"transit":false,"station_name":"Angke","is_transit":false,"i_lat":-6.144674},{"is_transit":true,"time":4,"transit":true,"station_id":"DU","i_lat":-6.155215,"distance":1230,"line":1,"i_long":106.800832,"station_name":"Duri"},{"distance":1700,"station_id":"GGL","transit":false,"line":5,"i_lat":-6.162021,"is_transit":false,"station_name":"Grogol","time":3,"i_long":106.788277},{"transit":false,"distance":2036,"time":2,"station_id":"PSG","i_long":106.771379,"line":5,"station_name":"Pesing","is_transit":false,"i_lat":-6.161433},{"i_long":106.756522,"is_transit":false,"line":5,"station_id":"TKO","time":2,"i_lat":-6.1587309999999995,"station_name":"Taman Kota","distance":1614,"transit":false},{"i_lat":-6.159876,"is_transit":false,"line":0,"station_name":"Bojongindah","station_id":"BOI","i_long":106.737035,"time":2,"distance":2334,"transit":false},{"distance":1152,"is_transit":false,"station_id":"RW","i_long":106.723064,"time":4,"transit":false,"line":5,"station_name":"Rawa Buaya","i_lat":-6.162758},{"station_id":"KDS","is_transit":false,"station_name":"Kalideres","i_long":106.701612,"distance":2504,"time":3,"line":5,"transit":false,"i_lat":-6.166068},{"station_name":"Poris","station_id":"PI","i_long":106.679458,"is_transit":false,"line":5,"time":3,"transit":false,"i_lat":-6.169933,"distance":2548},{"line":0,"station_id":"BPR","i_lat":-6.171811,"distance":1834,"station_name":"Batuceper","time":3,"i_long":106.665036,"transit":false,"is_transit":false}],[{"time":0,"line":1,"station_id":"MTR","i_long":106.858896,"station_name":"Matraman","is_transit":false,"distance":0,"transit":false,"i_lat":-6.212485},{"i_long":106.86807400000001,"i_lat":-6.215091,"station_name":"Jatinegara","line":0,"is_transit":true,"time":8,"distance":1377,"transit":true,"station_id":"JNG"},{"transit":false,"station_name":"Pondok Jati","i_lat":-6.209188,"line":11,"distance":1236,"time":2,"is_transit":false,"i_long":106.861737,"station_id":"POK"},{"time":2,"station_id":"KMT","i_long":106.855437,"transit":false,"station_name":"Kramat","is_transit":false,"i_lat":-6.193792,"line":11,"distance":1829},{"station_name":"Gang Sentiong","i_long":106.850107,"time":1,"i_lat":-6.185975,"distance":973,"is_transit":false,"transit":false,"line":11,"station_id":"GST"},{"distance":1567,"is_transit":false,"i_lat":-6.174784,"time":8,"station_id":"PSE","line":11,"station_name":"Pasar Senen","i_long":106.84368,"transit":false},{"is_transit":false,"station_id":"KMO","distance":1436,"time":4,"i_lat":-6.161728,"i_long":106.839204,"transit":false,"station_name":"Kemayoran","line":11},{"is_transit":false,"distance":1901,"line":11,"transit":false,"i_long":106.836569,"station_name":"Rajawali","i_lat":-6.14505,"time":5,"station_id":"RJW"},{"i_long":106.826365,"line":0,"i_lat":-6.132549,"is_transit":true,"station_name":"Kampung Bandan","distance":1444,"time":3,"transit":true,"station_id":"KPB"},{"station_name":"Jakarta Kota","is_transit":true,"transit":true,"line":0,"i_long":106.812439,"distance":1364,"time":3,"station_id":"JAKK","i_lat":-6.137569},{"line":7,"station_id":"JAY","transit":false,"distance":1264,"is_transit":false,"station_name":"Jayakarta","time":4,"i_long":106.820901,"i_lat":-6.141205},{"line":2,"is_transit":false,"station_name":"Manggabesar","time":2,"station_id":"MGB","transit":false,"distance":1080,"i_lat":-6.149769,"i_long":106.82482},{"line":2,"station_id":"SW","i_lat":-6.160725,"i_long":106.827103,"transit":false,"distance":906,"is_transit":false,"station_name":"Sawah Besar","time":2},{"station_id":"JUA","i_lat":-6.166716,"station_name":"Juanda","distance":1149,"i_long":106.828284,"time":2,"is_transit":false,"line":2,"transit":false},{"station_id":"GDD","station_name":"Gondangdia","i_lat":-6.186295,"distance":2015,"i_long":106.832183,"is_transit":false,"line":2,"time":4,"transit":false},{"transit":false,"time":3,"station_id":"CKI","i_long":106.840169,"is_transit":false,"i_lat":-6.198556,"station_name":"Cikini","distance":1750,"line":0},{"station_name":"Manggarai","i_lat":-6.209883,"distance":1590,"line":0,"transit":true,"time":4,"i_long":106.84912,"station_id":"MRI","is_transit":true},{"station_id":"SUD","i_lat":-6.202263,"i_long":106.822649,"time":4,"line":1,"station_name":"Sudirman","distance":3186,"is_transit":false,"transit":false},{"distance":280,"is_transit":false,"i_long":106.819881,"line":1,"transit":false,"time":1,"station_name":"Sudirman Baru","i_lat":-6.201433,"station_id":"SUDB"},{"i_lat":-6.20132,"distance":471,"time":1,"is_transit":false,"transit":false,"station_name":"Karet","i_long":106.816351,"line":1,"station_id":"KAT"},{"i_lat":-6.185545,"station_name":"Tanah Abang","transit":false,"i_long":106.811091,"line":1,"is_transit":true,"station_id":"THB","distance":2029,"time":5},{"line":1,"station_id":"DU","station_name":"Duri","distance":3632,"is_transit":true,"time":8,"i_lat":-6.155215,"transit":true,"i_long":106.800832},{"distance":1700,"time":3,"transit":false,"is_transit":false,"station_id":"GGL","line":5,"i_lat":-6.162021,"station_name":"Grogol","i_long":106.788277},{"station_id":"PSG","i_long":106.771379,"i_lat":-6.161433,"line":5,"station_name":"Pesing","is_transit":false,"distance":2036,"time":2,"transit":false},{"time":2,"transit":false,"is_transit":false,"i_long":106.756522,"line":5,"station_name":"Taman Kota","station_id":"TKO","distance":1614,"i_lat":-6.1587309999999995},{"distance":2334,"i_long":106.737035,"station_name":"Bojongindah","transit":false,"i_lat":-6.159876,"station_id":"BOI","is_transit":false,"line":0,"time":2},{"station_name":"Rawa Buaya","distance":1152,"time":4,"line":5,"i_lat":-6.162758,"i_long":106.723064,"transit":false,"station_id":"RW","is_transit":false},{"distance":2504,"station_name":"Kalideres","i_long":106.701612,"line":5,"station_id":"KDS","time":3,"is_transit":false,"i_lat":-6.166068,"transit":false},{"distance":2548,"i_lat":-6.169933,"line":5,"station_id":"PI","station_name":"Poris","is_transit":false,"transit":false,"i_long":106.679458,"time":3},{"line":0,"time":3,"is_transit":false,"i_long":106.665036,"station_name":"Batuceper","distance":1834,"transit":false,"station_id":"BPR","i_lat":-6.171811}]]}