{"data":[[{"line":1,"distance":0,"is_transit":false,"station_id":"MTR","transit":false,"i_lat":-6.212485,"time":0,"station_name":"Matraman","i_long":106.858896},{"transit":false,"is_transit":true,"i_lat":-6.215091,"station_name":"Jatinegara","line":0,"station_id":"JNG","time":8,"distance":1377,"i_long":106.86807400000001},{"transit":false,"station_name":"Klender","time":3,"i_lat":-6.2135,"line":1,"is_transit":false,"station_id":"KLD","i_long":106.899548,"distance":3395},{"is_transit":false,"time":2,"i_lat":-6.215568,"distance":3100,"line":0,"station_id":"BUA","transit":false,"station_name":"Buaran","i_long":106.922662},{"i_long":106.939679,"line":1,"station_name":"Klenderbaru","distance":1305,"is_transit":false,"station_id":"KLDB","transit":false,"time":1,"i_lat":-6.217455},{"distance":1385,"time":8,"i_long":106.951283,"is_transit":false,"station_id":"CUK","line":0,"station_name":"Cakung","transit":false,"i_lat":-6.219053},{"station_id":"KRI","i_long":106.977657,"time":3,"is_transit":false,"i_lat":-6.224515,"line":1,"station_name":"Kranji","transit":false,"distance":3097},{"line":0,"station_name":"Bekasi","distance":2520,"transit":false,"i_lat":-6.236616,"i_long":106.997013,"station_id":"BKS","time":4,"is_transit":false},{"station_id":"BKST","station_name":"Bekasi Timur","i_long":107.016735,"transit":false,"distance":2368,"line":0,"is_transit":false,"i_lat":-6.248029,"time":2},{"station_id":"TB","time":7,"i_lat":-6.258864,"i_long":107.055722,"distance":4460,"station_name":"Tambun","is_transit":false,"transit":false,"line":1},{"is_transit":false,"station_id":"CIT","time":3,"i_long":107.083084,"i_lat":-6.261877,"distance":3420,"station_name":"Cibitung","line":0,"transit":false},{"i_lat":-6.262938,"line":1,"is_transit":false,"station_name":"Metland Telaga Murni","i_long":107.093313,"station_id":"TLM","transit":false,"distance":2800,"time":2},{"station_id":"CKR","line":0,"transit":false,"distance":3689,"is_transit":false,"time":4,"station_name":"Cikarang","i_long":107.144613,"i_lat":-6.2553149999999995}],[{"transit":false,"i_long":106.858896,"station_id":"MTR","is_transit":false,"station_name":"Matraman","line":1,"distance":0,"time":0,"i_lat":-6.212485},{"transit":false,"station_id":"MRI","time":2,"is_transit":true,"distance":1275,"station_name":"Manggarai","i_lat":-6.209883,"i_long":106.84912,"line":0},{"time":4,"i_long":106.822649,"station_name":"Sudirman","line":1,"station_id":"SUD","distance":3186,"i_lat":-6.202263,"transit":false,"is_transit":false},{"time":1,"i_long":106.819881,"transit":false,"distance":280,"i_lat":-6.201433,"line":1,"is_transit":false,"station_id":"SUDB","station_name":"Sudirman Baru"},{"station_id":"KAT","transit":false,"is_transit":false,"i_lat":-6.20132,"time":1,"i_long":106.816351,"station_name":"Karet","distance":471,"line":1},{"time":5,"transit":false,"i_lat":-6.185545,"station_id":"THB","i_long":106.811091,"station_name":"Tanah Abang","line":1,"distance":2029,"is_transit":true},{"station_id":"DU","line":1,"i_lat":-6.155215,"i_long":106.800832,"station_name":"Duri","transit":true,"distance":3632,"is_transit":true,"time":8},{"distance":1230,"station_id":"AK","station_name":"Angke","is_transit":false,"time":4,"line":0,"transit":false,"i_lat":-6.144674,"i_long":106.79867},{"station_id":"KPB","time":9,"station_name":"Kampung Bandan","is_transit":true,"line":0,"i_lat":-6.132549,"distance":4102,"i_long":106.826365,"transit":true},{"transit":false,"time":3,"is_transit":false,"line":11,"station_name":"Rajawali","distance":1444,"i_long":106.836569,"i_lat":-6.14505,"station_id":"RJW"},{"transit":false,"i_long":106.839204,"distance":1901,"line":11,"i_lat":-6.161728,"station_id":"KMO","station_name":"Kemayoran","is_transit":false,"time":5},{"transit":false,"i_long":106.84368,"station_name":"Pasar Senen","line":11,"distance":1436,"is_transit":false,"station_id":"PSE","time":4,"i_lat":-6.174784},{"distance":1567,"station_id":"GST","line":11,"is_transit":false,"transit":false,"time":8,"i_long":106.850107,"station_name":"Gang Sentiong","i_lat":-6.185975},{"i_lat":-6.193792,"distance":973,"station_id":"KMT","line":11,"is_transit":false,"time":1,"i_long":106.855437,"transit":false,"station_name":"Kramat"},{"line":11,"station_id":"POK","station_name":"Pondok Jati","transit":false,"distance":1829,"is_transit":false,"time":2,"i_lat":-6.209188,"i_long":106.861737},{"transit":true,"is_transit":true,"time":9,"i_lat":-6.215091,"station_name":"Jatinegara","distance":1236,"station_id":"JNG","i_long":106.86807400000001,"line":0},{"i_lat":-6.2135,"is_transit":false,"station_name":"Klender","line":1,"distance":3395,"i_long":106.899548,"station_id":"KLD","transit":false,"time":3},{"transit":false,"is_transit":false,"time":2,"i_long":106.922662,"station_id":"BUA","line":0,"distance":3100,"station_name":"Buaran","i_lat":-6.215568},{"i_lat":-6.217455,"station_name":"Klenderbaru","is_transit":false,"i_long":106.939679,"distance":1305,"station_id":"KLDB","line":1,"time":1,"transit":false},{"line":0,"time":8,"station_id":"CUK","distance":1385,"i_lat":-6.219053,"transit":false,"is_transit":false,"station_name":"Cakung","i_long":106.951283},{"i_long":106.977657,"line":1,"station_id":"KRI","station_name":"Kranji","time":3,"transit":false,"i_lat":-6.224515,"is_transit":false,"distance":3097},{"line":0,"time":4,"station_name":"Bekasi","station_id":"BKS","distance":2520,"i_lat":-6.236616,"i_long":106.997013,"is_transit":false,"transit":false},{"time":2,"station_name":"Bekasi Timur","line":0,"distance":2368,"is_transit":false,"transit":false,"i_long":107.016735,"i_lat":-6.248029,"station_id":"BKST"},{"station_id":"TB","station_name":"Tambun","is_transit":false,"transit":false,"i_lat":-6.258864,"i_long":107.055722,"line":1,"distance":4460,"time":7},{"transit":false,"station_id":"CIT","i_long":107.083084,"distance":3420,"station_name":"Cibitung","line":0,"is_transit":false,"i_lat":-6.261877,"time":3},{"time":2,"line":1,"station_name":"Metland Telaga Murni","distance":2800,"is_transit":false,"i_long":107.093313,"station_id":"TLM","i_lat":-6.262938,"transit":false},{"distance":3689,"transit":false,"time":4,"station_id":"CKR","line":0,"i_lat":-6.2553149999999995,"is_transit":false,"station_name":"Cikarang","i_long":107.144613}],[{"line":1,"distance":0,"i_long":106.858896,"is_transit":false,"transit":false,"i_lat":-6.212485,"station_name":"Matraman","station_id":"MTR","time":0},{"is_transit":true,"station_name":"Manggarai","transit":true,"time":2,"i_lat":-6.209883,"distance":1275,"station_id":"MRI","line":0,"i_long":106.84912},{"time":4,"distance":1590,"is_transit":false,"i_long":106.840169,"station_id":"CKI","station_name":"Cikini","transit":false,"line":0,"i_lat":-6.198556},{"station_id":"GDD","distance":1750,"line":2,"time":3,"i_long":106.832183,"i_lat":-6.186295,"is_transit":false,"transit":false,"station_name":"Gondangdia"},{"i_lat":-6.166716,"is_transit":false,"time":4,"transit":false,"i_long":106.828284,"line":2,"station_name":"Juanda","station_id":"JUA","distance":2015},{"transit":false,"station_id":"SW","time":2,"i_long":106.827103,"station_name":"Sawah Besar","i_lat":-6.160725,"is_transit":false,"line":2,"distance":1149},{"time":2,"distance":906,"i_lat":-6.149769,"i_long":106.82482,"station_name":"Manggabesar","transit":false,"station_id":"MGB","line":2,"is_transit":false},{"line":7,"i_lat":-6.141205,"i_long":106.820901,"transit":false,"station_name":"Jayakarta","time":2,"is_transit":false,"distance":1080,"station_id":"JAY"},{"i_long":106.812439,"station_id":"JAKK","transit":true,"line":0,"time":4,"distance":1264,"is_transit":true,"station_name":"Jakarta Kota","i_lat":-6.137569},{"line":0,"is_transit":true,"time":3,"station_id":"KPB","i_long":106.826365,"i_lat":-6.132549,"distance":1364,"transit":true,"station_name":"Kampung Bandan"},{"time":3,"i_long":106.836569,"i_lat":-6.14505,"station_name":"Rajawali","is_transit":false,"distance":1444,"station_id":"RJW","line":11,"transit":false},{"i_lat":-6.161728,"station_name":"Kemayoran","distance":1901,"is_transit":false,"station_id":"KMO","i_long":106.839204,"line":11,"transit":false,"time":5},{"is_transit":false,"distance":1436,"station_id":"PSE","station_name":"Pasar Senen","transit":false,"time":4,"i_lat":-6.174784,"line":11,"i_long":106.84368},{"transit":false,"i_lat":-6.185975,"line":11,"distance":1567,"station_name":"Gang Sentiong","time":8,"station_id":"GST","i_long":106.850107,"is_transit":false},{"i_lat":-6.193792,"i_long":106.855437,"distance":973,"station_id":"KMT","line":11,"station_name":"Kramat","transit":false,"is_transit":false,"time":1},{"i_lat":-6.209188,"distance":1829,"transit":false,"station_id":"POK","station_name":"Pondok Jati","time":2,"i_long":106.861737,"is_transit":false,"line":11},{"is_transit":true,"distance":1236,"transit":true,"i_long":106.86807400000001,"line":0,"station_name":"Jatinegara","i_lat":-6.215091,"time":9,"station_id":"JNG"},{"time":3,"i_lat":-6.2135,"line":1,"transit":false,"station_name":"Klender","distance":3395,"is_transit":false,"i_long":106.899548,"station_id":"KLD"},{"i_lat":-6.215568,"station_name":"Buaran","station_id":"BUA","time":2,"is_transit":false,"line":0,"transit":false,"distance":3100,"i_long":106.922662},{"station_name":"Klenderbaru","i_long":106.939679,"is_transit":false,"time":1,"station_id":"KLDB","i_lat":-6.217455,"distance":1305,"line":1,"transit":false},{"station_id":"CUK","station_name":"Cakung","is_transit":false,"i_long":106.951283,"transit":false,"i_lat":-6.219053,"time":8,"line":0,"distance":1385},{"i_long":106.977657,"is_transit":false,"line":1,"station_id":"KRI","station_name":"Kranji","i_lat":-6.224515,"distance":3097,"transit":false,"time":3},{"distance":2520,"station_name":"Bekasi","i_lat":-6.236616,"line":0,"station_id":"BKS","is_transit":false,"i_long":106.997013,"time":4,"transit":false},{"distance":2368,"station_name":"Bekasi Timur","line":0,"i_long":107.016735,"is_transit":false,"station_id":"BKST","time":2,"i_lat":-6.248029,"transit":false},{"station_id":"TB","time":7,"i_long":107.055722,"line":1,"distance":4460,"is_transit":false,"transit":false,"i_lat":-6.258864,"station_name":"Tambun"},{"station_id":"CIT","is_transit":false,"line":0,"i_lat":-6.261877,"time":3,"distance":3420,"transit":false,"i_long":107.083084,"station_name":"Cibitung"},{"i_long":107.093313,"transit":false,"is_transit":false,"station_id":"TLM","distance":2800,"time":2,"i_lat":-6.262938,"station_name":"Metland Telaga Murni","line":1},{"is_transit":false,"station_name":"Cikarang","distance":3689,"station_id":"CKR","transit":false,"time":4,"line":0,"i_lat":-6.2553149999999995,"i_long":107.144613}]]}