{"data":[[{"time":0,"line":1,"transit":false,"i_long":106.858896,"distance":0,"station_name":"Matraman","station_id":"MTR","is_transit":false,"i_lat":-6.212485},{"time":8,"station_name":"Jatinegara","distance":1377,"station_id":"JNG","is_transit":false,"i_long":106.86807400000001,"transit":false,"i_lat":-6.215091,"line":1},{"station_name":"Klender","i_long":106.899548,"distance":3395,"transit":false,"i_lat":-6.2135,"is_transit":false,"station_id":"KLD","time":3,"line":1},{"station_name":"Buaran","time":2,"i_long":106.922662,"distance":3100,"station_id":"BUA","is_transit":false,"line":1,"i_lat":-6.215568,"transit":false},{"time":1,"i_lat":-6.217455,"i_long":106.939679,"line":1,"distance":1305,"station_id":"KLDB","station_name":"Klenderbaru","is_transit":false,"transit":false},{"distance":1385,"station_id":"CUK","is_transit":false,"i_lat":-6.219053,"line":1,"time":8,"transit":false,"i_long":106.951283,"station_name":"Cakung"},{"is_transit":false,"i_lat":-6.224515,"i_long":106.977657,"station_name":"Kranji","distance":3097,"station_id":"KRI","line":1,"time":3,"transit":false},{"i_lat":-6.236616,"line":1,"distance":2520,"transit":false,"station_id":"BKS","is_transit":false,"i_long":106.997013,"time":4,"station_name":"Bekasi"}],[{"i_long":106.858896,"is_transit":false,"transit":false,"time":0,"distance":0,"line":1,"i_lat":-6.212485,"station_name":"Matraman","station_id":"MTR"},{"line":2,"distance":1275,"is_transit":false,"transit":false,"i_lat":-6.209883,"station_id":"MRI","station_name":"Manggarai","time":2,"i_long":106.84912},{"station_name":"Sudirman","i_lat":-6.202263,"is_transit":false,"i_long":106.822649,"station_id":"SUD","time":4,"transit":false,"distance":3186,"line":1},{"station_name":"Sudirman Baru","i_lat":-6.201433,"i_long":106.819881,"line":1,"distance":280,"transit":false,"is_transit":false,"time":1,"station_id":"SUDB"},{"i_lat":-6.20132,"is_transit":false,"i_long":106.816351,"time":1,"station_id":"KAT","line":1,"distance":471,"station_name":"Karet","transit":false},{"station_name":"Tanah Abang","distance":2029,"station_id":"THB","time":5,"is_transit":false,"transit":false,"i_long":106.811091,"line":1,"i_lat":-6.185545},{"line":1,"transit":false,"distance":3632,"time":8,"i_lat":-6.155215,"i_long":106.800832,"station_name":"Duri","station_id":"DU","is_transit":false},{"is_transit":false,"i_lat":-6.144674,"line":1,"station_id":"AK","i_long":106.79867,"transit":false,"distance":1230,"time":4,"station_name":"Angke"},{"time":9,"station_name":"Kampung Bandan","i_long":106.826365,"transit":true,"is_transit":true,"i_lat":-6.132549,"distance":4102,"station_id":"KPB","line":4},{"i_long":106.836569,"line":11,"station_name":"Rajawali","i_lat":-6.14505,"is_transit":false,"distance":1444,"time":3,"station_id":"RJW","transit":false},{"time":5,"i_lat":-6.161728,"i_long":106.839204,"line":11,"transit":false,"station_id":"KMO","is_transit":false,"station_name":"Kemayoran","distance":1901},{"i_lat":-6.174784,"distance":1436,"is_transit":false,"time":4,"transit":false,"station_name":"Pasar Senen","i_long":106.84368,"station_id":"PSE","line":11},{"station_name":"Gang Sentiong","i_long":106.850107,"station_id":"GST","line":11,"time":8,"distance":1567,"is_transit":false,"i_lat":-6.185975,"transit":false},{"distance":973,"is_transit":false,"i_lat":-6.193792,"station_id":"KMT","transit":false,"i_long":106.855437,"line":11,"station_name":"Kramat","time":1},{"i_long":106.861737,"station_id":"POK","station_name":"Pondok Jati","distance":1829,"time":2,"is_transit":false,"transit":false,"line":11,"i_lat":-6.209188},{"station_id":"JNG","line":1,"time":9,"distance":1236,"i_long":106.86807400000001,"station_name":"Jatinegara","transit":true,"is_transit":true,"i_lat":-6.215091},{"transit":false,"is_transit":false,"i_lat":-6.2135,"time":3,"i_long":106.899548,"distance":3395,"station_name":"Klender","line":1,"station_id":"KLD"},{"i_long":106.922662,"line":1,"distance":3100,"station_id":"BUA","i_lat":-6.215568,"transit":false,"time":2,"is_transit":false,"station_name":"Buaran"},{"station_name":"Klenderbaru","time":1,"i_long":106.939679,"transit":false,"is_transit":false,"station_id":"KLDB","distance":1305,"line":1,"i_lat":-6.217455},{"time":8,"i_lat":-6.219053,"i_long":106.951283,"station_id":"CUK","is_transit":false,"transit":false,"distance":1385,"station_name":"Cakung","line":1},{"i_lat":-6.224515,"i_long":106.977657,"is_transit":false,"distance":3097,"transit":false,"station_id":"KRI","line":1,"time":3,"station_name":"Kranji"},{"station_id":"BKS","i_lat":-6.236616,"is_transit":false,"i_long":106.997013,"station_name":"Bekasi","time":4,"line":1,"transit":false,"distance":2520}],[{"is_transit":false,"i_long":106.858896,"i_lat":-6.212485,"distance":0,"transit":false,"line":1,"station_id":"MTR","station_name":"Matraman","time":0},{"i_long":106.84912,"distance":1275,"station_id":"MRI","time":2,"is_transit":true,"transit":true,"station_name":"Manggarai","i_lat":-6.209883,"line":2},{"line":2,"is_transit":false,"station_name":"Cikini","distance":1590,"i_long":106.840169,"transit":false,"station_id":"CKI","time":4,"i_lat":-6.198556},{"is_transit":false,"transit":false,"distance":1750,"station_id":"GDD","i_lat":-6.186295,"time":3,"i_long":106.832183,"station_name":"Gondangdia","line":2},{"station_name":"Juanda","i_lat":-6.166716,"i_long":106.828284,"station_id":"JUA","is_transit":false,"time":4,"line":2,"distance":2015,"transit":false},{"is_transit":false,"station_id":"SW","i_long":106.827103,"transit":false,"line":2,"distance":1149,"station_name":"Sawah Besar","time":2,"i_lat":-6.160725},{"station_name":"Manggabesar","transit":false,"i_long":106.82482,"line":2,"time":2,"station_id":"MGB","i_lat":-6.149769,"is_transit":false,"distance":906},{"i_lat":-6.141205,"i_long":106.820901,"transit":false,"is_transit":false,"time":2,"station_name":"Jayakarta","line":2,"distance":1080,"station_id":"JAY"},{"is_transit":true,"i_lat":-6.137569,"distance":1264,"transit":true,"i_long":106.812439,"station_name":"Jakarta Kota","line":2,"station_id":"JAKK","time":4},{"is_transit":true,"time":3,"distance":1364,"i_lat":-6.132549,"transit":true,"line":4,"station_name":"Kampung Bandan","i_long":106.826365,"station_id":"KPB"},{"line":11,"i_long":106.836569,"station_name":"Rajawali","time":3,"station_id":"RJW","i_lat":-6.14505,"transit":false,"is_transit":false,"distance":1444},{"station_name":"Kemayoran","i_lat":-6.161728,"transit":false,"is_transit":false,"line":11,"i_long":106.839204,"time":5,"distance":1901,"station_id":"KMO"},{"i_lat":-6.174784,"i_long":106.84368,"is_transit":false,"station_id":"PSE","distance":1436,"station_name":"Pasar Senen","time":4,"line":11,"transit":false},{"transit":false,"station_name":"Gang Sentiong","time":8,"line":11,"distance":1567,"station_id":"GST","is_transit":false,"i_lat":-6.185975,"i_long":106.850107},{"is_transit":false,"time":1,"i_long":106.855437,"distance":973,"i_lat":-6.193792,"line":11,"station_name":"Kramat","station_id":"KMT","transit":false},{"line":11,"station_name":"Pondok Jati","i_lat":-6.209188,"i_long":106.861737,"distance":1829,"is_transit":false,"time":2,"station_id":"POK","transit":false},{"station_name":"Jatinegara","transit":true,"i_lat":-6.215091,"time":9,"distance":1236,"station_id":"JNG","i_long":106.86807400000001,"is_transit":true,"line":1},{"distance":3395,"line":1,"station_name":"Klender","i_lat":-6.2135,"time":3,"i_long":106.899548,"is_transit":false,"station_id":"KLD","transit":false},{"station_id":"BUA","i_lat":-6.215568,"distance":3100,"station_name":"Buaran","i_long":106.922662,"line":1,"transit":false,"time":2,"is_transit":false},{"is_transit":false,"i_long":106.939679,"line":1,"transit":false,"station_id":"KLDB","distance":1305,"station_name":"Klenderbaru","time":1,"i_lat":-6.217455},{"distance":1385,"transit":false,"is_transit":false,"time":8,"station_id":"CUK","i_long":106.951283,"station_name":"Cakung","line":1,"i_lat":-6.219053},{"i_lat":-6.224515,"station_id":"KRI","i_long":106.977657,"station_name":"Kranji","is_transit":false,"time":3,"transit":false,"line":1,"distance":3097},{"station_name":"Bekasi","i_lat":-6.236616,"time":4,"i_long":106.997013,"distance":2520,"line":1,"is_transit":false,"station_id":"BKS","transit":false}]]}