{"data":[[{"is_transit":false,"time":0,"station_id":"MTR","line":1,"distance":0,"i_lat":-6.212485,"station_name":"Matraman","transit":false,"i_long":106.858896},{"station_name":"Manggarai","time":2,"station_id":"MRI","transit":false,"is_transit":false,"distance":1275,"i_long":106.84912,"line":2,"i_lat":-6.209883},{"station_id":"SUD","i_lat":-6.202263,"time":4,"is_transit":false,"i_long":106.822649,"transit":false,"distance":3186,"line":1,"station_name":"Sudirman"},{"line":1,"station_id":"SUDB","i_lat":-6.201433,"transit":false,"is_transit":false,"i_long":106.819881,"station_name":"Sudirman Baru","time":1,"distance":280},{"i_long":106.816351,"station_name":"Karet","transit":false,"station_id":"KAT","distance":471,"is_transit":false,"i_lat":-6.20132,"time":1,"line":1},{"station_id":"THB","i_long":106.811091,"station_name":"Tanah Abang","distance":2029,"time":5,"line":1,"transit":true,"is_transit":true,"i_lat":-6.185545},{"station_name":"Palmerah","is_transit":false,"time":6,"distance":3191,"station_id":"PLM","transit":false,"i_lat":-6.207404,"i_long":106.79689,"line":6},{"line":6,"time":7,"distance":3737,"i_lat":-6.237242,"station_name":"Kebayoran","station_id":"KBY","i_long":106.780334,"is_transit":false,"transit":false},{"i_long":106.74273,"i_lat":-6.276362,"station_name":"Pondokranji","distance":6218,"station_id":"PDJ","is_transit":false,"transit":false,"time":8,"line":6},{"is_transit":false,"line":6,"distance":2179,"station_id":"JMU","station_name":"Jurangmangu","time":3,"transit":false,"i_lat":-6.288927,"i_long":106.728916},{"distance":1994,"transit":false,"line":6,"station_id":"SDM","station_name":"Sudimara","i_long":106.712277,"i_lat":-6.296963,"is_transit":false,"time":4},{"station_name":"Rawa Buntu","distance":4566,"transit":false,"i_lat":-6.314823,"station_id":"RU","i_long":106.675475,"line":6,"is_transit":false,"time":6}],[{"transit":false,"time":0,"distance":0,"station_name":"Matraman","i_lat":-6.212485,"i_long":106.858896,"station_id":"MTR","is_transit":false,"line":1},{"i_long":106.86807400000001,"line":1,"is_transit":true,"time":8,"i_lat":-6.215091,"station_id":"JNG","station_name":"Jatinegara","transit":true,"distance":1377},{"i_long":106.861737,"distance":1236,"i_lat":-6.209188,"is_transit":false,"line":11,"station_id":"POK","time":2,"station_name":"Pondok Jati","transit":false},{"is_transit":false,"i_lat":-6.193792,"time":2,"station_id":"KMT","transit":false,"i_long":106.855437,"distance":1829,"station_name":"Kramat","line":11},{"i_long":106.850107,"station_name":"Gang Sentiong","transit":false,"line":11,"station_id":"GST","i_lat":-6.185975,"is_transit":false,"distance":973,"time":1},{"is_transit":false,"line":11,"station_name":"Pasar Senen","transit":false,"distance":1567,"i_lat":-6.174784,"i_long":106.84368,"station_id":"PSE","time":8},{"distance":1436,"time":4,"station_name":"Kemayoran","i_long":106.839204,"is_transit":false,"line":11,"transit":false,"i_lat":-6.161728,"station_id":"KMO"},{"station_id":"RJW","transit":false,"station_name":"Rajawali","distance":1901,"is_transit":false,"i_long":106.836569,"i_lat":-6.14505,"time":5,"line":11},{"i_long":106.826365,"is_transit":true,"station_id":"KPB","i_lat":-6.132549,"station_name":"Kampung Bandan","distance":1444,"line":4,"transit":true,"time":3},{"transit":false,"is_transit":false,"i_long":106.79867,"i_lat":-6.144674,"station_name":"Angke","station_id":"AK","time":9,"line":1,"distance":4102},{"transit":false,"is_transit":false,"time":4,"station_name":"Duri","i_lat":-6.155215,"i_long":106.800832,"line":1,"station_id":"DU","distance":1230},{"transit":true,"station_name":"Tanah Abang","i_lat":-6.185545,"is_transit":true,"distance":3632,"time":8,"i_long":106.811091,"line":1,"station_id":"THB"},{"line":6,"station_name":"Palmerah","transit":false,"distance":3191,"station_id":"PLM","i_lat":-6.207404,"time":6,"is_transit":false,"i_long":106.79689},{"i_long":106.780334,"station_name":"Kebayoran","transit":false,"time":7,"station_id":"KBY","is_transit":false,"i_lat":-6.237242,"distance":3737,"line":6},{"line":6,"time":8,"station_name":"Pondokranji","transit":false,"i_long":106.74273,"station_id":"PDJ","i_lat":-6.276362,"is_transit":false,"distance":6218},{"distance":2179,"station_name":"Jurangmangu","is_transit":false,"i_long":106.728916,"transit":false,"line":6,"i_lat":-6.288927,"station_id":"JMU","time":3},{"i_long":106.712277,"line":6,"transit":false,"distance":1994,"i_lat":-6.296963,"station_id":"SDM","station_name":"Sudimara","time":4,"is_transit":false},{"i_long":106.675475,"transit":false,"i_lat":-6.314823,"time":6,"line":6,"station_id":"RU","station_name":"Rawa Buntu","is_transit":false,"distance":4566}],[{"station_name":"Matraman","is_transit":false,"transit":false,"distance":0,"station_id":"MTR","time":0,"i_long":106.858896,"line":1,"i_lat":-6.212485},{"i_lat":-6.209883,"i_long":106.84912,"station_id":"MRI","time":2,"distance":1275,"transit":true,"station_name":"Manggarai","is_transit":true,"line":2},{"station_id":"CKI","distance":1590,"transit":false,"is_transit":false,"station_name":"Cikini","i_long":106.840169,"line":2,"time":4,"i_lat":-6.198556},{"line":2,"transit":false,"station_id":"GDD","time":3,"station_name":"Gondangdia","is_transit":false,"i_lat":-6.186295,"i_long":106.832183,"distance":1750},{"i_long":106.828284,"distance":2015,"station_id":"JUA","time":4,"transit":false,"is_transit":false,"line":2,"i_lat":-6.166716,"station_name":"Juanda"},{"station_name":"Sawah Besar","transit":false,"station_id":"SW","is_transit":false,"distance":1149,"i_long":106.827103,"line":2,"i_lat":-6.160725,"time":2},{"line":2,"i_lat":-6.149769,"i_long":106.82482,"station_name":"Manggabesar","is_transit":false,"distance":906,"time":2,"transit":false,"station_id":"MGB"},{"is_transit":false,"time":2,"distance":1080,"i_lat":-6.141205,"station_id":"JAY","transit":false,"station_name":"Jayakarta","line":2,"i_long":106.820901},{"station_name":"Jakarta Kota","transit":true,"distance":1264,"line":2,"i_long":106.812439,"station_id":"JAKK","i_lat":-6.137569,"time":4,"is_transit":true},{"line":4,"is_transit":true,"i_long":106.826365,"distance":1364,"station_name":"Kampung Bandan","time":3,"i_lat":-6.132549,"station_id":"KPB","transit":true},{"i_long":106.79867,"line":1,"time":9,"distance":4102,"station_id":"AK","is_transit":false,"transit":false,"station_name":"Angke","i_lat":-6.144674},{"transit":false,"distance":1230,"i_lat":-6.155215,"i_long":106.800832,"station_id":"DU","is_transit":false,"time":4,"station_name":"Duri","line":1},{"is_transit":true,"transit":true,"line":1,"station_name":"Tanah Abang","distance":3632,"i_lat":-6.185545,"station_id":"THB","time":8,"i_long":106.811091},{"is_transit":false,"distance":3191,"time":6,"i_lat":-6.207404,"station_name":"Palmerah","station_id":"PLM","transit":false,"i_long":106.79689,"line":6},{"transit":false,"is_transit":false,"i_long":106.780334,"time":7,"line":6,"distance":3737,"i_lat":-6.237242,"station_name":"Kebayoran","station_id":"KBY"},{"i_lat":-6.276362,"station_id":"PDJ","station_name":"Pondokranji","distance":6218,"transit":false,"is_transit":false,"i_long":106.74273,"line":6,"time":8},{"line":6,"is_transit":false,"transit":false,"time":3,"i_long":106.728916,"i_lat":-6.288927,"distance":2179,"station_id":"JMU","station_name":"Jurangmangu"},{"distance":1994,"is_transit":false,"time":4,"i_long":106.712277,"line":6,"station_id":"SDM","station_name":"Sudimara","transit":false,"i_lat":-6.296963},{"i_long":106.675475,"time":6,"distance":4566,"transit":false,"i_lat":-6.314823,"station_id":"RU","station_name":"Rawa Buntu","is_transit":false,"line":6}],[{"distance":0,"time":0,"transit":false,"line":1,"station_name":"Matraman","is_transit":false,"i_lat":-6.212485,"station_id":"MTR","i_long":106.858896},{"station_name":"Jatinegara","is_transit":true,"i_lat":-6.215091,"time":8,"distance":1377,"transit":true,"station_id":"JNG","i_long":106.86807400000001,"line":1},{"line":11,"time":2,"transit":false,"i_lat":-6.209188,"distance":1236,"i_long":106.861737,"is_transit":false,"station_name":"Pondok Jati","station_id":"POK"},{"i_long":106.855437,"transit":false,"distance":1829,"line":11,"time":2,"i_lat":-6.193792,"station_name":"Kramat","station_id":"KMT","is_transit":false},{"i_lat":-6.185975,"station_id":"GST","distance":973,"is_transit":false,"time":1,"line":11,"i_long":106.850107,"transit":false,"station_name":"Gang Sentiong"},{"station_name":"Pasar Senen","transit":false,"i_lat":-6.174784,"is_transit":false,"distance":1567,"i_long":106.84368,"station_id":"PSE","line":11,"time":8},{"station_name":"Kemayoran","i_lat":-6.161728,"line":11,"time":4,"is_transit":false,"transit":false,"distance":1436,"i_long":106.839204,"station_id":"KMO"},{"station_name":"Rajawali","line":11,"is_transit":false,"distance":1901,"i_long":106.836569,"time":5,"transit":false,"station_id":"RJW","i_lat":-6.14505},{"station_id":"KPB","is_transit":true,"distance":1444,"time":3,"i_lat":-6.132549,"station_name":"Kampung Bandan","i_long":106.826365,"transit":true,"line":4},{"transit":true,"i_long":106.812439,"distance":1364,"i_lat":-6.137569,"station_id":"JAKK","time":3,"is_transit":true,"line":2,"station_name":"Jakarta Kota"},{"time":4,"line":2,"distance":1264,"is_transit":false,"transit":false,"station_id":"JAY","station_name":"Jayakarta","i_lat":-6.141205,"i_long":106.820901},{"i_lat":-6.149769,"station_name":"Manggabesar","transit":false,"i_long":106.82482,"line":2,"distance":1080,"time":2,"station_id":"MGB","is_transit":false},{"transit":false,"time":2,"station_id":"SW","distance":906,"i_long":106.827103,"is_transit":false,"i_lat":-6.160725,"line":2,"station_name":"Sawah Besar"},{"station_id":"JUA","is_transit":false,"i_long":106.828284,"distance":1149,"station_name":"Juanda","time":2,"transit":false,"line":2,"i_lat":-6.166716},{"transit":false,"time":4,"station_name":"Gondangdia","distance":2015,"is_transit":false,"i_lat":-6.186295,"station_id":"GDD","line":2,"i_long":106.832183},{"distance":1750,"is_transit":false,"transit":false,"i_long":106.840169,"station_id":"CKI","station_name":"Cikini","i_lat":-6.198556,"line":2,"time":3},{"station_name":"Manggarai","time":4,"line":2,"i_lat":-6.209883,"station_id":"MRI","is_transit":true,"transit":true,"distance":1590,"i_long":106.84912},{"transit":false,"i_lat":-6.202263,"distance":3186,"station_name":"Sudirman","time":4,"station_id":"SUD","i_long":106.822649,"is_transit":false,"line":1},{"line":1,"i_long":106.819881,"distance":280,"station_id":"SUDB","station_name":"Sudirman Baru","time":1,"is_transit":false,"transit":false,"i_lat":-6.201433},{"time":1,"transit":false,"line":1,"distance":471,"i_long":106.816351,"i_lat":-6.20132,"is_transit":false,"station_id":"KAT","station_name":"Karet"},{"i_long":106.811091,"distance":2029,"station_name":"Tanah Abang","is_transit":true,"i_lat":-6.185545,"line":1,"station_id":"THB","time":5,"transit":true},{"is_transit":false,"station_id":"PLM","line":6,"transit":false,"i_long":106.79689,"i_lat":-6.207404,"station_name":"Palmerah","time":6,"distance":3191},{"distance":3737,"i_lat":-6.237242,"line":6,"time":7,"transit":false,"i_long":106.780334,"station_name":"Kebayoran","is_transit":false,"station_id":"KBY"},{"i_lat":-6.276362,"i_long":106.74273,"is_transit":false,"station_id":"PDJ","distance":6218,"transit":false,"station_name":"Pondokranji","line":6,"time":8},{"line":6,"transit":false,"i_lat":-6.288927,"is_transit":false,"i_long":106.728916,"distance":2179,"time":3,"station_id":"JMU","station_name":"Jurangmangu"},{"station_name":"Sudimara","distance":1994,"time":4,"transit":false,"i_long":106.712277,"i_lat":-6.296963,"line":6,"is_transit":false,"station_id":"SDM"},{"time":6,"station_id":"RU","station_name":"Rawa Buntu","transit":false,"line":6,"distance":4566,"i_lat":-6.314823,"i_long":106.675475,"is_transit":false}]]}