{"data":[[{"i_lat":-6.212485,"is_transit":false,"i_long":106.858896,"time":0,"transit":false,"line":1,"station_id":"MTR","station_name":"Matraman","distance":0},{"distance":1377,"transit":false,"is_transit":true,"time":8,"line":0,"station_id":"JNG","i_long":106.86807400000001,"i_lat":-6.215091,"station_name":"Jatinegara"},{"time":3,"transit":false,"station_id":"KLD","station_name":"Klender","distance":3395,"i_lat":-6.2135,"i_long":106.899548,"line":1,"is_transit":false},{"station_id":"BUA","i_lat":-6.215568,"transit":false,"is_transit":false,"station_name":"Buaran","time":2,"line":0,"distance":3100,"i_long":106.922662},{"i_lat":-6.217455,"transit":false,"station_name":"Klenderbaru","time":1,"station_id":"KLDB","i_long":106.939679,"line":1,"is_transit":false,"distance":1305},{"time":8,"i_long":106.951283,"station_name":"Cakung","station_id":"CUK","line":0,"transit":false,"distance":1385,"i_lat":-6.219053,"is_transit":false},{"i_lat":-6.224515,"station_id":"KRI","time":3,"distance":3097,"i_long":106.977657,"transit":false,"station_name":"Kranji","is_transit":false,"line":1},{"distance":2520,"station_id":"BKS","i_long":106.997013,"time":4,"transit":false,"station_name":"Bekasi","is_transit":false,"i_lat":-6.236616,"line":0}],[{"distance":0,"is_transit":false,"station_id":"MTR","line":1,"transit":false,"i_lat":-6.212485,"station_name":"Matraman","i_long":106.858896,"time":0},{"distance":1275,"transit":false,"station_id":"MRI","is_transit":true,"i_lat":-6.209883,"i_long":106.84912,"station_name":"Manggarai","line":0,"time":2},{"time":4,"is_transit":false,"i_long":106.822649,"station_id":"SUD","transit":false,"line":1,"station_name":"Sudirman","distance":3186,"i_lat":-6.202263},{"station_name":"Sudirman Baru","distance":280,"time":1,"line":1,"i_lat":-6.201433,"i_long":106.819881,"station_id":"SUDB","is_transit":false,"transit":false},{"station_id":"KAT","is_transit":false,"i_lat":-6.20132,"time":1,"distance":471,"i_long":106.816351,"line":1,"transit":false,"station_name":"Karet"},{"distance":2029,"time":5,"transit":false,"i_long":106.811091,"station_id":"THB","station_name":"Tanah Abang","is_transit":true,"line":1,"i_lat":-6.185545},{"line":1,"distance":3632,"transit":true,"is_transit":true,"i_long":106.800832,"station_name":"Duri","time":8,"i_lat":-6.155215,"station_id":"DU"},{"station_name":"Angke","line":0,"distance":1230,"time":4,"transit":false,"is_transit":false,"i_lat":-6.144674,"i_long":106.79867,"station_id":"AK"},{"is_transit":true,"transit":true,"time":9,"distance":4102,"station_id":"KPB","i_lat":-6.132549,"i_long":106.826365,"line":0,"station_name":"Kampung Bandan"},{"i_long":106.836569,"is_transit":false,"station_id":"RJW","i_lat":-6.14505,"transit":false,"station_name":"Rajawali","time":3,"distance":1444,"line":11},{"station_name":"Kemayoran","is_transit":false,"i_long":106.839204,"time":5,"station_id":"KMO","distance":1901,"transit":false,"i_lat":-6.161728,"line":11},{"is_transit":false,"i_long":106.84368,"transit":false,"distance":1436,"time":4,"line":11,"station_id":"PSE","station_name":"Pasar Senen","i_lat":-6.174784},{"transit":false,"line":11,"i_long":106.850107,"is_transit":false,"station_name":"Gang Sentiong","station_id":"GST","i_lat":-6.185975,"time":8,"distance":1567},{"is_transit":false,"station_id":"KMT","distance":973,"transit":false,"line":11,"time":1,"i_lat":-6.193792,"i_long":106.855437,"station_name":"Kramat"},{"is_transit":false,"station_name":"Pondok Jati","transit":false,"i_long":106.861737,"distance":1829,"time":2,"i_lat":-6.209188,"station_id":"POK","line":11},{"distance":1236,"i_long":106.86807400000001,"time":9,"station_id":"JNG","station_name":"Jatinegara","transit":true,"i_lat":-6.215091,"line":0,"is_transit":true},{"i_long":106.899548,"station_id":"KLD","transit":false,"time":3,"station_name":"Klender","i_lat":-6.2135,"line":1,"distance":3395,"is_transit":false},{"time":2,"transit":false,"i_lat":-6.215568,"is_transit":false,"i_long":106.922662,"line":0,"station_name":"Buaran","distance":3100,"station_id":"BUA"},{"i_long":106.939679,"transit":false,"i_lat":-6.217455,"distance":1305,"station_name":"Klenderbaru","is_transit":false,"station_id":"KLDB","time":1,"line":1},{"line":0,"i_lat":-6.219053,"time":8,"station_name":"Cakung","is_transit":false,"distance":1385,"station_id":"CUK","transit":false,"i_long":106.951283},{"station_id":"KRI","i_lat":-6.224515,"line":1,"station_name":"Kranji","is_transit":false,"i_long":106.977657,"transit":false,"distance":3097,"time":3},{"line":0,"transit":false,"time":4,"i_long":106.997013,"station_id":"BKS","is_transit":false,"i_lat":-6.236616,"station_name":"Bekasi","distance":2520}],[{"i_long":106.858896,"i_lat":-6.212485,"station_name":"Matraman","transit":false,"distance":0,"line":1,"station_id":"MTR","is_transit":false,"time":0},{"i_long":106.84912,"i_lat":-6.209883,"station_id":"MRI","time":2,"transit":true,"line":0,"station_name":"Manggarai","distance":1275,"is_transit":true},{"time":4,"line":0,"distance":1590,"i_long":106.840169,"station_name":"Cikini","i_lat":-6.198556,"station_id":"CKI","is_transit":false,"transit":false},{"distance":1750,"line":2,"station_name":"Gondangdia","is_transit":false,"i_lat":-6.186295,"i_long":106.832183,"station_id":"GDD","transit":false,"time":3},{"station_name":"Juanda","station_id":"JUA","distance":2015,"line":2,"i_long":106.828284,"is_transit":false,"transit":false,"time":4,"i_lat":-6.166716},{"time":2,"i_lat":-6.160725,"is_transit":false,"station_id":"SW","i_long":106.827103,"station_name":"Sawah Besar","transit":false,"distance":1149,"line":2},{"i_long":106.82482,"time":2,"line":2,"distance":906,"station_name":"Manggabesar","transit":false,"i_lat":-6.149769,"station_id":"MGB","is_transit":false},{"i_long":106.820901,"time":2,"transit":false,"is_transit":false,"i_lat":-6.141205,"station_name":"Jayakarta","distance":1080,"station_id":"JAY","line":7},{"station_name":"Jakarta Kota","distance":1264,"i_long":106.812439,"station_id":"JAKK","line":0,"is_transit":true,"time":4,"transit":true,"i_lat":-6.137569},{"i_lat":-6.132549,"i_long":106.826365,"transit":true,"line":0,"station_name":"Kampung Bandan","distance":1364,"time":3,"is_transit":true,"station_id":"KPB"},{"i_long":106.836569,"is_transit":false,"time":3,"station_id":"RJW","line":11,"distance":1444,"transit":false,"i_lat":-6.14505,"station_name":"Rajawali"},{"i_lat":-6.161728,"line":11,"station_name":"Kemayoran","station_id":"KMO","i_long":106.839204,"time":5,"transit":false,"distance":1901,"is_transit":false},{"station_name":"Pasar Senen","i_long":106.84368,"transit":false,"i_lat":-6.174784,"station_id":"PSE","line":11,"distance":1436,"is_transit":false,"time":4},{"i_lat":-6.185975,"is_transit":false,"transit":false,"distance":1567,"time":8,"line":11,"station_name":"Gang Sentiong","station_id":"GST","i_long":106.850107},{"is_transit":false,"station_name":"Kramat","distance":973,"i_lat":-6.193792,"line":11,"time":1,"i_long":106.855437,"station_id":"KMT","transit":false},{"i_lat":-6.209188,"distance":1829,"station_id":"POK","i_long":106.861737,"station_name":"Pondok Jati","line":11,"time":2,"is_transit":false,"transit":false},{"station_name":"Jatinegara","i_long":106.86807400000001,"distance":1236,"station_id":"JNG","i_lat":-6.215091,"transit":true,"time":9,"is_transit":true,"line":0},{"station_name":"Klender","transit":false,"is_transit":false,"station_id":"KLD","i_long":106.899548,"line":1,"time":3,"distance":3395,"i_lat":-6.2135},{"distance":3100,"i_lat":-6.215568,"station_id":"BUA","station_name":"Buaran","i_long":106.922662,"transit":false,"time":2,"is_transit":false,"line":0},{"i_lat":-6.217455,"distance":1305,"time":1,"i_long":106.939679,"transit":false,"station_id":"KLDB","line":1,"is_transit":false,"station_name":"Klenderbaru"},{"is_transit":false,"i_lat":-6.219053,"i_long":106.951283,"station_name":"Cakung","line":0,"time":8,"distance":1385,"transit":false,"station_id":"CUK"},{"line":1,"station_name":"Kranji","i_long":106.977657,"distance":3097,"time":3,"transit":false,"station_id":"KRI","is_transit":false,"i_lat":-6.224515},{"station_id":"BKS","line":0,"distance":2520,"i_lat":-6.236616,"i_long":106.997013,"station_name":"Bekasi","is_transit":false,"transit":false,"time":4}]]}