{"data":[[{"is_transit":false,"i_lat":-6.212485,"i_long":106.858896,"time":0,"line":1,"transit":false,"distance":0,"station_id":"MTR","station_name":"Matraman"},{"transit":false,"i_lat":-6.215091,"time":8,"distance":1377,"i_long":106.86807400000001,"station_name":"Jatinegara","is_transit":false,"station_id":"JNG","line":1},{"i_lat":-6.2135,"distance":3395,"station_name":"Klender","time":3,"transit":false,"i_long":106.899548,"line":1,"is_transit":false,"station_id":"KLD"},{"is_transit":false,"station_name":"Buaran","transit":false,"i_lat":-6.215568,"line":1,"station_id":"BUA","time":2,"i_long":106.922662,"distance":3100},{"is_transit":false,"line":1,"time":1,"i_lat":-6.217455,"distance":1305,"i_long":106.939679,"station_name":"Klenderbaru","station_id":"KLDB","transit":false},{"line":1,"distance":1385,"station_name":"Cakung","is_transit":false,"transit":false,"i_lat":-6.219053,"i_long":106.951283,"time":8,"station_id":"CUK"},{"time":3,"station_name":"Kranji","distance":3097,"station_id":"KRI","i_long":106.977657,"i_lat":-6.224515,"transit":false,"line":1,"is_transit":false},{"station_id":"BKS","transit":false,"i_long":106.997013,"line":1,"station_name":"Bekasi","distance":2520,"i_lat":-6.236616,"is_transit":false,"time":4},{"transit":false,"station_name":"Bekasi Timur","time":2,"distance":2368,"is_transit":false,"i_long":107.016735,"line":1,"station_id":"BKST","i_lat":-6.248029}],[{"time":0,"is_transit":false,"station_name":"Matraman","station_id":"MTR","transit":false,"i_lat":-6.212485,"i_long":106.858896,"distance":0,"line":1},{"time":2,"transit":false,"station_name":"Manggarai","line":2,"distance":1275,"is_transit":false,"i_long":106.84912,"i_lat":-6.209883,"station_id":"MRI"},{"distance":3186,"i_long":106.822649,"is_transit":false,"station_id":"SUD","station_name":"Sudirman","transit":false,"time":4,"i_lat":-6.202263,"line":1},{"transit":false,"time":1,"station_name":"Sudirman Baru","is_transit":false,"line":1,"station_id":"SUDB","i_lat":-6.201433,"i_long":106.819881,"distance":280},{"time":1,"station_id":"KAT","line":1,"distance":471,"i_lat":-6.20132,"transit":false,"station_name":"Karet","is_transit":false,"i_long":106.816351},{"time":5,"distance":2029,"i_long":106.811091,"transit":false,"station_name":"Tanah Abang","i_lat":-6.185545,"line":1,"station_id":"THB","is_transit":false},{"i_lat":-6.155215,"line":1,"station_name":"Duri","i_long":106.800832,"distance":3632,"time":8,"station_id":"DU","transit":false,"is_transit":false},{"distance":1230,"i_lat":-6.144674,"time":4,"line":1,"station_id":"AK","i_long":106.79867,"station_name":"Angke","is_transit":false,"transit":false},{"time":9,"station_id":"KPB","is_transit":true,"i_lat":-6.132549,"station_name":"Kampung Bandan","line":4,"distance":4102,"transit":true,"i_long":106.826365},{"i_lat":-6.14505,"is_transit":false,"transit":false,"distance":1444,"time":3,"line":11,"station_id":"RJW","station_name":"Rajawali","i_long":106.836569},{"station_name":"Kemayoran","transit":false,"i_lat":-6.161728,"i_long":106.839204,"time":5,"is_transit":false,"line":11,"station_id":"KMO","distance":1901},{"station_name":"Pasar Senen","transit":false,"distance":1436,"time":4,"station_id":"PSE","is_transit":false,"i_lat":-6.174784,"line":11,"i_long":106.84368},{"time":8,"transit":false,"i_lat":-6.185975,"is_transit":false,"i_long":106.850107,"station_name":"Gang Sentiong","distance":1567,"station_id":"GST","line":11},{"station_id":"KMT","station_name":"Kramat","i_lat":-6.193792,"is_transit":false,"i_long":106.855437,"line":11,"distance":973,"transit":false,"time":1},{"station_name":"Pondok Jati","i_long":106.861737,"transit":false,"distance":1829,"is_transit":false,"i_lat":-6.209188,"station_id":"POK","line":11,"time":2},{"distance":1236,"station_id":"JNG","i_long":106.86807400000001,"transit":true,"i_lat":-6.215091,"time":9,"is_transit":true,"line":1,"station_name":"Jatinegara"},{"distance":3395,"station_name":"Klender","station_id":"KLD","is_transit":false,"transit":false,"line":1,"time":3,"i_lat":-6.2135,"i_long":106.899548},{"is_transit":false,"transit":false,"i_lat":-6.215568,"station_name":"Buaran","time":2,"i_long":106.922662,"station_id":"BUA","line":1,"distance":3100},{"station_id":"KLDB","distance":1305,"transit":false,"i_lat":-6.217455,"time":1,"is_transit":false,"i_long":106.939679,"station_name":"Klenderbaru","line":1},{"transit":false,"is_transit":false,"distance":1385,"station_name":"Cakung","i_long":106.951283,"time":8,"i_lat":-6.219053,"station_id":"CUK","line":1},{"transit":false,"time":3,"is_transit":false,"station_id":"KRI","i_lat":-6.224515,"station_name":"Kranji","line":1,"distance":3097,"i_long":106.977657},{"i_long":106.997013,"i_lat":-6.236616,"is_transit":false,"transit":false,"line":1,"time":4,"distance":2520,"station_id":"BKS","station_name":"Bekasi"},{"i_long":107.016735,"is_transit":false,"distance":2368,"station_id":"BKST","time":2,"i_lat":-6.248029,"station_name":"Bekasi Timur","line":1,"transit":false}],[{"station_id":"MTR","transit":false,"time":0,"distance":0,"is_transit":false,"i_lat":-6.212485,"i_long":106.858896,"station_name":"Matraman","line":1},{"i_long":106.84912,"distance":1275,"station_id":"MRI","line":2,"i_lat":-6.209883,"time":2,"is_transit":true,"transit":true,"station_name":"Manggarai"},{"station_name":"Cikini","transit":false,"is_transit":false,"distance":1590,"line":2,"i_lat":-6.198556,"i_long":106.840169,"station_id":"CKI","time":4},{"i_lat":-6.186295,"distance":1750,"station_name":"Gondangdia","is_transit":false,"i_long":106.832183,"line":2,"time":3,"station_id":"GDD","transit":false},{"i_long":106.828284,"distance":2015,"i_lat":-6.166716,"time":4,"station_id":"JUA","station_name":"Juanda","transit":false,"line":2,"is_transit":false},{"station_id":"SW","transit":false,"time":2,"station_name":"Sawah Besar","i_lat":-6.160725,"line":2,"i_long":106.827103,"is_transit":false,"distance":1149},{"distance":906,"i_long":106.82482,"is_transit":false,"time":2,"line":2,"i_lat":-6.149769,"transit":false,"station_name":"Manggabesar","station_id":"MGB"},{"line":2,"transit":false,"distance":1080,"station_id":"JAY","time":2,"is_transit":false,"station_name":"Jayakarta","i_lat":-6.141205,"i_long":106.820901},{"is_transit":true,"i_long":106.812439,"transit":true,"station_name":"Jakarta Kota","time":4,"distance":1264,"station_id":"JAKK","i_lat":-6.137569,"line":2},{"station_name":"Kampung Bandan","distance":1364,"i_long":106.826365,"i_lat":-6.132549,"line":4,"time":3,"station_id":"KPB","transit":true,"is_transit":true},{"time":3,"station_name":"Rajawali","transit":false,"is_transit":false,"station_id":"RJW","distance":1444,"i_long":106.836569,"i_lat":-6.14505,"line":11},{"i_lat":-6.161728,"distance":1901,"i_long":106.839204,"is_transit":false,"line":11,"transit":false,"time":5,"station_name":"Kemayoran","station_id":"KMO"},{"line":11,"station_name":"Pasar Senen","distance":1436,"i_lat":-6.174784,"transit":false,"is_transit":false,"time":4,"station_id":"PSE","i_long":106.84368},{"i_lat":-6.185975,"transit":false,"line":11,"is_transit":false,"i_long":106.850107,"time":8,"distance":1567,"station_id":"GST","station_name":"Gang Sentiong"},{"line":11,"i_lat":-6.193792,"i_long":106.855437,"station_name":"Kramat","transit":false,"distance":973,"is_transit":false,"time":1,"station_id":"KMT"},{"station_id":"POK","line":11,"station_name":"Pondok Jati","i_long":106.861737,"time":2,"distance":1829,"i_lat":-6.209188,"is_transit":false,"transit":false},{"transit":true,"station_name":"Jatinegara","station_id":"JNG","line":1,"distance":1236,"i_long":106.86807400000001,"time":9,"i_lat":-6.215091,"is_transit":true},{"is_transit":false,"line":1,"transit":false,"time":3,"i_lat":-6.2135,"distance":3395,"station_id":"KLD","i_long":106.899548,"station_name":"Klender"},{"distance":3100,"time":2,"line":1,"is_transit":false,"station_name":"Buaran","i_lat":-6.215568,"i_long":106.922662,"station_id":"BUA","transit":false},{"distance":1305,"transit":false,"line":1,"station_name":"Klenderbaru","time":1,"is_transit":false,"i_lat":-6.217455,"i_long":106.939679,"station_id":"KLDB"},{"i_long":106.951283,"line":1,"station_id":"CUK","time":8,"distance":1385,"is_transit":false,"station_name":"Cakung","i_lat":-6.219053,"transit":false},{"station_id":"KRI","distance":3097,"station_name":"Kranji","i_lat":-6.224515,"is_transit":false,"time":3,"transit":false,"i_long":106.977657,"line":1},{"line":1,"station_id":"BKS","time":4,"distance":2520,"station_name":"Bekasi","transit":false,"is_transit":false,"i_lat":-6.236616,"i_long":106.997013},{"line":1,"station_name":"Bekasi Timur","i_long":107.016735,"is_transit":false,"transit":false,"i_lat":-6.248029,"station_id":"BKST","distance":2368,"time":2}]]}