{"data":[[{"station_id":"MTR","i_lat":-6.212485,"station_name":"Matraman","time":0,"is_transit":false,"transit":false,"i_long":106.858896,"distance":0,"line":1},{"i_lat":-6.215091,"time":8,"transit":true,"station_name":"Jatinegara","i_long":106.86807400000001,"is_transit":true,"distance":1377,"station_id":"JNG","line":0},{"time":2,"i_lat":-6.209188,"line":11,"station_name":"Pondok Jati","is_transit":false,"distance":1236,"transit":false,"i_long":106.861737,"station_id":"POK"},{"is_transit":false,"distance":1829,"station_id":"KMT","station_name":"Kramat","line":11,"transit":false,"i_lat":-6.193792,"time":2,"i_long":106.855437},{"i_lat":-6.185975,"transit":false,"station_id":"GST","line":11,"distance":973,"is_transit":false,"station_name":"Gang Sentiong","time":1,"i_long":106.850107}],[{"i_lat":-6.212485,"time":0,"line":1,"distance":0,"transit":false,"i_long":106.858896,"is_transit":false,"station_id":"MTR","station_name":"Matraman"},{"station_name":"Manggarai","is_transit":true,"time":2,"distance":1275,"station_id":"MRI","transit":false,"i_lat":-6.209883,"i_long":106.84912,"line":0},{"line":1,"station_name":"Sudirman","station_id":"SUD","time":4,"i_lat":-6.202263,"i_long":106.822649,"transit":false,"is_transit":false,"distance":3186},{"is_transit":false,"station_id":"SUDB","station_name":"Sudirman Baru","i_long":106.819881,"i_lat":-6.201433,"transit":false,"line":1,"time":1,"distance":280},{"distance":471,"transit":false,"i_lat":-6.20132,"station_name":"Karet","is_transit":false,"i_long":106.816351,"line":1,"time":1,"station_id":"KAT"},{"station_name":"Tanah Abang","i_long":106.811091,"distance":2029,"is_transit":true,"transit":false,"station_id":"THB","i_lat":-6.185545,"time":5,"line":1},{"transit":true,"i_long":106.800832,"time":8,"station_id":"DU","line":1,"is_transit":true,"distance":3632,"station_name":"Duri","i_lat":-6.155215},{"station_id":"AK","transit":false,"time":4,"distance":1230,"station_name":"Angke","i_lat":-6.144674,"line":0,"i_long":106.79867,"is_transit":false},{"station_name":"Kampung Bandan","is_transit":true,"i_lat":-6.132549,"station_id":"KPB","i_long":106.826365,"distance":4102,"line":0,"time":9,"transit":true},{"station_name":"Rajawali","is_transit":false,"distance":1444,"station_id":"RJW","transit":false,"i_long":106.836569,"line":11,"time":3,"i_lat":-6.14505},{"station_name":"Kemayoran","distance":1901,"station_id":"KMO","is_transit":false,"i_long":106.839204,"line":11,"transit":false,"time":5,"i_lat":-6.161728},{"station_id":"PSE","i_long":106.84368,"transit":false,"station_name":"Pasar Senen","time":4,"i_lat":-6.174784,"distance":1436,"line":11,"is_transit":false},{"transit":false,"i_lat":-6.185975,"time":8,"i_long":106.850107,"line":11,"distance":1567,"station_id":"GST","is_transit":false,"station_name":"Gang Sentiong"}],[{"distance":0,"transit":false,"station_id":"MTR","line":1,"is_transit":false,"i_long":106.858896,"station_name":"Matraman","time":0,"i_lat":-6.212485},{"distance":1275,"time":2,"station_id":"MRI","i_lat":-6.209883,"line":0,"transit":true,"is_transit":true,"station_name":"Manggarai","i_long":106.84912},{"transit":false,"distance":1590,"station_name":"Cikini","line":0,"i_lat":-6.198556,"station_id":"CKI","time":4,"is_transit":false,"i_long":106.840169},{"line":2,"distance":1750,"i_long":106.832183,"transit":false,"i_lat":-6.186295,"station_id":"GDD","is_transit":false,"time":3,"station_name":"Gondangdia"},{"time":4,"distance":2015,"i_long":106.828284,"line":2,"station_id":"JUA","station_name":"Juanda","i_lat":-6.166716,"transit":false,"is_transit":false},{"distance":1149,"i_lat":-6.160725,"i_long":106.827103,"station_name":"Sawah Besar","time":2,"line":2,"station_id":"SW","is_transit":false,"transit":false},{"time":2,"i_lat":-6.149769,"distance":906,"transit":false,"is_transit":false,"line":2,"station_name":"Manggabesar","i_long":106.82482,"station_id":"MGB"},{"distance":1080,"is_transit":false,"i_long":106.820901,"station_id":"JAY","station_name":"Jayakarta","time":2,"i_lat":-6.141205,"transit":false,"line":7},{"i_lat":-6.137569,"transit":true,"station_name":"Jakarta Kota","time":4,"is_transit":true,"distance":1264,"i_long":106.812439,"line":0,"station_id":"JAKK"},{"transit":true,"station_name":"Kampung Bandan","is_transit":true,"i_lat":-6.132549,"i_long":106.826365,"line":0,"station_id":"KPB","distance":1364,"time":3},{"station_name":"Rajawali","i_long":106.836569,"line":11,"i_lat":-6.14505,"distance":1444,"time":3,"is_transit":false,"station_id":"RJW","transit":false},{"station_id":"KMO","i_lat":-6.161728,"is_transit":false,"station_name":"Kemayoran","transit":false,"line":11,"distance":1901,"time":5,"i_long":106.839204},{"is_transit":false,"station_name":"Pasar Senen","i_lat":-6.174784,"line":11,"station_id":"PSE","time":4,"distance":1436,"transit":false,"i_long":106.84368},{"i_lat":-6.185975,"distance":1567,"is_transit":false,"station_name":"Gang Sentiong","line":11,"time":8,"i_long":106.850107,"transit":false,"station_id":"GST"}]]}