{"data":[[{"is_transit":false,"time":0,"station_id":"MTR","station_name":"Matraman","i_long":106.858896,"line":1,"transit":false,"i_lat":-6.212485,"distance":0},{"distance":1377,"i_long":106.86807400000001,"i_lat":-6.215091,"transit":true,"station_name":"Jatinegara","station_id":"JNG","is_transit":true,"time":8,"line":1},{"transit":false,"station_id":"POK","i_lat":-6.209188,"station_name":"Pondok Jati","i_long":106.861737,"distance":1236,"line":11,"time":2,"is_transit":false},{"station_name":"Kramat","is_transit":false,"distance":1829,"transit":false,"station_id":"KMT","line":11,"i_lat":-6.193792,"time":2,"i_long":106.855437},{"is_transit":false,"line":11,"station_id":"GST","distance":973,"i_lat":-6.185975,"time":1,"i_long":106.850107,"transit":false,"station_name":"Gang Sentiong"},{"distance":1567,"i_lat":-6.174784,"line":11,"time":8,"is_transit":false,"transit":false,"station_name":"Pasar Senen","i_long":106.84368,"station_id":"PSE"},{"distance":1436,"i_lat":-6.161728,"transit":false,"station_id":"KMO","line":11,"is_transit":false,"station_name":"Kemayoran","time":4,"i_long":106.839204},{"line":11,"i_long":106.836569,"transit":false,"time":5,"is_transit":false,"station_id":"RJW","station_name":"Rajawali","distance":1901,"i_lat":-6.14505},{"i_lat":-6.132549,"i_long":106.826365,"is_transit":true,"transit":true,"station_id":"KPB","distance":1444,"line":4,"station_name":"Kampung Bandan","time":3},{"transit":false,"i_long":106.84464,"station_id":"AC","is_transit":false,"line":4,"time":4,"station_name":"Ancol","distance":2185,"i_lat":-6.128023}],[{"station_id":"MTR","distance":0,"i_lat":-6.212485,"station_name":"Matraman","transit":false,"line":1,"is_transit":false,"time":0,"i_long":106.858896},{"time":2,"transit":false,"station_name":"Manggarai","i_lat":-6.209883,"line":2,"distance":1275,"is_transit":false,"station_id":"MRI","i_long":106.84912},{"station_name":"Sudirman","i_long":106.822649,"i_lat":-6.202263,"line":1,"station_id":"SUD","time":4,"is_transit":false,"distance":3186,"transit":false},{"is_transit":false,"transit":false,"distance":280,"i_lat":-6.201433,"station_id":"SUDB","station_name":"Sudirman Baru","i_long":106.819881,"line":1,"time":1},{"distance":471,"i_long":106.816351,"line":1,"transit":false,"time":1,"station_name":"Karet","is_transit":false,"i_lat":-6.20132,"station_id":"KAT"},{"time":5,"transit":false,"distance":2029,"line":1,"is_transit":false,"i_lat":-6.185545,"station_id":"THB","station_name":"Tanah Abang","i_long":106.811091},{"i_long":106.800832,"time":8,"i_lat":-6.155215,"distance":3632,"is_transit":false,"transit":false,"line":1,"station_name":"Duri","station_id":"DU"},{"station_name":"Angke","time":4,"transit":false,"station_id":"AK","distance":1230,"i_lat":-6.144674,"line":1,"i_long":106.79867,"is_transit":false},{"i_lat":-6.132549,"station_id":"KPB","transit":true,"i_long":106.826365,"time":9,"distance":4102,"station_name":"Kampung Bandan","is_transit":true,"line":4},{"i_long":106.84464,"station_name":"Ancol","station_id":"AC","distance":2185,"line":4,"is_transit":false,"time":4,"transit":false,"i_lat":-6.128023}],[{"time":0,"line":1,"i_lat":-6.212485,"transit":false,"station_name":"Matraman","is_transit":false,"i_long":106.858896,"station_id":"MTR","distance":0},{"station_name":"Manggarai","i_long":106.84912,"transit":true,"i_lat":-6.209883,"line":2,"time":2,"is_transit":true,"distance":1275,"station_id":"MRI"},{"station_name":"Cikini","is_transit":false,"i_lat":-6.198556,"time":4,"line":2,"i_long":106.840169,"station_id":"CKI","distance":1590,"transit":false},{"station_name":"Gondangdia","station_id":"GDD","transit":false,"i_lat":-6.186295,"i_long":106.832183,"is_transit":false,"line":2,"distance":1750,"time":3},{"is_transit":false,"station_name":"Juanda","line":2,"station_id":"JUA","time":4,"distance":2015,"i_long":106.828284,"transit":false,"i_lat":-6.166716},{"station_name":"Sawah Besar","is_transit":false,"station_id":"SW","distance":1149,"time":2,"i_lat":-6.160725,"i_long":106.827103,"line":2,"transit":false},{"time":2,"distance":906,"station_name":"Manggabesar","i_long":106.82482,"transit":false,"i_lat":-6.149769,"station_id":"MGB","is_transit":false,"line":2},{"is_transit":false,"i_lat":-6.141205,"transit":false,"time":2,"line":2,"distance":1080,"station_id":"JAY","station_name":"Jayakarta","i_long":106.820901},{"station_name":"Jakarta Kota","time":4,"is_transit":true,"i_long":106.812439,"line":2,"distance":1264,"transit":true,"i_lat":-6.137569,"station_id":"JAKK"},{"station_id":"KPB","transit":true,"i_long":106.826365,"is_transit":true,"line":4,"i_lat":-6.132549,"time":3,"distance":1364,"station_name":"Kampung Bandan"},{"station_name":"Ancol","time":4,"transit":false,"line":4,"i_long":106.84464,"distance":2185,"is_transit":false,"station_id":"AC","i_lat":-6.128023}]]}