{"data":[[{"station_name":"Matraman","line":1,"i_lat":-6.212485,"is_transit":false,"distance":0,"station_id":"MTR","i_long":106.858896,"transit":false,"time":0},{"line":0,"time":2,"is_transit":true,"distance":1275,"station_name":"Manggarai","i_lat":-6.209883,"i_long":106.84912,"station_id":"MRI","transit":false},{"i_long":106.822649,"transit":false,"distance":3186,"station_name":"Sudirman","i_lat":-6.202263,"station_id":"SUD","time":4,"line":1,"is_transit":false},{"is_transit":false,"station_id":"SUDB","i_lat":-6.201433,"station_name":"Sudirman Baru","distance":280,"i_long":106.819881,"time":1,"line":1,"transit":false},{"is_transit":false,"distance":471,"station_id":"KAT","i_long":106.816351,"line":1,"transit":false,"i_lat":-6.20132,"time":1,"station_name":"Karet"},{"station_name":"Tanah Abang","is_transit":true,"station_id":"THB","i_long":106.811091,"i_lat":-6.185545,"time":5,"line":1,"distance":2029,"transit":true},{"transit":false,"i_long":106.79689,"i_lat":-6.207404,"line":6,"station_id":"PLM","distance":3191,"station_name":"Palmerah","time":6,"is_transit":false},{"station_id":"KBY","distance":3737,"is_transit":false,"station_name":"Kebayoran","i_lat":-6.237242,"i_long":106.780334,"transit":false,"line":6,"time":7},{"distance":6218,"i_lat":-6.276362,"is_transit":false,"station_id":"PDJ","station_name":"Pondokranji","transit":false,"time":8,"i_long":106.74273,"line":6},{"line":6,"time":3,"distance":2179,"station_id":"JMU","transit":false,"is_transit":false,"station_name":"Jurangmangu","i_lat":-6.288927,"i_long":106.728916},{"transit":false,"is_transit":false,"i_long":106.712277,"time":4,"i_lat":-6.296963,"distance":1994,"line":6,"station_id":"SDM","station_name":"Sudimara"}],[{"is_transit":false,"station_id":"MTR","time":0,"station_name":"Matraman","i_lat":-6.212485,"i_long":106.858896,"line":1,"transit":false,"distance":0},{"station_name":"Jatinegara","i_long":106.86807400000001,"distance":1377,"is_transit":true,"station_id":"JNG","transit":true,"time":8,"line":0,"i_lat":-6.215091},{"i_lat":-6.209188,"line":11,"station_name":"Pondok Jati","i_long":106.861737,"time":2,"distance":1236,"is_transit":false,"station_id":"POK","transit":false},{"transit":false,"time":2,"distance":1829,"station_name":"Kramat","i_lat":-6.193792,"i_long":106.855437,"station_id":"KMT","line":11,"is_transit":false},{"station_name":"Gang Sentiong","i_long":106.850107,"is_transit":false,"distance":973,"time":1,"transit":false,"line":11,"station_id":"GST","i_lat":-6.185975},{"station_name":"Pasar Senen","transit":false,"distance":1567,"station_id":"PSE","is_transit":false,"i_lat":-6.174784,"time":8,"line":11,"i_long":106.84368},{"station_id":"KMO","time":4,"transit":false,"i_lat":-6.161728,"line":11,"i_long":106.839204,"is_transit":false,"distance":1436,"station_name":"Kemayoran"},{"station_name":"Rajawali","transit":false,"is_transit":false,"time":5,"distance":1901,"i_lat":-6.14505,"i_long":106.836569,"line":11,"station_id":"RJW"},{"i_long":106.826365,"transit":true,"distance":1444,"station_id":"KPB","station_name":"Kampung Bandan","i_lat":-6.132549,"line":0,"is_transit":true,"time":3},{"i_long":106.79867,"line":0,"station_id":"AK","is_transit":false,"time":9,"i_lat":-6.144674,"transit":false,"station_name":"Angke","distance":4102},{"i_lat":-6.155215,"station_id":"DU","time":4,"line":1,"transit":true,"distance":1230,"is_transit":true,"station_name":"Duri","i_long":106.800832},{"distance":3632,"is_transit":true,"time":8,"line":1,"i_long":106.811091,"i_lat":-6.185545,"station_id":"THB","transit":true,"station_name":"Tanah Abang"},{"i_long":106.79689,"is_transit":false,"station_name":"Palmerah","line":6,"time":6,"distance":3191,"station_id":"PLM","i_lat":-6.207404,"transit":false},{"distance":3737,"transit":false,"i_long":106.780334,"line":6,"station_name":"Kebayoran","time":7,"station_id":"KBY","i_lat":-6.237242,"is_transit":false},{"station_name":"Pondokranji","line":6,"time":8,"distance":6218,"transit":false,"is_transit":false,"i_lat":-6.276362,"i_long":106.74273,"station_id":"PDJ"},{"transit":false,"is_transit":false,"time":3,"i_lat":-6.288927,"i_long":106.728916,"line":6,"station_name":"Jurangmangu","distance":2179,"station_id":"JMU"},{"is_transit":false,"transit":false,"station_name":"Sudimara","station_id":"SDM","i_long":106.712277,"distance":1994,"time":4,"line":6,"i_lat":-6.296963}],[{"distance":0,"i_lat":-6.212485,"station_name":"Matraman","time":0,"station_id":"MTR","is_transit":false,"transit":false,"i_long":106.858896,"line":1},{"station_id":"MRI","is_transit":true,"transit":true,"station_name":"Manggarai","line":0,"i_long":106.84912,"time":2,"i_lat":-6.209883,"distance":1275},{"time":4,"line":0,"is_transit":false,"i_lat":-6.198556,"distance":1590,"transit":false,"i_long":106.840169,"station_id":"CKI","station_name":"Cikini"},{"station_id":"GDD","line":2,"is_transit":false,"transit":false,"i_lat":-6.186295,"i_long":106.832183,"time":3,"distance":1750,"station_name":"Gondangdia"},{"station_id":"JUA","transit":false,"is_transit":false,"time":4,"distance":2015,"i_lat":-6.166716,"station_name":"Juanda","i_long":106.828284,"line":2},{"transit":false,"distance":1149,"i_long":106.827103,"line":2,"station_id":"SW","station_name":"Sawah Besar","time":2,"is_transit":false,"i_lat":-6.160725},{"line":2,"distance":906,"station_id":"MGB","station_name":"Manggabesar","i_lat":-6.149769,"i_long":106.82482,"is_transit":false,"transit":false,"time":2},{"station_name":"Jayakarta","line":7,"transit":false,"i_lat":-6.141205,"time":2,"distance":1080,"is_transit":false,"station_id":"JAY","i_long":106.820901},{"distance":1264,"is_transit":true,"station_name":"Jakarta Kota","transit":true,"time":4,"i_lat":-6.137569,"i_long":106.812439,"station_id":"JAKK","line":0},{"i_lat":-6.132549,"i_long":106.826365,"station_name":"Kampung Bandan","is_transit":true,"line":0,"transit":false,"station_id":"KPB","distance":1364,"time":3},{"is_transit":false,"i_lat":-6.144674,"i_long":106.79867,"station_name":"Angke","line":0,"transit":false,"station_id":"AK","distance":4102,"time":9},{"is_transit":true,"station_name":"Duri","time":4,"i_long":106.800832,"distance":1230,"station_id":"DU","transit":true,"i_lat":-6.155215,"line":1},{"transit":true,"is_transit":true,"line":1,"station_id":"THB","time":8,"i_lat":-6.185545,"i_long":106.811091,"station_name":"Tanah Abang","distance":3632},{"i_long":106.79689,"i_lat":-6.207404,"is_transit":false,"station_id":"PLM","station_name":"Palmerah","time":6,"transit":false,"distance":3191,"line":6},{"station_id":"KBY","line":6,"distance":3737,"station_name":"Kebayoran","i_long":106.780334,"is_transit":false,"transit":false,"time":7,"i_lat":-6.237242},{"transit":false,"line":6,"distance":6218,"station_id":"PDJ","time":8,"i_long":106.74273,"is_transit":false,"i_lat":-6.276362,"station_name":"Pondokranji"},{"i_lat":-6.288927,"transit":false,"line":6,"i_long":106.728916,"station_id":"JMU","is_transit":false,"station_name":"Jurangmangu","distance":2179,"time":3},{"station_id":"SDM","i_long":106.712277,"line":6,"transit":false,"i_lat":-6.296963,"distance":1994,"time":4,"is_transit":false,"station_name":"Sudimara"}],[{"station_id":"MTR","station_name":"Matraman","transit":false,"is_transit":false,"distance":0,"time":0,"i_long":106.858896,"i_lat":-6.212485,"line":1},{"station_name":"Jatinegara","line":0,"is_transit":true,"transit":true,"station_id":"JNG","distance":1377,"i_long":106.86807400000001,"time":8,"i_lat":-6.215091},{"time":2,"i_long":106.861737,"i_lat":-6.209188,"distance":1236,"line":11,"station_id":"POK","transit":false,"is_transit":false,"station_name":"Pondok Jati"},{"station_id":"KMT","line":11,"station_name":"Kramat","i_long":106.855437,"transit":false,"i_lat":-6.193792,"distance":1829,"is_transit":false,"time":2},{"distance":973,"transit":false,"i_long":106.850107,"line":11,"station_id":"GST","is_transit":false,"station_name":"Gang Sentiong","time":1,"i_lat":-6.185975},{"i_lat":-6.174784,"i_long":106.84368,"station_name":"Pasar Senen","is_transit":false,"station_id":"PSE","time":8,"line":11,"distance":1567,"transit":false},{"station_name":"Kemayoran","distance":1436,"i_lat":-6.161728,"i_long":106.839204,"line":11,"station_id":"KMO","is_transit":false,"transit":false,"time":4},{"is_transit":false,"i_lat":-6.14505,"station_id":"RJW","transit":false,"i_long":106.836569,"distance":1901,"line":11,"station_name":"Rajawali","time":5},{"station_name":"Kampung Bandan","time":3,"line":0,"station_id":"KPB","is_transit":true,"transit":true,"i_lat":-6.132549,"distance":1444,"i_long":106.826365},{"time":3,"i_lat":-6.137569,"i_long":106.812439,"distance":1364,"is_transit":true,"station_name":"Jakarta Kota","transit":true,"station_id":"JAKK","line":0},{"station_id":"JAY","time":4,"distance":1264,"line":7,"transit":false,"i_long":106.820901,"is_transit":false,"station_name":"Jayakarta","i_lat":-6.141205},{"transit":false,"i_long":106.82482,"station_name":"Manggabesar","time":2,"station_id":"MGB","distance":1080,"is_transit":false,"i_lat":-6.149769,"line":2},{"transit":false,"i_lat":-6.160725,"is_transit":false,"time":2,"station_name":"Sawah Besar","line":2,"i_long":106.827103,"distance":906,"station_id":"SW"},{"distance":1149,"transit":false,"station_name":"Juanda","i_long":106.828284,"time":2,"i_lat":-6.166716,"is_transit":false,"line":2,"station_id":"JUA"},{"is_transit":false,"time":4,"station_name":"Gondangdia","i_lat":-6.186295,"line":2,"transit":false,"station_id":"GDD","i_long":106.832183,"distance":2015},{"time":3,"line":0,"i_lat":-6.198556,"is_transit":false,"distance":1750,"i_long":106.840169,"station_id":"CKI","transit":false,"station_name":"Cikini"},{"transit":true,"is_transit":true,"distance":1590,"station_id":"MRI","i_lat":-6.209883,"station_name":"Manggarai","i_long":106.84912,"line":0,"time":4},{"is_transit":false,"station_id":"SUD","transit":false,"time":4,"i_long":106.822649,"line":1,"i_lat":-6.202263,"distance":3186,"station_name":"Sudirman"},{"station_name":"Sudirman Baru","i_lat":-6.201433,"transit":false,"distance":280,"line":1,"station_id":"SUDB","i_long":106.819881,"time":1,"is_transit":false},{"station_name":"Karet","distance":471,"transit":false,"i_long":106.816351,"i_lat":-6.20132,"station_id":"KAT","time":1,"line":1,"is_transit":false},{"line":1,"distance":2029,"station_id":"THB","transit":true,"i_long":106.811091,"station_name":"Tanah Abang","time":5,"i_lat":-6.185545,"is_transit":true},{"distance":3191,"station_id":"PLM","is_transit":false,"transit":false,"i_lat":-6.207404,"line":6,"time":6,"station_name":"Palmerah","i_long":106.79689},{"i_long":106.780334,"line":6,"i_lat":-6.237242,"station_id":"KBY","station_name":"Kebayoran","transit":false,"time":7,"distance":3737,"is_transit":false},{"is_transit":false,"station_name":"Pondokranji","time":8,"line":6,"i_long":106.74273,"transit":false,"distance":6218,"station_id":"PDJ","i_lat":-6.276362},{"station_id":"JMU","time":3,"distance":2179,"station_name":"Jurangmangu","line":6,"transit":false,"i_lat":-6.288927,"is_transit":false,"i_long":106.728916},{"i_long":106.712277,"is_transit":false,"transit":false,"i_lat":-6.296963,"station_id":"SDM","time":4,"line":6,"distance":1994,"station_name":"Sudimara"}]]}