{"data":[[{"i_long":106.858896,"station_name":"Matraman","station_id":"MTR","transit":false,"distance":0,"i_lat":-6.212485,"line":1,"is_transit":false,"time":0},{"line":2,"station_id":"MRI","transit":false,"time":2,"distance":1275,"is_transit":false,"station_name":"Manggarai","i_lat":-6.209883,"i_long":106.84912},{"station_name":"Sudirman","time":4,"transit":false,"i_lat":-6.202263,"station_id":"SUD","i_long":106.822649,"line":1,"distance":3186,"is_transit":false},{"line":1,"distance":280,"i_long":106.819881,"is_transit":false,"station_id":"SUDB","time":1,"station_name":"Sudirman Baru","i_lat":-6.201433,"transit":false},{"time":1,"station_name":"Karet","distance":471,"station_id":"KAT","transit":false,"i_long":106.816351,"is_transit":false,"i_lat":-6.20132,"line":1},{"station_id":"THB","is_transit":false,"transit":false,"i_lat":-6.185545,"distance":2029,"time":5,"station_name":"Tanah Abang","line":1,"i_long":106.811091},{"line":1,"i_long":106.800832,"station_id":"DU","distance":3632,"time":8,"transit":true,"station_name":"Duri","is_transit":true,"i_lat":-6.155215},{"i_lat":-6.162021,"line":5,"i_long":106.788277,"is_transit":false,"time":3,"transit":false,"station_id":"GGL","station_name":"Grogol","distance":1700},{"station_name":"Pesing","station_id":"PSG","distance":2036,"time":2,"is_transit":false,"transit":false,"i_long":106.771379,"line":5,"i_lat":-6.161433},{"i_lat":-6.1587309999999995,"station_id":"TKO","is_transit":false,"transit":false,"time":2,"station_name":"Taman Kota","line":5,"distance":1614,"i_long":106.756522},{"distance":2334,"transit":false,"line":5,"time":2,"i_lat":-6.159876,"is_transit":false,"station_name":"Bojongindah","station_id":"BOI","i_long":106.737035},{"distance":1152,"line":5,"transit":false,"station_id":"RW","is_transit":false,"time":4,"i_long":106.723064,"i_lat":-6.162758,"station_name":"Rawa Buaya"},{"time":3,"distance":2504,"station_id":"KDS","transit":false,"station_name":"Kalideres","i_lat":-6.166068,"i_long":106.701612,"is_transit":false,"line":5},{"i_long":106.679458,"station_id":"PI","is_transit":false,"station_name":"Poris","distance":2548,"i_lat":-6.169933,"transit":false,"line":5,"time":3}],[{"station_name":"Matraman","station_id":"MTR","transit":false,"is_transit":false,"line":1,"i_long":106.858896,"i_lat":-6.212485,"distance":0,"time":0},{"station_name":"Jatinegara","is_transit":true,"transit":true,"i_lat":-6.215091,"time":8,"station_id":"JNG","line":1,"i_long":106.86807400000001,"distance":1377},{"transit":false,"time":2,"is_transit":false,"station_name":"Pondok Jati","distance":1236,"i_lat":-6.209188,"station_id":"POK","i_long":106.861737,"line":11},{"line":11,"time":2,"station_name":"Kramat","station_id":"KMT","i_long":106.855437,"is_transit":false,"transit":false,"distance":1829,"i_lat":-6.193792},{"line":11,"station_id":"GST","i_long":106.850107,"time":1,"is_transit":false,"transit":false,"station_name":"Gang Sentiong","i_lat":-6.185975,"distance":973},{"time":8,"station_id":"PSE","station_name":"Pasar Senen","distance":1567,"transit":false,"i_long":106.84368,"is_transit":false,"i_lat":-6.174784,"line":11},{"is_transit":false,"transit":false,"i_lat":-6.161728,"time":4,"i_long":106.839204,"line":11,"distance":1436,"station_name":"Kemayoran","station_id":"KMO"},{"distance":1901,"is_transit":false,"station_name":"Rajawali","i_long":106.836569,"transit":false,"station_id":"RJW","i_lat":-6.14505,"line":11,"time":5},{"time":3,"line":4,"is_transit":true,"distance":1444,"station_name":"Kampung Bandan","i_lat":-6.132549,"transit":true,"i_long":106.826365,"station_id":"KPB"},{"i_lat":-6.144674,"distance":4102,"is_transit":false,"time":9,"i_long":106.79867,"station_id":"AK","station_name":"Angke","line":1,"transit":false},{"distance":1230,"station_id":"DU","is_transit":true,"i_long":106.800832,"time":4,"i_lat":-6.155215,"line":1,"transit":true,"station_name":"Duri"},{"is_transit":false,"i_lat":-6.162021,"station_id":"GGL","station_name":"Grogol","time":3,"transit":false,"i_long":106.788277,"line":5,"distance":1700},{"distance":2036,"is_transit":false,"transit":false,"time":2,"station_id":"PSG","station_name":"Pesing","i_lat":-6.161433,"i_long":106.771379,"line":5},{"line":5,"station_name":"Taman Kota","i_lat":-6.1587309999999995,"i_long":106.756522,"distance":1614,"transit":false,"time":2,"station_id":"TKO","is_transit":false},{"station_id":"BOI","distance":2334,"time":2,"is_transit":false,"transit":false,"station_name":"Bojongindah","i_lat":-6.159876,"line":5,"i_long":106.737035},{"is_transit":false,"transit":false,"i_lat":-6.162758,"line":5,"station_id":"RW","station_name":"Rawa Buaya","distance":1152,"i_long":106.723064,"time":4},{"time":3,"is_transit":false,"i_lat":-6.166068,"station_name":"Kalideres","line":5,"station_id":"KDS","i_long":106.701612,"transit":false,"distance":2504},{"transit":false,"i_lat":-6.169933,"time":3,"line":5,"distance":2548,"station_name":"Poris","i_long":106.679458,"station_id":"PI","is_transit":false}],[{"distance":0,"transit":false,"time":0,"i_lat":-6.212485,"station_name":"Matraman","line":1,"is_transit":false,"i_long":106.858896,"station_id":"MTR"},{"i_long":106.84912,"is_transit":true,"time":2,"station_name":"Manggarai","line":2,"transit":true,"station_id":"MRI","i_lat":-6.209883,"distance":1275},{"line":2,"transit":false,"time":4,"station_name":"Cikini","is_transit":false,"station_id":"CKI","distance":1590,"i_long":106.840169,"i_lat":-6.198556},{"time":3,"distance":1750,"station_id":"GDD","station_name":"Gondangdia","i_long":106.832183,"is_transit":false,"line":2,"transit":false,"i_lat":-6.186295},{"station_id":"JUA","transit":false,"time":4,"is_transit":false,"i_lat":-6.166716,"station_name":"Juanda","line":2,"i_long":106.828284,"distance":2015},{"is_transit":false,"transit":false,"station_name":"Sawah Besar","i_long":106.827103,"i_lat":-6.160725,"station_id":"SW","distance":1149,"time":2,"line":2},{"transit":false,"is_transit":false,"time":2,"station_name":"Manggabesar","i_long":106.82482,"line":2,"i_lat":-6.149769,"distance":906,"station_id":"MGB"},{"distance":1080,"line":2,"is_transit":false,"i_lat":-6.141205,"transit":false,"station_id":"JAY","i_long":106.820901,"station_name":"Jayakarta","time":2},{"station_id":"JAKK","is_transit":true,"time":4,"i_lat":-6.137569,"line":2,"distance":1264,"i_long":106.812439,"station_name":"Jakarta Kota","transit":true},{"distance":1364,"is_transit":true,"station_id":"KPB","i_lat":-6.132549,"time":3,"transit":true,"line":4,"station_name":"Kampung Bandan","i_long":106.826365},{"line":1,"time":9,"i_long":106.79867,"station_id":"AK","is_transit":false,"station_name":"Angke","distance":4102,"transit":false,"i_lat":-6.144674},{"time":4,"station_id":"DU","line":1,"station_name":"Duri","i_long":106.800832,"transit":true,"i_lat":-6.155215,"is_transit":true,"distance":1230},{"distance":1700,"time":3,"transit":false,"station_name":"Grogol","is_transit":false,"i_lat":-6.162021,"i_long":106.788277,"line":5,"station_id":"GGL"},{"transit":false,"distance":2036,"station_id":"PSG","is_transit":false,"station_name":"Pesing","i_lat":-6.161433,"line":5,"i_long":106.771379,"time":2},{"time":2,"i_long":106.756522,"station_id":"TKO","transit":false,"distance":1614,"i_lat":-6.1587309999999995,"line":5,"station_name":"Taman Kota","is_transit":false},{"transit":false,"time":2,"i_long":106.737035,"is_transit":false,"distance":2334,"station_name":"Bojongindah","i_lat":-6.159876,"station_id":"BOI","line":5},{"line":5,"station_name":"Rawa Buaya","i_lat":-6.162758,"station_id":"RW","i_long":106.723064,"is_transit":false,"transit":false,"time":4,"distance":1152},{"distance":2504,"line":5,"i_long":106.701612,"i_lat":-6.166068,"is_transit":false,"station_id":"KDS","time":3,"transit":false,"station_name":"Kalideres"},{"is_transit":false,"time":3,"transit":false,"i_lat":-6.169933,"station_name":"Poris","station_id":"PI","line":5,"i_long":106.679458,"distance":2548}],[{"station_name":"Matraman","transit":false,"i_lat":-6.212485,"line":1,"distance":0,"station_id":"MTR","i_long":106.858896,"time":0,"is_transit":false},{"station_name":"Jatinegara","i_lat":-6.215091,"is_transit":true,"transit":true,"distance":1377,"time":8,"line":1,"i_long":106.86807400000001,"station_id":"JNG"},{"station_name":"Pondok Jati","is_transit":false,"time":2,"station_id":"POK","i_lat":-6.209188,"line":11,"distance":1236,"i_long":106.861737,"transit":false},{"transit":false,"station_name":"Kramat","line":11,"station_id":"KMT","time":2,"i_long":106.855437,"i_lat":-6.193792,"distance":1829,"is_transit":false},{"line":11,"is_transit":false,"time":1,"i_long":106.850107,"station_name":"Gang Sentiong","distance":973,"station_id":"GST","transit":false,"i_lat":-6.185975},{"line":11,"is_transit":false,"station_name":"Pasar Senen","i_lat":-6.174784,"transit":false,"station_id":"PSE","distance":1567,"time":8,"i_long":106.84368},{"i_lat":-6.161728,"transit":false,"station_name":"Kemayoran","i_long":106.839204,"is_transit":false,"line":11,"distance":1436,"station_id":"KMO","time":4},{"time":5,"distance":1901,"line":11,"is_transit":false,"i_long":106.836569,"i_lat":-6.14505,"station_name":"Rajawali","station_id":"RJW","transit":false},{"i_long":106.826365,"transit":true,"station_name":"Kampung Bandan","line":4,"is_transit":true,"time":3,"station_id":"KPB","distance":1444,"i_lat":-6.132549},{"station_name":"Jakarta Kota","station_id":"JAKK","i_long":106.812439,"i_lat":-6.137569,"time":3,"transit":true,"is_transit":true,"line":2,"distance":1364},{"i_lat":-6.141205,"i_long":106.820901,"transit":false,"time":4,"line":2,"station_id":"JAY","distance":1264,"station_name":"Jayakarta","is_transit":false},{"distance":1080,"time":2,"i_long":106.82482,"station_id":"MGB","is_transit":false,"i_lat":-6.149769,"station_name":"Manggabesar","line":2,"transit":false},{"station_id":"SW","transit":false,"line":2,"i_lat":-6.160725,"distance":906,"station_name":"Sawah Besar","is_transit":false,"time":2,"i_long":106.827103},{"station_name":"Juanda","i_lat":-6.166716,"i_long":106.828284,"line":2,"is_transit":false,"time":2,"station_id":"JUA","transit":false,"distance":1149},{"i_lat":-6.186295,"station_name":"Gondangdia","i_long":106.832183,"is_transit":false,"time":4,"station_id":"GDD","distance":2015,"line":2,"transit":false},{"station_name":"Cikini","i_long":106.840169,"station_id":"CKI","i_lat":-6.198556,"time":3,"line":2,"distance":1750,"transit":false,"is_transit":false},{"time":4,"station_id":"MRI","station_name":"Manggarai","distance":1590,"is_transit":true,"line":2,"transit":true,"i_lat":-6.209883,"i_long":106.84912},{"i_lat":-6.202263,"station_id":"SUD","distance":3186,"line":1,"i_long":106.822649,"station_name":"Sudirman","is_transit":false,"time":4,"transit":false},{"is_transit":false,"time":1,"transit":false,"distance":280,"i_long":106.819881,"station_id":"SUDB","station_name":"Sudirman Baru","line":1,"i_lat":-6.201433},{"is_transit":false,"time":1,"distance":471,"i_lat":-6.20132,"i_long":106.816351,"transit":false,"station_name":"Karet","line":1,"station_id":"KAT"},{"transit":false,"i_long":106.811091,"distance":2029,"time":5,"line":1,"station_id":"THB","station_name":"Tanah Abang","is_transit":false,"i_lat":-6.185545},{"transit":true,"station_name":"Duri","distance":3632,"station_id":"DU","time":8,"line":1,"is_transit":true,"i_long":106.800832,"i_lat":-6.155215},{"distance":1700,"is_transit":false,"station_name":"Grogol","i_long":106.788277,"transit":false,"time":3,"i_lat":-6.162021,"station_id":"GGL","line":5},{"station_name":"Pesing","i_lat":-6.161433,"line":5,"distance":2036,"station_id":"PSG","i_long":106.771379,"time":2,"is_transit":false,"transit":false},{"i_long":106.756522,"line":5,"transit":false,"i_lat":-6.1587309999999995,"is_transit":false,"station_name":"Taman Kota","distance":1614,"station_id":"TKO","time":2},{"transit":false,"distance":2334,"is_transit":false,"time":2,"station_name":"Bojongindah","i_long":106.737035,"i_lat":-6.159876,"station_id":"BOI","line":5},{"is_transit":false,"station_id":"RW","time":4,"i_long":106.723064,"transit":false,"station_name":"Rawa Buaya","i_lat":-6.162758,"line":5,"distance":1152},{"is_transit":false,"station_name":"Kalideres","line":5,"distance":2504,"transit":false,"station_id":"KDS","i_long":106.701612,"time":3,"i_lat":-6.166068},{"line":5,"distance":2548,"is_transit":false,"time":3,"station_id":"PI","station_name":"Poris","i_lat":-6.169933,"transit":false,"i_long":106.679458}]]}