{"data":[[{"is_transit":false,"i_long":106.858896,"time":0,"station_id":"MTR","line":1,"i_lat":-6.212485,"station_name":"Matraman","transit":false,"distance":0},{"time":8,"station_name":"Jatinegara","i_lat":-6.215091,"transit":false,"station_id":"JNG","line":1,"distance":1377,"i_long":106.86807400000001,"is_transit":false},{"is_transit":false,"time":3,"i_lat":-6.2135,"transit":false,"line":1,"station_id":"KLD","distance":3395,"i_long":106.899548,"station_name":"Klender"},{"i_lat":-6.215568,"transit":false,"i_long":106.922662,"station_name":"Buaran","time":2,"station_id":"BUA","line":1,"distance":3100,"is_transit":false},{"distance":1305,"i_long":106.939679,"i_lat":-6.217455,"time":1,"transit":false,"station_name":"Klenderbaru","is_transit":false,"line":1,"station_id":"KLDB"},{"time":8,"i_lat":-6.219053,"transit":false,"line":1,"distance":1385,"i_long":106.951283,"is_transit":false,"station_id":"CUK","station_name":"Cakung"},{"distance":3097,"i_lat":-6.224515,"station_id":"KRI","station_name":"Kranji","time":3,"transit":false,"is_transit":false,"i_long":106.977657,"line":1},{"i_lat":-6.236616,"transit":false,"line":1,"station_name":"Bekasi","time":4,"distance":2520,"i_long":106.997013,"station_id":"BKS","is_transit":false},{"is_transit":false,"transit":false,"time":2,"station_name":"Bekasi Timur","i_long":107.016735,"i_lat":-6.248029,"station_id":"BKST","distance":2368,"line":1}],[{"line":1,"distance":0,"station_name":"Matraman","i_long":106.858896,"is_transit":false,"time":0,"transit":false,"station_id":"MTR","i_lat":-6.212485},{"distance":1275,"i_long":106.84912,"station_name":"Manggarai","is_transit":false,"station_id":"MRI","transit":false,"time":2,"line":2,"i_lat":-6.209883},{"is_transit":false,"i_lat":-6.202263,"line":1,"time":4,"station_name":"Sudirman","distance":3186,"transit":false,"station_id":"SUD","i_long":106.822649},{"i_lat":-6.201433,"i_long":106.819881,"station_name":"Sudirman Baru","line":1,"is_transit":false,"station_id":"SUDB","transit":false,"time":1,"distance":280},{"is_transit":false,"i_lat":-6.20132,"distance":471,"time":1,"line":1,"station_name":"Karet","station_id":"KAT","i_long":106.816351,"transit":false},{"station_id":"THB","distance":2029,"line":1,"transit":false,"time":5,"is_transit":false,"i_long":106.811091,"i_lat":-6.185545,"station_name":"Tanah Abang"},{"distance":3632,"i_long":106.800832,"station_name":"Duri","i_lat":-6.155215,"line":1,"is_transit":false,"transit":false,"time":8,"station_id":"DU"},{"station_name":"Angke","i_long":106.79867,"transit":false,"distance":1230,"is_transit":false,"station_id":"AK","time":4,"i_lat":-6.144674,"line":1},{"line":4,"distance":4102,"i_long":106.826365,"station_name":"Kampung Bandan","i_lat":-6.132549,"is_transit":true,"time":9,"station_id":"KPB","transit":true},{"line":11,"is_transit":false,"i_long":106.836569,"distance":1444,"transit":false,"station_id":"RJW","time":3,"station_name":"Rajawali","i_lat":-6.14505},{"line":11,"distance":1901,"time":5,"i_lat":-6.161728,"station_name":"Kemayoran","i_long":106.839204,"station_id":"KMO","transit":false,"is_transit":false},{"station_id":"PSE","distance":1436,"i_long":106.84368,"transit":false,"station_name":"Pasar Senen","time":4,"is_transit":false,"i_lat":-6.174784,"line":11},{"line":11,"is_transit":false,"distance":1567,"i_lat":-6.185975,"time":8,"i_long":106.850107,"transit":false,"station_name":"Gang Sentiong","station_id":"GST"},{"distance":973,"station_name":"Kramat","transit":false,"time":1,"i_long":106.855437,"station_id":"KMT","is_transit":false,"i_lat":-6.193792,"line":11},{"station_name":"Pondok Jati","is_transit":false,"i_lat":-6.209188,"line":11,"distance":1829,"time":2,"station_id":"POK","i_long":106.861737,"transit":false},{"time":9,"distance":1236,"station_id":"JNG","station_name":"Jatinegara","line":1,"transit":true,"i_long":106.86807400000001,"is_transit":true,"i_lat":-6.215091},{"i_long":106.899548,"line":1,"station_id":"KLD","time":3,"distance":3395,"transit":false,"station_name":"Klender","i_lat":-6.2135,"is_transit":false},{"is_transit":false,"i_long":106.922662,"line":1,"station_name":"Buaran","time":2,"station_id":"BUA","distance":3100,"i_lat":-6.215568,"transit":false},{"distance":1305,"i_long":106.939679,"time":1,"line":1,"station_id":"KLDB","transit":false,"station_name":"Klenderbaru","i_lat":-6.217455,"is_transit":false},{"station_id":"CUK","distance":1385,"i_long":106.951283,"time":8,"is_transit":false,"i_lat":-6.219053,"transit":false,"station_name":"Cakung","line":1},{"line":1,"distance":3097,"transit":false,"station_name":"Kranji","station_id":"KRI","i_lat":-6.224515,"is_transit":false,"time":3,"i_long":106.977657},{"i_lat":-6.236616,"i_long":106.997013,"line":1,"station_id":"BKS","time":4,"station_name":"Bekasi","transit":false,"is_transit":false,"distance":2520},{"time":2,"i_lat":-6.248029,"is_transit":false,"station_name":"Bekasi Timur","line":1,"i_long":107.016735,"distance":2368,"transit":false,"station_id":"BKST"}],[{"i_lat":-6.212485,"is_transit":false,"transit":false,"distance":0,"line":1,"i_long":106.858896,"station_name":"Matraman","time":0,"station_id":"MTR"},{"station_id":"MRI","distance":1275,"i_lat":-6.209883,"is_transit":true,"station_name":"Manggarai","time":2,"i_long":106.84912,"line":2,"transit":true},{"line":2,"i_lat":-6.198556,"station_id":"CKI","time":4,"is_transit":false,"distance":1590,"transit":false,"station_name":"Cikini","i_long":106.840169},{"station_name":"Gondangdia","is_transit":false,"distance":1750,"line":2,"i_lat":-6.186295,"time":3,"i_long":106.832183,"station_id":"GDD","transit":false},{"transit":false,"station_id":"JUA","is_transit":false,"line":2,"i_lat":-6.166716,"i_long":106.828284,"station_name":"Juanda","distance":2015,"time":4},{"transit":false,"i_lat":-6.160725,"station_id":"SW","is_transit":false,"line":2,"time":2,"station_name":"Sawah Besar","distance":1149,"i_long":106.827103},{"i_long":106.82482,"transit":false,"time":2,"is_transit":false,"i_lat":-6.149769,"line":2,"station_id":"MGB","distance":906,"station_name":"Manggabesar"},{"distance":1080,"i_lat":-6.141205,"line":2,"time":2,"station_id":"JAY","is_transit":false,"i_long":106.820901,"station_name":"Jayakarta","transit":false},{"i_long":106.812439,"i_lat":-6.137569,"time":4,"station_name":"Jakarta Kota","is_transit":true,"distance":1264,"line":2,"transit":true,"station_id":"JAKK"},{"station_id":"KPB","time":3,"distance":1364,"i_lat":-6.132549,"station_name":"Kampung Bandan","i_long":106.826365,"line":4,"is_transit":true,"transit":true},{"distance":1444,"transit":false,"station_name":"Rajawali","station_id":"RJW","time":3,"i_long":106.836569,"i_lat":-6.14505,"is_transit":false,"line":11},{"i_long":106.839204,"is_transit":false,"station_id":"KMO","i_lat":-6.161728,"line":11,"transit":false,"time":5,"distance":1901,"station_name":"Kemayoran"},{"distance":1436,"is_transit":false,"i_lat":-6.174784,"station_name":"Pasar Senen","station_id":"PSE","time":4,"line":11,"transit":false,"i_long":106.84368},{"station_id":"GST","transit":false,"station_name":"Gang Sentiong","is_transit":false,"time":8,"i_lat":-6.185975,"i_long":106.850107,"line":11,"distance":1567},{"station_id":"KMT","i_lat":-6.193792,"time":1,"transit":false,"station_name":"Kramat","i_long":106.855437,"is_transit":false,"distance":973,"line":11},{"is_transit":false,"distance":1829,"time":2,"i_long":106.861737,"station_name":"Pondok Jati","station_id":"POK","i_lat":-6.209188,"line":11,"transit":false},{"i_lat":-6.215091,"transit":true,"station_id":"JNG","distance":1236,"i_long":106.86807400000001,"station_name":"Jatinegara","line":1,"is_transit":true,"time":9},{"transit":false,"i_lat":-6.2135,"line":1,"station_name":"Klender","is_transit":false,"station_id":"KLD","time":3,"distance":3395,"i_long":106.899548},{"i_long":106.922662,"transit":false,"station_name":"Buaran","distance":3100,"line":1,"is_transit":false,"station_id":"BUA","i_lat":-6.215568,"time":2},{"is_transit":false,"i_lat":-6.217455,"station_id":"KLDB","line":1,"transit":false,"time":1,"distance":1305,"i_long":106.939679,"station_name":"Klenderbaru"},{"line":1,"is_transit":false,"transit":false,"station_name":"Cakung","time":8,"distance":1385,"i_lat":-6.219053,"i_long":106.951283,"station_id":"CUK"},{"distance":3097,"transit":false,"line":1,"time":3,"i_lat":-6.224515,"station_id":"KRI","station_name":"Kranji","i_long":106.977657,"is_transit":false},{"is_transit":false,"line":1,"i_long":106.997013,"distance":2520,"transit":false,"station_id":"BKS","time":4,"i_lat":-6.236616,"station_name":"Bekasi"},{"time":2,"station_name":"Bekasi Timur","is_transit":false,"line":1,"station_id":"BKST","distance":2368,"i_lat":-6.248029,"i_long":107.016735,"transit":false}]]}