{"data":[[{"station_id":"MTR","is_transit":false,"station_name":"Matraman","time":0,"distance":0,"i_long":106.858896,"i_lat":-6.212485,"transit":false,"line":1},{"time":8,"station_id":"JNG","i_lat":-6.215091,"i_long":106.86807400000001,"station_name":"Jatinegara","transit":false,"distance":1377,"line":1,"is_transit":false},{"i_long":106.899548,"time":3,"line":1,"transit":false,"i_lat":-6.2135,"station_id":"KLD","station_name":"Klender","distance":3395,"is_transit":false},{"station_id":"BUA","line":1,"transit":false,"i_lat":-6.215568,"distance":3100,"i_long":106.922662,"is_transit":false,"time":2,"station_name":"Buaran"},{"distance":1305,"transit":false,"station_name":"Klenderbaru","is_transit":false,"station_id":"KLDB","time":1,"i_lat":-6.217455,"line":1,"i_long":106.939679},{"station_name":"Cakung","is_transit":false,"line":1,"station_id":"CUK","transit":false,"i_lat":-6.219053,"time":8,"i_long":106.951283,"distance":1385},{"time":3,"line":1,"distance":3097,"transit":false,"station_id":"KRI","station_name":"Kranji","i_lat":-6.224515,"i_long":106.977657,"is_transit":false},{"distance":2520,"is_transit":false,"station_id":"BKS","i_long":106.997013,"transit":false,"station_name":"Bekasi","time":4,"i_lat":-6.236616,"line":1},{"transit":false,"i_lat":-6.248029,"i_long":107.016735,"distance":2368,"is_transit":false,"station_id":"BKST","line":1,"station_name":"Bekasi Timur","time":2},{"is_transit":false,"line":1,"distance":4460,"station_name":"Tambun","i_lat":-6.258864,"i_long":107.055722,"time":7,"transit":false,"station_id":"TB"},{"line":1,"i_lat":-6.261877,"station_name":"Cibitung","station_id":"CIT","is_transit":false,"i_long":107.083084,"distance":3420,"transit":false,"time":3},{"i_lat":-6.262938,"station_id":"TLM","distance":2800,"time":2,"transit":false,"i_long":107.093313,"is_transit":false,"station_name":"Metland Telaga Murni","line":1},{"transit":false,"station_id":"CKR","distance":3689,"i_long":107.144613,"station_name":"Cikarang","time":4,"line":1,"is_transit":false,"i_lat":-6.2553149999999995}],[{"is_transit":false,"i_lat":-6.212485,"i_long":106.858896,"time":0,"station_id":"MTR","transit":false,"line":1,"station_name":"Matraman","distance":0},{"time":2,"is_transit":false,"transit":false,"i_long":106.84912,"station_id":"MRI","distance":1275,"i_lat":-6.209883,"line":2,"station_name":"Manggarai"},{"transit":false,"is_transit":false,"distance":3186,"station_id":"SUD","i_lat":-6.202263,"station_name":"Sudirman","i_long":106.822649,"time":4,"line":1},{"time":1,"distance":280,"station_id":"SUDB","i_long":106.819881,"station_name":"Sudirman Baru","i_lat":-6.201433,"transit":false,"is_transit":false,"line":1},{"line":1,"distance":471,"transit":false,"i_lat":-6.20132,"station_name":"Karet","is_transit":false,"i_long":106.816351,"station_id":"KAT","time":1},{"station_name":"Tanah Abang","transit":false,"i_long":106.811091,"time":5,"is_transit":false,"i_lat":-6.185545,"distance":2029,"station_id":"THB","line":1},{"distance":3632,"is_transit":false,"i_long":106.800832,"line":1,"time":8,"station_id":"DU","i_lat":-6.155215,"transit":false,"station_name":"Duri"},{"i_lat":-6.144674,"transit":false,"time":4,"i_long":106.79867,"station_id":"AK","is_transit":false,"station_name":"Angke","line":1,"distance":1230},{"is_transit":true,"station_id":"KPB","distance":4102,"time":9,"i_lat":-6.132549,"i_long":106.826365,"station_name":"Kampung Bandan","transit":true,"line":4},{"station_name":"Rajawali","i_long":106.836569,"time":3,"transit":false,"is_transit":false,"station_id":"RJW","distance":1444,"i_lat":-6.14505,"line":11},{"distance":1901,"station_name":"Kemayoran","time":5,"i_lat":-6.161728,"is_transit":false,"line":11,"station_id":"KMO","transit":false,"i_long":106.839204},{"transit":false,"i_lat":-6.174784,"distance":1436,"is_transit":false,"station_name":"Pasar Senen","i_long":106.84368,"line":11,"time":4,"station_id":"PSE"},{"distance":1567,"station_name":"Gang Sentiong","station_id":"GST","transit":false,"i_long":106.850107,"is_transit":false,"time":8,"line":11,"i_lat":-6.185975},{"i_long":106.855437,"station_name":"Kramat","time":1,"distance":973,"line":11,"is_transit":false,"i_lat":-6.193792,"transit":false,"station_id":"KMT"},{"line":11,"i_lat":-6.209188,"station_id":"POK","is_transit":false,"i_long":106.861737,"distance":1829,"transit":false,"time":2,"station_name":"Pondok Jati"},{"station_id":"JNG","distance":1236,"is_transit":true,"transit":true,"i_long":106.86807400000001,"time":9,"station_name":"Jatinegara","line":1,"i_lat":-6.215091},{"transit":false,"distance":3395,"time":3,"is_transit":false,"station_id":"KLD","i_long":106.899548,"i_lat":-6.2135,"line":1,"station_name":"Klender"},{"time":2,"station_name":"Buaran","transit":false,"i_long":106.922662,"is_transit":false,"station_id":"BUA","i_lat":-6.215568,"distance":3100,"line":1},{"i_lat":-6.217455,"i_long":106.939679,"transit":false,"time":1,"is_transit":false,"station_id":"KLDB","distance":1305,"line":1,"station_name":"Klenderbaru"},{"station_name":"Cakung","i_lat":-6.219053,"i_long":106.951283,"station_id":"CUK","line":1,"time":8,"is_transit":false,"transit":false,"distance":1385},{"transit":false,"i_lat":-6.224515,"station_name":"Kranji","line":1,"distance":3097,"station_id":"KRI","is_transit":false,"time":3,"i_long":106.977657},{"i_long":106.997013,"line":1,"station_name":"Bekasi","station_id":"BKS","is_transit":false,"i_lat":-6.236616,"transit":false,"time":4,"distance":2520},{"station_name":"Bekasi Timur","time":2,"i_long":107.016735,"is_transit":false,"line":1,"distance":2368,"transit":false,"i_lat":-6.248029,"station_id":"BKST"},{"i_long":107.055722,"transit":false,"distance":4460,"is_transit":false,"i_lat":-6.258864,"time":7,"line":1,"station_name":"Tambun","station_id":"TB"},{"station_id":"CIT","transit":false,"station_name":"Cibitung","line":1,"time":3,"is_transit":false,"i_long":107.083084,"i_lat":-6.261877,"distance":3420},{"station_id":"TLM","distance":2800,"is_transit":false,"i_lat":-6.262938,"line":1,"transit":false,"time":2,"station_name":"Metland Telaga Murni","i_long":107.093313},{"line":1,"is_transit":false,"i_long":107.144613,"station_id":"CKR","time":4,"transit":false,"distance":3689,"station_name":"Cikarang","i_lat":-6.2553149999999995}],[{"station_name":"Matraman","i_lat":-6.212485,"distance":0,"i_long":106.858896,"transit":false,"is_transit":false,"time":0,"station_id":"MTR","line":1},{"i_long":106.84912,"line":2,"station_id":"MRI","distance":1275,"station_name":"Manggarai","i_lat":-6.209883,"time":2,"is_transit":true,"transit":true},{"i_lat":-6.198556,"line":2,"transit":false,"station_name":"Cikini","time":4,"i_long":106.840169,"distance":1590,"station_id":"CKI","is_transit":false},{"transit":false,"i_lat":-6.186295,"i_long":106.832183,"distance":1750,"station_name":"Gondangdia","line":2,"time":3,"is_transit":false,"station_id":"GDD"},{"i_long":106.828284,"station_id":"JUA","distance":2015,"station_name":"Juanda","line":2,"i_lat":-6.166716,"transit":false,"is_transit":false,"time":4},{"i_lat":-6.160725,"distance":1149,"station_id":"SW","line":2,"transit":false,"is_transit":false,"time":2,"station_name":"Sawah Besar","i_long":106.827103},{"i_long":106.82482,"station_name":"Manggabesar","transit":false,"time":2,"distance":906,"station_id":"MGB","line":2,"is_transit":false,"i_lat":-6.149769},{"time":2,"i_lat":-6.141205,"i_long":106.820901,"station_name":"Jayakarta","station_id":"JAY","transit":false,"is_transit":false,"line":2,"distance":1080},{"station_name":"Jakarta Kota","i_lat":-6.137569,"station_id":"JAKK","is_transit":true,"i_long":106.812439,"distance":1264,"time":4,"line":2,"transit":true},{"distance":1364,"station_name":"Kampung Bandan","station_id":"KPB","time":3,"transit":true,"is_transit":true,"i_long":106.826365,"i_lat":-6.132549,"line":4},{"time":3,"is_transit":false,"transit":false,"i_lat":-6.14505,"station_name":"Rajawali","line":11,"distance":1444,"station_id":"RJW","i_long":106.836569},{"distance":1901,"station_id":"KMO","time":5,"transit":false,"station_name":"Kemayoran","i_long":106.839204,"line":11,"is_transit":false,"i_lat":-6.161728},{"i_long":106.84368,"station_id":"PSE","i_lat":-6.174784,"time":4,"line":11,"distance":1436,"transit":false,"is_transit":false,"station_name":"Pasar Senen"},{"i_long":106.850107,"i_lat":-6.185975,"transit":false,"time":8,"distance":1567,"station_id":"GST","station_name":"Gang Sentiong","is_transit":false,"line":11},{"is_transit":false,"i_lat":-6.193792,"distance":973,"time":1,"transit":false,"station_name":"Kramat","i_long":106.855437,"line":11,"station_id":"KMT"},{"is_transit":false,"transit":false,"i_lat":-6.209188,"station_id":"POK","i_long":106.861737,"time":2,"line":11,"distance":1829,"station_name":"Pondok Jati"},{"i_lat":-6.215091,"transit":true,"distance":1236,"is_transit":true,"station_id":"JNG","station_name":"Jatinegara","line":1,"time":9,"i_long":106.86807400000001},{"station_id":"KLD","distance":3395,"time":3,"line":1,"transit":false,"station_name":"Klender","i_lat":-6.2135,"is_transit":false,"i_long":106.899548},{"time":2,"transit":false,"station_id":"BUA","distance":3100,"i_lat":-6.215568,"i_long":106.922662,"line":1,"station_name":"Buaran","is_transit":false},{"is_transit":false,"time":1,"transit":false,"i_lat":-6.217455,"distance":1305,"i_long":106.939679,"station_id":"KLDB","line":1,"station_name":"Klenderbaru"},{"distance":1385,"i_lat":-6.219053,"transit":false,"is_transit":false,"station_id":"CUK","time":8,"line":1,"station_name":"Cakung","i_long":106.951283},{"station_id":"KRI","time":3,"transit":false,"i_long":106.977657,"line":1,"station_name":"Kranji","is_transit":false,"distance":3097,"i_lat":-6.224515},{"i_long":106.997013,"transit":false,"station_name":"Bekasi","time":4,"line":1,"is_transit":false,"i_lat":-6.236616,"station_id":"BKS","distance":2520},{"time":2,"station_name":"Bekasi Timur","line":1,"distance":2368,"i_long":107.016735,"transit":false,"is_transit":false,"i_lat":-6.248029,"station_id":"BKST"},{"distance":4460,"i_lat":-6.258864,"station_id":"TB","station_name":"Tambun","i_long":107.055722,"time":7,"transit":false,"line":1,"is_transit":false},{"distance":3420,"station_name":"Cibitung","i_long":107.083084,"time":3,"i_lat":-6.261877,"transit":false,"is_transit":false,"station_id":"CIT","line":1},{"is_transit":false,"distance":2800,"line":1,"i_lat":-6.262938,"station_name":"Metland Telaga Murni","i_long":107.093313,"transit":false,"station_id":"TLM","time":2},{"i_long":107.144613,"line":1,"distance":3689,"is_transit":false,"transit":false,"i_lat":-6.2553149999999995,"time":4,"station_id":"CKR","station_name":"Cikarang"}]]}