{"data":[[{"station_id":"MTR","i_long":106.858896,"station_name":"Matraman","is_transit":false,"transit":false,"line":1,"distance":0,"i_lat":-6.212485,"time":0},{"line":0,"station_name":"Manggarai","i_long":106.84912,"distance":1275,"is_transit":true,"time":2,"station_id":"MRI","i_lat":-6.209883,"transit":false},{"is_transit":false,"i_long":106.822649,"line":1,"station_id":"SUD","i_lat":-6.202263,"distance":3186,"time":4,"station_name":"Sudirman","transit":false},{"i_lat":-6.201433,"distance":280,"station_name":"Sudirman Baru","is_transit":false,"time":1,"station_id":"SUDB","i_long":106.819881,"line":1,"transit":false},{"station_name":"Karet","i_long":106.816351,"line":1,"transit":false,"station_id":"KAT","distance":471,"time":1,"i_lat":-6.20132,"is_transit":false},{"line":1,"station_name":"Tanah Abang","transit":true,"distance":2029,"is_transit":true,"time":5,"i_long":106.811091,"station_id":"THB","i_lat":-6.185545},{"is_transit":false,"transit":false,"i_long":106.79689,"distance":3191,"time":6,"line":6,"station_id":"PLM","station_name":"Palmerah","i_lat":-6.207404},{"i_lat":-6.237242,"station_name":"Kebayoran","i_long":106.780334,"is_transit":false,"transit":false,"station_id":"KBY","line":6,"time":7,"distance":3737},{"is_transit":false,"transit":false,"station_id":"PDJ","time":8,"station_name":"Pondokranji","distance":6218,"i_lat":-6.276362,"i_long":106.74273,"line":6},{"station_name":"Jurangmangu","i_long":106.728916,"is_transit":false,"transit":false,"line":6,"time":3,"i_lat":-6.288927,"distance":2179,"station_id":"JMU"},{"time":4,"is_transit":false,"station_name":"Sudimara","distance":1994,"station_id":"SDM","i_long":106.712277,"i_lat":-6.296963,"line":6,"transit":false},{"distance":4566,"time":6,"station_name":"Rawa Buntu","i_long":106.675475,"i_lat":-6.314823,"is_transit":false,"station_id":"RU","transit":false,"line":6},{"distance":2413,"i_long":106.66566,"station_id":"SRP","i_lat":-6.319871,"line":6,"is_transit":false,"station_name":"Serpong","time":4,"transit":false},{"i_lat":-6.32484,"transit":false,"station_id":"CSK","station_name":"Cisauk","distance":1784,"line":0,"is_transit":false,"time":4,"i_long":106.640411},{"station_id":"CC","station_name":"Cicayur","distance":2519,"line":0,"time":4,"transit":false,"is_transit":false,"i_lat":-6.329547,"i_long":106.617853},{"distance":5968,"is_transit":false,"i_lat":-6.3441410000000005,"time":8,"transit":false,"station_name":"Parung Panjang","line":6,"station_id":"PRP","i_long":106.568863},{"transit":false,"station_name":"Cilejit","i_lat":-6.354349,"line":0,"i_long":106.508482,"station_id":"CJT","distance":7025,"is_transit":false,"time":9},{"distance":2675,"station_name":"Daru","i_long":106.491338,"station_id":"DAR","is_transit":false,"line":0,"transit":false,"time":6,"i_lat":-6.338021},{"i_long":106.460812,"distance":3902,"transit":false,"station_name":"Tenjo","i_lat":-6.327251,"time":5,"is_transit":false,"station_id":"TEJ","line":6},{"time":5,"i_lat":-6.328533,"i_long":106.425991,"line":6,"is_transit":false,"station_name":"Tigaraksa","distance":2974,"station_id":"TGS","transit":false},{"line":0,"transit":false,"time":3,"is_transit":false,"i_lat":-6.33561,"i_long":106.411216,"distance":2651,"station_id":"CKY","station_name":"Cikoya"},{"time":4,"station_name":"Maja","i_long":106.394373,"transit":false,"line":6,"station_id":"MJ","distance":1853,"is_transit":false,"i_lat":-6.332307},{"station_name":"Citeras","time":10,"i_lat":-6.334892,"line":0,"distance":7293,"i_long":106.332092,"is_transit":false,"station_id":"CTR","transit":false},{"is_transit":true,"time":13,"station_id":"RK","distance":9847,"station_name":"Rangkasbitung","i_long":106.250396,"i_lat":-6.352675,"line":0,"transit":false}],[{"i_long":106.858896,"transit":false,"is_transit":false,"station_name":"Matraman","station_id":"MTR","line":1,"distance":0,"time":0,"i_lat":-6.212485},{"station_name":"Jatinegara","time":8,"station_id":"JNG","is_transit":true,"i_lat":-6.215091,"distance":1377,"line":0,"i_long":106.86807400000001,"transit":true},{"transit":false,"is_transit":false,"station_name":"Pondok Jati","time":2,"i_lat":-6.209188,"i_long":106.861737,"line":11,"station_id":"POK","distance":1236},{"i_long":106.855437,"distance":1829,"is_transit":false,"station_id":"KMT","time":2,"line":11,"i_lat":-6.193792,"station_name":"Kramat","transit":false},{"station_name":"Gang Sentiong","distance":973,"line":11,"is_transit":false,"time":1,"i_long":106.850107,"transit":false,"i_lat":-6.185975,"station_id":"GST"},{"line":11,"station_id":"PSE","transit":false,"i_lat":-6.174784,"is_transit":false,"station_name":"Pasar Senen","time":8,"i_long":106.84368,"distance":1567},{"station_name":"Kemayoran","is_transit":false,"i_lat":-6.161728,"transit":false,"distance":1436,"time":4,"i_long":106.839204,"station_id":"KMO","line":11},{"i_long":106.836569,"is_transit":false,"distance":1901,"i_lat":-6.14505,"line":11,"transit":false,"station_id":"RJW","station_name":"Rajawali","time":5},{"transit":true,"line":0,"station_id":"KPB","distance":1444,"time":3,"i_long":106.826365,"is_transit":true,"i_lat":-6.132549,"station_name":"Kampung Bandan"},{"line":0,"station_name":"Angke","i_lat":-6.144674,"distance":4102,"i_long":106.79867,"is_transit":false,"station_id":"AK","time":9,"transit":false},{"i_lat":-6.155215,"i_long":106.800832,"is_transit":true,"transit":true,"line":1,"station_id":"DU","time":4,"distance":1230,"station_name":"Duri"},{"i_long":106.811091,"transit":true,"station_name":"Tanah Abang","distance":3632,"i_lat":-6.185545,"is_transit":true,"line":1,"time":8,"station_id":"THB"},{"i_long":106.79689,"station_name":"Palmerah","line":6,"time":6,"station_id":"PLM","is_transit":false,"distance":3191,"transit":false,"i_lat":-6.207404},{"time":7,"line":6,"distance":3737,"is_transit":false,"station_id":"KBY","i_lat":-6.237242,"station_name":"Kebayoran","transit":false,"i_long":106.780334},{"i_long":106.74273,"i_lat":-6.276362,"transit":false,"line":6,"distance":6218,"time":8,"station_id":"PDJ","is_transit":false,"station_name":"Pondokranji"},{"i_lat":-6.288927,"station_id":"JMU","time":3,"i_long":106.728916,"is_transit":false,"line":6,"transit":false,"station_name":"Jurangmangu","distance":2179},{"line":6,"is_transit":false,"time":4,"distance":1994,"transit":false,"i_lat":-6.296963,"station_id":"SDM","i_long":106.712277,"station_name":"Sudimara"},{"i_lat":-6.314823,"time":6,"i_long":106.675475,"distance":4566,"station_name":"Rawa Buntu","is_transit":false,"station_id":"RU","transit":false,"line":6},{"distance":2413,"time":4,"i_long":106.66566,"transit":false,"station_name":"Serpong","station_id":"SRP","is_transit":false,"line":6,"i_lat":-6.319871},{"distance":1784,"station_name":"Cisauk","transit":false,"i_lat":-6.32484,"station_id":"CSK","time":4,"is_transit":false,"i_long":106.640411,"line":0},{"transit":false,"time":4,"station_name":"Cicayur","line":0,"station_id":"CC","distance":2519,"is_transit":false,"i_lat":-6.329547,"i_long":106.617853},{"transit":false,"i_long":106.568863,"is_transit":false,"station_name":"Parung Panjang","distance":5968,"i_lat":-6.3441410000000005,"line":6,"time":8,"station_id":"PRP"},{"i_lat":-6.354349,"time":9,"line":0,"station_name":"Cilejit","i_long":106.508482,"is_transit":false,"station_id":"CJT","distance":7025,"transit":false},{"station_id":"DAR","distance":2675,"line":0,"i_long":106.491338,"station_name":"Daru","time":6,"is_transit":false,"i_lat":-6.338021,"transit":false},{"transit":false,"i_lat":-6.327251,"station_id":"TEJ","line":6,"time":5,"is_transit":false,"i_long":106.460812,"distance":3902,"station_name":"Tenjo"},{"is_transit":false,"i_long":106.425991,"i_lat":-6.328533,"station_id":"TGS","distance":2974,"transit":false,"time":5,"station_name":"Tigaraksa","line":6},{"distance":2651,"is_transit":false,"station_name":"Cikoya","time":3,"transit":false,"station_id":"CKY","i_lat":-6.33561,"i_long":106.411216,"line":0},{"i_lat":-6.332307,"distance":1853,"time":4,"station_id":"MJ","is_transit":false,"line":6,"station_name":"Maja","i_long":106.394373,"transit":false},{"station_id":"CTR","is_transit":false,"i_lat":-6.334892,"i_long":106.332092,"station_name":"Citeras","distance":7293,"time":10,"line":0,"transit":false},{"station_name":"Rangkasbitung","i_lat":-6.352675,"distance":9847,"station_id":"RK","i_long":106.250396,"is_transit":true,"transit":false,"time":13,"line":0}],[{"time":0,"station_name":"Matraman","is_transit":false,"station_id":"MTR","i_long":106.858896,"distance":0,"i_lat":-6.212485,"transit":false,"line":1},{"line":0,"distance":1275,"is_transit":true,"station_id":"MRI","transit":true,"i_lat":-6.209883,"station_name":"Manggarai","time":2,"i_long":106.84912},{"station_name":"Cikini","i_lat":-6.198556,"time":4,"distance":1590,"is_transit":false,"i_long":106.840169,"station_id":"CKI","line":0,"transit":false},{"station_id":"GDD","i_lat":-6.186295,"line":2,"station_name":"Gondangdia","transit":false,"time":3,"is_transit":false,"distance":1750,"i_long":106.832183},{"i_lat":-6.166716,"distance":2015,"station_id":"JUA","station_name":"Juanda","line":2,"time":4,"i_long":106.828284,"is_transit":false,"transit":false},{"is_transit":false,"distance":1149,"station_name":"Sawah Besar","transit":false,"time":2,"station_id":"SW","line":2,"i_lat":-6.160725,"i_long":106.827103},{"station_id":"MGB","is_transit":false,"station_name":"Manggabesar","transit":false,"line":2,"distance":906,"i_lat":-6.149769,"time":2,"i_long":106.82482},{"is_transit":false,"transit":false,"time":2,"line":7,"i_lat":-6.141205,"station_id":"JAY","i_long":106.820901,"station_name":"Jayakarta","distance":1080},{"i_long":106.812439,"station_id":"JAKK","distance":1264,"is_transit":true,"transit":true,"line":0,"i_lat":-6.137569,"station_name":"Jakarta Kota","time":4},{"is_transit":true,"station_name":"Kampung Bandan","i_lat":-6.132549,"station_id":"KPB","line":0,"time":3,"i_long":106.826365,"distance":1364,"transit":false},{"time":9,"i_lat":-6.144674,"i_long":106.79867,"station_id":"AK","station_name":"Angke","line":0,"distance":4102,"transit":false,"is_transit":false},{"i_lat":-6.155215,"station_id":"DU","transit":true,"line":1,"station_name":"Duri","is_transit":true,"i_long":106.800832,"time":4,"distance":1230},{"station_name":"Tanah Abang","time":8,"i_long":106.811091,"line":1,"station_id":"THB","i_lat":-6.185545,"is_transit":true,"transit":true,"distance":3632},{"time":6,"transit":false,"i_lat":-6.207404,"i_long":106.79689,"is_transit":false,"station_id":"PLM","line":6,"station_name":"Palmerah","distance":3191},{"i_long":106.780334,"i_lat":-6.237242,"is_transit":false,"line":6,"station_name":"Kebayoran","distance":3737,"time":7,"transit":false,"station_id":"KBY"},{"station_id":"PDJ","i_lat":-6.276362,"line":6,"distance":6218,"station_name":"Pondokranji","is_transit":false,"transit":false,"time":8,"i_long":106.74273},{"is_transit":false,"transit":false,"station_id":"JMU","i_long":106.728916,"i_lat":-6.288927,"distance":2179,"time":3,"station_name":"Jurangmangu","line":6},{"station_id":"SDM","line":6,"is_transit":false,"i_lat":-6.296963,"station_name":"Sudimara","i_long":106.712277,"transit":false,"distance":1994,"time":4},{"time":6,"line":6,"i_long":106.675475,"station_id":"RU","is_transit":false,"transit":false,"distance":4566,"station_name":"Rawa Buntu","i_lat":-6.314823},{"distance":2413,"is_transit":false,"station_name":"Serpong","time":4,"line":6,"transit":false,"i_lat":-6.319871,"i_long":106.66566,"station_id":"SRP"},{"station_id":"CSK","i_long":106.640411,"transit":false,"station_name":"Cisauk","distance":1784,"line":0,"i_lat":-6.32484,"is_transit":false,"time":4},{"transit":false,"time":4,"i_lat":-6.329547,"i_long":106.617853,"station_name":"Cicayur","line":0,"distance":2519,"is_transit":false,"station_id":"CC"},{"station_id":"PRP","time":8,"is_transit":false,"transit":false,"i_lat":-6.3441410000000005,"station_name":"Parung Panjang","line":6,"distance":5968,"i_long":106.568863},{"i_long":106.508482,"distance":7025,"station_name":"Cilejit","transit":false,"station_id":"CJT","is_transit":false,"line":0,"time":9,"i_lat":-6.354349},{"line":0,"distance":2675,"i_long":106.491338,"station_id":"DAR","transit":false,"time":6,"station_name":"Daru","is_transit":false,"i_lat":-6.338021},{"time":5,"distance":3902,"transit":false,"i_lat":-6.327251,"i_long":106.460812,"is_transit":false,"station_id":"TEJ","line":6,"station_name":"Tenjo"},{"line":6,"station_id":"TGS","is_transit":false,"time":5,"i_lat":-6.328533,"i_long":106.425991,"distance":2974,"station_name":"Tigaraksa","transit":false},{"distance":2651,"time":3,"transit":false,"is_transit":false,"line":0,"i_lat":-6.33561,"station_name":"Cikoya","station_id":"CKY","i_long":106.411216},{"distance":1853,"station_name":"Maja","station_id":"MJ","transit":false,"time":4,"i_lat":-6.332307,"is_transit":false,"i_long":106.394373,"line":6},{"station_name":"Citeras","is_transit":false,"i_lat":-6.334892,"time":10,"distance":7293,"line":0,"station_id":"CTR","transit":false,"i_long":106.332092},{"transit":false,"i_lat":-6.352675,"is_transit":true,"station_id":"RK","time":13,"distance":9847,"line":0,"station_name":"Rangkasbitung","i_long":106.250396}],[{"distance":0,"is_transit":false,"time":0,"i_lat":-6.212485,"line":1,"i_long":106.858896,"station_name":"Matraman","station_id":"MTR","transit":false},{"station_name":"Jatinegara","i_lat":-6.215091,"i_long":106.86807400000001,"is_transit":true,"transit":true,"line":0,"station_id":"JNG","time":8,"distance":1377},{"time":2,"station_id":"POK","transit":false,"distance":1236,"is_transit":false,"i_long":106.861737,"i_lat":-6.209188,"station_name":"Pondok Jati","line":11},{"time":2,"i_long":106.855437,"distance":1829,"i_lat":-6.193792,"is_transit":false,"line":11,"station_id":"KMT","station_name":"Kramat","transit":false},{"i_long":106.850107,"line":11,"station_id":"GST","transit":false,"is_transit":false,"station_name":"Gang Sentiong","i_lat":-6.185975,"time":1,"distance":973},{"distance":1567,"is_transit":false,"transit":false,"i_lat":-6.174784,"station_name":"Pasar Senen","time":8,"i_long":106.84368,"line":11,"station_id":"PSE"},{"station_name":"Kemayoran","distance":1436,"time":4,"line":11,"is_transit":false,"i_long":106.839204,"i_lat":-6.161728,"transit":false,"station_id":"KMO"},{"distance":1901,"station_name":"Rajawali","i_long":106.836569,"station_id":"RJW","i_lat":-6.14505,"transit":false,"is_transit":false,"time":5,"line":11},{"i_lat":-6.132549,"transit":true,"distance":1444,"station_id":"KPB","time":3,"station_name":"Kampung Bandan","i_long":106.826365,"line":0,"is_transit":true},{"is_transit":true,"station_name":"Jakarta Kota","transit":true,"i_lat":-6.137569,"line":0,"station_id":"JAKK","time":3,"i_long":106.812439,"distance":1364},{"distance":1264,"i_long":106.820901,"is_transit":false,"station_name":"Jayakarta","i_lat":-6.141205,"station_id":"JAY","transit":false,"line":7,"time":4},{"line":2,"i_long":106.82482,"i_lat":-6.149769,"is_transit":false,"station_name":"Manggabesar","distance":1080,"transit":false,"station_id":"MGB","time":2},{"station_name":"Sawah Besar","transit":false,"time":2,"i_lat":-6.160725,"is_transit":false,"line":2,"station_id":"SW","distance":906,"i_long":106.827103},{"distance":1149,"i_lat":-6.166716,"is_transit":false,"station_name":"Juanda","i_long":106.828284,"transit":false,"line":2,"station_id":"JUA","time":2},{"transit":false,"i_long":106.832183,"station_name":"Gondangdia","station_id":"GDD","time":4,"is_transit":false,"i_lat":-6.186295,"distance":2015,"line":2},{"station_name":"Cikini","time":3,"line":0,"station_id":"CKI","transit":false,"i_lat":-6.198556,"is_transit":false,"distance":1750,"i_long":106.840169},{"is_transit":true,"distance":1590,"time":4,"line":0,"transit":true,"station_id":"MRI","i_long":106.84912,"station_name":"Manggarai","i_lat":-6.209883},{"i_lat":-6.202263,"is_transit":false,"distance":3186,"station_id":"SUD","station_name":"Sudirman","line":1,"transit":false,"i_long":106.822649,"time":4},{"distance":280,"line":1,"i_lat":-6.201433,"is_transit":false,"station_id":"SUDB","time":1,"station_name":"Sudirman Baru","transit":false,"i_long":106.819881},{"distance":471,"transit":false,"station_name":"Karet","station_id":"KAT","time":1,"i_lat":-6.20132,"is_transit":false,"i_long":106.816351,"line":1},{"transit":true,"distance":2029,"station_id":"THB","is_transit":true,"time":5,"station_name":"Tanah Abang","line":1,"i_lat":-6.185545,"i_long":106.811091},{"distance":3191,"time":6,"i_long":106.79689,"station_id":"PLM","station_name":"Palmerah","i_lat":-6.207404,"line":6,"is_transit":false,"transit":false},{"distance":3737,"is_transit":false,"transit":false,"i_long":106.780334,"i_lat":-6.237242,"station_id":"KBY","line":6,"time":7,"station_name":"Kebayoran"},{"transit":false,"time":8,"station_name":"Pondokranji","station_id":"PDJ","is_transit":false,"line":6,"i_lat":-6.276362,"i_long":106.74273,"distance":6218},{"line":6,"station_name":"Jurangmangu","is_transit":false,"station_id":"JMU","transit":false,"time":3,"distance":2179,"i_lat":-6.288927,"i_long":106.728916},{"i_lat":-6.296963,"station_name":"Sudimara","i_long":106.712277,"time":4,"is_transit":false,"line":6,"distance":1994,"transit":false,"station_id":"SDM"},{"station_name":"Rawa Buntu","i_lat":-6.314823,"distance":4566,"transit":false,"line":6,"time":6,"station_id":"RU","i_long":106.675475,"is_transit":false},{"is_transit":false,"time":4,"transit":false,"station_id":"SRP","distance":2413,"i_lat":-6.319871,"line":6,"station_name":"Serpong","i_long":106.66566},{"is_transit":false,"station_name":"Cisauk","i_lat":-6.32484,"station_id":"CSK","time":4,"i_long":106.640411,"line":0,"transit":false,"distance":1784},{"line":0,"distance":2519,"station_id":"CC","time":4,"station_name":"Cicayur","transit":false,"i_lat":-6.329547,"i_long":106.617853,"is_transit":false},{"distance":5968,"station_id":"PRP","is_transit":false,"station_name":"Parung Panjang","line":6,"transit":false,"i_lat":-6.3441410000000005,"i_long":106.568863,"time":8},{"station_id":"CJT","i_lat":-6.354349,"distance":7025,"station_name":"Cilejit","transit":false,"time":9,"line":0,"is_transit":false,"i_long":106.508482},{"station_name":"Daru","transit":false,"i_lat":-6.338021,"line":0,"is_transit":false,"time":6,"i_long":106.491338,"distance":2675,"station_id":"DAR"},{"station_name":"Tenjo","distance":3902,"time":5,"station_id":"TEJ","is_transit":false,"i_lat":-6.327251,"transit":false,"line":6,"i_long":106.460812},{"station_name":"Tigaraksa","distance":2974,"is_transit":false,"i_lat":-6.328533,"time":5,"i_long":106.425991,"line":6,"station_id":"TGS","transit":false},{"time":3,"i_long":106.411216,"is_transit":false,"station_id":"CKY","distance":2651,"line":0,"transit":false,"station_name":"Cikoya","i_lat":-6.33561},{"time":4,"station_id":"MJ","i_lat":-6.332307,"transit":false,"i_long":106.394373,"is_transit":false,"line":6,"station_name":"Maja","distance":1853},{"i_long":106.332092,"station_id":"CTR","station_name":"Citeras","line":0,"time":10,"distance":7293,"i_lat":-6.334892,"is_transit":false,"transit":false},{"transit":false,"i_long":106.250396,"line":0,"is_transit":true,"station_id":"RK","distance":9847,"station_name":"Rangkasbitung","i_lat":-6.352675,"time":13}]]}