{"data":[[{"line":1,"i_long":106.858896,"is_transit":false,"transit":false,"station_name":"Matraman","distance":0,"time":0,"station_id":"MTR","i_lat":-6.212485},{"station_id":"JNG","i_long":106.86807400000001,"line":0,"time":8,"distance":1377,"is_transit":true,"transit":true,"i_lat":-6.215091,"station_name":"Jatinegara"},{"station_name":"Pondok Jati","i_lat":-6.209188,"station_id":"POK","time":2,"line":11,"is_transit":false,"transit":false,"i_long":106.861737,"distance":1236},{"station_name":"Kramat","i_lat":-6.193792,"i_long":106.855437,"line":11,"distance":1829,"station_id":"KMT","is_transit":false,"transit":false,"time":2},{"i_long":106.850107,"is_transit":false,"distance":973,"station_name":"Gang Sentiong","line":11,"transit":false,"station_id":"GST","time":1,"i_lat":-6.185975},{"station_name":"Pasar Senen","is_transit":false,"i_lat":-6.174784,"transit":false,"i_long":106.84368,"distance":1567,"station_id":"PSE","time":8,"line":11},{"distance":1436,"i_lat":-6.161728,"station_id":"KMO","is_transit":false,"time":4,"transit":false,"station_name":"Kemayoran","i_long":106.839204,"line":11},{"distance":1901,"i_long":106.836569,"i_lat":-6.14505,"is_transit":false,"station_id":"RJW","station_name":"Rajawali","time":5,"line":11,"transit":false},{"i_long":106.826365,"transit":false,"time":3,"is_transit":true,"i_lat":-6.132549,"line":0,"station_id":"KPB","distance":1444,"station_name":"Kampung Bandan"}],[{"station_name":"Matraman","i_lat":-6.212485,"line":1,"i_long":106.858896,"is_transit":false,"distance":0,"transit":false,"time":0,"station_id":"MTR"},{"distance":1275,"is_transit":true,"station_id":"MRI","time":2,"i_lat":-6.209883,"station_name":"Manggarai","transit":false,"line":0,"i_long":106.84912},{"station_id":"SUD","line":1,"time":4,"transit":false,"is_transit":false,"i_lat":-6.202263,"i_long":106.822649,"distance":3186,"station_name":"Sudirman"},{"station_name":"Sudirman Baru","line":1,"i_lat":-6.201433,"i_long":106.819881,"distance":280,"transit":false,"time":1,"is_transit":false,"station_id":"SUDB"},{"distance":471,"is_transit":false,"station_id":"KAT","station_name":"Karet","i_lat":-6.20132,"i_long":106.816351,"line":1,"transit":false,"time":1},{"station_name":"Tanah Abang","i_long":106.811091,"is_transit":true,"line":1,"station_id":"THB","time":5,"transit":false,"distance":2029,"i_lat":-6.185545},{"i_long":106.800832,"distance":3632,"station_id":"DU","time":8,"is_transit":true,"i_lat":-6.155215,"transit":true,"line":1,"station_name":"Duri"},{"line":0,"station_name":"Angke","i_lat":-6.144674,"is_transit":false,"station_id":"AK","distance":1230,"transit":false,"time":4,"i_long":106.79867},{"i_long":106.826365,"time":9,"station_id":"KPB","transit":false,"line":0,"station_name":"Kampung Bandan","is_transit":true,"i_lat":-6.132549,"distance":4102}],[{"transit":false,"i_long":106.858896,"time":0,"station_name":"Matraman","line":1,"distance":0,"station_id":"MTR","is_transit":false,"i_lat":-6.212485},{"time":2,"transit":true,"i_long":106.84912,"station_id":"MRI","is_transit":true,"i_lat":-6.209883,"station_name":"Manggarai","line":0,"distance":1275},{"transit":false,"i_long":106.840169,"is_transit":false,"i_lat":-6.198556,"station_name":"Cikini","distance":1590,"line":0,"time":4,"station_id":"CKI"},{"distance":1750,"transit":false,"line":2,"is_transit":false,"station_name":"Gondangdia","station_id":"GDD","time":3,"i_lat":-6.186295,"i_long":106.832183},{"i_long":106.828284,"station_name":"Juanda","station_id":"JUA","i_lat":-6.166716,"line":2,"distance":2015,"transit":false,"is_transit":false,"time":4},{"distance":1149,"i_long":106.827103,"transit":false,"time":2,"line":2,"station_name":"Sawah Besar","i_lat":-6.160725,"station_id":"SW","is_transit":false},{"time":2,"station_id":"MGB","line":2,"is_transit":false,"i_lat":-6.149769,"i_long":106.82482,"distance":906,"transit":false,"station_name":"Manggabesar"},{"i_lat":-6.141205,"distance":1080,"station_name":"Jayakarta","i_long":106.820901,"line":7,"time":2,"transit":false,"station_id":"JAY","is_transit":false},{"is_transit":true,"transit":true,"distance":1264,"line":0,"station_name":"Jakarta Kota","station_id":"JAKK","i_long":106.812439,"time":4,"i_lat":-6.137569},{"i_long":106.826365,"is_transit":true,"station_name":"Kampung Bandan","transit":false,"station_id":"KPB","time":3,"i_lat":-6.132549,"line":0,"distance":1364}]]}