{"data":[[{"distance":0,"station_id":"MTR","line":1,"time":0,"is_transit":false,"station_name":"Matraman","i_long":106.858896,"i_lat":-6.212485,"transit":false},{"time":8,"is_transit":false,"i_long":106.86807400000001,"i_lat":-6.215091,"station_name":"Jatinegara","line":1,"station_id":"JNG","distance":1377,"transit":false},{"station_id":"KLD","station_name":"Klender","i_lat":-6.2135,"distance":3395,"i_long":106.899548,"line":1,"is_transit":false,"time":3,"transit":false},{"distance":3100,"is_transit":false,"line":1,"transit":false,"i_long":106.922662,"station_id":"BUA","time":2,"station_name":"Buaran","i_lat":-6.215568},{"distance":1305,"station_id":"KLDB","is_transit":false,"transit":false,"i_lat":-6.217455,"i_long":106.939679,"station_name":"Klenderbaru","line":1,"time":1},{"line":1,"i_long":106.951283,"distance":1385,"is_transit":false,"time":8,"station_name":"Cakung","station_id":"CUK","transit":false,"i_lat":-6.219053},{"station_id":"KRI","i_long":106.977657,"distance":3097,"i_lat":-6.224515,"transit":false,"station_name":"Kranji","time":3,"line":1,"is_transit":false},{"i_lat":-6.236616,"transit":false,"distance":2520,"line":1,"i_long":106.997013,"time":4,"station_id":"BKS","station_name":"Bekasi","is_transit":false}],[{"time":0,"distance":0,"i_lat":-6.212485,"is_transit":false,"station_id":"MTR","station_name":"Matraman","line":1,"i_long":106.858896,"transit":false},{"line":2,"is_transit":false,"station_id":"MRI","transit":false,"i_long":106.84912,"time":2,"station_name":"Manggarai","distance":1275,"i_lat":-6.209883},{"station_name":"Sudirman","i_long":106.822649,"time":4,"distance":3186,"i_lat":-6.202263,"line":1,"station_id":"SUD","transit":false,"is_transit":false},{"station_name":"Sudirman Baru","i_lat":-6.201433,"i_long":106.819881,"is_transit":false,"transit":false,"line":1,"distance":280,"station_id":"SUDB","time":1},{"time":1,"transit":false,"is_transit":false,"i_lat":-6.20132,"i_long":106.816351,"distance":471,"line":1,"station_id":"KAT","station_name":"Karet"},{"time":5,"station_name":"Tanah Abang","transit":false,"i_long":106.811091,"line":1,"is_transit":false,"station_id":"THB","i_lat":-6.185545,"distance":2029},{"station_name":"Duri","i_long":106.800832,"line":1,"i_lat":-6.155215,"time":8,"distance":3632,"station_id":"DU","is_transit":false,"transit":false},{"i_long":106.79867,"i_lat":-6.144674,"is_transit":false,"station_name":"Angke","distance":1230,"station_id":"AK","transit":false,"line":1,"time":4},{"line":4,"station_name":"Kampung Bandan","distance":4102,"station_id":"KPB","transit":true,"time":9,"is_transit":true,"i_long":106.826365,"i_lat":-6.132549},{"i_lat":-6.14505,"is_transit":false,"transit":false,"station_id":"RJW","station_name":"Rajawali","time":3,"line":11,"i_long":106.836569,"distance":1444},{"distance":1901,"station_id":"KMO","is_transit":false,"transit":false,"i_lat":-6.161728,"line":11,"station_name":"Kemayoran","i_long":106.839204,"time":5},{"station_name":"Pasar Senen","i_lat":-6.174784,"transit":false,"station_id":"PSE","is_transit":false,"i_long":106.84368,"distance":1436,"time":4,"line":11},{"station_name":"Gang Sentiong","distance":1567,"transit":false,"line":11,"i_long":106.850107,"time":8,"station_id":"GST","is_transit":false,"i_lat":-6.185975},{"transit":false,"is_transit":false,"distance":973,"station_id":"KMT","station_name":"Kramat","i_long":106.855437,"time":1,"line":11,"i_lat":-6.193792},{"i_lat":-6.209188,"is_transit":false,"distance":1829,"station_name":"Pondok Jati","i_long":106.861737,"station_id":"POK","transit":false,"line":11,"time":2},{"i_lat":-6.215091,"line":1,"station_id":"JNG","time":9,"i_long":106.86807400000001,"station_name":"Jatinegara","distance":1236,"is_transit":true,"transit":true},{"transit":false,"station_id":"KLD","i_long":106.899548,"line":1,"time":3,"station_name":"Klender","distance":3395,"i_lat":-6.2135,"is_transit":false},{"station_id":"BUA","station_name":"Buaran","time":2,"transit":false,"i_long":106.922662,"distance":3100,"line":1,"i_lat":-6.215568,"is_transit":false},{"line":1,"time":1,"distance":1305,"is_transit":false,"station_id":"KLDB","station_name":"Klenderbaru","i_lat":-6.217455,"transit":false,"i_long":106.939679},{"station_id":"CUK","is_transit":false,"station_name":"Cakung","line":1,"transit":false,"i_long":106.951283,"distance":1385,"time":8,"i_lat":-6.219053},{"line":1,"i_lat":-6.224515,"distance":3097,"time":3,"is_transit":false,"transit":false,"station_name":"Kranji","i_long":106.977657,"station_id":"KRI"},{"i_lat":-6.236616,"station_id":"BKS","station_name":"Bekasi","transit":false,"line":1,"distance":2520,"i_long":106.997013,"time":4,"is_transit":false}],[{"station_name":"Matraman","i_long":106.858896,"i_lat":-6.212485,"line":1,"time":0,"distance":0,"station_id":"MTR","transit":false,"is_transit":false},{"line":2,"i_lat":-6.209883,"distance":1275,"time":2,"is_transit":true,"i_long":106.84912,"transit":true,"station_id":"MRI","station_name":"Manggarai"},{"i_lat":-6.198556,"distance":1590,"is_transit":false,"transit":false,"time":4,"station_id":"CKI","i_long":106.840169,"line":2,"station_name":"Cikini"},{"station_id":"GDD","distance":1750,"time":3,"is_transit":false,"i_lat":-6.186295,"i_long":106.832183,"station_name":"Gondangdia","transit":false,"line":2},{"station_name":"Juanda","line":2,"i_long":106.828284,"time":4,"is_transit":false,"distance":2015,"transit":false,"station_id":"JUA","i_lat":-6.166716},{"distance":1149,"line":2,"i_long":106.827103,"is_transit":false,"i_lat":-6.160725,"time":2,"station_name":"Sawah Besar","transit":false,"station_id":"SW"},{"is_transit":false,"time":2,"distance":906,"i_lat":-6.149769,"station_name":"Manggabesar","transit":false,"station_id":"MGB","i_long":106.82482,"line":2},{"i_long":106.820901,"distance":1080,"transit":false,"is_transit":false,"line":2,"i_lat":-6.141205,"time":2,"station_id":"JAY","station_name":"Jayakarta"},{"i_lat":-6.137569,"is_transit":true,"line":2,"time":4,"distance":1264,"i_long":106.812439,"station_id":"JAKK","station_name":"Jakarta Kota","transit":true},{"transit":true,"is_transit":true,"station_name":"Kampung Bandan","station_id":"KPB","i_lat":-6.132549,"i_long":106.826365,"time":3,"line":4,"distance":1364},{"is_transit":false,"time":3,"i_long":106.836569,"transit":false,"station_name":"Rajawali","i_lat":-6.14505,"distance":1444,"line":11,"station_id":"RJW"},{"time":5,"is_transit":false,"i_long":106.839204,"line":11,"station_id":"KMO","station_name":"Kemayoran","i_lat":-6.161728,"transit":false,"distance":1901},{"i_lat":-6.174784,"i_long":106.84368,"station_id":"PSE","is_transit":false,"station_name":"Pasar Senen","line":11,"distance":1436,"time":4,"transit":false},{"station_id":"GST","time":8,"distance":1567,"station_name":"Gang Sentiong","transit":false,"line":11,"is_transit":false,"i_long":106.850107,"i_lat":-6.185975},{"distance":973,"station_name":"Kramat","transit":false,"time":1,"i_long":106.855437,"is_transit":false,"station_id":"KMT","line":11,"i_lat":-6.193792},{"station_id":"POK","station_name":"Pondok Jati","time":2,"i_lat":-6.209188,"transit":false,"i_long":106.861737,"line":11,"is_transit":false,"distance":1829},{"station_name":"Jatinegara","station_id":"JNG","is_transit":true,"time":9,"line":1,"distance":1236,"transit":true,"i_long":106.86807400000001,"i_lat":-6.215091},{"station_id":"KLD","i_lat":-6.2135,"time":3,"distance":3395,"station_name":"Klender","transit":false,"line":1,"is_transit":false,"i_long":106.899548},{"i_long":106.922662,"station_id":"BUA","time":2,"is_transit":false,"i_lat":-6.215568,"line":1,"transit":false,"distance":3100,"station_name":"Buaran"},{"time":1,"station_id":"KLDB","distance":1305,"station_name":"Klenderbaru","transit":false,"i_lat":-6.217455,"is_transit":false,"i_long":106.939679,"line":1},{"time":8,"distance":1385,"transit":false,"station_id":"CUK","i_lat":-6.219053,"station_name":"Cakung","i_long":106.951283,"is_transit":false,"line":1},{"station_id":"KRI","is_transit":false,"station_name":"Kranji","transit":false,"i_lat":-6.224515,"i_long":106.977657,"time":3,"distance":3097,"line":1},{"station_name":"Bekasi","station_id":"BKS","transit":false,"i_long":106.997013,"is_transit":false,"i_lat":-6.236616,"distance":2520,"time":4,"line":1}]]}