{"data":[[{"i_long":106.858896,"line":1,"is_transit":false,"transit":false,"time":0,"distance":0,"station_name":"Matraman","station_id":"MTR","i_lat":-6.212485},{"distance":1275,"i_lat":-6.209883,"is_transit":false,"transit":false,"i_long":106.84912,"time":2,"station_id":"MRI","station_name":"Manggarai","line":2},{"time":4,"station_name":"Sudirman","station_id":"SUD","transit":false,"distance":3186,"i_lat":-6.202263,"line":1,"i_long":106.822649,"is_transit":false},{"distance":280,"station_name":"Sudirman Baru","i_long":106.819881,"line":1,"i_lat":-6.201433,"transit":false,"time":1,"is_transit":false,"station_id":"SUDB"},{"station_id":"KAT","distance":471,"line":1,"i_long":106.816351,"station_name":"Karet","is_transit":false,"time":1,"i_lat":-6.20132,"transit":false},{"station_name":"Tanah Abang","transit":false,"distance":2029,"time":5,"i_long":106.811091,"station_id":"THB","line":1,"is_transit":false,"i_lat":-6.185545},{"transit":true,"i_long":106.800832,"time":8,"i_lat":-6.155215,"station_name":"Duri","is_transit":true,"station_id":"DU","line":1,"distance":3632},{"line":5,"transit":false,"i_lat":-6.162021,"station_id":"GRG","distance":1700,"i_long":106.788277,"station_name":"Grogol","is_transit":false,"time":3},{"i_long":106.771379,"i_lat":-6.161433,"station_id":"PSG","station_name":"Pesing","distance":2036,"is_transit":false,"transit":false,"line":5,"time":2},{"i_lat":-6.1587309999999995,"is_transit":false,"station_name":"Taman Kota","i_long":106.756522,"time":2,"transit":false,"line":5,"distance":1614,"station_id":"TKO"},{"station_id":"BOI","i_lat":-6.159876,"is_transit":false,"transit":false,"station_name":"Bojongindah","distance":2334,"i_long":106.737035,"time":2,"line":5},{"station_id":"RW","line":5,"distance":1152,"i_long":106.723064,"station_name":"Rawa Buaya","time":4,"transit":false,"is_transit":false,"i_lat":-6.162758},{"is_transit":false,"station_id":"KDS","time":3,"transit":false,"i_lat":-6.166068,"line":5,"station_name":"Kalideres","i_long":106.701612,"distance":2504},{"distance":2548,"station_name":"Poris","transit":false,"is_transit":false,"time":3,"station_id":"PI","line":5,"i_lat":-6.169933,"i_long":106.679458},{"time":3,"distance":1834,"line":5,"station_id":"BPR","i_long":106.665036,"transit":false,"i_lat":-6.171811,"station_name":"Batuceper","is_transit":false},{"is_transit":false,"time":3,"line":5,"station_name":"Tanah Tinggi","i_lat":-6.17331,"i_long":106.64657,"transit":false,"station_id":"THI","distance":2028}],[{"line":1,"is_transit":false,"time":0,"station_name":"Matraman","transit":false,"station_id":"MTR","i_long":106.858896,"i_lat":-6.212485,"distance":0},{"station_id":"JNG","is_transit":true,"i_long":106.86807400000001,"station_name":"Jatinegara","i_lat":-6.215091,"time":8,"transit":true,"distance":1377,"line":1},{"line":11,"station_id":"POK","i_long":106.861737,"i_lat":-6.209188,"is_transit":false,"station_name":"Pondok Jati","time":2,"transit":false,"distance":1236},{"transit":false,"i_long":106.855437,"time":2,"is_transit":false,"station_name":"Kramat","station_id":"KMT","i_lat":-6.193792,"line":11,"distance":1829},{"station_name":"Gang Sentiong","i_long":106.850107,"is_transit":false,"distance":973,"transit":false,"line":11,"station_id":"GST","time":1,"i_lat":-6.185975},{"transit":false,"i_lat":-6.174784,"time":8,"distance":1567,"is_transit":false,"station_name":"Pasar Senen","station_id":"PSE","i_long":106.84368,"line":11},{"is_transit":false,"i_lat":-6.161728,"station_id":"KMO","station_name":"Kemayoran","distance":1436,"time":4,"i_long":106.839204,"transit":false,"line":11},{"i_long":106.836569,"is_transit":false,"transit":false,"distance":1901,"station_id":"RJW","time":5,"line":11,"i_lat":-6.14505,"station_name":"Rajawali"},{"i_long":106.826365,"transit":true,"station_id":"KPB","is_transit":true,"i_lat":-6.132549,"station_name":"Kampung Bandan","line":4,"time":3,"distance":1444},{"is_transit":false,"distance":4102,"time":9,"station_id":"AK","i_lat":-6.144674,"line":1,"transit":false,"i_long":106.79867,"station_name":"Angke"},{"is_transit":true,"transit":true,"time":4,"distance":1230,"station_id":"DU","i_lat":-6.155215,"station_name":"Duri","line":1,"i_long":106.800832},{"time":3,"station_name":"Grogol","station_id":"GRG","line":5,"i_long":106.788277,"is_transit":false,"i_lat":-6.162021,"distance":1700,"transit":false},{"station_id":"PSG","line":5,"is_transit":false,"station_name":"Pesing","i_lat":-6.161433,"i_long":106.771379,"distance":2036,"time":2,"transit":false},{"station_name":"Taman Kota","station_id":"TKO","i_long":106.756522,"is_transit":false,"time":2,"i_lat":-6.1587309999999995,"line":5,"distance":1614,"transit":false},{"is_transit":false,"i_long":106.737035,"station_name":"Bojongindah","station_id":"BOI","distance":2334,"transit":false,"i_lat":-6.159876,"line":5,"time":2},{"transit":false,"distance":1152,"is_transit":false,"time":4,"station_name":"Rawa Buaya","i_long":106.723064,"i_lat":-6.162758,"line":5,"station_id":"RW"},{"i_long":106.701612,"line":5,"distance":2504,"transit":false,"station_id":"KDS","is_transit":false,"time":3,"station_name":"Kalideres","i_lat":-6.166068},{"is_transit":false,"transit":false,"station_name":"Poris","i_lat":-6.169933,"distance":2548,"line":5,"station_id":"PI","time":3,"i_long":106.679458},{"is_transit":false,"line":5,"distance":1834,"station_id":"BPR","time":3,"transit":false,"station_name":"Batuceper","i_lat":-6.171811,"i_long":106.665036},{"transit":false,"station_id":"THI","i_lat":-6.17331,"line":5,"i_long":106.64657,"is_transit":false,"station_name":"Tanah Tinggi","distance":2028,"time":3}],[{"distance":0,"i_lat":-6.212485,"i_long":106.858896,"is_transit":false,"line":1,"time":0,"station_id":"MTR","station_name":"Matraman","transit":false},{"station_id":"MRI","i_lat":-6.209883,"time":2,"line":2,"station_name":"Manggarai","is_transit":true,"transit":true,"distance":1275,"i_long":106.84912},{"transit":false,"station_name":"Cikini","station_id":"CKI","time":4,"is_transit":false,"i_lat":-6.198556,"distance":1590,"i_long":106.840169,"line":2},{"is_transit":false,"station_name":"Gondangdia","line":2,"time":3,"station_id":"GDD","transit":false,"i_long":106.832183,"i_lat":-6.186295,"distance":1750},{"line":2,"station_name":"Juanda","station_id":"JUA","i_long":106.828284,"transit":false,"distance":2015,"is_transit":false,"time":4,"i_lat":-6.166716},{"i_lat":-6.160725,"i_long":106.827103,"transit":false,"line":2,"distance":1149,"station_name":"Sawah Besar","time":2,"station_id":"SW","is_transit":false},{"line":2,"distance":906,"station_name":"Manggabesar","transit":false,"station_id":"MGB","time":2,"is_transit":false,"i_lat":-6.149769,"i_long":106.82482},{"station_id":"JAY","time":2,"transit":false,"station_name":"Jayakarta","is_transit":false,"i_long":106.820901,"distance":1080,"i_lat":-6.141205,"line":2},{"distance":1264,"is_transit":true,"station_id":"JAKK","line":2,"i_long":106.812439,"i_lat":-6.137569,"station_name":"Jakarta Kota","transit":true,"time":4},{"line":4,"distance":1364,"time":3,"is_transit":true,"transit":true,"station_id":"KPB","i_lat":-6.132549,"i_long":106.826365,"station_name":"Kampung Bandan"},{"station_id":"AK","station_name":"Angke","distance":4102,"time":9,"line":1,"transit":false,"is_transit":false,"i_long":106.79867,"i_lat":-6.144674},{"line":1,"station_id":"DU","i_lat":-6.155215,"is_transit":true,"i_long":106.800832,"time":4,"transit":true,"station_name":"Duri","distance":1230},{"station_id":"GRG","i_lat":-6.162021,"i_long":106.788277,"station_name":"Grogol","line":5,"time":3,"distance":1700,"transit":false,"is_transit":false},{"station_name":"Pesing","i_lat":-6.161433,"is_transit":false,"time":2,"transit":false,"line":5,"i_long":106.771379,"distance":2036,"station_id":"PSG"},{"line":5,"is_transit":false,"i_long":106.756522,"station_name":"Taman Kota","time":2,"station_id":"TKO","distance":1614,"transit":false,"i_lat":-6.1587309999999995},{"line":5,"distance":2334,"time":2,"i_lat":-6.159876,"is_transit":false,"transit":false,"station_name":"Bojongindah","i_long":106.737035,"station_id":"BOI"},{"station_id":"RW","i_lat":-6.162758,"time":4,"distance":1152,"is_transit":false,"transit":false,"station_name":"Rawa Buaya","i_long":106.723064,"line":5},{"station_id":"KDS","distance":2504,"i_lat":-6.166068,"line":5,"is_transit":false,"transit":false,"station_name":"Kalideres","time":3,"i_long":106.701612},{"station_name":"Poris","i_long":106.679458,"transit":false,"is_transit":false,"time":3,"distance":2548,"i_lat":-6.169933,"station_id":"PI","line":5},{"distance":1834,"transit":false,"i_long":106.665036,"time":3,"line":5,"i_lat":-6.171811,"station_name":"Batuceper","station_id":"BPR","is_transit":false},{"station_name":"Tanah Tinggi","distance":2028,"transit":false,"is_transit":false,"station_id":"THI","i_long":106.64657,"line":5,"time":3,"i_lat":-6.17331}],[{"transit":false,"station_name":"Matraman","i_long":106.858896,"distance":0,"line":1,"i_lat":-6.212485,"station_id":"MTR","time":0,"is_transit":false},{"is_transit":true,"i_lat":-6.215091,"transit":true,"distance":1377,"i_long":106.86807400000001,"station_id":"JNG","line":1,"time":8,"station_name":"Jatinegara"},{"line":11,"transit":false,"time":2,"i_lat":-6.209188,"is_transit":false,"distance":1236,"station_name":"Pondok Jati","station_id":"POK","i_long":106.861737},{"station_id":"KMT","time":2,"is_transit":false,"i_long":106.855437,"distance":1829,"station_name":"Kramat","line":11,"i_lat":-6.193792,"transit":false},{"station_name":"Gang Sentiong","distance":973,"station_id":"GST","i_lat":-6.185975,"transit":false,"i_long":106.850107,"time":1,"line":11,"is_transit":false},{"distance":1567,"i_lat":-6.174784,"transit":false,"is_transit":false,"time":8,"i_long":106.84368,"station_name":"Pasar Senen","line":11,"station_id":"PSE"},{"is_transit":false,"station_id":"KMO","distance":1436,"transit":false,"station_name":"Kemayoran","i_long":106.839204,"time":4,"i_lat":-6.161728,"line":11},{"time":5,"transit":false,"is_transit":false,"line":11,"station_name":"Rajawali","i_long":106.836569,"station_id":"RJW","distance":1901,"i_lat":-6.14505},{"i_lat":-6.132549,"i_long":106.826365,"time":3,"station_id":"KPB","distance":1444,"line":4,"transit":true,"station_name":"Kampung Bandan","is_transit":true},{"is_transit":true,"time":3,"station_name":"Jakarta Kota","transit":true,"station_id":"JAKK","distance":1364,"i_lat":-6.137569,"line":2,"i_long":106.812439},{"line":2,"i_long":106.820901,"i_lat":-6.141205,"station_id":"JAY","is_transit":false,"station_name":"Jayakarta","time":4,"transit":false,"distance":1264},{"transit":false,"station_name":"Manggabesar","station_id":"MGB","distance":1080,"is_transit":false,"i_lat":-6.149769,"time":2,"i_long":106.82482,"line":2},{"is_transit":false,"station_name":"Sawah Besar","time":2,"transit":false,"distance":906,"i_lat":-6.160725,"i_long":106.827103,"line":2,"station_id":"SW"},{"line":2,"i_long":106.828284,"i_lat":-6.166716,"is_transit":false,"distance":1149,"transit":false,"station_id":"JUA","station_name":"Juanda","time":2},{"station_name":"Gondangdia","station_id":"GDD","is_transit":false,"transit":false,"time":4,"line":2,"distance":2015,"i_long":106.832183,"i_lat":-6.186295},{"is_transit":false,"station_id":"CKI","time":3,"line":2,"station_name":"Cikini","i_lat":-6.198556,"transit":false,"distance":1750,"i_long":106.840169},{"i_lat":-6.209883,"time":4,"i_long":106.84912,"line":2,"station_name":"Manggarai","station_id":"MRI","is_transit":true,"distance":1590,"transit":true},{"time":4,"i_long":106.822649,"station_name":"Sudirman","line":1,"transit":false,"distance":3186,"i_lat":-6.202263,"is_transit":false,"station_id":"SUD"},{"line":1,"is_transit":false,"transit":false,"station_name":"Sudirman Baru","time":1,"i_long":106.819881,"distance":280,"i_lat":-6.201433,"station_id":"SUDB"},{"is_transit":false,"transit":false,"station_id":"KAT","distance":471,"time":1,"i_lat":-6.20132,"i_long":106.816351,"line":1,"station_name":"Karet"},{"i_lat":-6.185545,"station_name":"Tanah Abang","time":5,"station_id":"THB","is_transit":false,"distance":2029,"i_long":106.811091,"line":1,"transit":false},{"station_id":"DU","i_lat":-6.155215,"transit":true,"station_name":"Duri","line":1,"time":8,"i_long":106.800832,"distance":3632,"is_transit":true},{"line":5,"transit":false,"is_transit":false,"station_id":"GRG","station_name":"Grogol","i_long":106.788277,"distance":1700,"i_lat":-6.162021,"time":3},{"transit":false,"station_id":"PSG","time":2,"station_name":"Pesing","is_transit":false,"distance":2036,"line":5,"i_lat":-6.161433,"i_long":106.771379},{"i_lat":-6.1587309999999995,"distance":1614,"station_name":"Taman Kota","is_transit":false,"transit":false,"time":2,"i_long":106.756522,"line":5,"station_id":"TKO"},{"station_id":"BOI","line":5,"i_lat":-6.159876,"transit":false,"station_name":"Bojongindah","time":2,"is_transit":false,"distance":2334,"i_long":106.737035},{"transit":false,"line":5,"distance":1152,"station_id":"RW","i_lat":-6.162758,"station_name":"Rawa Buaya","time":4,"i_long":106.723064,"is_transit":false},{"i_lat":-6.166068,"time":3,"distance":2504,"station_id":"KDS","i_long":106.701612,"transit":false,"is_transit":false,"line":5,"station_name":"Kalideres"},{"station_id":"PI","time":3,"distance":2548,"i_long":106.679458,"line":5,"station_name":"Poris","transit":false,"is_transit":false,"i_lat":-6.169933},{"transit":false,"distance":1834,"line":5,"station_id":"BPR","i_long":106.665036,"time":3,"is_transit":false,"station_name":"Batuceper","i_lat":-6.171811},{"transit":false,"station_name":"Tanah Tinggi","station_id":"THI","distance":2028,"i_lat":-6.17331,"i_long":106.64657,"time":3,"line":5,"is_transit":false}]]}