{"data":[[{"is_transit":false,"line":1,"i_long":106.858896,"i_lat":-6.212485,"transit":false,"distance":0,"station_id":"MTR","time":0,"station_name":"Matraman"},{"is_transit":true,"time":2,"transit":true,"station_name":"Manggarai","distance":1275,"i_lat":-6.209883,"line":0,"i_long":106.84912,"station_id":"MRI"},{"is_transit":false,"line":2,"distance":2610,"station_name":"Tebet","transit":false,"station_id":"TEB","i_long":106.857948,"i_lat":-6.226659,"time":4},{"line":0,"station_name":"Cawang","distance":1230,"is_transit":false,"i_lat":-6.242512,"i_long":106.856607,"transit":false,"time":2,"station_id":"CW"},{"i_long":106.85449,"time":3,"is_transit":false,"station_id":"DRN","i_lat":-6.255332,"transit":false,"station_name":"Duren Kalibata","distance":1546,"line":0},{"distance":824,"station_id":"PSMB","i_lat":-6.263214,"transit":false,"time":2,"is_transit":false,"line":2,"station_name":"Pasar Minggu Baru","i_long":106.851577},{"transit":false,"station_name":"Pasar Minggu","is_transit":false,"time":2,"station_id":"PSM","line":2,"i_lat":-6.2842400000000005,"distance":2380,"i_long":106.843999},{"station_name":"Tanjung Barat","distance":2820,"i_long":106.838896,"line":2,"transit":false,"is_transit":false,"station_id":"TNT","time":4,"i_lat":-6.3080680000000005},{"station_name":"Lenteng Agung","i_lat":-6.330363,"is_transit":false,"i_long":106.832616,"line":2,"time":3,"station_id":"LNA","distance":2671,"transit":false},{"time":2,"line":2,"transit":false,"station_name":"Univ. Pancasila","i_lat":-6.339291,"station_id":"UP","is_transit":false,"i_long":106.834175,"distance":1029},{"i_long":106.831474,"time":3,"is_transit":false,"station_id":"UI","station_name":"Univ. Indonesia","line":2,"i_lat":-6.360749,"distance":2264,"transit":false},{"is_transit":false,"transit":false,"station_id":"POC","i_long":106.831114,"line":2,"station_name":"Pondok Cina","distance":1109,"time":2,"i_lat":-6.369073},{"i_long":106.819451,"is_transit":false,"station_name":"Depokbaru","time":4,"transit":false,"line":0,"station_id":"DPB","distance":2727,"i_lat":-6.391065},{"i_long":106.816926,"i_lat":-6.405256,"line":0,"station_name":"Depok","station_id":"DP","is_transit":false,"distance":1584,"time":3,"transit":false},{"i_long":106.800298,"distance":5084,"station_name":"Citayam","transit":false,"station_id":"CTA","line":1,"time":6,"is_transit":true,"i_lat":-6.448811},{"distance":5197,"transit":false,"station_name":"Bojonggede","time":5,"i_long":106.792719,"i_lat":-6.493243,"is_transit":false,"station_id":"BJD","line":0},{"is_transit":false,"i_lat":-6.530544,"transit":false,"line":0,"station_id":"CLT","station_name":"Cilebut","i_long":106.800016,"time":5,"distance":4331},{"i_lat":-6.594596,"i_long":106.790574,"time":9,"transit":false,"station_name":"Bogor","station_id":"BOO","is_transit":true,"line":1,"distance":7514}],[{"station_id":"MTR","i_lat":-6.212485,"station_name":"Matraman","line":1,"time":0,"distance":0,"i_long":106.858896,"transit":false,"is_transit":false},{"station_name":"Jatinegara","i_lat":-6.215091,"line":0,"i_long":106.86807400000001,"station_id":"JNG","time":8,"transit":true,"distance":1377,"is_transit":true},{"i_lat":-6.209188,"distance":1236,"time":2,"station_name":"Pondok Jati","is_transit":false,"i_long":106.861737,"line":11,"transit":false,"station_id":"POK"},{"is_transit":false,"distance":1829,"line":11,"i_long":106.855437,"i_lat":-6.193792,"time":2,"station_id":"KMT","station_name":"Kramat","transit":false},{"i_long":106.850107,"line":11,"transit":false,"station_name":"Gang Sentiong","station_id":"GST","i_lat":-6.185975,"time":1,"distance":973,"is_transit":false},{"is_transit":false,"time":8,"distance":1567,"i_long":106.84368,"line":11,"station_name":"Pasar Senen","transit":false,"i_lat":-6.174784,"station_id":"PSE"},{"station_name":"Kemayoran","distance":1436,"time":4,"transit":false,"i_lat":-6.161728,"is_transit":false,"station_id":"KMO","line":11,"i_long":106.839204},{"time":5,"transit":false,"i_long":106.836569,"i_lat":-6.14505,"line":11,"station_name":"Rajawali","is_transit":false,"distance":1901,"station_id":"RJW"},{"is_transit":true,"i_lat":-6.132549,"line":0,"distance":1444,"time":3,"transit":true,"station_id":"KPB","station_name":"Kampung Bandan","i_long":106.826365},{"is_transit":false,"time":9,"transit":false,"station_id":"AK","line":0,"distance":4102,"station_name":"Angke","i_long":106.79867,"i_lat":-6.144674},{"distance":1230,"line":1,"station_id":"DU","station_name":"Duri","transit":true,"is_transit":true,"i_lat":-6.155215,"i_long":106.800832,"time":4},{"i_lat":-6.185545,"i_long":106.811091,"station_name":"Tanah Abang","transit":false,"distance":3632,"station_id":"THB","line":1,"is_transit":true,"time":8},{"station_name":"Karet","distance":2029,"time":5,"is_transit":false,"transit":false,"i_lat":-6.20132,"station_id":"KAT","i_long":106.816351,"line":1},{"distance":471,"station_name":"Sudirman Baru","is_transit":false,"time":1,"transit":false,"station_id":"SUDB","i_long":106.819881,"i_lat":-6.201433,"line":1},{"transit":false,"i_long":106.822649,"time":1,"distance":280,"is_transit":false,"station_id":"SUD","station_name":"Sudirman","i_lat":-6.202263,"line":1},{"line":0,"station_id":"MRI","i_long":106.84912,"transit":true,"station_name":"Manggarai","time":4,"is_transit":true,"distance":3186,"i_lat":-6.209883},{"line":2,"i_lat":-6.226659,"i_long":106.857948,"is_transit":false,"distance":2610,"station_id":"TEB","station_name":"Tebet","transit":false,"time":4},{"distance":1230,"time":2,"i_long":106.856607,"is_transit":false,"station_id":"CW","line":0,"i_lat":-6.242512,"station_name":"Cawang","transit":false},{"distance":1546,"time":3,"i_lat":-6.255332,"transit":false,"station_name":"Duren Kalibata","station_id":"DRN","line":0,"i_long":106.85449,"is_transit":false},{"distance":824,"station_name":"Pasar Minggu Baru","transit":false,"is_transit":false,"time":2,"station_id":"PSMB","i_long":106.851577,"i_lat":-6.263214,"line":2},{"time":2,"station_id":"PSM","distance":2380,"is_transit":false,"i_long":106.843999,"transit":false,"station_name":"Pasar Minggu","line":2,"i_lat":-6.2842400000000005},{"station_name":"Tanjung Barat","distance":2820,"transit":false,"station_id":"TNT","line":2,"is_transit":false,"time":4,"i_lat":-6.3080680000000005,"i_long":106.838896},{"station_id":"LNA","station_name":"Lenteng Agung","distance":2671,"time":3,"transit":false,"is_transit":false,"i_lat":-6.330363,"line":2,"i_long":106.832616},{"distance":1029,"line":2,"station_name":"Univ. Pancasila","station_id":"UP","transit":false,"i_lat":-6.339291,"is_transit":false,"time":2,"i_long":106.834175},{"station_id":"UI","transit":false,"i_lat":-6.360749,"line":2,"is_transit":false,"i_long":106.831474,"time":3,"station_name":"Univ. Indonesia","distance":2264},{"time":2,"transit":false,"i_long":106.831114,"distance":1109,"station_id":"POC","i_lat":-6.369073,"station_name":"Pondok Cina","line":2,"is_transit":false},{"is_transit":false,"i_long":106.819451,"line":0,"i_lat":-6.391065,"transit":false,"distance":2727,"time":4,"station_name":"Depokbaru","station_id":"DPB"},{"station_id":"DP","distance":1584,"is_transit":false,"station_name":"Depok","i_long":106.816926,"transit":false,"i_lat":-6.405256,"time":3,"line":0},{"station_name":"Citayam","time":6,"i_long":106.800298,"distance":5084,"line":1,"transit":false,"station_id":"CTA","i_lat":-6.448811,"is_transit":true},{"i_lat":-6.493243,"i_long":106.792719,"station_name":"Bojonggede","time":5,"line":0,"is_transit":false,"station_id":"BJD","transit":false,"distance":5197},{"distance":4331,"station_id":"CLT","line":0,"i_long":106.800016,"station_name":"Cilebut","time":5,"is_transit":false,"transit":false,"i_lat":-6.530544},{"line":1,"is_transit":true,"station_id":"BOO","i_long":106.790574,"i_lat":-6.594596,"station_name":"Bogor","distance":7514,"time":9,"transit":false}],[{"i_long":106.858896,"time":0,"station_id":"MTR","distance":0,"transit":false,"station_name":"Matraman","is_transit":false,"i_lat":-6.212485,"line":1},{"line":0,"is_transit":true,"time":8,"i_lat":-6.215091,"station_name":"Jatinegara","i_long":106.86807400000001,"station_id":"JNG","distance":1377,"transit":true},{"is_transit":false,"i_lat":-6.209188,"line":11,"distance":1236,"transit":false,"i_long":106.861737,"time":2,"station_id":"POK","station_name":"Pondok Jati"},{"i_long":106.855437,"station_name":"Kramat","is_transit":false,"line":11,"station_id":"KMT","i_lat":-6.193792,"time":2,"distance":1829,"transit":false},{"station_id":"GST","i_lat":-6.185975,"transit":false,"i_long":106.850107,"line":11,"is_transit":false,"distance":973,"station_name":"Gang Sentiong","time":1},{"i_lat":-6.174784,"transit":false,"is_transit":false,"line":11,"station_name":"Pasar Senen","distance":1567,"time":8,"i_long":106.84368,"station_id":"PSE"},{"station_id":"KMO","distance":1436,"station_name":"Kemayoran","i_long":106.839204,"transit":false,"time":4,"is_transit":false,"line":11,"i_lat":-6.161728},{"time":5,"is_transit":false,"station_name":"Rajawali","line":11,"station_id":"RJW","i_lat":-6.14505,"distance":1901,"transit":false,"i_long":106.836569},{"distance":1444,"time":3,"station_name":"Kampung Bandan","is_transit":true,"i_lat":-6.132549,"transit":true,"station_id":"KPB","i_long":106.826365,"line":0},{"station_name":"Jakarta Kota","i_lat":-6.137569,"line":0,"distance":1364,"is_transit":true,"transit":true,"i_long":106.812439,"time":3,"station_id":"JAKK"},{"station_name":"Jayakarta","station_id":"JAY","i_long":106.820901,"distance":1264,"is_transit":false,"transit":false,"i_lat":-6.141205,"line":7,"time":4},{"i_long":106.82482,"station_name":"Manggabesar","station_id":"MGB","i_lat":-6.149769,"distance":1080,"time":2,"is_transit":false,"line":2,"transit":false},{"station_id":"SW","line":2,"i_long":106.827103,"is_transit":false,"transit":false,"station_name":"Sawah Besar","i_lat":-6.160725,"time":2,"distance":906},{"distance":1149,"is_transit":false,"time":2,"station_id":"JUA","i_lat":-6.166716,"transit":false,"line":2,"i_long":106.828284,"station_name":"Juanda"},{"is_transit":false,"distance":2015,"transit":false,"station_name":"Gondangdia","i_lat":-6.186295,"i_long":106.832183,"time":4,"line":2,"station_id":"GDD"},{"station_id":"CKI","line":0,"station_name":"Cikini","is_transit":false,"time":3,"i_long":106.840169,"i_lat":-6.198556,"distance":1750,"transit":false},{"is_transit":true,"distance":1590,"transit":true,"time":4,"i_lat":-6.209883,"i_long":106.84912,"station_id":"MRI","station_name":"Manggarai","line":0},{"station_id":"TEB","transit":false,"i_lat":-6.226659,"distance":2610,"i_long":106.857948,"station_name":"Tebet","is_transit":false,"line":2,"time":4},{"station_id":"CW","line":0,"i_lat":-6.242512,"i_long":106.856607,"time":2,"station_name":"Cawang","is_transit":false,"distance":1230,"transit":false},{"transit":false,"station_id":"DRN","time":3,"i_long":106.85449,"line":0,"distance":1546,"is_transit":false,"station_name":"Duren Kalibata","i_lat":-6.255332},{"i_long":106.851577,"station_name":"Pasar Minggu Baru","i_lat":-6.263214,"transit":false,"line":2,"distance":824,"is_transit":false,"time":2,"station_id":"PSMB"},{"is_transit":false,"distance":2380,"i_lat":-6.2842400000000005,"transit":false,"station_name":"Pasar Minggu","station_id":"PSM","i_long":106.843999,"time":2,"line":2},{"is_transit":false,"time":4,"transit":false,"station_name":"Tanjung Barat","i_lat":-6.3080680000000005,"line":2,"i_long":106.838896,"distance":2820,"station_id":"TNT"},{"distance":2671,"station_id":"LNA","line":2,"i_lat":-6.330363,"i_long":106.832616,"time":3,"station_name":"Lenteng Agung","is_transit":false,"transit":false},{"i_lat":-6.339291,"line":2,"is_transit":false,"station_id":"UP","i_long":106.834175,"station_name":"Univ. Pancasila","time":2,"transit":false,"distance":1029},{"time":3,"transit":false,"distance":2264,"station_id":"UI","is_transit":false,"i_lat":-6.360749,"line":2,"i_long":106.831474,"station_name":"Univ. Indonesia"},{"i_lat":-6.369073,"transit":false,"is_transit":false,"time":2,"station_id":"POC","i_long":106.831114,"line":2,"station_name":"Pondok Cina","distance":1109},{"is_transit":false,"station_id":"DPB","transit":false,"i_long":106.819451,"distance":2727,"i_lat":-6.391065,"station_name":"Depokbaru","time":4,"line":0},{"time":3,"i_long":106.816926,"is_transit":false,"station_name":"Depok","distance":1584,"i_lat":-6.405256,"station_id":"DP","line":0,"transit":false},{"station_id":"CTA","distance":5084,"i_long":106.800298,"i_lat":-6.448811,"transit":false,"line":1,"is_transit":true,"station_name":"Citayam","time":6},{"station_name":"Bojonggede","i_lat":-6.493243,"line":0,"distance":5197,"is_transit":false,"station_id":"BJD","i_long":106.792719,"transit":false,"time":5},{"time":5,"i_long":106.800016,"is_transit":false,"station_name":"Cilebut","line":0,"distance":4331,"station_id":"CLT","transit":false,"i_lat":-6.530544},{"i_long":106.790574,"line":1,"is_transit":true,"time":9,"i_lat":-6.594596,"distance":7514,"station_name":"Bogor","transit":false,"station_id":"BOO"}]]}