{"data":[[{"line":1,"station_id":"MTR","transit":false,"is_transit":false,"distance":0,"station_name":"Matraman","time":0,"i_lat":-6.212485,"i_long":106.858896},{"station_name":"Jatinegara","i_lat":-6.215091,"line":1,"transit":true,"is_transit":true,"distance":1377,"station_id":"JNG","time":8,"i_long":106.86807400000001},{"line":11,"time":2,"distance":1236,"i_long":106.861737,"i_lat":-6.209188,"transit":false,"station_name":"Pondok Jati","station_id":"POK","is_transit":false},{"time":2,"transit":false,"station_id":"KMT","line":11,"distance":1829,"is_transit":false,"station_name":"Kramat","i_lat":-6.193792,"i_long":106.855437},{"station_id":"GST","is_transit":false,"station_name":"Gang Sentiong","line":11,"i_long":106.850107,"time":1,"distance":973,"i_lat":-6.185975,"transit":false}],[{"is_transit":false,"station_id":"MTR","station_name":"Matraman","distance":0,"i_lat":-6.212485,"time":0,"i_long":106.858896,"line":1,"transit":false},{"station_name":"Manggarai","is_transit":false,"distance":1275,"line":2,"station_id":"MRI","i_lat":-6.209883,"transit":false,"time":2,"i_long":106.84912},{"time":4,"station_name":"Sudirman","line":1,"i_lat":-6.202263,"transit":false,"station_id":"SUD","is_transit":false,"i_long":106.822649,"distance":3186},{"station_name":"Sudirman Baru","is_transit":false,"station_id":"SUDB","i_lat":-6.201433,"distance":280,"transit":false,"line":1,"time":1,"i_long":106.819881},{"time":1,"i_long":106.816351,"line":1,"distance":471,"station_id":"KAT","transit":false,"i_lat":-6.20132,"is_transit":false,"station_name":"Karet"},{"time":5,"i_lat":-6.185545,"distance":2029,"station_id":"THB","is_transit":false,"station_name":"Tanah Abang","i_long":106.811091,"transit":false,"line":1},{"i_lat":-6.155215,"time":8,"is_transit":false,"station_name":"Duri","transit":false,"distance":3632,"i_long":106.800832,"station_id":"DU","line":1},{"i_long":106.79867,"station_name":"Angke","station_id":"AK","is_transit":false,"distance":1230,"line":1,"i_lat":-6.144674,"transit":false,"time":4},{"i_long":106.826365,"time":9,"distance":4102,"station_id":"KPB","line":4,"i_lat":-6.132549,"is_transit":true,"station_name":"Kampung Bandan","transit":true},{"station_id":"RJW","i_lat":-6.14505,"is_transit":false,"station_name":"Rajawali","transit":false,"line":11,"distance":1444,"time":3,"i_long":106.836569},{"transit":false,"station_id":"KMO","time":5,"i_long":106.839204,"station_name":"Kemayoran","distance":1901,"line":11,"is_transit":false,"i_lat":-6.161728},{"transit":false,"is_transit":false,"station_id":"PSE","distance":1436,"i_long":106.84368,"station_name":"Pasar Senen","time":4,"i_lat":-6.174784,"line":11},{"station_name":"Gang Sentiong","station_id":"GST","distance":1567,"i_lat":-6.185975,"time":8,"transit":false,"i_long":106.850107,"is_transit":false,"line":11}],[{"is_transit":false,"i_long":106.858896,"transit":false,"station_name":"Matraman","station_id":"MTR","i_lat":-6.212485,"time":0,"line":1,"distance":0},{"time":2,"is_transit":true,"distance":1275,"station_name":"Manggarai","station_id":"MRI","i_long":106.84912,"i_lat":-6.209883,"line":2,"transit":true},{"i_long":106.840169,"time":4,"transit":false,"i_lat":-6.198556,"distance":1590,"station_id":"CKI","is_transit":false,"line":2,"station_name":"Cikini"},{"station_name":"Gondangdia","time":3,"transit":false,"line":2,"i_lat":-6.186295,"distance":1750,"i_long":106.832183,"station_id":"GDD","is_transit":false},{"i_lat":-6.166716,"is_transit":false,"line":2,"station_id":"JUA","station_name":"Juanda","time":4,"distance":2015,"transit":false,"i_long":106.828284},{"i_lat":-6.160725,"line":2,"distance":1149,"i_long":106.827103,"transit":false,"time":2,"station_name":"Sawah Besar","station_id":"SW","is_transit":false},{"i_lat":-6.149769,"i_long":106.82482,"transit":false,"station_id":"MGB","line":2,"distance":906,"is_transit":false,"time":2,"station_name":"Manggabesar"},{"transit":false,"time":2,"is_transit":false,"distance":1080,"i_lat":-6.141205,"i_long":106.820901,"station_name":"Jayakarta","station_id":"JAY","line":2},{"i_lat":-6.137569,"line":2,"time":4,"i_long":106.812439,"distance":1264,"station_name":"Jakarta Kota","transit":true,"is_transit":true,"station_id":"JAKK"},{"time":3,"i_lat":-6.132549,"is_transit":true,"i_long":106.826365,"line":4,"transit":true,"station_name":"Kampung Bandan","station_id":"KPB","distance":1364},{"time":3,"i_long":106.836569,"line":11,"station_name":"Rajawali","station_id":"RJW","distance":1444,"is_transit":false,"i_lat":-6.14505,"transit":false},{"distance":1901,"station_id":"KMO","i_long":106.839204,"transit":false,"time":5,"line":11,"station_name":"Kemayoran","i_lat":-6.161728,"is_transit":false},{"time":4,"i_lat":-6.174784,"line":11,"i_long":106.84368,"transit":false,"distance":1436,"station_id":"PSE","station_name":"Pasar Senen","is_transit":false},{"i_long":106.850107,"distance":1567,"time":8,"station_id":"GST","transit":false,"station_name":"Gang Sentiong","i_lat":-6.185975,"line":11,"is_transit":false}]]}