{"data":[[{"line":1,"distance":0,"time":0,"station_id":"MTR","station_name":"Matraman","is_transit":false,"i_lat":-6.212485,"transit":false,"i_long":106.858896},{"time":8,"transit":true,"distance":1377,"station_name":"Jatinegara","station_id":"JNG","is_transit":true,"i_long":106.86807400000001,"line":1,"i_lat":-6.215091},{"station_id":"POK","time":2,"distance":1236,"transit":false,"i_lat":-6.209188,"line":11,"station_name":"Pondok Jati","i_long":106.861737,"is_transit":false},{"station_id":"KMT","time":2,"is_transit":false,"distance":1829,"i_lat":-6.193792,"transit":false,"i_long":106.855437,"station_name":"Kramat","line":11},{"transit":false,"i_lat":-6.185975,"is_transit":false,"time":1,"i_long":106.850107,"line":11,"distance":973,"station_name":"Gang Sentiong","station_id":"GST"},{"line":11,"distance":1567,"i_lat":-6.174784,"station_name":"Pasar Senen","is_transit":false,"station_id":"PSE","transit":false,"time":8,"i_long":106.84368},{"transit":false,"distance":1436,"line":11,"i_long":106.839204,"is_transit":false,"station_id":"KMO","station_name":"Kemayoran","time":4,"i_lat":-6.161728},{"i_long":106.836569,"line":11,"station_name":"Rajawali","distance":1901,"time":5,"is_transit":false,"transit":false,"station_id":"RJW","i_lat":-6.14505},{"station_id":"KPB","line":4,"i_lat":-6.132549,"station_name":"Kampung Bandan","time":3,"distance":1444,"transit":false,"i_long":106.826365,"is_transit":false}],[{"is_transit":false,"line":1,"station_name":"Matraman","station_id":"MTR","transit":false,"i_lat":-6.212485,"i_long":106.858896,"time":0,"distance":0},{"transit":false,"time":2,"i_long":106.84912,"station_name":"Manggarai","distance":1275,"line":2,"is_transit":false,"station_id":"MRI","i_lat":-6.209883},{"is_transit":false,"line":1,"transit":false,"station_name":"Sudirman","distance":3186,"time":4,"i_lat":-6.202263,"i_long":106.822649,"station_id":"SUD"},{"station_name":"Sudirman Baru","station_id":"SUDB","time":1,"i_lat":-6.201433,"line":1,"transit":false,"distance":280,"is_transit":false,"i_long":106.819881},{"time":1,"is_transit":false,"i_long":106.816351,"transit":false,"distance":471,"i_lat":-6.20132,"station_name":"Karet","line":1,"station_id":"KAT"},{"i_lat":-6.185545,"line":1,"distance":2029,"station_id":"THB","station_name":"Tanah Abang","is_transit":false,"transit":false,"time":5,"i_long":106.811091},{"station_name":"Duri","distance":3632,"time":8,"station_id":"DU","i_lat":-6.155215,"transit":false,"i_long":106.800832,"line":1,"is_transit":false},{"station_id":"AK","transit":false,"station_name":"Angke","i_long":106.79867,"distance":1230,"line":1,"time":4,"i_lat":-6.144674,"is_transit":false},{"transit":false,"i_lat":-6.132549,"is_transit":false,"i_long":106.826365,"time":9,"distance":4102,"station_name":"Kampung Bandan","station_id":"KPB","line":4}],[{"station_name":"Matraman","time":0,"i_long":106.858896,"is_transit":false,"station_id":"MTR","transit":false,"i_lat":-6.212485,"line":1,"distance":0},{"station_id":"MRI","station_name":"Manggarai","is_transit":true,"distance":1275,"time":2,"transit":true,"i_long":106.84912,"line":2,"i_lat":-6.209883},{"station_name":"Cikini","i_lat":-6.198556,"distance":1590,"station_id":"CKI","time":4,"i_long":106.840169,"transit":false,"line":2,"is_transit":false},{"i_lat":-6.186295,"transit":false,"station_name":"Gondangdia","line":2,"station_id":"GDD","i_long":106.832183,"is_transit":false,"time":3,"distance":1750},{"station_id":"JUA","i_long":106.828284,"i_lat":-6.166716,"time":4,"transit":false,"station_name":"Juanda","distance":2015,"line":2,"is_transit":false},{"transit":false,"i_lat":-6.160725,"time":2,"is_transit":false,"line":2,"i_long":106.827103,"station_name":"Sawah Besar","station_id":"SW","distance":1149},{"transit":false,"station_name":"Manggabesar","is_transit":false,"time":2,"line":2,"i_lat":-6.149769,"distance":906,"station_id":"MGB","i_long":106.82482},{"station_name":"Jayakarta","is_transit":false,"i_lat":-6.141205,"i_long":106.820901,"line":2,"station_id":"JAY","time":2,"transit":false,"distance":1080},{"transit":true,"line":2,"is_transit":true,"station_name":"Jakarta Kota","i_lat":-6.137569,"distance":1264,"time":4,"i_long":106.812439,"station_id":"JAKK"},{"i_lat":-6.132549,"transit":false,"line":4,"station_name":"Kampung Bandan","station_id":"KPB","time":3,"i_long":106.826365,"is_transit":false,"distance":1364}]]}