{"data":[[{"i_long":106.858896,"station_name":"Matraman","station_id":"MTR","distance":0,"time":0,"transit":false,"i_lat":-6.212485,"line":1,"is_transit":false},{"transit":false,"station_name":"Jatinegara","station_id":"JNG","i_lat":-6.215091,"i_long":106.86807400000001,"is_transit":false,"line":1,"distance":1377,"time":8},{"i_lat":-6.2135,"station_name":"Klender","distance":3395,"is_transit":false,"i_long":106.899548,"time":3,"line":1,"transit":false,"station_id":"KLD"},{"time":2,"station_id":"BUA","i_lat":-6.215568,"is_transit":false,"station_name":"Buaran","line":1,"transit":false,"distance":3100,"i_long":106.922662},{"is_transit":false,"time":1,"station_id":"KLDB","line":1,"transit":false,"i_long":106.939679,"station_name":"Klenderbaru","i_lat":-6.217455,"distance":1305},{"i_lat":-6.219053,"station_id":"CUK","station_name":"Cakung","line":1,"time":8,"transit":false,"i_long":106.951283,"distance":1385,"is_transit":false},{"station_id":"KRI","i_lat":-6.224515,"i_long":106.977657,"station_name":"Kranji","distance":3097,"is_transit":false,"time":3,"line":1,"transit":false},{"station_id":"BKS","i_long":106.997013,"distance":2520,"is_transit":false,"time":4,"station_name":"Bekasi","transit":false,"i_lat":-6.236616,"line":1},{"station_name":"Bekasi Timur","is_transit":false,"transit":false,"i_lat":-6.248029,"i_long":107.016735,"station_id":"BKST","time":2,"distance":2368,"line":1}],[{"i_lat":-6.212485,"i_long":106.858896,"station_name":"Matraman","line":1,"time":0,"distance":0,"transit":false,"is_transit":false,"station_id":"MTR"},{"time":2,"i_long":106.84912,"distance":1275,"line":2,"is_transit":false,"station_id":"MRI","transit":false,"station_name":"Manggarai","i_lat":-6.209883},{"i_long":106.822649,"is_transit":false,"station_id":"SUD","transit":false,"time":4,"line":1,"distance":3186,"station_name":"Sudirman","i_lat":-6.202263},{"transit":false,"station_id":"SUDB","station_name":"Sudirman Baru","is_transit":false,"i_lat":-6.201433,"time":1,"i_long":106.819881,"distance":280,"line":1},{"station_name":"Karet","i_lat":-6.20132,"is_transit":false,"distance":471,"transit":false,"time":1,"station_id":"KAT","line":1,"i_long":106.816351},{"station_id":"THB","i_lat":-6.185545,"i_long":106.811091,"is_transit":false,"distance":2029,"time":5,"line":1,"transit":false,"station_name":"Tanah Abang"},{"distance":3632,"is_transit":false,"i_lat":-6.155215,"station_id":"DU","transit":false,"i_long":106.800832,"station_name":"Duri","line":1,"time":8},{"i_lat":-6.144674,"time":4,"station_id":"AK","is_transit":false,"station_name":"Angke","distance":1230,"transit":false,"line":1,"i_long":106.79867},{"time":9,"is_transit":true,"station_id":"KPB","station_name":"Kampung Bandan","transit":true,"i_lat":-6.132549,"distance":4102,"line":4,"i_long":106.826365},{"distance":1444,"time":3,"transit":false,"station_name":"Rajawali","is_transit":false,"station_id":"RJW","i_lat":-6.14505,"line":11,"i_long":106.836569},{"transit":false,"line":11,"i_lat":-6.161728,"station_id":"KMO","station_name":"Kemayoran","time":5,"is_transit":false,"i_long":106.839204,"distance":1901},{"station_id":"PSE","i_long":106.84368,"line":11,"is_transit":false,"transit":false,"i_lat":-6.174784,"distance":1436,"station_name":"Pasar Senen","time":4},{"time":8,"is_transit":false,"transit":false,"i_lat":-6.185975,"i_long":106.850107,"line":11,"station_name":"Gang Sentiong","distance":1567,"station_id":"GST"},{"i_lat":-6.193792,"i_long":106.855437,"station_name":"Kramat","line":11,"time":1,"station_id":"KMT","distance":973,"transit":false,"is_transit":false},{"line":11,"station_id":"POK","distance":1829,"time":2,"station_name":"Pondok Jati","is_transit":false,"i_long":106.861737,"transit":false,"i_lat":-6.209188},{"i_long":106.86807400000001,"distance":1236,"transit":true,"station_name":"Jatinegara","station_id":"JNG","line":1,"is_transit":true,"time":9,"i_lat":-6.215091},{"time":3,"station_id":"KLD","line":1,"i_long":106.899548,"station_name":"Klender","distance":3395,"i_lat":-6.2135,"transit":false,"is_transit":false},{"line":1,"transit":false,"station_name":"Buaran","is_transit":false,"distance":3100,"i_lat":-6.215568,"time":2,"station_id":"BUA","i_long":106.922662},{"i_long":106.939679,"station_id":"KLDB","i_lat":-6.217455,"line":1,"time":1,"station_name":"Klenderbaru","is_transit":false,"distance":1305,"transit":false},{"is_transit":false,"time":8,"transit":false,"station_name":"Cakung","i_lat":-6.219053,"distance":1385,"i_long":106.951283,"line":1,"station_id":"CUK"},{"is_transit":false,"transit":false,"station_id":"KRI","distance":3097,"i_lat":-6.224515,"i_long":106.977657,"line":1,"time":3,"station_name":"Kranji"},{"distance":2520,"transit":false,"station_name":"Bekasi","line":1,"i_lat":-6.236616,"time":4,"station_id":"BKS","is_transit":false,"i_long":106.997013},{"time":2,"line":1,"i_lat":-6.248029,"distance":2368,"is_transit":false,"transit":false,"i_long":107.016735,"station_name":"Bekasi Timur","station_id":"BKST"}],[{"transit":false,"is_transit":false,"i_lat":-6.212485,"station_id":"MTR","line":1,"time":0,"station_name":"Matraman","i_long":106.858896,"distance":0},{"station_name":"Manggarai","is_transit":true,"station_id":"MRI","distance":1275,"i_long":106.84912,"i_lat":-6.209883,"time":2,"line":2,"transit":true},{"line":2,"is_transit":false,"station_id":"CKI","time":4,"distance":1590,"i_lat":-6.198556,"i_long":106.840169,"transit":false,"station_name":"Cikini"},{"station_id":"GDD","transit":false,"station_name":"Gondangdia","time":3,"i_lat":-6.186295,"distance":1750,"is_transit":false,"line":2,"i_long":106.832183},{"time":4,"is_transit":false,"line":2,"i_lat":-6.166716,"i_long":106.828284,"station_name":"Juanda","station_id":"JUA","transit":false,"distance":2015},{"i_long":106.827103,"is_transit":false,"time":2,"station_name":"Sawah Besar","transit":false,"distance":1149,"i_lat":-6.160725,"station_id":"SW","line":2},{"transit":false,"line":2,"i_lat":-6.149769,"station_id":"MGB","time":2,"station_name":"Manggabesar","i_long":106.82482,"is_transit":false,"distance":906},{"time":2,"is_transit":false,"transit":false,"distance":1080,"i_lat":-6.141205,"i_long":106.820901,"line":2,"station_name":"Jayakarta","station_id":"JAY"},{"distance":1264,"is_transit":true,"transit":true,"i_lat":-6.137569,"time":4,"i_long":106.812439,"line":2,"station_name":"Jakarta Kota","station_id":"JAKK"},{"station_name":"Kampung Bandan","is_transit":true,"line":4,"i_lat":-6.132549,"station_id":"KPB","transit":true,"i_long":106.826365,"time":3,"distance":1364},{"station_name":"Rajawali","station_id":"RJW","transit":false,"i_long":106.836569,"is_transit":false,"time":3,"line":11,"i_lat":-6.14505,"distance":1444},{"distance":1901,"station_id":"KMO","time":5,"i_lat":-6.161728,"i_long":106.839204,"is_transit":false,"transit":false,"station_name":"Kemayoran","line":11},{"transit":false,"distance":1436,"i_lat":-6.174784,"line":11,"station_name":"Pasar Senen","i_long":106.84368,"time":4,"is_transit":false,"station_id":"PSE"},{"is_transit":false,"line":11,"time":8,"station_name":"Gang Sentiong","i_lat":-6.185975,"i_long":106.850107,"station_id":"GST","transit":false,"distance":1567},{"transit":false,"i_long":106.855437,"station_name":"Kramat","line":11,"i_lat":-6.193792,"time":1,"distance":973,"is_transit":false,"station_id":"KMT"},{"distance":1829,"i_lat":-6.209188,"station_id":"POK","time":2,"line":11,"is_transit":false,"transit":false,"station_name":"Pondok Jati","i_long":106.861737},{"is_transit":true,"station_name":"Jatinegara","station_id":"JNG","distance":1236,"i_lat":-6.215091,"i_long":106.86807400000001,"line":1,"transit":true,"time":9},{"station_name":"Klender","distance":3395,"is_transit":false,"time":3,"transit":false,"i_lat":-6.2135,"station_id":"KLD","line":1,"i_long":106.899548},{"i_lat":-6.215568,"i_long":106.922662,"station_id":"BUA","transit":false,"time":2,"station_name":"Buaran","distance":3100,"line":1,"is_transit":false},{"i_lat":-6.217455,"transit":false,"is_transit":false,"i_long":106.939679,"time":1,"line":1,"station_id":"KLDB","station_name":"Klenderbaru","distance":1305},{"station_id":"CUK","i_lat":-6.219053,"line":1,"time":8,"is_transit":false,"transit":false,"station_name":"Cakung","distance":1385,"i_long":106.951283},{"is_transit":false,"i_long":106.977657,"line":1,"transit":false,"time":3,"i_lat":-6.224515,"station_id":"KRI","station_name":"Kranji","distance":3097},{"time":4,"station_name":"Bekasi","i_long":106.997013,"line":1,"distance":2520,"i_lat":-6.236616,"is_transit":false,"station_id":"BKS","transit":false},{"time":2,"is_transit":false,"station_id":"BKST","transit":false,"distance":2368,"i_lat":-6.248029,"i_long":107.016735,"station_name":"Bekasi Timur","line":1}]]}