{"data":[[{"distance":0,"i_lat":-6.212485,"time":0,"i_long":106.858896,"station_name":"Matraman","station_id":"MTR","line":1,"is_transit":false,"transit":false},{"line":1,"transit":false,"station_name":"Jatinegara","distance":1377,"i_lat":-6.215091,"is_transit":false,"station_id":"JNG","i_long":106.86807400000001,"time":8},{"line":1,"time":3,"distance":3395,"station_name":"Klender","is_transit":false,"station_id":"KLD","i_lat":-6.2135,"transit":false,"i_long":106.899548},{"i_lat":-6.215568,"is_transit":false,"transit":false,"time":2,"line":1,"station_name":"Buaran","station_id":"BUA","distance":3100,"i_long":106.922662},{"distance":1305,"station_id":"KLDB","is_transit":false,"time":1,"transit":false,"i_lat":-6.217455,"line":1,"station_name":"Klenderbaru","i_long":106.939679},{"time":8,"i_lat":-6.219053,"station_id":"CUK","line":1,"transit":false,"station_name":"Cakung","i_long":106.951283,"distance":1385,"is_transit":false},{"transit":false,"distance":3097,"station_name":"Kranji","line":1,"time":3,"i_lat":-6.224515,"station_id":"KRI","is_transit":false,"i_long":106.977657},{"distance":2520,"is_transit":false,"i_long":106.997013,"transit":false,"station_name":"Bekasi","time":4,"i_lat":-6.236616,"line":1,"station_id":"BKS"},{"is_transit":false,"line":1,"i_long":107.016735,"time":2,"distance":2368,"transit":false,"station_id":"BKST","i_lat":-6.248029,"station_name":"Bekasi Timur"},{"station_id":"TB","station_name":"Tambun","time":7,"is_transit":false,"transit":false,"i_lat":-6.258864,"i_long":107.055722,"distance":4460,"line":1}],[{"line":1,"station_id":"MTR","time":0,"station_name":"Matraman","distance":0,"i_lat":-6.212485,"transit":false,"is_transit":false,"i_long":106.858896},{"is_transit":false,"time":2,"i_long":106.84912,"station_id":"MRI","line":2,"i_lat":-6.209883,"transit":false,"station_name":"Manggarai","distance":1275},{"time":4,"is_transit":false,"station_name":"Sudirman","station_id":"SUD","transit":false,"distance":3186,"i_lat":-6.202263,"i_long":106.822649,"line":1},{"i_long":106.819881,"line":1,"distance":280,"transit":false,"is_transit":false,"time":1,"station_name":"Sudirman Baru","i_lat":-6.201433,"station_id":"SUDB"},{"line":1,"transit":false,"is_transit":false,"i_lat":-6.20132,"station_id":"KAT","distance":471,"time":1,"i_long":106.816351,"station_name":"Karet"},{"distance":2029,"is_transit":false,"transit":false,"i_long":106.811091,"i_lat":-6.185545,"station_name":"Tanah Abang","station_id":"THB","line":1,"time":5},{"time":8,"i_lat":-6.155215,"i_long":106.800832,"station_name":"Duri","station_id":"DU","distance":3632,"line":1,"transit":false,"is_transit":false},{"i_lat":-6.144674,"distance":1230,"line":1,"station_name":"Angke","transit":false,"station_id":"AK","is_transit":false,"time":4,"i_long":106.79867},{"i_long":106.826365,"line":4,"time":9,"distance":4102,"i_lat":-6.132549,"station_name":"Kampung Bandan","is_transit":true,"transit":true,"station_id":"KPB"},{"i_long":106.836569,"line":11,"transit":false,"station_name":"Rajawali","distance":1444,"time":3,"i_lat":-6.14505,"is_transit":false,"station_id":"RJW"},{"transit":false,"i_long":106.839204,"station_name":"Kemayoran","line":11,"i_lat":-6.161728,"station_id":"KMO","is_transit":false,"distance":1901,"time":5},{"distance":1436,"transit":false,"station_name":"Pasar Senen","station_id":"PSE","is_transit":false,"time":4,"line":11,"i_lat":-6.174784,"i_long":106.84368},{"station_name":"Gang Sentiong","station_id":"GST","distance":1567,"i_lat":-6.185975,"time":8,"i_long":106.850107,"line":11,"transit":false,"is_transit":false},{"transit":false,"station_id":"KMT","time":1,"distance":973,"i_lat":-6.193792,"i_long":106.855437,"is_transit":false,"line":11,"station_name":"Kramat"},{"transit":false,"time":2,"station_name":"Pondok Jati","is_transit":false,"i_lat":-6.209188,"i_long":106.861737,"distance":1829,"station_id":"POK","line":11},{"line":1,"distance":1236,"transit":true,"is_transit":true,"i_lat":-6.215091,"station_name":"Jatinegara","time":9,"i_long":106.86807400000001,"station_id":"JNG"},{"distance":3395,"i_lat":-6.2135,"station_name":"Klender","i_long":106.899548,"station_id":"KLD","is_transit":false,"line":1,"transit":false,"time":3},{"line":1,"station_name":"Buaran","is_transit":false,"i_lat":-6.215568,"station_id":"BUA","time":2,"transit":false,"distance":3100,"i_long":106.922662},{"station_id":"KLDB","line":1,"distance":1305,"transit":false,"is_transit":false,"time":1,"station_name":"Klenderbaru","i_lat":-6.217455,"i_long":106.939679},{"is_transit":false,"i_lat":-6.219053,"time":8,"line":1,"transit":false,"station_name":"Cakung","distance":1385,"i_long":106.951283,"station_id":"CUK"},{"station_name":"Kranji","distance":3097,"time":3,"is_transit":false,"i_long":106.977657,"line":1,"transit":false,"station_id":"KRI","i_lat":-6.224515},{"transit":false,"time":4,"distance":2520,"i_lat":-6.236616,"station_name":"Bekasi","is_transit":false,"station_id":"BKS","line":1,"i_long":106.997013},{"is_transit":false,"i_lat":-6.248029,"time":2,"transit":false,"i_long":107.016735,"station_id":"BKST","station_name":"Bekasi Timur","distance":2368,"line":1},{"line":1,"i_long":107.055722,"is_transit":false,"i_lat":-6.258864,"station_id":"TB","distance":4460,"time":7,"transit":false,"station_name":"Tambun"}],[{"distance":0,"time":0,"transit":false,"i_lat":-6.212485,"is_transit":false,"station_name":"Matraman","station_id":"MTR","i_long":106.858896,"line":1},{"i_lat":-6.209883,"is_transit":true,"transit":true,"line":2,"distance":1275,"i_long":106.84912,"station_name":"Manggarai","station_id":"MRI","time":2},{"is_transit":false,"line":2,"station_name":"Cikini","i_long":106.840169,"time":4,"distance":1590,"station_id":"CKI","i_lat":-6.198556,"transit":false},{"transit":false,"line":2,"distance":1750,"is_transit":false,"station_name":"Gondangdia","time":3,"i_lat":-6.186295,"station_id":"GDD","i_long":106.832183},{"line":2,"station_id":"JUA","transit":false,"is_transit":false,"time":4,"distance":2015,"i_lat":-6.166716,"station_name":"Juanda","i_long":106.828284},{"distance":1149,"is_transit":false,"i_lat":-6.160725,"station_id":"SW","i_long":106.827103,"time":2,"transit":false,"station_name":"Sawah Besar","line":2},{"is_transit":false,"time":2,"transit":false,"station_name":"Manggabesar","distance":906,"i_long":106.82482,"station_id":"MGB","line":2,"i_lat":-6.149769},{"time":2,"line":2,"station_name":"Jayakarta","transit":false,"station_id":"JAY","is_transit":false,"distance":1080,"i_long":106.820901,"i_lat":-6.141205},{"i_lat":-6.137569,"transit":true,"i_long":106.812439,"is_transit":true,"line":2,"station_name":"Jakarta Kota","time":4,"distance":1264,"station_id":"JAKK"},{"station_name":"Kampung Bandan","time":3,"line":4,"distance":1364,"i_long":106.826365,"transit":true,"station_id":"KPB","i_lat":-6.132549,"is_transit":true},{"distance":1444,"line":11,"transit":false,"i_lat":-6.14505,"station_name":"Rajawali","station_id":"RJW","i_long":106.836569,"is_transit":false,"time":3},{"station_id":"KMO","is_transit":false,"time":5,"i_long":106.839204,"distance":1901,"i_lat":-6.161728,"station_name":"Kemayoran","line":11,"transit":false},{"station_id":"PSE","station_name":"Pasar Senen","line":11,"transit":false,"time":4,"distance":1436,"i_long":106.84368,"i_lat":-6.174784,"is_transit":false},{"is_transit":false,"i_long":106.850107,"station_name":"Gang Sentiong","time":8,"station_id":"GST","distance":1567,"i_lat":-6.185975,"transit":false,"line":11},{"time":1,"line":11,"is_transit":false,"distance":973,"station_name":"Kramat","station_id":"KMT","transit":false,"i_lat":-6.193792,"i_long":106.855437},{"i_lat":-6.209188,"is_transit":false,"transit":false,"i_long":106.861737,"time":2,"station_id":"POK","station_name":"Pondok Jati","distance":1829,"line":11},{"line":1,"i_lat":-6.215091,"station_name":"Jatinegara","transit":true,"is_transit":true,"time":9,"distance":1236,"station_id":"JNG","i_long":106.86807400000001},{"distance":3395,"i_lat":-6.2135,"i_long":106.899548,"line":1,"station_name":"Klender","transit":false,"time":3,"station_id":"KLD","is_transit":false},{"i_long":106.922662,"i_lat":-6.215568,"distance":3100,"station_id":"BUA","station_name":"Buaran","transit":false,"line":1,"is_transit":false,"time":2},{"time":1,"station_id":"KLDB","i_lat":-6.217455,"i_long":106.939679,"line":1,"transit":false,"is_transit":false,"distance":1305,"station_name":"Klenderbaru"},{"i_long":106.951283,"transit":false,"station_name":"Cakung","time":8,"i_lat":-6.219053,"line":1,"station_id":"CUK","distance":1385,"is_transit":false},{"line":1,"time":3,"i_lat":-6.224515,"is_transit":false,"distance":3097,"transit":false,"i_long":106.977657,"station_name":"Kranji","station_id":"KRI"},{"i_lat":-6.236616,"station_id":"BKS","line":1,"station_name":"Bekasi","i_long":106.997013,"transit":false,"is_transit":false,"time":4,"distance":2520},{"line":1,"station_name":"Bekasi Timur","time":2,"distance":2368,"is_transit":false,"transit":false,"station_id":"BKST","i_lat":-6.248029,"i_long":107.016735},{"transit":false,"station_name":"Tambun","is_transit":false,"distance":4460,"i_lat":-6.258864,"i_long":107.055722,"line":1,"time":7,"station_id":"TB"}]]}