{"data":[[{"i_lat":-6.212485,"line":1,"transit":false,"is_transit":false,"time":0,"station_name":"Matraman","i_long":106.858896,"station_id":"MTR","distance":0},{"i_lat":-6.209883,"transit":true,"station_name":"Manggarai","distance":1275,"is_transit":true,"station_id":"MRI","i_long":106.84912,"time":2,"line":0},{"time":4,"is_transit":false,"distance":1590,"station_id":"CKI","station_name":"Cikini","i_lat":-6.198556,"i_long":106.840169,"transit":false,"line":0},{"is_transit":false,"i_long":106.832183,"distance":1750,"line":2,"station_id":"GDD","i_lat":-6.186295,"transit":false,"time":3,"station_name":"Gondangdia"},{"station_name":"Juanda","line":2,"transit":false,"is_transit":false,"time":4,"distance":2015,"i_lat":-6.166716,"i_long":106.828284,"station_id":"JUA"},{"i_long":106.827103,"distance":1149,"station_id":"SW","station_name":"Sawah Besar","transit":false,"is_transit":false,"i_lat":-6.160725,"time":2,"line":2},{"station_id":"MGB","distance":906,"line":2,"transit":false,"station_name":"Manggabesar","time":2,"i_lat":-6.149769,"i_long":106.82482,"is_transit":false},{"station_id":"JAY","i_long":106.820901,"station_name":"Jayakarta","time":2,"line":7,"distance":1080,"is_transit":false,"transit":false,"i_lat":-6.141205},{"transit":false,"time":4,"line":0,"is_transit":true,"distance":1264,"station_id":"JAKK","i_long":106.812439,"i_lat":-6.137569,"station_name":"Jakarta Kota"}],[{"station_name":"Matraman","i_lat":-6.212485,"transit":false,"station_id":"MTR","distance":0,"is_transit":false,"line":1,"time":0,"i_long":106.858896},{"time":8,"is_transit":true,"line":0,"station_id":"JNG","distance":1377,"i_lat":-6.215091,"station_name":"Jatinegara","transit":true,"i_long":106.86807400000001},{"is_transit":false,"station_id":"POK","time":2,"station_name":"Pondok Jati","i_long":106.861737,"transit":false,"i_lat":-6.209188,"line":11,"distance":1236},{"station_id":"KMT","distance":1829,"line":11,"is_transit":false,"station_name":"Kramat","time":2,"transit":false,"i_lat":-6.193792,"i_long":106.855437},{"i_long":106.850107,"line":11,"distance":973,"station_name":"Gang Sentiong","i_lat":-6.185975,"is_transit":false,"time":1,"station_id":"GST","transit":false},{"i_lat":-6.174784,"station_name":"Pasar Senen","distance":1567,"i_long":106.84368,"is_transit":false,"line":11,"time":8,"station_id":"PSE","transit":false},{"i_long":106.839204,"line":11,"time":4,"station_id":"KMO","station_name":"Kemayoran","i_lat":-6.161728,"is_transit":false,"transit":false,"distance":1436},{"line":11,"is_transit":false,"station_id":"RJW","i_lat":-6.14505,"distance":1901,"station_name":"Rajawali","time":5,"i_long":106.836569,"transit":false},{"station_id":"KPB","distance":1444,"time":3,"i_lat":-6.132549,"is_transit":true,"line":0,"station_name":"Kampung Bandan","transit":true,"i_long":106.826365},{"station_name":"Jakarta Kota","transit":false,"station_id":"JAKK","distance":1364,"is_transit":true,"i_long":106.812439,"time":3,"i_lat":-6.137569,"line":0}],[{"station_name":"Matraman","i_lat":-6.212485,"station_id":"MTR","time":0,"is_transit":false,"line":1,"transit":false,"i_long":106.858896,"distance":0},{"line":0,"i_long":106.84912,"time":2,"transit":false,"station_id":"MRI","distance":1275,"i_lat":-6.209883,"is_transit":true,"station_name":"Manggarai"},{"i_lat":-6.202263,"line":1,"transit":false,"is_transit":false,"distance":3186,"time":4,"station_id":"SUD","i_long":106.822649,"station_name":"Sudirman"},{"i_long":106.819881,"line":1,"is_transit":false,"station_id":"SUDB","i_lat":-6.201433,"station_name":"Sudirman Baru","transit":false,"distance":280,"time":1},{"line":1,"i_lat":-6.20132,"i_long":106.816351,"distance":471,"is_transit":false,"transit":false,"time":1,"station_id":"KAT","station_name":"Karet"},{"is_transit":true,"time":5,"i_lat":-6.185545,"station_name":"Tanah Abang","line":1,"station_id":"THB","transit":false,"i_long":106.811091,"distance":2029},{"station_name":"Duri","distance":3632,"i_lat":-6.155215,"i_long":106.800832,"time":8,"is_transit":true,"station_id":"DU","line":1,"transit":true},{"is_transit":false,"distance":1230,"station_id":"AK","time":4,"i_lat":-6.144674,"i_long":106.79867,"transit":false,"station_name":"Angke","line":0},{"transit":false,"is_transit":true,"station_id":"KPB","line":0,"station_name":"Kampung Bandan","i_lat":-6.132549,"distance":4102,"time":9,"i_long":106.826365},{"line":0,"station_id":"JAKK","station_name":"Jakarta Kota","is_transit":true,"time":3,"transit":false,"i_lat":-6.137569,"distance":1364,"i_long":106.812439}],[{"line":1,"i_lat":-6.212485,"station_id":"MTR","i_long":106.858896,"transit":false,"distance":0,"time":0,"is_transit":false,"station_name":"Matraman"},{"is_transit":true,"station_id":"JNG","transit":true,"i_long":106.86807400000001,"line":0,"time":8,"i_lat":-6.215091,"distance":1377,"station_name":"Jatinegara"},{"i_long":106.861737,"station_name":"Pondok Jati","line":11,"distance":1236,"time":2,"i_lat":-6.209188,"transit":false,"is_transit":false,"station_id":"POK"},{"is_transit":false,"station_id":"KMT","transit":false,"time":2,"i_lat":-6.193792,"i_long":106.855437,"line":11,"distance":1829,"station_name":"Kramat"},{"line":11,"i_long":106.850107,"distance":973,"time":1,"station_id":"GST","station_name":"Gang Sentiong","is_transit":false,"transit":false,"i_lat":-6.185975},{"station_name":"Pasar Senen","station_id":"PSE","transit":false,"i_long":106.84368,"time":8,"line":11,"is_transit":false,"distance":1567,"i_lat":-6.174784},{"time":4,"transit":false,"line":11,"distance":1436,"i_long":106.839204,"station_id":"KMO","i_lat":-6.161728,"station_name":"Kemayoran","is_transit":false},{"i_long":106.836569,"transit":false,"i_lat":-6.14505,"is_transit":false,"station_id":"RJW","station_name":"Rajawali","time":5,"distance":1901,"line":11},{"is_transit":true,"time":3,"i_long":106.826365,"line":0,"transit":true,"distance":1444,"i_lat":-6.132549,"station_id":"KPB","station_name":"Kampung Bandan"},{"transit":false,"time":9,"line":0,"i_lat":-6.144674,"station_name":"Angke","i_long":106.79867,"distance":4102,"is_transit":false,"station_id":"AK"},{"station_name":"Duri","distance":1230,"is_transit":true,"station_id":"DU","transit":true,"time":4,"i_lat":-6.155215,"i_long":106.800832,"line":1},{"station_name":"Tanah Abang","time":8,"i_long":106.811091,"line":1,"i_lat":-6.185545,"station_id":"THB","distance":3632,"transit":false,"is_transit":true},{"station_id":"KAT","distance":2029,"i_long":106.816351,"is_transit":false,"transit":false,"line":1,"time":5,"station_name":"Karet","i_lat":-6.20132},{"i_long":106.819881,"i_lat":-6.201433,"is_transit":false,"time":1,"station_name":"Sudirman Baru","line":1,"station_id":"SUDB","transit":false,"distance":471},{"transit":false,"is_transit":false,"station_id":"SUD","station_name":"Sudirman","time":1,"line":1,"i_long":106.822649,"distance":280,"i_lat":-6.202263},{"time":4,"station_id":"MRI","transit":true,"station_name":"Manggarai","line":0,"i_lat":-6.209883,"is_transit":true,"distance":3186,"i_long":106.84912},{"station_name":"Cikini","i_long":106.840169,"station_id":"CKI","i_lat":-6.198556,"is_transit":false,"time":4,"distance":1590,"line":0,"transit":false},{"distance":1750,"line":2,"is_transit":false,"time":3,"i_lat":-6.186295,"station_name":"Gondangdia","station_id":"GDD","transit":false,"i_long":106.832183},{"i_lat":-6.166716,"i_long":106.828284,"distance":2015,"station_name":"Juanda","station_id":"JUA","line":2,"is_transit":false,"time":4,"transit":false},{"transit":false,"station_name":"Sawah Besar","time":2,"line":2,"station_id":"SW","i_long":106.827103,"distance":1149,"i_lat":-6.160725,"is_transit":false},{"i_lat":-6.149769,"i_long":106.82482,"station_id":"MGB","is_transit":false,"station_name":"Manggabesar","line":2,"time":2,"distance":906,"transit":false},{"transit":false,"station_name":"Jayakarta","time":2,"distance":1080,"station_id":"JAY","line":7,"i_long":106.820901,"is_transit":false,"i_lat":-6.141205},{"station_name":"Jakarta Kota","i_long":106.812439,"distance":1264,"time":4,"station_id":"JAKK","is_transit":true,"i_lat":-6.137569,"line":0,"transit":false}]]}