{"data":[[{"time":0,"distance":0,"station_name":"Matraman","i_lat":-6.212485,"station_id":"MTR","transit":false,"is_transit":false,"i_long":106.858896,"line":1},{"transit":false,"i_long":106.84912,"is_transit":false,"station_name":"Manggarai","time":2,"distance":1275,"station_id":"MRI","i_lat":-6.209883,"line":2},{"is_transit":false,"station_name":"Sudirman","distance":3186,"transit":false,"time":4,"i_lat":-6.202263,"station_id":"SUD","i_long":106.822649,"line":1},{"is_transit":false,"time":1,"transit":false,"station_id":"SUDB","i_lat":-6.201433,"i_long":106.819881,"distance":280,"line":1,"station_name":"Sudirman Baru"},{"station_id":"KAT","i_long":106.816351,"line":1,"i_lat":-6.20132,"transit":false,"station_name":"Karet","is_transit":false,"time":1,"distance":471},{"i_long":106.811091,"i_lat":-6.185545,"line":1,"is_transit":false,"transit":false,"station_id":"THB","time":5,"distance":2029,"station_name":"Tanah Abang"},{"is_transit":true,"line":1,"station_name":"Duri","i_long":106.800832,"time":8,"station_id":"DU","transit":true,"i_lat":-6.155215,"distance":3632},{"distance":1700,"station_id":"GGL","i_lat":-6.162021,"line":5,"time":3,"i_long":106.788277,"station_name":"Grogol","transit":false,"is_transit":false},{"time":2,"distance":2036,"line":5,"station_id":"PSG","i_long":106.771379,"station_name":"Pesing","i_lat":-6.161433,"transit":false,"is_transit":false},{"is_transit":false,"i_lat":-6.1587309999999995,"station_id":"TKO","station_name":"Taman Kota","i_long":106.756522,"line":5,"transit":false,"distance":1614,"time":2},{"time":2,"is_transit":false,"distance":2334,"i_long":106.737035,"line":5,"station_id":"BOI","i_lat":-6.159876,"station_name":"Bojongindah","transit":false},{"station_name":"Rawa Buaya","i_lat":-6.162758,"time":4,"distance":1152,"station_id":"RW","is_transit":false,"line":5,"i_long":106.723064,"transit":false},{"is_transit":false,"i_lat":-6.166068,"station_id":"KDS","transit":false,"station_name":"Kalideres","distance":2504,"i_long":106.701612,"line":5,"time":3},{"station_id":"PI","i_long":106.679458,"time":3,"is_transit":false,"line":5,"station_name":"Poris","distance":2548,"transit":false,"i_lat":-6.169933},{"station_name":"Batuceper","is_transit":false,"distance":1834,"i_long":106.665036,"transit":false,"line":5,"station_id":"BPR","i_lat":-6.171811,"time":3}],[{"i_long":106.858896,"transit":false,"station_name":"Matraman","i_lat":-6.212485,"is_transit":false,"line":1,"distance":0,"time":0,"station_id":"MTR"},{"transit":true,"is_transit":true,"i_long":106.86807400000001,"station_name":"Jatinegara","station_id":"JNG","distance":1377,"i_lat":-6.215091,"time":8,"line":1},{"distance":1236,"i_long":106.861737,"line":11,"time":2,"station_name":"Pondok Jati","transit":false,"station_id":"POK","i_lat":-6.209188,"is_transit":false},{"station_name":"Kramat","transit":false,"distance":1829,"station_id":"KMT","i_lat":-6.193792,"line":11,"time":2,"i_long":106.855437,"is_transit":false},{"station_name":"Gang Sentiong","distance":973,"i_long":106.850107,"station_id":"GST","transit":false,"time":1,"line":11,"i_lat":-6.185975,"is_transit":false},{"is_transit":false,"station_id":"PSE","i_long":106.84368,"line":11,"distance":1567,"i_lat":-6.174784,"transit":false,"station_name":"Pasar Senen","time":8},{"i_lat":-6.161728,"transit":false,"is_transit":false,"line":11,"time":4,"distance":1436,"i_long":106.839204,"station_name":"Kemayoran","station_id":"KMO"},{"transit":false,"is_transit":false,"distance":1901,"i_long":106.836569,"station_id":"RJW","line":11,"i_lat":-6.14505,"time":5,"station_name":"Rajawali"},{"time":3,"distance":1444,"station_id":"KPB","is_transit":true,"station_name":"Kampung Bandan","line":4,"i_long":106.826365,"transit":true,"i_lat":-6.132549},{"i_long":106.79867,"station_name":"Angke","is_transit":false,"distance":4102,"time":9,"i_lat":-6.144674,"line":1,"transit":false,"station_id":"AK"},{"is_transit":true,"station_name":"Duri","transit":true,"distance":1230,"line":1,"i_lat":-6.155215,"station_id":"DU","i_long":106.800832,"time":4},{"transit":false,"station_id":"GGL","i_long":106.788277,"is_transit":false,"line":5,"distance":1700,"time":3,"i_lat":-6.162021,"station_name":"Grogol"},{"transit":false,"i_lat":-6.161433,"line":5,"station_name":"Pesing","time":2,"is_transit":false,"station_id":"PSG","distance":2036,"i_long":106.771379},{"transit":false,"is_transit":false,"i_long":106.756522,"line":5,"i_lat":-6.1587309999999995,"distance":1614,"time":2,"station_id":"TKO","station_name":"Taman Kota"},{"is_transit":false,"i_lat":-6.159876,"transit":false,"i_long":106.737035,"station_name":"Bojongindah","distance":2334,"line":5,"station_id":"BOI","time":2},{"transit":false,"i_lat":-6.162758,"line":5,"is_transit":false,"station_id":"RW","time":4,"distance":1152,"station_name":"Rawa Buaya","i_long":106.723064},{"i_long":106.701612,"time":3,"station_name":"Kalideres","station_id":"KDS","i_lat":-6.166068,"transit":false,"is_transit":false,"distance":2504,"line":5},{"is_transit":false,"line":5,"time":3,"i_lat":-6.169933,"i_long":106.679458,"distance":2548,"station_name":"Poris","transit":false,"station_id":"PI"},{"transit":false,"station_id":"BPR","i_lat":-6.171811,"distance":1834,"line":5,"station_name":"Batuceper","is_transit":false,"time":3,"i_long":106.665036}],[{"station_id":"MTR","transit":false,"station_name":"Matraman","distance":0,"line":1,"i_lat":-6.212485,"is_transit":false,"time":0,"i_long":106.858896},{"i_long":106.84912,"time":2,"is_transit":true,"line":2,"i_lat":-6.209883,"transit":true,"station_name":"Manggarai","distance":1275,"station_id":"MRI"},{"i_long":106.840169,"i_lat":-6.198556,"transit":false,"time":4,"is_transit":false,"station_id":"CKI","distance":1590,"station_name":"Cikini","line":2},{"distance":1750,"time":3,"i_long":106.832183,"line":2,"is_transit":false,"transit":false,"i_lat":-6.186295,"station_id":"GDD","station_name":"Gondangdia"},{"distance":2015,"transit":false,"station_name":"Juanda","is_transit":false,"station_id":"JUA","i_lat":-6.166716,"i_long":106.828284,"line":2,"time":4},{"station_id":"SW","time":2,"distance":1149,"i_long":106.827103,"line":2,"transit":false,"is_transit":false,"i_lat":-6.160725,"station_name":"Sawah Besar"},{"distance":906,"i_lat":-6.149769,"line":2,"transit":false,"is_transit":false,"station_id":"MGB","i_long":106.82482,"time":2,"station_name":"Manggabesar"},{"i_long":106.820901,"line":2,"station_name":"Jayakarta","distance":1080,"station_id":"JAY","time":2,"is_transit":false,"i_lat":-6.141205,"transit":false},{"transit":true,"i_lat":-6.137569,"line":2,"time":4,"station_id":"JAKK","is_transit":true,"i_long":106.812439,"station_name":"Jakarta Kota","distance":1264},{"station_id":"KPB","line":4,"i_long":106.826365,"i_lat":-6.132549,"is_transit":true,"transit":true,"time":3,"distance":1364,"station_name":"Kampung Bandan"},{"distance":4102,"i_lat":-6.144674,"station_name":"Angke","transit":false,"time":9,"line":1,"is_transit":false,"i_long":106.79867,"station_id":"AK"},{"i_long":106.800832,"line":1,"station_name":"Duri","is_transit":true,"time":4,"transit":true,"i_lat":-6.155215,"distance":1230,"station_id":"DU"},{"distance":1700,"is_transit":false,"station_name":"Grogol","transit":false,"station_id":"GGL","i_lat":-6.162021,"i_long":106.788277,"time":3,"line":5},{"transit":false,"station_id":"PSG","is_transit":false,"i_long":106.771379,"i_lat":-6.161433,"distance":2036,"line":5,"station_name":"Pesing","time":2},{"line":5,"station_name":"Taman Kota","time":2,"i_lat":-6.1587309999999995,"transit":false,"is_transit":false,"i_long":106.756522,"station_id":"TKO","distance":1614},{"i_lat":-6.159876,"station_id":"BOI","transit":false,"i_long":106.737035,"distance":2334,"station_name":"Bojongindah","time":2,"is_transit":false,"line":5},{"station_id":"RW","station_name":"Rawa Buaya","i_long":106.723064,"transit":false,"line":5,"is_transit":false,"i_lat":-6.162758,"distance":1152,"time":4},{"station_id":"KDS","i_long":106.701612,"transit":false,"station_name":"Kalideres","time":3,"is_transit":false,"line":5,"distance":2504,"i_lat":-6.166068},{"station_id":"PI","i_lat":-6.169933,"line":5,"is_transit":false,"time":3,"distance":2548,"station_name":"Poris","i_long":106.679458,"transit":false},{"time":3,"i_long":106.665036,"transit":false,"station_id":"BPR","distance":1834,"i_lat":-6.171811,"station_name":"Batuceper","line":5,"is_transit":false}],[{"time":0,"i_lat":-6.212485,"line":1,"transit":false,"i_long":106.858896,"is_transit":false,"distance":0,"station_id":"MTR","station_name":"Matraman"},{"transit":true,"i_lat":-6.215091,"line":1,"time":8,"distance":1377,"station_name":"Jatinegara","is_transit":true,"station_id":"JNG","i_long":106.86807400000001},{"i_long":106.861737,"line":11,"i_lat":-6.209188,"is_transit":false,"transit":false,"time":2,"station_name":"Pondok Jati","distance":1236,"station_id":"POK"},{"transit":false,"station_name":"Kramat","time":2,"station_id":"KMT","line":11,"i_lat":-6.193792,"distance":1829,"i_long":106.855437,"is_transit":false},{"transit":false,"i_lat":-6.185975,"distance":973,"time":1,"station_name":"Gang Sentiong","is_transit":false,"line":11,"station_id":"GST","i_long":106.850107},{"is_transit":false,"time":8,"i_lat":-6.174784,"i_long":106.84368,"distance":1567,"transit":false,"station_id":"PSE","station_name":"Pasar Senen","line":11},{"is_transit":false,"transit":false,"i_long":106.839204,"station_name":"Kemayoran","distance":1436,"time":4,"station_id":"KMO","i_lat":-6.161728,"line":11},{"line":11,"station_id":"RJW","time":5,"i_lat":-6.14505,"station_name":"Rajawali","distance":1901,"transit":false,"is_transit":false,"i_long":106.836569},{"transit":true,"distance":1444,"line":4,"i_long":106.826365,"station_name":"Kampung Bandan","i_lat":-6.132549,"station_id":"KPB","time":3,"is_transit":true},{"station_id":"JAKK","is_transit":true,"i_lat":-6.137569,"line":2,"transit":true,"distance":1364,"station_name":"Jakarta Kota","i_long":106.812439,"time":3},{"distance":1264,"is_transit":false,"i_lat":-6.141205,"line":2,"transit":false,"station_name":"Jayakarta","i_long":106.820901,"time":4,"station_id":"JAY"},{"station_name":"Manggabesar","time":2,"line":2,"station_id":"MGB","i_long":106.82482,"i_lat":-6.149769,"distance":1080,"transit":false,"is_transit":false},{"line":2,"time":2,"station_name":"Sawah Besar","station_id":"SW","i_long":106.827103,"transit":false,"is_transit":false,"distance":906,"i_lat":-6.160725},{"distance":1149,"i_lat":-6.166716,"station_id":"JUA","i_long":106.828284,"time":2,"line":2,"station_name":"Juanda","is_transit":false,"transit":false},{"distance":2015,"is_transit":false,"station_id":"GDD","line":2,"time":4,"transit":false,"i_lat":-6.186295,"station_name":"Gondangdia","i_long":106.832183},{"line":2,"distance":1750,"is_transit":false,"station_name":"Cikini","i_long":106.840169,"time":3,"i_lat":-6.198556,"transit":false,"station_id":"CKI"},{"transit":true,"distance":1590,"station_id":"MRI","i_lat":-6.209883,"i_long":106.84912,"station_name":"Manggarai","is_transit":true,"time":4,"line":2},{"time":4,"distance":3186,"transit":false,"i_lat":-6.202263,"i_long":106.822649,"line":1,"station_id":"SUD","is_transit":false,"station_name":"Sudirman"},{"transit":false,"station_name":"Sudirman Baru","station_id":"SUDB","i_long":106.819881,"i_lat":-6.201433,"is_transit":false,"distance":280,"line":1,"time":1},{"time":1,"line":1,"transit":false,"is_transit":false,"station_id":"KAT","station_name":"Karet","i_lat":-6.20132,"distance":471,"i_long":106.816351},{"transit":false,"i_lat":-6.185545,"i_long":106.811091,"time":5,"station_id":"THB","line":1,"distance":2029,"station_name":"Tanah Abang","is_transit":false},{"station_id":"DU","is_transit":true,"transit":true,"time":8,"i_lat":-6.155215,"i_long":106.800832,"station_name":"Duri","line":1,"distance":3632},{"i_long":106.788277,"time":3,"station_name":"Grogol","line":5,"distance":1700,"is_transit":false,"i_lat":-6.162021,"transit":false,"station_id":"GGL"},{"station_id":"PSG","distance":2036,"station_name":"Pesing","i_lat":-6.161433,"transit":false,"i_long":106.771379,"time":2,"line":5,"is_transit":false},{"i_lat":-6.1587309999999995,"i_long":106.756522,"station_name":"Taman Kota","time":2,"line":5,"is_transit":false,"station_id":"TKO","transit":false,"distance":1614},{"i_long":106.737035,"line":5,"station_name":"Bojongindah","time":2,"is_transit":false,"distance":2334,"transit":false,"i_lat":-6.159876,"station_id":"BOI"},{"station_name":"Rawa Buaya","transit":false,"is_transit":false,"distance":1152,"station_id":"RW","i_long":106.723064,"line":5,"i_lat":-6.162758,"time":4},{"distance":2504,"station_id":"KDS","i_long":106.701612,"station_name":"Kalideres","time":3,"transit":false,"i_lat":-6.166068,"line":5,"is_transit":false},{"station_id":"PI","is_transit":false,"distance":2548,"line":5,"station_name":"Poris","i_lat":-6.169933,"transit":false,"i_long":106.679458,"time":3},{"i_long":106.665036,"i_lat":-6.171811,"transit":false,"station_name":"Batuceper","distance":1834,"is_transit":false,"line":5,"time":3,"station_id":"BPR"}]]}