{"data":[[{"time":0,"station_id":"NMO","station_name":"Nambo","is_transit":false,"distance":0,"line":21,"i_lat":-6.466285,"transit":false,"i_long":106.905196},{"transit":false,"station_name":"Cibinong","distance":6527,"i_long":106.851978,"time":10,"is_transit":false,"station_id":"CBN","i_lat":-6.46424,"line":0},{"station_id":"CTA","i_lat":-6.448811,"time":10,"i_long":106.800298,"is_transit":true,"line":1,"transit":false,"distance":6740,"station_name":"Citayam"},{"distance":5084,"station_id":"DP","time":6,"station_name":"Depok","transit":false,"i_long":106.816926,"i_lat":-6.405256,"line":0,"is_transit":false},{"i_lat":-6.391065,"transit":false,"i_long":106.819451,"station_name":"Depokbaru","is_transit":false,"line":0,"distance":1584,"station_id":"DPB","time":3},{"is_transit":false,"station_id":"POC","i_long":106.831114,"station_name":"Pondok Cina","distance":2727,"transit":false,"i_lat":-6.369073,"line":2,"time":4},{"station_id":"UI","is_transit":false,"transit":false,"distance":1109,"station_name":"Univ. Indonesia","time":2,"i_lat":-6.360749,"i_long":106.831474,"line":2},{"time":3,"line":2,"distance":2264,"i_long":106.834175,"transit":false,"i_lat":-6.339291,"station_name":"Univ. Pancasila","is_transit":false,"station_id":"UP"},{"is_transit":false,"station_id":"LNA","transit":false,"i_lat":-6.330363,"i_long":106.832616,"distance":1029,"line":2,"station_name":"Lenteng Agung","time":2},{"distance":2671,"transit":false,"i_lat":-6.3080680000000005,"line":2,"is_transit":false,"station_id":"TNT","i_long":106.838896,"station_name":"Tanjung Barat","time":3},{"station_id":"PSM","line":2,"distance":2820,"i_long":106.843999,"is_transit":false,"i_lat":-6.2842400000000005,"transit":false,"time":4,"station_name":"Pasar Minggu"},{"time":2,"distance":2380,"line":2,"i_lat":-6.263214,"i_long":106.851577,"is_transit":false,"station_name":"Pasar Minggu Baru","station_id":"PSMB","transit":false},{"is_transit":false,"distance":824,"transit":false,"i_lat":-6.255332,"i_long":106.85449,"line":0,"station_id":"DRN","station_name":"Duren Kalibata","time":2},{"i_lat":-6.242512,"station_id":"CW","station_name":"Cawang","line":0,"i_long":106.856607,"distance":1546,"time":3,"is_transit":false,"transit":false},{"i_lat":-6.226659,"transit":false,"line":2,"distance":1230,"i_long":106.857948,"station_id":"TEB","station_name":"Tebet","is_transit":false,"time":2},{"transit":true,"i_long":106.84912,"distance":2610,"station_name":"Manggarai","is_transit":true,"line":0,"time":4,"i_lat":-6.209883,"station_id":"MRI"},{"i_lat":-6.202263,"distance":3186,"is_transit":false,"station_id":"SUD","station_name":"Sudirman","transit":false,"line":1,"i_long":106.822649,"time":4},{"line":1,"i_long":106.819881,"station_name":"Sudirman Baru","is_transit":false,"distance":280,"station_id":"SUDB","i_lat":-6.201433,"transit":false,"time":1},{"distance":471,"station_name":"Karet","i_long":106.816351,"is_transit":false,"transit":false,"station_id":"KAT","time":1,"i_lat":-6.20132,"line":1},{"station_id":"THB","line":1,"distance":2029,"time":5,"i_long":106.811091,"transit":false,"station_name":"Tanah Abang","is_transit":true,"i_lat":-6.185545},{"distance":3632,"station_id":"DU","station_name":"Duri","line":1,"i_lat":-6.155215,"is_transit":true,"time":8,"i_long":106.800832,"transit":true},{"station_name":"Angke","line":0,"distance":1230,"transit":false,"i_lat":-6.144674,"is_transit":false,"i_long":106.79867,"station_id":"AK","time":4}],[{"station_id":"NMO","time":0,"transit":false,"distance":0,"station_name":"Nambo","is_transit":false,"i_long":106.905196,"i_lat":-6.466285,"line":21},{"line":0,"station_name":"Cibinong","distance":6527,"station_id":"CBN","time":10,"is_transit":false,"i_long":106.851978,"i_lat":-6.46424,"transit":false},{"is_transit":true,"i_long":106.800298,"time":10,"station_id":"CTA","i_lat":-6.448811,"station_name":"Citayam","transit":false,"line":1,"distance":6740},{"station_id":"DP","time":6,"transit":false,"station_name":"Depok","i_lat":-6.405256,"i_long":106.816926,"line":0,"is_transit":false,"distance":5084},{"i_lat":-6.391065,"is_transit":false,"line":0,"distance":1584,"transit":false,"station_id":"DPB","time":3,"i_long":106.819451,"station_name":"Depokbaru"},{"i_lat":-6.369073,"station_id":"POC","i_long":106.831114,"transit":false,"distance":2727,"is_transit":false,"line":2,"station_name":"Pondok Cina","time":4},{"is_transit":false,"distance":1109,"i_long":106.831474,"time":2,"transit":false,"i_lat":-6.360749,"station_id":"UI","line":2,"station_name":"Univ. Indonesia"},{"station_id":"UP","transit":false,"time":3,"line":2,"i_long":106.834175,"station_name":"Univ. Pancasila","distance":2264,"i_lat":-6.339291,"is_transit":false},{"is_transit":false,"line":2,"distance":1029,"station_name":"Lenteng Agung","time":2,"station_id":"LNA","i_lat":-6.330363,"i_long":106.832616,"transit":false},{"line":2,"transit":false,"station_id":"TNT","time":3,"is_transit":false,"i_long":106.838896,"distance":2671,"i_lat":-6.3080680000000005,"station_name":"Tanjung Barat"},{"is_transit":false,"i_lat":-6.2842400000000005,"i_long":106.843999,"distance":2820,"time":4,"line":2,"station_id":"PSM","transit":false,"station_name":"Pasar Minggu"},{"is_transit":false,"distance":2380,"time":2,"i_long":106.851577,"station_name":"Pasar Minggu Baru","transit":false,"i_lat":-6.263214,"line":2,"station_id":"PSMB"},{"i_long":106.85449,"transit":false,"station_id":"DRN","time":2,"station_name":"Duren Kalibata","line":0,"is_transit":false,"distance":824,"i_lat":-6.255332},{"transit":false,"distance":1546,"is_transit":false,"i_lat":-6.242512,"i_long":106.856607,"station_id":"CW","station_name":"Cawang","time":3,"line":0},{"i_long":106.857948,"i_lat":-6.226659,"distance":1230,"station_id":"TEB","time":2,"line":2,"station_name":"Tebet","is_transit":false,"transit":false},{"distance":2610,"station_name":"Manggarai","i_long":106.84912,"is_transit":true,"time":4,"station_id":"MRI","transit":true,"i_lat":-6.209883,"line":0},{"i_long":106.840169,"station_id":"CKI","i_lat":-6.198556,"station_name":"Cikini","transit":false,"is_transit":false,"distance":1590,"time":4,"line":0},{"i_long":106.832183,"station_id":"GDD","distance":1750,"time":3,"line":2,"transit":false,"i_lat":-6.186295,"is_transit":false,"station_name":"Gondangdia"},{"transit":false,"station_name":"Juanda","station_id":"JUA","i_lat":-6.166716,"time":4,"distance":2015,"i_long":106.828284,"is_transit":false,"line":2},{"is_transit":false,"station_id":"SW","distance":1149,"transit":false,"station_name":"Sawah Besar","time":2,"i_long":106.827103,"i_lat":-6.160725,"line":2},{"i_long":106.82482,"station_id":"MGB","transit":false,"time":2,"is_transit":false,"line":2,"station_name":"Manggabesar","distance":906,"i_lat":-6.149769},{"time":2,"i_lat":-6.141205,"is_transit":false,"station_name":"Jayakarta","station_id":"JAY","line":7,"i_long":106.820901,"distance":1080,"transit":false},{"is_transit":true,"station_id":"JAKK","time":4,"transit":true,"line":0,"i_lat":-6.137569,"distance":1264,"i_long":106.812439,"station_name":"Jakarta Kota"},{"i_long":106.826365,"distance":1364,"time":3,"line":0,"is_transit":true,"station_id":"KPB","transit":false,"station_name":"Kampung Bandan","i_lat":-6.132549},{"i_long":106.79867,"time":9,"i_lat":-6.144674,"distance":4102,"station_id":"AK","station_name":"Angke","is_transit":false,"transit":false,"line":0}],[{"line":21,"station_name":"Nambo","station_id":"NMO","is_transit":false,"time":0,"distance":0,"transit":false,"i_long":106.905196,"i_lat":-6.466285},{"i_lat":-6.46424,"line":0,"distance":6527,"is_transit":false,"i_long":106.851978,"station_id":"CBN","transit":false,"station_name":"Cibinong","time":10},{"time":10,"is_transit":true,"station_id":"CTA","transit":false,"station_name":"Citayam","distance":6740,"i_lat":-6.448811,"i_long":106.800298,"line":1},{"distance":5084,"is_transit":false,"time":6,"i_long":106.816926,"station_id":"DP","i_lat":-6.405256,"station_name":"Depok","line":0,"transit":false},{"is_transit":false,"i_long":106.819451,"station_name":"Depokbaru","time":3,"transit":false,"distance":1584,"station_id":"DPB","line":0,"i_lat":-6.391065},{"transit":false,"time":4,"line":2,"distance":2727,"station_id":"POC","station_name":"Pondok Cina","is_transit":false,"i_long":106.831114,"i_lat":-6.369073},{"i_long":106.831474,"line":2,"time":2,"i_lat":-6.360749,"distance":1109,"is_transit":false,"transit":false,"station_id":"UI","station_name":"Univ. Indonesia"},{"is_transit":false,"i_long":106.834175,"line":2,"station_id":"UP","time":3,"station_name":"Univ. Pancasila","transit":false,"distance":2264,"i_lat":-6.339291},{"distance":1029,"line":2,"is_transit":false,"i_lat":-6.330363,"time":2,"i_long":106.832616,"transit":false,"station_name":"Lenteng Agung","station_id":"LNA"},{"station_id":"TNT","station_name":"Tanjung Barat","time":3,"i_long":106.838896,"distance":2671,"is_transit":false,"i_lat":-6.3080680000000005,"line":2,"transit":false},{"station_name":"Pasar Minggu","distance":2820,"time":4,"line":2,"is_transit":false,"station_id":"PSM","transit":false,"i_long":106.843999,"i_lat":-6.2842400000000005},{"station_name":"Pasar Minggu Baru","i_lat":-6.263214,"is_transit":false,"station_id":"PSMB","line":2,"transit":false,"time":2,"distance":2380,"i_long":106.851577},{"station_name":"Duren Kalibata","i_long":106.85449,"station_id":"DRN","line":0,"transit":false,"time":2,"i_lat":-6.255332,"distance":824,"is_transit":false},{"i_long":106.856607,"time":3,"distance":1546,"transit":false,"i_lat":-6.242512,"is_transit":false,"station_name":"Cawang","line":0,"station_id":"CW"},{"distance":1230,"transit":false,"i_lat":-6.226659,"i_long":106.857948,"time":2,"station_id":"TEB","station_name":"Tebet","is_transit":false,"line":2},{"i_long":106.84912,"is_transit":true,"station_name":"Manggarai","distance":2610,"time":4,"i_lat":-6.209883,"station_id":"MRI","transit":true,"line":0},{"transit":false,"i_long":106.858896,"is_transit":false,"time":2,"station_id":"MTR","line":1,"i_lat":-6.212485,"station_name":"Matraman","distance":1275},{"i_long":106.86807400000001,"station_name":"Jatinegara","line":0,"is_transit":true,"transit":true,"i_lat":-6.215091,"distance":1377,"time":8,"station_id":"JNG"},{"time":2,"line":11,"i_long":106.861737,"distance":1236,"station_id":"POK","transit":false,"i_lat":-6.209188,"is_transit":false,"station_name":"Pondok Jati"},{"i_lat":-6.193792,"is_transit":false,"station_id":"KMT","transit":false,"time":2,"i_long":106.855437,"line":11,"station_name":"Kramat","distance":1829},{"i_long":106.850107,"distance":973,"time":1,"i_lat":-6.185975,"is_transit":false,"transit":false,"station_id":"GST","station_name":"Gang Sentiong","line":11},{"transit":false,"is_transit":false,"time":8,"i_lat":-6.174784,"distance":1567,"station_name":"Pasar Senen","i_long":106.84368,"line":11,"station_id":"PSE"},{"station_id":"KMO","station_name":"Kemayoran","transit":false,"i_lat":-6.161728,"i_long":106.839204,"line":11,"distance":1436,"is_transit":false,"time":4},{"time":5,"station_name":"Rajawali","distance":1901,"line":11,"is_transit":false,"transit":false,"i_long":106.836569,"i_lat":-6.14505,"station_id":"RJW"},{"line":0,"distance":1444,"is_transit":true,"station_id":"KPB","station_name":"Kampung Bandan","transit":true,"time":3,"i_lat":-6.132549,"i_long":106.826365},{"i_lat":-6.144674,"is_transit":false,"station_id":"AK","transit":false,"station_name":"Angke","i_long":106.79867,"time":9,"line":0,"distance":4102}]]}