{"data":[[{"distance":0,"line":21,"i_lat":-6.466285,"i_long":106.905196,"station_id":"NMO","is_transit":false,"transit":false,"time":0,"station_name":"Nambo"},{"time":10,"is_transit":false,"i_lat":-6.46424,"distance":6527,"i_long":106.851978,"line":21,"station_id":"CBN","transit":false,"station_name":"Cibinong"},{"is_transit":false,"station_id":"PDRG","distance":0,"transit":false,"i_lat":-6.460735,"station_name":"Pondok Rajeg","line":21,"time":0,"i_long":106.824374},{"station_id":"CTA","i_long":106.800298,"transit":true,"is_transit":true,"time":0,"distance":0,"line":2,"station_name":"Citayam","i_lat":-6.448811},{"is_transit":false,"station_name":"Bojonggede","station_id":"BJD","line":2,"distance":5197,"transit":false,"i_lat":-6.493243,"time":5,"i_long":106.792719},{"i_lat":-6.530544,"time":5,"line":2,"station_id":"CLT","station_name":"Cilebut","transit":false,"distance":4331,"is_transit":false,"i_long":106.800016}]]}