{"data":[[{"distance":0,"station_id":"NMO","transit":false,"is_transit":false,"i_lat":-6.466285,"time":0,"i_long":106.905196,"line":21,"station_name":"Nambo"},{"distance":6527,"transit":false,"line":21,"is_transit":false,"i_lat":-6.46424,"time":10,"station_id":"CBN","i_long":106.851978,"station_name":"Cibinong"},{"i_long":106.824374,"time":0,"is_transit":false,"transit":false,"distance":0,"station_name":"Pondok Rajeg","i_lat":-6.460735,"line":21,"station_id":"PDRG"},{"i_lat":-6.448811,"transit":true,"distance":0,"line":2,"station_id":"CTA","is_transit":true,"station_name":"Citayam","time":0,"i_long":106.800298},{"time":6,"i_lat":-6.405256,"line":2,"station_id":"DP","distance":5084,"i_long":106.816926,"transit":false,"station_name":"Depok","is_transit":false},{"is_transit":false,"station_id":"DPB","time":3,"station_name":"Depokbaru","i_long":106.819451,"transit":false,"line":2,"distance":1584,"i_lat":-6.391065},{"station_id":"POC","transit":false,"station_name":"Pondok Cina","is_transit":false,"i_lat":-6.369073,"i_long":106.831114,"distance":2727,"line":2,"time":4},{"distance":1109,"is_transit":false,"i_long":106.831474,"i_lat":-6.360749,"station_id":"UI","transit":false,"station_name":"Univ. Indonesia","time":2,"line":2},{"is_transit":false,"i_long":106.834175,"distance":2264,"station_id":"UP","line":2,"transit":false,"time":3,"i_lat":-6.339291,"station_name":"Univ. Pancasila"},{"transit":false,"station_name":"Lenteng Agung","i_lat":-6.330363,"line":2,"station_id":"LNA","i_long":106.832616,"is_transit":false,"time":2,"distance":1029},{"i_lat":-6.3080680000000005,"transit":false,"station_name":"Tanjung Barat","station_id":"TNT","time":3,"is_transit":false,"distance":2671,"i_long":106.838896,"line":2},{"time":4,"distance":2820,"transit":false,"is_transit":false,"i_lat":-6.2842400000000005,"line":2,"station_id":"PSM","i_long":106.843999,"station_name":"Pasar Minggu"},{"station_id":"PSMB","transit":false,"i_long":106.851577,"i_lat":-6.263214,"station_name":"Pasar Minggu Baru","time":2,"is_transit":false,"line":2,"distance":2380},{"i_long":106.85449,"distance":824,"is_transit":false,"transit":false,"time":2,"station_id":"DRN","station_name":"Duren Kalibata","i_lat":-6.255332,"line":2},{"i_long":106.856607,"station_id":"CW","transit":false,"distance":1546,"station_name":"Cawang","i_lat":-6.242512,"line":2,"is_transit":false,"time":3},{"time":2,"distance":1230,"i_long":106.857948,"i_lat":-6.226659,"line":2,"transit":false,"station_name":"Tebet","is_transit":false,"station_id":"TEB"},{"station_id":"MRI","is_transit":true,"i_long":106.84912,"line":2,"station_name":"Manggarai","i_lat":-6.209883,"distance":2610,"transit":true,"time":4},{"station_name":"Sudirman","distance":3186,"i_lat":-6.202263,"transit":false,"line":1,"time":4,"i_long":106.822649,"station_id":"SUD","is_transit":false},{"station_name":"Sudirman Baru","distance":280,"station_id":"SUDB","i_long":106.819881,"transit":false,"time":1,"is_transit":false,"line":1,"i_lat":-6.201433},{"distance":471,"station_id":"KAT","i_lat":-6.20132,"is_transit":false,"station_name":"Karet","i_long":106.816351,"line":1,"time":1,"transit":false},{"i_lat":-6.185545,"station_id":"THB","station_name":"Tanah Abang","i_long":106.811091,"transit":true,"is_transit":true,"time":5,"line":1,"distance":2029},{"time":6,"i_long":106.79689,"station_id":"PLM","station_name":"Palmerah","distance":3191,"transit":false,"is_transit":false,"line":6,"i_lat":-6.207404},{"station_name":"Kebayoran","transit":false,"i_long":106.780334,"distance":3737,"is_transit":false,"i_lat":-6.237242,"time":7,"station_id":"KBY","line":6},{"line":6,"time":8,"distance":6218,"i_lat":-6.276362,"station_name":"Pondokranji","transit":false,"i_long":106.74273,"is_transit":false,"station_id":"PDJ"},{"station_name":"Jurangmangu","i_long":106.728916,"i_lat":-6.288927,"transit":false,"time":3,"is_transit":false,"distance":2179,"station_id":"JMU","line":6},{"is_transit":false,"i_lat":-6.296963,"time":4,"line":6,"i_long":106.712277,"station_name":"Sudimara","station_id":"SDM","transit":false,"distance":1994},{"station_name":"Rawa Buntu","transit":false,"i_lat":-6.314823,"distance":4566,"line":6,"station_id":"RU","time":6,"is_transit":false,"i_long":106.675475},{"transit":false,"station_name":"Serpong","time":4,"line":6,"i_lat":-6.319871,"i_long":106.66566,"station_id":"SRP","is_transit":false,"distance":2413},{"station_id":"CSK","is_transit":false,"transit":false,"i_lat":-6.32484,"line":3,"i_long":106.640411,"time":4,"station_name":"Cisauk","distance":1784},{"station_id":"CC","i_long":106.617853,"time":4,"is_transit":false,"station_name":"Cicayur","distance":2519,"transit":false,"i_lat":-6.329547,"line":3}],[{"is_transit":false,"i_long":106.905196,"transit":false,"i_lat":-6.466285,"station_name":"Nambo","distance":0,"time":0,"line":21,"station_id":"NMO"},{"i_lat":-6.46424,"station_id":"CBN","is_transit":false,"i_long":106.851978,"line":21,"transit":false,"station_name":"Cibinong","time":10,"distance":6527},{"station_name":"Pondok Rajeg","station_id":"PDRG","time":0,"is_transit":false,"distance":0,"line":21,"i_long":106.824374,"transit":false,"i_lat":-6.460735},{"i_long":106.800298,"station_name":"Citayam","is_transit":true,"transit":true,"time":0,"line":2,"distance":0,"station_id":"CTA","i_lat":-6.448811},{"i_long":106.816926,"transit":false,"i_lat":-6.405256,"is_transit":false,"time":6,"distance":5084,"line":2,"station_name":"Depok","station_id":"DP"},{"station_name":"Depokbaru","line":2,"i_long":106.819451,"is_transit":false,"time":3,"distance":1584,"i_lat":-6.391065,"station_id":"DPB","transit":false},{"transit":false,"i_lat":-6.369073,"time":4,"is_transit":false,"distance":2727,"station_name":"Pondok Cina","line":2,"station_id":"POC","i_long":106.831114},{"transit":false,"station_id":"UI","station_name":"Univ. Indonesia","time":2,"is_transit":false,"line":2,"distance":1109,"i_lat":-6.360749,"i_long":106.831474},{"line":2,"time":3,"transit":false,"distance":2264,"station_name":"Univ. Pancasila","is_transit":false,"station_id":"UP","i_lat":-6.339291,"i_long":106.834175},{"station_id":"LNA","distance":1029,"station_name":"Lenteng Agung","i_lat":-6.330363,"time":2,"i_long":106.832616,"is_transit":false,"transit":false,"line":2},{"transit":false,"line":2,"station_id":"TNT","is_transit":false,"station_name":"Tanjung Barat","time":3,"distance":2671,"i_lat":-6.3080680000000005,"i_long":106.838896},{"time":4,"distance":2820,"is_transit":false,"station_id":"PSM","i_lat":-6.2842400000000005,"i_long":106.843999,"line":2,"transit":false,"station_name":"Pasar Minggu"},{"station_name":"Pasar Minggu Baru","distance":2380,"time":2,"i_long":106.851577,"line":2,"station_id":"PSMB","i_lat":-6.263214,"transit":false,"is_transit":false},{"time":2,"i_long":106.85449,"transit":false,"is_transit":false,"line":2,"i_lat":-6.255332,"station_id":"DRN","distance":824,"station_name":"Duren Kalibata"},{"station_name":"Cawang","distance":1546,"i_long":106.856607,"i_lat":-6.242512,"station_id":"CW","transit":false,"is_transit":false,"time":3,"line":2},{"line":2,"transit":false,"station_name":"Tebet","station_id":"TEB","is_transit":false,"distance":1230,"time":2,"i_lat":-6.226659,"i_long":106.857948},{"time":4,"distance":2610,"station_name":"Manggarai","station_id":"MRI","i_long":106.84912,"i_lat":-6.209883,"is_transit":false,"line":2,"transit":false},{"i_lat":-6.198556,"i_long":106.840169,"distance":1590,"time":4,"line":2,"transit":false,"station_id":"CKI","station_name":"Cikini","is_transit":false},{"station_name":"Gondangdia","time":3,"is_transit":false,"station_id":"GDD","line":2,"transit":false,"i_lat":-6.186295,"i_long":106.832183,"distance":1750},{"is_transit":false,"i_long":106.828284,"station_id":"JUA","line":2,"transit":false,"station_name":"Juanda","time":4,"i_lat":-6.166716,"distance":2015},{"station_id":"SW","transit":false,"is_transit":false,"i_lat":-6.160725,"line":2,"time":2,"i_long":106.827103,"station_name":"Sawah Besar","distance":1149},{"i_long":106.82482,"transit":false,"is_transit":false,"i_lat":-6.149769,"distance":906,"time":2,"station_name":"Manggabesar","station_id":"MGB","line":2},{"station_name":"Jayakarta","transit":false,"is_transit":false,"i_lat":-6.141205,"station_id":"JAY","i_long":106.820901,"line":2,"time":2,"distance":1080},{"i_long":106.812439,"line":2,"time":4,"is_transit":true,"transit":true,"station_name":"Jakarta Kota","station_id":"JAKK","distance":1264,"i_lat":-6.137569},{"is_transit":true,"station_id":"KPB","i_lat":-6.132549,"time":3,"transit":true,"station_name":"Kampung Bandan","distance":1364,"i_long":106.826365,"line":4},{"i_lat":-6.144674,"i_long":106.79867,"station_id":"AK","transit":false,"station_name":"Angke","time":9,"is_transit":false,"line":1,"distance":4102},{"station_id":"DU","i_long":106.800832,"i_lat":-6.155215,"transit":false,"is_transit":false,"station_name":"Duri","distance":1230,"time":4,"line":1},{"time":8,"distance":3632,"line":1,"station_id":"THB","station_name":"Tanah Abang","i_long":106.811091,"transit":true,"i_lat":-6.185545,"is_transit":true},{"time":6,"station_id":"PLM","i_lat":-6.207404,"i_long":106.79689,"transit":false,"line":6,"distance":3191,"station_name":"Palmerah","is_transit":false},{"station_id":"KBY","is_transit":false,"distance":3737,"station_name":"Kebayoran","i_lat":-6.237242,"line":6,"transit":false,"time":7,"i_long":106.780334},{"i_lat":-6.276362,"i_long":106.74273,"transit":false,"distance":6218,"is_transit":false,"line":6,"time":8,"station_id":"PDJ","station_name":"Pondokranji"},{"station_id":"JMU","time":3,"distance":2179,"i_lat":-6.288927,"i_long":106.728916,"line":6,"transit":false,"is_transit":false,"station_name":"Jurangmangu"},{"i_long":106.712277,"station_name":"Sudimara","station_id":"SDM","line":6,"distance":1994,"time":4,"transit":false,"is_transit":false,"i_lat":-6.296963},{"time":6,"i_lat":-6.314823,"is_transit":false,"i_long":106.675475,"station_id":"RU","station_name":"Rawa Buntu","distance":4566,"transit":false,"line":6},{"is_transit":false,"time":4,"i_lat":-6.319871,"i_long":106.66566,"station_name":"Serpong","transit":false,"distance":2413,"station_id":"SRP","line":6},{"station_id":"CSK","i_long":106.640411,"line":3,"transit":false,"distance":1784,"time":4,"station_name":"Cisauk","is_transit":false,"i_lat":-6.32484},{"transit":false,"distance":2519,"line":3,"is_transit":false,"i_lat":-6.329547,"station_name":"Cicayur","i_long":106.617853,"time":4,"station_id":"CC"}],[{"line":21,"station_name":"Nambo","transit":false,"i_lat":-6.466285,"station_id":"NMO","time":0,"is_transit":false,"distance":0,"i_long":106.905196},{"i_long":106.851978,"station_name":"Cibinong","i_lat":-6.46424,"station_id":"CBN","line":21,"is_transit":false,"transit":false,"time":10,"distance":6527},{"i_long":106.824374,"station_name":"Pondok Rajeg","time":0,"transit":false,"is_transit":false,"station_id":"PDRG","i_lat":-6.460735,"distance":0,"line":21},{"transit":true,"time":0,"i_long":106.800298,"station_id":"CTA","line":2,"station_name":"Citayam","i_lat":-6.448811,"distance":0,"is_transit":true},{"is_transit":false,"i_lat":-6.405256,"i_long":106.816926,"station_id":"DP","line":2,"distance":5084,"time":6,"transit":false,"station_name":"Depok"},{"i_long":106.819451,"distance":1584,"is_transit":false,"transit":false,"station_name":"Depokbaru","time":3,"station_id":"DPB","line":2,"i_lat":-6.391065},{"station_id":"POC","time":4,"is_transit":false,"distance":2727,"i_long":106.831114,"i_lat":-6.369073,"line":2,"transit":false,"station_name":"Pondok Cina"},{"is_transit":false,"station_id":"UI","station_name":"Univ. Indonesia","time":2,"distance":1109,"line":2,"i_lat":-6.360749,"transit":false,"i_long":106.831474},{"i_lat":-6.339291,"is_transit":false,"station_id":"UP","station_name":"Univ. Pancasila","line":2,"transit":false,"distance":2264,"time":3,"i_long":106.834175},{"is_transit":false,"time":2,"line":2,"station_id":"LNA","distance":1029,"station_name":"Lenteng Agung","i_lat":-6.330363,"transit":false,"i_long":106.832616},{"station_name":"Tanjung Barat","station_id":"TNT","distance":2671,"transit":false,"i_lat":-6.3080680000000005,"i_long":106.838896,"line":2,"is_transit":false,"time":3},{"distance":2820,"i_lat":-6.2842400000000005,"is_transit":false,"transit":false,"station_name":"Pasar Minggu","time":4,"station_id":"PSM","line":2,"i_long":106.843999},{"i_lat":-6.263214,"line":2,"is_transit":false,"station_name":"Pasar Minggu Baru","transit":false,"station_id":"PSMB","distance":2380,"time":2,"i_long":106.851577},{"station_id":"DRN","i_lat":-6.255332,"i_long":106.85449,"transit":false,"line":2,"distance":824,"time":2,"station_name":"Duren Kalibata","is_transit":false},{"transit":false,"station_name":"Cawang","i_long":106.856607,"line":2,"distance":1546,"is_transit":false,"station_id":"CW","i_lat":-6.242512,"time":3},{"line":2,"time":2,"i_lat":-6.226659,"station_id":"TEB","transit":false,"distance":1230,"is_transit":false,"station_name":"Tebet","i_long":106.857948},{"time":4,"i_lat":-6.209883,"is_transit":true,"line":2,"distance":2610,"i_long":106.84912,"station_id":"MRI","transit":true,"station_name":"Manggarai"},{"station_id":"MTR","transit":false,"i_long":106.858896,"line":1,"station_name":"Matraman","time":2,"is_transit":false,"distance":1275,"i_lat":-6.212485},{"time":8,"station_id":"JNG","i_lat":-6.215091,"i_long":106.86807400000001,"transit":true,"station_name":"Jatinegara","is_transit":true,"distance":1377,"line":1},{"i_lat":-6.209188,"station_name":"Pondok Jati","time":2,"station_id":"POK","distance":1236,"i_long":106.861737,"transit":false,"is_transit":false,"line":11},{"line":11,"transit":false,"is_transit":false,"station_id":"KMT","distance":1829,"i_long":106.855437,"station_name":"Kramat","i_lat":-6.193792,"time":2},{"transit":false,"station_name":"Gang Sentiong","line":11,"i_lat":-6.185975,"station_id":"GST","distance":973,"time":1,"i_long":106.850107,"is_transit":false},{"time":8,"i_long":106.84368,"station_name":"Pasar Senen","distance":1567,"line":11,"is_transit":false,"i_lat":-6.174784,"station_id":"PSE","transit":false},{"is_transit":false,"transit":false,"i_long":106.839204,"station_id":"KMO","time":4,"distance":1436,"station_name":"Kemayoran","i_lat":-6.161728,"line":11},{"i_lat":-6.14505,"i_long":106.836569,"line":11,"time":5,"station_id":"RJW","is_transit":false,"transit":false,"station_name":"Rajawali","distance":1901},{"station_id":"KPB","transit":true,"is_transit":true,"station_name":"Kampung Bandan","i_lat":-6.132549,"i_long":106.826365,"line":4,"distance":1444,"time":3},{"transit":false,"i_long":106.79867,"time":9,"is_transit":false,"distance":4102,"i_lat":-6.144674,"station_id":"AK","station_name":"Angke","line":1},{"i_long":106.800832,"station_id":"DU","is_transit":false,"distance":1230,"line":1,"station_name":"Duri","i_lat":-6.155215,"time":4,"transit":false},{"station_id":"THB","station_name":"Tanah Abang","i_long":106.811091,"is_transit":true,"transit":true,"i_lat":-6.185545,"time":8,"distance":3632,"line":1},{"i_lat":-6.207404,"i_long":106.79689,"transit":false,"station_name":"Palmerah","is_transit":false,"distance":3191,"station_id":"PLM","time":6,"line":6},{"is_transit":false,"station_name":"Kebayoran","transit":false,"time":7,"i_lat":-6.237242,"distance":3737,"line":6,"station_id":"KBY","i_long":106.780334},{"station_name":"Pondokranji","distance":6218,"i_lat":-6.276362,"time":8,"i_long":106.74273,"station_id":"PDJ","is_transit":false,"transit":false,"line":6},{"time":3,"i_long":106.728916,"transit":false,"distance":2179,"station_id":"JMU","station_name":"Jurangmangu","i_lat":-6.288927,"line":6,"is_transit":false},{"line":6,"i_lat":-6.296963,"i_long":106.712277,"time":4,"transit":false,"distance":1994,"station_name":"Sudimara","station_id":"SDM","is_transit":false},{"i_lat":-6.314823,"line":6,"i_long":106.675475,"distance":4566,"is_transit":false,"station_name":"Rawa Buntu","station_id":"RU","time":6,"transit":false},{"station_id":"SRP","is_transit":false,"distance":2413,"line":6,"time":4,"i_long":106.66566,"station_name":"Serpong","i_lat":-6.319871,"transit":false},{"transit":false,"is_transit":false,"distance":1784,"station_name":"Cisauk","i_long":106.640411,"line":3,"station_id":"CSK","i_lat":-6.32484,"time":4},{"station_id":"CC","transit":false,"station_name":"Cicayur","is_transit":false,"distance":2519,"i_lat":-6.329547,"i_long":106.617853,"line":3,"time":4}]]}