{"data":[[{"transit":false,"line":21,"station_id":"NMO","distance":0,"i_long":106.905196,"time":0,"station_name":"Nambo","is_transit":false,"i_lat":-6.466285},{"station_name":"Cibinong","is_transit":false,"transit":false,"time":10,"i_lat":-6.46424,"i_long":106.851978,"distance":6527,"line":0,"station_id":"CBN"},{"time":10,"station_id":"CTA","i_lat":-6.448811,"line":1,"transit":false,"i_long":106.800298,"is_transit":true,"station_name":"Citayam","distance":6740},{"i_long":106.816926,"i_lat":-6.405256,"station_name":"Depok","distance":5084,"is_transit":false,"station_id":"DP","transit":false,"line":0,"time":6},{"i_long":106.819451,"station_id":"DPB","distance":1584,"is_transit":false,"time":3,"station_name":"Depokbaru","line":0,"transit":false,"i_lat":-6.391065},{"is_transit":false,"station_id":"POC","i_long":106.831114,"distance":2727,"station_name":"Pondok Cina","time":4,"line":2,"transit":false,"i_lat":-6.369073},{"station_name":"Univ. Indonesia","time":2,"transit":false,"distance":1109,"station_id":"UI","is_transit":false,"line":2,"i_long":106.831474,"i_lat":-6.360749},{"transit":false,"i_long":106.834175,"station_name":"Univ. Pancasila","station_id":"UP","is_transit":false,"i_lat":-6.339291,"distance":2264,"time":3,"line":2},{"line":2,"station_name":"Lenteng Agung","i_lat":-6.330363,"station_id":"LNA","i_long":106.832616,"time":2,"distance":1029,"is_transit":false,"transit":false},{"time":3,"distance":2671,"line":2,"transit":false,"station_name":"Tanjung Barat","is_transit":false,"i_lat":-6.3080680000000005,"i_long":106.838896,"station_id":"TNT"},{"station_id":"PSM","distance":2820,"i_long":106.843999,"i_lat":-6.2842400000000005,"line":2,"time":4,"is_transit":false,"station_name":"Pasar Minggu","transit":false},{"transit":false,"i_lat":-6.263214,"i_long":106.851577,"line":2,"distance":2380,"station_id":"PSMB","time":2,"station_name":"Pasar Minggu Baru","is_transit":false},{"i_long":106.85449,"transit":false,"line":0,"station_id":"DRN","station_name":"Duren Kalibata","time":2,"is_transit":false,"i_lat":-6.255332,"distance":824},{"transit":false,"time":3,"i_long":106.856607,"line":0,"i_lat":-6.242512,"distance":1546,"station_id":"CW","is_transit":false,"station_name":"Cawang"},{"station_id":"TEB","station_name":"Tebet","is_transit":false,"transit":false,"i_long":106.857948,"line":2,"time":2,"i_lat":-6.226659,"distance":1230},{"i_long":106.84912,"line":0,"i_lat":-6.209883,"station_id":"MRI","station_name":"Manggarai","distance":2610,"time":4,"is_transit":true,"transit":true},{"i_lat":-6.202263,"is_transit":false,"distance":3186,"transit":false,"i_long":106.822649,"station_id":"SUD","time":4,"line":1,"station_name":"Sudirman"},{"time":1,"station_name":"Sudirman Baru","i_long":106.819881,"i_lat":-6.201433,"station_id":"SUDB","line":1,"distance":280,"is_transit":false,"transit":false},{"is_transit":false,"transit":false,"i_lat":-6.20132,"i_long":106.816351,"station_name":"Karet","line":1,"time":1,"station_id":"KAT","distance":471},{"line":1,"is_transit":true,"i_lat":-6.185545,"station_id":"THB","time":5,"station_name":"Tanah Abang","i_long":106.811091,"distance":2029,"transit":true},{"station_id":"PLM","i_long":106.79689,"i_lat":-6.207404,"distance":3191,"line":6,"station_name":"Palmerah","time":6,"is_transit":false,"transit":false},{"i_long":106.780334,"is_transit":false,"station_name":"Kebayoran","line":6,"transit":false,"time":7,"i_lat":-6.237242,"distance":3737,"station_id":"KBY"}],[{"transit":false,"station_name":"Nambo","i_long":106.905196,"is_transit":false,"time":0,"distance":0,"i_lat":-6.466285,"station_id":"NMO","line":21},{"station_id":"CBN","i_long":106.851978,"distance":6527,"i_lat":-6.46424,"time":10,"line":0,"station_name":"Cibinong","is_transit":false,"transit":false},{"station_name":"Citayam","i_long":106.800298,"distance":6740,"line":1,"is_transit":true,"transit":false,"i_lat":-6.448811,"time":10,"station_id":"CTA"},{"i_long":106.816926,"station_name":"Depok","i_lat":-6.405256,"station_id":"DP","distance":5084,"transit":false,"time":6,"is_transit":false,"line":0},{"transit":false,"time":3,"distance":1584,"i_long":106.819451,"line":0,"i_lat":-6.391065,"station_id":"DPB","is_transit":false,"station_name":"Depokbaru"},{"station_name":"Pondok Cina","line":2,"time":4,"i_long":106.831114,"station_id":"POC","distance":2727,"is_transit":false,"transit":false,"i_lat":-6.369073},{"i_lat":-6.360749,"distance":1109,"transit":false,"station_id":"UI","is_transit":false,"station_name":"Univ. Indonesia","time":2,"i_long":106.831474,"line":2},{"distance":2264,"time":3,"is_transit":false,"i_long":106.834175,"line":2,"station_name":"Univ. Pancasila","i_lat":-6.339291,"transit":false,"station_id":"UP"},{"distance":1029,"i_long":106.832616,"line":2,"time":2,"station_id":"LNA","transit":false,"is_transit":false,"i_lat":-6.330363,"station_name":"Lenteng Agung"},{"i_long":106.838896,"line":2,"station_name":"Tanjung Barat","transit":false,"is_transit":false,"i_lat":-6.3080680000000005,"distance":2671,"time":3,"station_id":"TNT"},{"time":4,"is_transit":false,"line":2,"i_lat":-6.2842400000000005,"distance":2820,"i_long":106.843999,"transit":false,"station_id":"PSM","station_name":"Pasar Minggu"},{"transit":false,"is_transit":false,"line":2,"i_lat":-6.263214,"station_id":"PSMB","time":2,"distance":2380,"station_name":"Pasar Minggu Baru","i_long":106.851577},{"line":0,"is_transit":false,"station_name":"Duren Kalibata","i_long":106.85449,"transit":false,"station_id":"DRN","i_lat":-6.255332,"distance":824,"time":2},{"transit":false,"distance":1546,"station_name":"Cawang","is_transit":false,"station_id":"CW","time":3,"i_lat":-6.242512,"i_long":106.856607,"line":0},{"distance":1230,"station_id":"TEB","is_transit":false,"transit":false,"i_lat":-6.226659,"station_name":"Tebet","i_long":106.857948,"time":2,"line":2},{"station_id":"MRI","distance":2610,"time":4,"is_transit":true,"i_lat":-6.209883,"line":0,"transit":true,"station_name":"Manggarai","i_long":106.84912},{"i_long":106.840169,"time":4,"station_id":"CKI","station_name":"Cikini","i_lat":-6.198556,"is_transit":false,"line":0,"distance":1590,"transit":false},{"transit":false,"is_transit":false,"line":2,"distance":1750,"i_lat":-6.186295,"time":3,"i_long":106.832183,"station_id":"GDD","station_name":"Gondangdia"},{"distance":2015,"line":2,"time":4,"i_long":106.828284,"station_name":"Juanda","station_id":"JUA","transit":false,"is_transit":false,"i_lat":-6.166716},{"i_lat":-6.160725,"station_name":"Sawah Besar","is_transit":false,"time":2,"line":2,"transit":false,"i_long":106.827103,"distance":1149,"station_id":"SW"},{"transit":false,"time":2,"station_id":"MGB","distance":906,"is_transit":false,"station_name":"Manggabesar","i_lat":-6.149769,"line":2,"i_long":106.82482},{"time":2,"i_lat":-6.141205,"line":7,"is_transit":false,"i_long":106.820901,"station_name":"Jayakarta","distance":1080,"station_id":"JAY","transit":false},{"transit":true,"line":0,"i_lat":-6.137569,"station_name":"Jakarta Kota","time":4,"station_id":"JAKK","is_transit":true,"distance":1264,"i_long":106.812439},{"distance":1364,"is_transit":true,"time":3,"line":0,"station_id":"KPB","station_name":"Kampung Bandan","transit":false,"i_lat":-6.132549,"i_long":106.826365},{"distance":4102,"i_long":106.79867,"is_transit":false,"station_id":"AK","transit":false,"station_name":"Angke","time":9,"i_lat":-6.144674,"line":0},{"station_name":"Duri","line":1,"transit":true,"time":4,"distance":1230,"i_lat":-6.155215,"is_transit":true,"station_id":"DU","i_long":106.800832},{"is_transit":true,"i_lat":-6.185545,"station_name":"Tanah Abang","distance":3632,"i_long":106.811091,"time":8,"line":1,"station_id":"THB","transit":true},{"station_name":"Palmerah","i_long":106.79689,"transit":false,"i_lat":-6.207404,"distance":3191,"time":6,"is_transit":false,"station_id":"PLM","line":6},{"time":7,"i_long":106.780334,"station_name":"Kebayoran","distance":3737,"line":6,"station_id":"KBY","is_transit":false,"transit":false,"i_lat":-6.237242}],[{"is_transit":false,"station_id":"NMO","i_long":106.905196,"station_name":"Nambo","time":0,"distance":0,"line":21,"i_lat":-6.466285,"transit":false},{"time":10,"station_id":"CBN","station_name":"Cibinong","i_lat":-6.46424,"is_transit":false,"line":0,"distance":6527,"i_long":106.851978,"transit":false},{"time":10,"station_name":"Citayam","line":1,"station_id":"CTA","transit":false,"distance":6740,"is_transit":true,"i_long":106.800298,"i_lat":-6.448811},{"i_long":106.816926,"station_name":"Depok","time":6,"is_transit":false,"line":0,"distance":5084,"transit":false,"station_id":"DP","i_lat":-6.405256},{"time":3,"transit":false,"i_long":106.819451,"station_name":"Depokbaru","line":0,"station_id":"DPB","distance":1584,"is_transit":false,"i_lat":-6.391065},{"line":2,"i_lat":-6.369073,"i_long":106.831114,"is_transit":false,"transit":false,"time":4,"distance":2727,"station_id":"POC","station_name":"Pondok Cina"},{"transit":false,"is_transit":false,"i_lat":-6.360749,"distance":1109,"station_id":"UI","station_name":"Univ. Indonesia","i_long":106.831474,"time":2,"line":2},{"station_name":"Univ. Pancasila","line":2,"i_long":106.834175,"station_id":"UP","is_transit":false,"time":3,"i_lat":-6.339291,"distance":2264,"transit":false},{"station_id":"LNA","station_name":"Lenteng Agung","is_transit":false,"line":2,"transit":false,"distance":1029,"time":2,"i_lat":-6.330363,"i_long":106.832616},{"distance":2671,"i_long":106.838896,"line":2,"station_name":"Tanjung Barat","time":3,"transit":false,"i_lat":-6.3080680000000005,"is_transit":false,"station_id":"TNT"},{"line":2,"distance":2820,"transit":false,"station_name":"Pasar Minggu","station_id":"PSM","time":4,"i_lat":-6.2842400000000005,"is_transit":false,"i_long":106.843999},{"is_transit":false,"station_name":"Pasar Minggu Baru","transit":false,"time":2,"station_id":"PSMB","line":2,"i_lat":-6.263214,"i_long":106.851577,"distance":2380},{"is_transit":false,"i_lat":-6.255332,"i_long":106.85449,"line":0,"time":2,"station_id":"DRN","station_name":"Duren Kalibata","distance":824,"transit":false},{"is_transit":false,"time":3,"line":0,"transit":false,"distance":1546,"station_id":"CW","station_name":"Cawang","i_lat":-6.242512,"i_long":106.856607},{"transit":false,"i_long":106.857948,"distance":1230,"station_id":"TEB","is_transit":false,"time":2,"i_lat":-6.226659,"line":2,"station_name":"Tebet"},{"distance":2610,"is_transit":true,"time":4,"transit":true,"station_name":"Manggarai","i_lat":-6.209883,"line":0,"station_id":"MRI","i_long":106.84912},{"line":1,"distance":1275,"transit":false,"time":2,"is_transit":false,"station_id":"MTR","i_lat":-6.212485,"i_long":106.858896,"station_name":"Matraman"},{"station_id":"JNG","station_name":"Jatinegara","i_long":106.86807400000001,"time":8,"line":0,"distance":1377,"is_transit":true,"i_lat":-6.215091,"transit":true},{"is_transit":false,"distance":1236,"station_id":"POK","time":2,"i_long":106.861737,"station_name":"Pondok Jati","transit":false,"i_lat":-6.209188,"line":11},{"station_name":"Kramat","transit":false,"station_id":"KMT","i_lat":-6.193792,"i_long":106.855437,"line":11,"time":2,"distance":1829,"is_transit":false},{"i_lat":-6.185975,"line":11,"i_long":106.850107,"station_name":"Gang Sentiong","time":1,"transit":false,"distance":973,"station_id":"GST","is_transit":false},{"station_name":"Pasar Senen","distance":1567,"i_lat":-6.174784,"i_long":106.84368,"line":11,"is_transit":false,"transit":false,"time":8,"station_id":"PSE"},{"distance":1436,"line":11,"station_id":"KMO","transit":false,"time":4,"i_lat":-6.161728,"i_long":106.839204,"is_transit":false,"station_name":"Kemayoran"},{"i_lat":-6.14505,"is_transit":false,"station_name":"Rajawali","transit":false,"station_id":"RJW","i_long":106.836569,"distance":1901,"time":5,"line":11},{"i_lat":-6.132549,"time":3,"distance":1444,"is_transit":true,"station_id":"KPB","station_name":"Kampung Bandan","transit":true,"line":0,"i_long":106.826365},{"distance":4102,"line":0,"is_transit":false,"i_lat":-6.144674,"transit":false,"i_long":106.79867,"station_name":"Angke","station_id":"AK","time":9},{"station_name":"Duri","line":1,"distance":1230,"i_long":106.800832,"i_lat":-6.155215,"transit":true,"station_id":"DU","time":4,"is_transit":true},{"distance":3632,"i_lat":-6.185545,"is_transit":true,"station_id":"THB","transit":true,"line":1,"station_name":"Tanah Abang","i_long":106.811091,"time":8},{"line":6,"time":6,"station_name":"Palmerah","is_transit":false,"i_long":106.79689,"distance":3191,"station_id":"PLM","i_lat":-6.207404,"transit":false},{"i_lat":-6.237242,"station_id":"KBY","station_name":"Kebayoran","transit":false,"time":7,"line":6,"is_transit":false,"i_long":106.780334,"distance":3737}]]}