{"data":[[{"transit":false,"line":21,"distance":0,"is_transit":false,"station_id":"NMO","station_name":"Nambo","i_lat":-6.466285,"i_long":106.905196,"time":0},{"i_lat":-6.46424,"is_transit":false,"distance":6527,"transit":false,"i_long":106.851978,"time":10,"line":21,"station_name":"Cibinong","station_id":"CBN"},{"distance":0,"i_long":106.824374,"transit":false,"is_transit":false,"station_name":"Pondok Rajeg","station_id":"PDRG","time":0,"line":21,"i_lat":-6.460735},{"station_name":"Citayam","station_id":"CTA","distance":0,"i_lat":-6.448811,"time":0,"i_long":106.800298,"line":2,"is_transit":true,"transit":true},{"station_id":"DP","transit":false,"time":6,"i_long":106.816926,"line":2,"station_name":"Depok","i_lat":-6.405256,"is_transit":false,"distance":5084},{"station_id":"DPB","time":3,"i_long":106.819451,"line":2,"transit":false,"is_transit":false,"distance":1584,"station_name":"Depokbaru","i_lat":-6.391065},{"station_id":"POC","distance":2727,"time":4,"is_transit":false,"i_lat":-6.369073,"station_name":"Pondok Cina","line":2,"transit":false,"i_long":106.831114},{"station_name":"Univ. Indonesia","station_id":"UI","transit":false,"time":2,"line":2,"i_lat":-6.360749,"distance":1109,"is_transit":false,"i_long":106.831474},{"station_id":"UP","i_lat":-6.339291,"line":2,"transit":false,"station_name":"Univ. Pancasila","time":3,"is_transit":false,"distance":2264,"i_long":106.834175},{"distance":1029,"i_long":106.832616,"i_lat":-6.330363,"station_id":"LNA","line":2,"time":2,"station_name":"Lenteng Agung","transit":false,"is_transit":false},{"station_id":"TNT","distance":2671,"line":2,"transit":false,"i_lat":-6.3080680000000005,"station_name":"Tanjung Barat","i_long":106.838896,"time":3,"is_transit":false},{"station_id":"PSM","station_name":"Pasar Minggu","is_transit":false,"time":4,"i_lat":-6.2842400000000005,"line":2,"transit":false,"distance":2820,"i_long":106.843999},{"station_name":"Pasar Minggu Baru","distance":2380,"is_transit":false,"station_id":"PSMB","line":2,"i_long":106.851577,"transit":false,"time":2,"i_lat":-6.263214},{"line":2,"station_id":"DRN","i_long":106.85449,"is_transit":false,"transit":false,"station_name":"Duren Kalibata","distance":824,"time":2,"i_lat":-6.255332},{"is_transit":false,"i_long":106.856607,"transit":false,"line":2,"station_name":"Cawang","i_lat":-6.242512,"distance":1546,"time":3,"station_id":"CW"},{"time":2,"station_id":"TEB","transit":false,"i_lat":-6.226659,"distance":1230,"i_long":106.857948,"station_name":"Tebet","is_transit":false,"line":2},{"time":4,"i_lat":-6.209883,"transit":true,"station_name":"Manggarai","line":2,"i_long":106.84912,"station_id":"MRI","is_transit":true,"distance":2610},{"station_id":"SUD","is_transit":false,"i_long":106.822649,"distance":3186,"time":4,"line":1,"i_lat":-6.202263,"transit":false,"station_name":"Sudirman"},{"line":1,"station_id":"SUDB","is_transit":false,"transit":false,"station_name":"Sudirman Baru","i_lat":-6.201433,"time":1,"i_long":106.819881,"distance":280},{"i_lat":-6.20132,"station_id":"KAT","is_transit":false,"distance":471,"transit":false,"station_name":"Karet","time":1,"i_long":106.816351,"line":1},{"i_lat":-6.185545,"station_name":"Tanah Abang","distance":2029,"is_transit":true,"time":5,"i_long":106.811091,"line":1,"transit":true,"station_id":"THB"},{"i_lat":-6.207404,"line":6,"transit":false,"station_name":"Palmerah","is_transit":false,"station_id":"PLM","i_long":106.79689,"distance":3191,"time":6},{"distance":3737,"station_name":"Kebayoran","station_id":"KBY","i_long":106.780334,"time":7,"transit":false,"is_transit":false,"i_lat":-6.237242,"line":6},{"i_lat":-6.276362,"time":8,"line":6,"distance":6218,"transit":false,"station_name":"Pondokranji","is_transit":false,"station_id":"PDJ","i_long":106.74273},{"station_id":"JMU","is_transit":false,"i_long":106.728916,"line":6,"i_lat":-6.288927,"transit":false,"station_name":"Jurangmangu","distance":2179,"time":3},{"distance":1994,"station_id":"SDM","line":6,"transit":false,"i_lat":-6.296963,"i_long":106.712277,"station_name":"Sudimara","time":4,"is_transit":false},{"i_lat":-6.314823,"station_name":"Rawa Buntu","i_long":106.675475,"time":6,"transit":false,"line":6,"distance":4566,"station_id":"RU","is_transit":false},{"distance":2413,"i_lat":-6.319871,"is_transit":false,"i_long":106.66566,"transit":false,"time":4,"line":6,"station_name":"Serpong","station_id":"SRP"},{"i_lat":-6.32484,"transit":false,"station_name":"Cisauk","time":4,"distance":1784,"station_id":"CSK","i_long":106.640411,"is_transit":false,"line":3}],[{"is_transit":false,"transit":false,"i_lat":-6.466285,"time":0,"i_long":106.905196,"distance":0,"station_name":"Nambo","station_id":"NMO","line":21},{"is_transit":false,"time":10,"station_id":"CBN","transit":false,"line":21,"i_lat":-6.46424,"i_long":106.851978,"station_name":"Cibinong","distance":6527},{"i_long":106.824374,"station_id":"PDRG","line":21,"transit":false,"distance":0,"time":0,"i_lat":-6.460735,"station_name":"Pondok Rajeg","is_transit":false},{"is_transit":true,"distance":0,"transit":true,"time":0,"line":2,"station_id":"CTA","i_long":106.800298,"station_name":"Citayam","i_lat":-6.448811},{"i_long":106.816926,"is_transit":false,"station_name":"Depok","i_lat":-6.405256,"distance":5084,"time":6,"station_id":"DP","transit":false,"line":2},{"transit":false,"line":2,"time":3,"i_lat":-6.391065,"is_transit":false,"station_name":"Depokbaru","i_long":106.819451,"station_id":"DPB","distance":1584},{"i_long":106.831114,"transit":false,"time":4,"distance":2727,"station_id":"POC","i_lat":-6.369073,"is_transit":false,"station_name":"Pondok Cina","line":2},{"transit":false,"is_transit":false,"i_long":106.831474,"line":2,"distance":1109,"time":2,"station_id":"UI","i_lat":-6.360749,"station_name":"Univ. Indonesia"},{"line":2,"transit":false,"i_long":106.834175,"station_name":"Univ. Pancasila","is_transit":false,"station_id":"UP","time":3,"i_lat":-6.339291,"distance":2264},{"i_long":106.832616,"line":2,"station_id":"LNA","distance":1029,"station_name":"Lenteng Agung","is_transit":false,"time":2,"transit":false,"i_lat":-6.330363},{"is_transit":false,"distance":2671,"station_id":"TNT","time":3,"i_long":106.838896,"line":2,"i_lat":-6.3080680000000005,"station_name":"Tanjung Barat","transit":false},{"is_transit":false,"time":4,"station_id":"PSM","transit":false,"station_name":"Pasar Minggu","i_lat":-6.2842400000000005,"i_long":106.843999,"line":2,"distance":2820},{"transit":false,"station_id":"PSMB","station_name":"Pasar Minggu Baru","i_lat":-6.263214,"line":2,"i_long":106.851577,"distance":2380,"is_transit":false,"time":2},{"time":2,"i_lat":-6.255332,"is_transit":false,"i_long":106.85449,"station_id":"DRN","line":2,"station_name":"Duren Kalibata","distance":824,"transit":false},{"time":3,"i_long":106.856607,"station_id":"CW","distance":1546,"line":2,"transit":false,"station_name":"Cawang","i_lat":-6.242512,"is_transit":false},{"line":2,"is_transit":false,"i_long":106.857948,"distance":1230,"time":2,"transit":false,"station_id":"TEB","station_name":"Tebet","i_lat":-6.226659},{"transit":false,"distance":2610,"i_lat":-6.209883,"i_long":106.84912,"station_id":"MRI","station_name":"Manggarai","line":2,"is_transit":false,"time":4},{"distance":1590,"i_lat":-6.198556,"is_transit":false,"station_id":"CKI","transit":false,"time":4,"line":2,"station_name":"Cikini","i_long":106.840169},{"time":3,"i_long":106.832183,"line":2,"distance":1750,"transit":false,"i_lat":-6.186295,"station_name":"Gondangdia","is_transit":false,"station_id":"GDD"},{"station_id":"JUA","station_name":"Juanda","time":4,"transit":false,"i_long":106.828284,"line":2,"is_transit":false,"i_lat":-6.166716,"distance":2015},{"i_long":106.827103,"time":2,"station_id":"SW","i_lat":-6.160725,"station_name":"Sawah Besar","is_transit":false,"transit":false,"distance":1149,"line":2},{"distance":906,"station_id":"MGB","is_transit":false,"transit":false,"time":2,"i_long":106.82482,"line":2,"i_lat":-6.149769,"station_name":"Manggabesar"},{"distance":1080,"time":2,"is_transit":false,"transit":false,"station_id":"JAY","i_lat":-6.141205,"station_name":"Jayakarta","i_long":106.820901,"line":2},{"transit":true,"distance":1264,"station_id":"JAKK","i_long":106.812439,"station_name":"Jakarta Kota","is_transit":true,"i_lat":-6.137569,"line":2,"time":4},{"is_transit":true,"i_long":106.826365,"transit":true,"time":3,"line":4,"i_lat":-6.132549,"distance":1364,"station_id":"KPB","station_name":"Kampung Bandan"},{"station_name":"Angke","transit":false,"is_transit":false,"station_id":"AK","i_lat":-6.144674,"i_long":106.79867,"distance":4102,"line":1,"time":9},{"i_long":106.800832,"line":1,"station_id":"DU","i_lat":-6.155215,"transit":false,"station_name":"Duri","distance":1230,"time":4,"is_transit":false},{"station_name":"Tanah Abang","transit":true,"station_id":"THB","line":1,"i_lat":-6.185545,"is_transit":true,"distance":3632,"time":8,"i_long":106.811091},{"i_lat":-6.207404,"station_name":"Palmerah","is_transit":false,"distance":3191,"i_long":106.79689,"line":6,"transit":false,"time":6,"station_id":"PLM"},{"station_name":"Kebayoran","time":7,"station_id":"KBY","line":6,"is_transit":false,"transit":false,"i_long":106.780334,"distance":3737,"i_lat":-6.237242},{"time":8,"transit":false,"is_transit":false,"station_id":"PDJ","distance":6218,"i_lat":-6.276362,"i_long":106.74273,"line":6,"station_name":"Pondokranji"},{"time":3,"station_name":"Jurangmangu","is_transit":false,"distance":2179,"transit":false,"station_id":"JMU","line":6,"i_lat":-6.288927,"i_long":106.728916},{"is_transit":false,"i_long":106.712277,"transit":false,"time":4,"distance":1994,"station_id":"SDM","station_name":"Sudimara","i_lat":-6.296963,"line":6},{"station_name":"Rawa Buntu","is_transit":false,"i_lat":-6.314823,"line":6,"station_id":"RU","i_long":106.675475,"time":6,"transit":false,"distance":4566},{"station_name":"Serpong","transit":false,"time":4,"distance":2413,"i_lat":-6.319871,"line":6,"i_long":106.66566,"is_transit":false,"station_id":"SRP"},{"distance":1784,"station_id":"CSK","is_transit":false,"i_lat":-6.32484,"transit":false,"time":4,"i_long":106.640411,"station_name":"Cisauk","line":3}],[{"transit":false,"station_name":"Nambo","distance":0,"time":0,"station_id":"NMO","i_long":106.905196,"i_lat":-6.466285,"line":21,"is_transit":false},{"transit":false,"distance":6527,"station_name":"Cibinong","is_transit":false,"time":10,"station_id":"CBN","i_long":106.851978,"i_lat":-6.46424,"line":21},{"station_name":"Pondok Rajeg","station_id":"PDRG","transit":false,"time":0,"distance":0,"i_lat":-6.460735,"i_long":106.824374,"line":21,"is_transit":false},{"distance":0,"time":0,"station_id":"CTA","station_name":"Citayam","i_long":106.800298,"i_lat":-6.448811,"transit":true,"line":2,"is_transit":true},{"is_transit":false,"station_id":"DP","distance":5084,"station_name":"Depok","i_long":106.816926,"time":6,"i_lat":-6.405256,"line":2,"transit":false},{"i_long":106.819451,"is_transit":false,"line":2,"i_lat":-6.391065,"station_id":"DPB","transit":false,"time":3,"station_name":"Depokbaru","distance":1584},{"i_long":106.831114,"station_name":"Pondok Cina","time":4,"line":2,"is_transit":false,"distance":2727,"station_id":"POC","transit":false,"i_lat":-6.369073},{"transit":false,"station_name":"Univ. Indonesia","time":2,"distance":1109,"i_lat":-6.360749,"i_long":106.831474,"line":2,"is_transit":false,"station_id":"UI"},{"distance":2264,"is_transit":false,"time":3,"i_lat":-6.339291,"transit":false,"i_long":106.834175,"station_name":"Univ. Pancasila","line":2,"station_id":"UP"},{"is_transit":false,"transit":false,"time":2,"i_lat":-6.330363,"i_long":106.832616,"station_name":"Lenteng Agung","station_id":"LNA","line":2,"distance":1029},{"is_transit":false,"transit":false,"distance":2671,"time":3,"line":2,"station_id":"TNT","i_lat":-6.3080680000000005,"i_long":106.838896,"station_name":"Tanjung Barat"},{"line":2,"transit":false,"time":4,"i_lat":-6.2842400000000005,"station_name":"Pasar Minggu","distance":2820,"is_transit":false,"station_id":"PSM","i_long":106.843999},{"station_name":"Pasar Minggu Baru","transit":false,"is_transit":false,"i_long":106.851577,"line":2,"station_id":"PSMB","distance":2380,"i_lat":-6.263214,"time":2},{"time":2,"line":2,"is_transit":false,"distance":824,"i_long":106.85449,"i_lat":-6.255332,"station_id":"DRN","station_name":"Duren Kalibata","transit":false},{"i_lat":-6.242512,"i_long":106.856607,"line":2,"distance":1546,"time":3,"transit":false,"station_name":"Cawang","is_transit":false,"station_id":"CW"},{"i_lat":-6.226659,"distance":1230,"time":2,"i_long":106.857948,"station_id":"TEB","is_transit":false,"line":2,"transit":false,"station_name":"Tebet"},{"transit":true,"is_transit":true,"station_id":"MRI","distance":2610,"line":2,"time":4,"i_lat":-6.209883,"station_name":"Manggarai","i_long":106.84912},{"i_long":106.858896,"line":1,"time":2,"station_id":"MTR","i_lat":-6.212485,"is_transit":false,"station_name":"Matraman","transit":false,"distance":1275},{"station_id":"JNG","line":1,"transit":true,"time":8,"distance":1377,"i_lat":-6.215091,"i_long":106.86807400000001,"is_transit":true,"station_name":"Jatinegara"},{"station_name":"Pondok Jati","line":11,"time":2,"i_long":106.861737,"distance":1236,"station_id":"POK","is_transit":false,"i_lat":-6.209188,"transit":false},{"is_transit":false,"i_long":106.855437,"line":11,"station_name":"Kramat","station_id":"KMT","i_lat":-6.193792,"distance":1829,"time":2,"transit":false},{"distance":973,"line":11,"time":1,"i_long":106.850107,"transit":false,"station_name":"Gang Sentiong","is_transit":false,"station_id":"GST","i_lat":-6.185975},{"line":11,"time":8,"station_id":"PSE","transit":false,"distance":1567,"station_name":"Pasar Senen","i_lat":-6.174784,"i_long":106.84368,"is_transit":false},{"transit":false,"is_transit":false,"i_lat":-6.161728,"distance":1436,"time":4,"station_name":"Kemayoran","station_id":"KMO","i_long":106.839204,"line":11},{"transit":false,"is_transit":false,"distance":1901,"i_long":106.836569,"time":5,"station_name":"Rajawali","station_id":"RJW","i_lat":-6.14505,"line":11},{"station_id":"KPB","time":3,"station_name":"Kampung Bandan","i_long":106.826365,"line":4,"transit":true,"i_lat":-6.132549,"is_transit":true,"distance":1444},{"station_name":"Angke","distance":4102,"station_id":"AK","i_lat":-6.144674,"line":1,"transit":false,"i_long":106.79867,"is_transit":false,"time":9},{"is_transit":false,"station_name":"Duri","i_long":106.800832,"i_lat":-6.155215,"distance":1230,"transit":false,"time":4,"line":1,"station_id":"DU"},{"station_id":"THB","transit":true,"time":8,"line":1,"station_name":"Tanah Abang","is_transit":true,"distance":3632,"i_lat":-6.185545,"i_long":106.811091},{"station_name":"Palmerah","time":6,"distance":3191,"transit":false,"line":6,"i_lat":-6.207404,"i_long":106.79689,"station_id":"PLM","is_transit":false},{"i_long":106.780334,"is_transit":false,"distance":3737,"line":6,"station_name":"Kebayoran","time":7,"i_lat":-6.237242,"station_id":"KBY","transit":false},{"distance":6218,"time":8,"transit":false,"station_name":"Pondokranji","i_lat":-6.276362,"is_transit":false,"line":6,"i_long":106.74273,"station_id":"PDJ"},{"distance":2179,"time":3,"i_lat":-6.288927,"station_name":"Jurangmangu","line":6,"transit":false,"station_id":"JMU","i_long":106.728916,"is_transit":false},{"time":4,"i_lat":-6.296963,"i_long":106.712277,"station_id":"SDM","transit":false,"line":6,"distance":1994,"is_transit":false,"station_name":"Sudimara"},{"i_lat":-6.314823,"transit":false,"distance":4566,"station_id":"RU","i_long":106.675475,"time":6,"line":6,"station_name":"Rawa Buntu","is_transit":false},{"i_long":106.66566,"transit":false,"distance":2413,"is_transit":false,"station_id":"SRP","station_name":"Serpong","time":4,"i_lat":-6.319871,"line":6},{"time":4,"distance":1784,"line":3,"transit":false,"station_name":"Cisauk","i_long":106.640411,"i_lat":-6.32484,"is_transit":false,"station_id":"CSK"}]]}