{"data":[[{"station_name":"Nambo","transit":false,"distance":0,"is_transit":false,"station_id":"NMO","time":0,"i_long":106.905196,"line":21,"i_lat":-6.466285},{"time":10,"distance":6527,"station_id":"CBN","transit":false,"station_name":"Cibinong","line":21,"is_transit":false,"i_long":106.851978,"i_lat":-6.46424},{"station_name":"Pondok Rajeg","station_id":"PDRG","time":0,"distance":0,"transit":false,"line":21,"is_transit":false,"i_long":106.824374,"i_lat":-6.460735},{"station_name":"Citayam","station_id":"CTA","distance":0,"i_lat":-6.448811,"line":2,"transit":true,"i_long":106.800298,"time":0,"is_transit":true},{"station_name":"Depok","line":2,"i_long":106.816926,"is_transit":false,"time":6,"station_id":"DP","transit":false,"i_lat":-6.405256,"distance":5084},{"distance":1584,"line":2,"i_long":106.819451,"station_name":"Depokbaru","time":3,"i_lat":-6.391065,"station_id":"DPB","is_transit":false,"transit":false},{"time":4,"line":2,"station_name":"Pondok Cina","station_id":"POC","transit":false,"i_lat":-6.369073,"is_transit":false,"distance":2727,"i_long":106.831114},{"i_long":106.831474,"distance":1109,"station_id":"UI","time":2,"line":2,"transit":false,"is_transit":false,"station_name":"Univ. Indonesia","i_lat":-6.360749},{"transit":false,"station_id":"UP","i_long":106.834175,"is_transit":false,"station_name":"Univ. Pancasila","distance":2264,"i_lat":-6.339291,"line":2,"time":3},{"time":2,"is_transit":false,"i_long":106.832616,"i_lat":-6.330363,"transit":false,"line":2,"station_name":"Lenteng Agung","station_id":"LNA","distance":1029},{"transit":false,"station_name":"Tanjung Barat","station_id":"TNT","is_transit":false,"i_lat":-6.3080680000000005,"i_long":106.838896,"time":3,"distance":2671,"line":2},{"distance":2820,"is_transit":false,"station_name":"Pasar Minggu","line":2,"station_id":"PSM","time":4,"i_lat":-6.2842400000000005,"i_long":106.843999,"transit":false},{"distance":2380,"transit":false,"time":2,"line":2,"station_name":"Pasar Minggu Baru","station_id":"PSMB","i_lat":-6.263214,"i_long":106.851577,"is_transit":false},{"is_transit":false,"distance":824,"i_long":106.85449,"line":2,"time":2,"station_name":"Duren Kalibata","station_id":"DRN","transit":false,"i_lat":-6.255332},{"is_transit":false,"distance":1546,"station_name":"Cawang","line":2,"i_long":106.856607,"station_id":"CW","time":3,"transit":false,"i_lat":-6.242512},{"is_transit":false,"station_name":"Tebet","station_id":"TEB","line":2,"distance":1230,"i_lat":-6.226659,"transit":false,"time":2,"i_long":106.857948},{"is_transit":true,"station_name":"Manggarai","transit":true,"time":4,"line":2,"i_lat":-6.209883,"station_id":"MRI","distance":2610,"i_long":106.84912},{"transit":false,"distance":3186,"i_long":106.822649,"station_id":"SUD","time":4,"i_lat":-6.202263,"line":1,"station_name":"Sudirman","is_transit":false},{"line":1,"is_transit":false,"station_name":"Sudirman Baru","time":1,"station_id":"SUDB","i_long":106.819881,"i_lat":-6.201433,"distance":280,"transit":false},{"i_long":106.816351,"station_id":"KAT","line":1,"time":1,"distance":471,"is_transit":false,"transit":false,"station_name":"Karet","i_lat":-6.20132},{"i_long":106.811091,"line":1,"i_lat":-6.185545,"station_name":"Tanah Abang","is_transit":true,"distance":2029,"station_id":"THB","transit":true,"time":5},{"i_lat":-6.207404,"distance":3191,"i_long":106.79689,"station_name":"Palmerah","station_id":"PLM","time":6,"transit":false,"line":6,"is_transit":false},{"time":7,"station_name":"Kebayoran","station_id":"KBY","i_long":106.780334,"is_transit":false,"transit":false,"line":6,"distance":3737,"i_lat":-6.237242},{"distance":6218,"i_lat":-6.276362,"i_long":106.74273,"time":8,"transit":false,"is_transit":false,"station_name":"Pondokranji","line":6,"station_id":"PDJ"},{"is_transit":false,"distance":2179,"i_lat":-6.288927,"line":6,"station_id":"JMU","station_name":"Jurangmangu","i_long":106.728916,"time":3,"transit":false},{"station_id":"SDM","time":4,"station_name":"Sudimara","i_lat":-6.296963,"distance":1994,"i_long":106.712277,"transit":false,"line":6,"is_transit":false},{"station_id":"RU","i_long":106.675475,"line":6,"i_lat":-6.314823,"time":6,"transit":false,"distance":4566,"station_name":"Rawa Buntu","is_transit":false},{"time":4,"transit":false,"station_name":"Serpong","i_long":106.66566,"station_id":"SRP","i_lat":-6.319871,"distance":2413,"is_transit":false,"line":6},{"is_transit":false,"i_long":106.640411,"transit":false,"distance":1784,"line":3,"station_name":"Cisauk","time":4,"station_id":"CSK","i_lat":-6.32484},{"distance":2519,"i_lat":-6.329547,"station_id":"CC","time":4,"i_long":106.617853,"transit":false,"is_transit":false,"line":3,"station_name":"Cicayur"}],[{"line":21,"station_name":"Nambo","is_transit":false,"time":0,"i_long":106.905196,"transit":false,"station_id":"NMO","distance":0,"i_lat":-6.466285},{"station_name":"Cibinong","transit":false,"is_transit":false,"distance":6527,"station_id":"CBN","i_lat":-6.46424,"i_long":106.851978,"time":10,"line":21},{"distance":0,"station_name":"Pondok Rajeg","station_id":"PDRG","time":0,"transit":false,"i_long":106.824374,"is_transit":false,"i_lat":-6.460735,"line":21},{"i_long":106.800298,"line":2,"station_name":"Citayam","distance":0,"station_id":"CTA","transit":true,"i_lat":-6.448811,"is_transit":true,"time":0},{"i_lat":-6.405256,"transit":false,"station_name":"Depok","is_transit":false,"time":6,"i_long":106.816926,"line":2,"station_id":"DP","distance":5084},{"time":3,"transit":false,"i_lat":-6.391065,"i_long":106.819451,"distance":1584,"line":2,"is_transit":false,"station_id":"DPB","station_name":"Depokbaru"},{"station_name":"Pondok Cina","line":2,"i_long":106.831114,"distance":2727,"station_id":"POC","is_transit":false,"i_lat":-6.369073,"transit":false,"time":4},{"time":2,"distance":1109,"line":2,"station_name":"Univ. Indonesia","transit":false,"is_transit":false,"i_lat":-6.360749,"i_long":106.831474,"station_id":"UI"},{"station_name":"Univ. Pancasila","time":3,"i_long":106.834175,"i_lat":-6.339291,"line":2,"distance":2264,"is_transit":false,"transit":false,"station_id":"UP"},{"transit":false,"time":2,"distance":1029,"i_long":106.832616,"line":2,"station_id":"LNA","is_transit":false,"station_name":"Lenteng Agung","i_lat":-6.330363},{"station_name":"Tanjung Barat","is_transit":false,"line":2,"i_long":106.838896,"i_lat":-6.3080680000000005,"station_id":"TNT","time":3,"distance":2671,"transit":false},{"is_transit":false,"i_lat":-6.2842400000000005,"line":2,"station_name":"Pasar Minggu","distance":2820,"i_long":106.843999,"transit":false,"station_id":"PSM","time":4},{"is_transit":false,"i_long":106.851577,"station_id":"PSMB","station_name":"Pasar Minggu Baru","line":2,"transit":false,"time":2,"i_lat":-6.263214,"distance":2380},{"station_id":"DRN","i_lat":-6.255332,"station_name":"Duren Kalibata","is_transit":false,"distance":824,"i_long":106.85449,"time":2,"transit":false,"line":2},{"station_name":"Cawang","is_transit":false,"i_lat":-6.242512,"line":2,"time":3,"i_long":106.856607,"distance":1546,"transit":false,"station_id":"CW"},{"is_transit":false,"distance":1230,"station_id":"TEB","time":2,"i_lat":-6.226659,"station_name":"Tebet","i_long":106.857948,"transit":false,"line":2},{"station_name":"Manggarai","is_transit":false,"distance":2610,"time":4,"line":2,"i_lat":-6.209883,"i_long":106.84912,"transit":false,"station_id":"MRI"},{"line":2,"time":4,"station_id":"CKI","transit":false,"i_long":106.840169,"station_name":"Cikini","i_lat":-6.198556,"distance":1590,"is_transit":false},{"is_transit":false,"transit":false,"distance":1750,"station_name":"Gondangdia","line":2,"i_long":106.832183,"time":3,"station_id":"GDD","i_lat":-6.186295},{"transit":false,"time":4,"station_id":"JUA","i_long":106.828284,"is_transit":false,"i_lat":-6.166716,"station_name":"Juanda","distance":2015,"line":2},{"station_name":"Sawah Besar","is_transit":false,"time":2,"transit":false,"distance":1149,"i_lat":-6.160725,"line":2,"i_long":106.827103,"station_id":"SW"},{"distance":906,"transit":false,"station_name":"Manggabesar","time":2,"i_lat":-6.149769,"i_long":106.82482,"is_transit":false,"station_id":"MGB","line":2},{"station_id":"JAY","transit":false,"time":2,"distance":1080,"is_transit":false,"line":2,"i_lat":-6.141205,"station_name":"Jayakarta","i_long":106.820901},{"line":2,"station_name":"Jakarta Kota","station_id":"JAKK","is_transit":true,"time":4,"distance":1264,"i_long":106.812439,"i_lat":-6.137569,"transit":true},{"distance":1364,"time":3,"i_long":106.826365,"i_lat":-6.132549,"line":4,"station_name":"Kampung Bandan","is_transit":true,"transit":true,"station_id":"KPB"},{"i_long":106.79867,"line":1,"i_lat":-6.144674,"station_name":"Angke","distance":4102,"is_transit":false,"station_id":"AK","transit":false,"time":9},{"station_name":"Duri","time":4,"line":1,"transit":false,"distance":1230,"station_id":"DU","i_lat":-6.155215,"is_transit":false,"i_long":106.800832},{"line":1,"station_name":"Tanah Abang","is_transit":true,"station_id":"THB","i_long":106.811091,"distance":3632,"i_lat":-6.185545,"transit":true,"time":8},{"line":6,"transit":false,"station_id":"PLM","distance":3191,"station_name":"Palmerah","i_long":106.79689,"is_transit":false,"time":6,"i_lat":-6.207404},{"is_transit":false,"i_lat":-6.237242,"line":6,"station_id":"KBY","time":7,"i_long":106.780334,"station_name":"Kebayoran","distance":3737,"transit":false},{"station_name":"Pondokranji","i_lat":-6.276362,"transit":false,"distance":6218,"line":6,"i_long":106.74273,"station_id":"PDJ","is_transit":false,"time":8},{"time":3,"i_lat":-6.288927,"transit":false,"distance":2179,"station_name":"Jurangmangu","station_id":"JMU","line":6,"i_long":106.728916,"is_transit":false},{"station_name":"Sudimara","transit":false,"i_long":106.712277,"i_lat":-6.296963,"time":4,"station_id":"SDM","distance":1994,"line":6,"is_transit":false},{"i_lat":-6.314823,"i_long":106.675475,"station_name":"Rawa Buntu","line":6,"is_transit":false,"transit":false,"time":6,"station_id":"RU","distance":4566},{"station_id":"SRP","transit":false,"station_name":"Serpong","i_lat":-6.319871,"line":6,"i_long":106.66566,"time":4,"is_transit":false,"distance":2413},{"station_name":"Cisauk","station_id":"CSK","i_long":106.640411,"transit":false,"is_transit":false,"line":3,"time":4,"distance":1784,"i_lat":-6.32484},{"i_lat":-6.329547,"i_long":106.617853,"distance":2519,"line":3,"is_transit":false,"station_name":"Cicayur","transit":false,"station_id":"CC","time":4}],[{"is_transit":false,"distance":0,"i_long":106.905196,"line":21,"time":0,"i_lat":-6.466285,"station_name":"Nambo","station_id":"NMO","transit":false},{"i_lat":-6.46424,"transit":false,"line":21,"time":10,"distance":6527,"i_long":106.851978,"is_transit":false,"station_id":"CBN","station_name":"Cibinong"},{"is_transit":false,"station_name":"Pondok Rajeg","distance":0,"line":21,"station_id":"PDRG","transit":false,"i_long":106.824374,"i_lat":-6.460735,"time":0},{"station_id":"CTA","station_name":"Citayam","distance":0,"i_long":106.800298,"i_lat":-6.448811,"line":2,"is_transit":true,"time":0,"transit":true},{"station_name":"Depok","i_lat":-6.405256,"time":6,"station_id":"DP","distance":5084,"i_long":106.816926,"is_transit":false,"line":2,"transit":false},{"time":3,"i_long":106.819451,"transit":false,"station_id":"DPB","line":2,"is_transit":false,"distance":1584,"i_lat":-6.391065,"station_name":"Depokbaru"},{"time":4,"transit":false,"station_id":"POC","station_name":"Pondok Cina","i_long":106.831114,"line":2,"distance":2727,"is_transit":false,"i_lat":-6.369073},{"station_id":"UI","line":2,"distance":1109,"transit":false,"is_transit":false,"time":2,"i_long":106.831474,"i_lat":-6.360749,"station_name":"Univ. Indonesia"},{"transit":false,"i_lat":-6.339291,"i_long":106.834175,"time":3,"line":2,"station_name":"Univ. Pancasila","station_id":"UP","is_transit":false,"distance":2264},{"i_long":106.832616,"station_name":"Lenteng Agung","transit":false,"distance":1029,"station_id":"LNA","is_transit":false,"time":2,"i_lat":-6.330363,"line":2},{"time":3,"transit":false,"is_transit":false,"station_id":"TNT","i_lat":-6.3080680000000005,"station_name":"Tanjung Barat","distance":2671,"i_long":106.838896,"line":2},{"time":4,"station_id":"PSM","is_transit":false,"distance":2820,"station_name":"Pasar Minggu","transit":false,"i_lat":-6.2842400000000005,"i_long":106.843999,"line":2},{"is_transit":false,"i_lat":-6.263214,"distance":2380,"line":2,"station_id":"PSMB","station_name":"Pasar Minggu Baru","transit":false,"time":2,"i_long":106.851577},{"i_lat":-6.255332,"transit":false,"station_name":"Duren Kalibata","station_id":"DRN","i_long":106.85449,"line":2,"distance":824,"time":2,"is_transit":false},{"line":2,"transit":false,"time":3,"i_lat":-6.242512,"i_long":106.856607,"is_transit":false,"distance":1546,"station_name":"Cawang","station_id":"CW"},{"distance":1230,"station_id":"TEB","line":2,"station_name":"Tebet","is_transit":false,"transit":false,"i_lat":-6.226659,"i_long":106.857948,"time":2},{"i_long":106.84912,"station_name":"Manggarai","station_id":"MRI","line":2,"distance":2610,"transit":true,"is_transit":true,"time":4,"i_lat":-6.209883},{"station_name":"Matraman","transit":false,"station_id":"MTR","time":2,"distance":1275,"i_lat":-6.212485,"is_transit":false,"line":1,"i_long":106.858896},{"station_id":"JNG","time":8,"station_name":"Jatinegara","i_long":106.86807400000001,"distance":1377,"i_lat":-6.215091,"transit":true,"is_transit":true,"line":1},{"distance":1236,"i_long":106.861737,"station_id":"POK","is_transit":false,"time":2,"transit":false,"i_lat":-6.209188,"station_name":"Pondok Jati","line":11},{"transit":false,"station_id":"KMT","line":11,"distance":1829,"i_lat":-6.193792,"station_name":"Kramat","time":2,"i_long":106.855437,"is_transit":false},{"time":1,"i_long":106.850107,"transit":false,"i_lat":-6.185975,"line":11,"station_id":"GST","is_transit":false,"station_name":"Gang Sentiong","distance":973},{"transit":false,"is_transit":false,"time":8,"station_name":"Pasar Senen","distance":1567,"line":11,"i_lat":-6.174784,"i_long":106.84368,"station_id":"PSE"},{"i_lat":-6.161728,"transit":false,"time":4,"i_long":106.839204,"station_name":"Kemayoran","distance":1436,"is_transit":false,"line":11,"station_id":"KMO"},{"time":5,"station_id":"RJW","distance":1901,"i_lat":-6.14505,"i_long":106.836569,"line":11,"transit":false,"station_name":"Rajawali","is_transit":false},{"is_transit":true,"station_name":"Kampung Bandan","line":4,"distance":1444,"i_lat":-6.132549,"station_id":"KPB","i_long":106.826365,"time":3,"transit":true},{"station_name":"Angke","i_long":106.79867,"is_transit":false,"transit":false,"time":9,"station_id":"AK","line":1,"i_lat":-6.144674,"distance":4102},{"transit":false,"distance":1230,"i_lat":-6.155215,"station_name":"Duri","time":4,"line":1,"is_transit":false,"station_id":"DU","i_long":106.800832},{"station_id":"THB","i_long":106.811091,"i_lat":-6.185545,"transit":true,"time":8,"distance":3632,"station_name":"Tanah Abang","is_transit":true,"line":1},{"is_transit":false,"i_long":106.79689,"time":6,"distance":3191,"line":6,"transit":false,"i_lat":-6.207404,"station_id":"PLM","station_name":"Palmerah"},{"is_transit":false,"station_id":"KBY","transit":false,"i_lat":-6.237242,"time":7,"station_name":"Kebayoran","distance":3737,"line":6,"i_long":106.780334},{"is_transit":false,"line":6,"time":8,"distance":6218,"i_long":106.74273,"i_lat":-6.276362,"station_name":"Pondokranji","station_id":"PDJ","transit":false},{"i_long":106.728916,"station_name":"Jurangmangu","transit":false,"distance":2179,"i_lat":-6.288927,"line":6,"station_id":"JMU","time":3,"is_transit":false},{"station_id":"SDM","station_name":"Sudimara","distance":1994,"line":6,"i_lat":-6.296963,"i_long":106.712277,"is_transit":false,"time":4,"transit":false},{"station_id":"RU","transit":false,"station_name":"Rawa Buntu","is_transit":false,"time":6,"distance":4566,"i_lat":-6.314823,"line":6,"i_long":106.675475},{"station_id":"SRP","transit":false,"is_transit":false,"station_name":"Serpong","i_long":106.66566,"distance":2413,"i_lat":-6.319871,"time":4,"line":6},{"transit":false,"time":4,"i_lat":-6.32484,"station_id":"CSK","i_long":106.640411,"distance":1784,"line":3,"is_transit":false,"station_name":"Cisauk"},{"i_lat":-6.329547,"i_long":106.617853,"line":3,"is_transit":false,"distance":2519,"station_name":"Cicayur","transit":false,"time":4,"station_id":"CC"}]]}