{"data":[[{"time":0,"is_transit":false,"station_id":"NMO","transit":false,"distance":0,"station_name":"Nambo","i_long":106.905196,"line":21,"i_lat":-6.466285},{"station_name":"Cibinong","i_long":106.851978,"line":21,"is_transit":false,"transit":false,"distance":6527,"i_lat":-6.46424,"time":10,"station_id":"CBN"},{"distance":0,"time":0,"i_lat":-6.460735,"i_long":106.824374,"transit":false,"station_name":"Pondok Rajeg","line":21,"station_id":"PDRG","is_transit":false},{"is_transit":true,"station_id":"CTA","station_name":"Citayam","i_lat":-6.448811,"i_long":106.800298,"distance":0,"transit":true,"time":0,"line":2},{"transit":false,"station_id":"DP","is_transit":false,"time":6,"distance":5084,"station_name":"Depok","i_long":106.816926,"i_lat":-6.405256,"line":2},{"station_id":"DPB","station_name":"Depokbaru","i_long":106.819451,"distance":1584,"time":3,"i_lat":-6.391065,"line":2,"transit":false,"is_transit":false},{"time":4,"station_id":"POC","distance":2727,"transit":false,"station_name":"Pondok Cina","i_lat":-6.369073,"is_transit":false,"line":2,"i_long":106.831114},{"time":2,"is_transit":false,"i_long":106.831474,"line":2,"station_id":"UI","i_lat":-6.360749,"distance":1109,"transit":false,"station_name":"Univ. Indonesia"},{"line":2,"i_long":106.834175,"station_id":"UP","station_name":"Univ. Pancasila","distance":2264,"i_lat":-6.339291,"transit":false,"is_transit":false,"time":3},{"transit":false,"station_name":"Lenteng Agung","time":2,"i_lat":-6.330363,"i_long":106.832616,"line":2,"distance":1029,"station_id":"LNA","is_transit":false},{"transit":false,"time":3,"station_id":"TNT","i_lat":-6.3080680000000005,"i_long":106.838896,"station_name":"Tanjung Barat","is_transit":false,"line":2,"distance":2671},{"is_transit":false,"station_name":"Pasar Minggu","time":4,"i_lat":-6.2842400000000005,"station_id":"PSM","line":2,"i_long":106.843999,"transit":false,"distance":2820},{"station_name":"Pasar Minggu Baru","distance":2380,"line":2,"is_transit":false,"time":2,"station_id":"PSMB","i_lat":-6.263214,"i_long":106.851577,"transit":false},{"distance":824,"transit":false,"line":2,"i_long":106.85449,"station_id":"DRN","station_name":"Duren Kalibata","time":2,"i_lat":-6.255332,"is_transit":false},{"station_id":"CW","station_name":"Cawang","time":3,"line":2,"transit":false,"is_transit":false,"distance":1546,"i_lat":-6.242512,"i_long":106.856607},{"transit":false,"station_name":"Tebet","station_id":"TEB","is_transit":false,"i_lat":-6.226659,"i_long":106.857948,"line":2,"time":2,"distance":1230},{"station_name":"Manggarai","transit":true,"is_transit":true,"line":2,"time":4,"distance":2610,"station_id":"MRI","i_lat":-6.209883,"i_long":106.84912},{"time":4,"i_long":106.822649,"is_transit":false,"station_name":"Sudirman","i_lat":-6.202263,"line":1,"station_id":"SUD","distance":3186,"transit":false},{"time":1,"station_name":"Sudirman Baru","station_id":"SUDB","i_lat":-6.201433,"is_transit":false,"i_long":106.819881,"transit":false,"line":1,"distance":280},{"line":1,"is_transit":false,"distance":471,"time":1,"station_id":"KAT","station_name":"Karet","transit":false,"i_long":106.816351,"i_lat":-6.20132},{"time":5,"i_long":106.811091,"is_transit":false,"line":1,"transit":false,"station_name":"Tanah Abang","station_id":"THB","i_lat":-6.185545,"distance":2029},{"i_long":106.800832,"is_transit":true,"line":1,"transit":true,"station_id":"DU","time":8,"station_name":"Duri","i_lat":-6.155215,"distance":3632},{"station_name":"Grogol","station_id":"GGL","transit":false,"i_long":106.788277,"line":5,"time":3,"i_lat":-6.162021,"distance":1700,"is_transit":false},{"i_long":106.771379,"station_name":"Pesing","line":5,"i_lat":-6.161433,"distance":2036,"is_transit":false,"station_id":"PSG","time":2,"transit":false},{"is_transit":false,"line":5,"i_lat":-6.1587309999999995,"i_long":106.756522,"distance":1614,"transit":false,"time":2,"station_name":"Taman Kota","station_id":"TKO"},{"is_transit":false,"transit":false,"i_lat":-6.159876,"station_name":"Bojongindah","distance":2334,"i_long":106.737035,"time":2,"line":5,"station_id":"BOI"},{"station_id":"RW","i_lat":-6.162758,"is_transit":false,"transit":false,"line":5,"station_name":"Rawa Buaya","time":4,"distance":1152,"i_long":106.723064},{"i_lat":-6.166068,"time":3,"transit":false,"i_long":106.701612,"line":5,"is_transit":false,"station_id":"KDS","distance":2504,"station_name":"Kalideres"}],[{"i_long":106.905196,"time":0,"i_lat":-6.466285,"line":21,"distance":0,"station_id":"NMO","station_name":"Nambo","is_transit":false,"transit":false},{"time":10,"i_long":106.851978,"is_transit":false,"distance":6527,"station_id":"CBN","line":21,"i_lat":-6.46424,"station_name":"Cibinong","transit":false},{"line":21,"distance":0,"time":0,"i_lat":-6.460735,"i_long":106.824374,"station_id":"PDRG","station_name":"Pondok Rajeg","transit":false,"is_transit":false},{"is_transit":true,"distance":0,"i_lat":-6.448811,"i_long":106.800298,"transit":true,"line":2,"station_id":"CTA","time":0,"station_name":"Citayam"},{"is_transit":false,"i_long":106.816926,"station_name":"Depok","station_id":"DP","transit":false,"distance":5084,"time":6,"i_lat":-6.405256,"line":2},{"line":2,"station_id":"DPB","is_transit":false,"transit":false,"time":3,"i_lat":-6.391065,"station_name":"Depokbaru","i_long":106.819451,"distance":1584},{"line":2,"transit":false,"i_long":106.831114,"station_id":"POC","distance":2727,"is_transit":false,"station_name":"Pondok Cina","i_lat":-6.369073,"time":4},{"station_id":"UI","distance":1109,"line":2,"is_transit":false,"transit":false,"time":2,"i_lat":-6.360749,"i_long":106.831474,"station_name":"Univ. Indonesia"},{"distance":2264,"line":2,"time":3,"is_transit":false,"transit":false,"station_name":"Univ. Pancasila","i_long":106.834175,"station_id":"UP","i_lat":-6.339291},{"transit":false,"distance":1029,"i_long":106.832616,"time":2,"i_lat":-6.330363,"is_transit":false,"station_name":"Lenteng Agung","line":2,"station_id":"LNA"},{"line":2,"is_transit":false,"time":3,"transit":false,"distance":2671,"station_id":"TNT","station_name":"Tanjung Barat","i_lat":-6.3080680000000005,"i_long":106.838896},{"time":4,"i_lat":-6.2842400000000005,"station_id":"PSM","station_name":"Pasar Minggu","i_long":106.843999,"line":2,"transit":false,"is_transit":false,"distance":2820},{"is_transit":false,"station_name":"Pasar Minggu Baru","transit":false,"i_long":106.851577,"distance":2380,"station_id":"PSMB","time":2,"i_lat":-6.263214,"line":2},{"station_name":"Duren Kalibata","station_id":"DRN","line":2,"is_transit":false,"i_long":106.85449,"distance":824,"transit":false,"i_lat":-6.255332,"time":2},{"line":2,"i_lat":-6.242512,"i_long":106.856607,"distance":1546,"transit":false,"is_transit":false,"station_id":"CW","time":3,"station_name":"Cawang"},{"station_name":"Tebet","line":2,"is_transit":false,"station_id":"TEB","transit":false,"i_lat":-6.226659,"distance":1230,"time":2,"i_long":106.857948},{"i_lat":-6.209883,"line":2,"station_id":"MRI","i_long":106.84912,"transit":false,"is_transit":false,"distance":2610,"time":4,"station_name":"Manggarai"},{"line":2,"transit":false,"distance":1590,"time":4,"station_name":"Cikini","station_id":"CKI","i_lat":-6.198556,"i_long":106.840169,"is_transit":false},{"station_id":"GDD","is_transit":false,"line":2,"transit":false,"distance":1750,"i_lat":-6.186295,"station_name":"Gondangdia","i_long":106.832183,"time":3},{"is_transit":false,"transit":false,"station_name":"Juanda","line":2,"station_id":"JUA","time":4,"i_lat":-6.166716,"i_long":106.828284,"distance":2015},{"line":2,"is_transit":false,"transit":false,"station_name":"Sawah Besar","distance":1149,"i_lat":-6.160725,"i_long":106.827103,"time":2,"station_id":"SW"},{"time":2,"station_id":"MGB","is_transit":false,"station_name":"Manggabesar","i_lat":-6.149769,"i_long":106.82482,"distance":906,"transit":false,"line":2},{"station_id":"JAY","is_transit":false,"distance":1080,"time":2,"transit":false,"i_lat":-6.141205,"line":2,"i_long":106.820901,"station_name":"Jayakarta"},{"is_transit":true,"line":2,"station_id":"JAKK","i_long":106.812439,"transit":true,"time":4,"distance":1264,"i_lat":-6.137569,"station_name":"Jakarta Kota"},{"is_transit":true,"i_long":106.826365,"i_lat":-6.132549,"station_id":"KPB","distance":1364,"line":4,"transit":true,"time":3,"station_name":"Kampung Bandan"},{"is_transit":false,"i_lat":-6.144674,"station_name":"Angke","time":9,"i_long":106.79867,"line":1,"station_id":"AK","distance":4102,"transit":false},{"is_transit":true,"transit":true,"line":1,"station_name":"Duri","i_lat":-6.155215,"i_long":106.800832,"time":4,"station_id":"DU","distance":1230},{"i_long":106.788277,"time":3,"distance":1700,"transit":false,"line":5,"i_lat":-6.162021,"is_transit":false,"station_id":"GGL","station_name":"Grogol"},{"i_lat":-6.161433,"time":2,"line":5,"is_transit":false,"station_name":"Pesing","i_long":106.771379,"station_id":"PSG","distance":2036,"transit":false},{"i_lat":-6.1587309999999995,"is_transit":false,"line":5,"station_id":"TKO","transit":false,"distance":1614,"station_name":"Taman Kota","i_long":106.756522,"time":2},{"station_id":"BOI","station_name":"Bojongindah","i_lat":-6.159876,"i_long":106.737035,"line":5,"is_transit":false,"transit":false,"distance":2334,"time":2},{"is_transit":false,"time":4,"station_id":"RW","distance":1152,"transit":false,"line":5,"i_lat":-6.162758,"station_name":"Rawa Buaya","i_long":106.723064},{"time":3,"distance":2504,"i_long":106.701612,"station_id":"KDS","station_name":"Kalideres","i_lat":-6.166068,"transit":false,"line":5,"is_transit":false}],[{"time":0,"distance":0,"station_id":"NMO","i_lat":-6.466285,"is_transit":false,"transit":false,"station_name":"Nambo","line":21,"i_long":106.905196},{"transit":false,"station_id":"CBN","i_lat":-6.46424,"time":10,"line":21,"is_transit":false,"station_name":"Cibinong","i_long":106.851978,"distance":6527},{"is_transit":false,"distance":0,"station_id":"PDRG","i_long":106.824374,"i_lat":-6.460735,"line":21,"time":0,"transit":false,"station_name":"Pondok Rajeg"},{"distance":0,"is_transit":true,"time":0,"line":2,"i_lat":-6.448811,"transit":true,"station_name":"Citayam","i_long":106.800298,"station_id":"CTA"},{"station_id":"DP","time":6,"distance":5084,"transit":false,"is_transit":false,"station_name":"Depok","i_long":106.816926,"i_lat":-6.405256,"line":2},{"i_lat":-6.391065,"time":3,"station_name":"Depokbaru","is_transit":false,"station_id":"DPB","distance":1584,"i_long":106.819451,"line":2,"transit":false},{"time":4,"is_transit":false,"station_name":"Pondok Cina","line":2,"distance":2727,"station_id":"POC","transit":false,"i_long":106.831114,"i_lat":-6.369073},{"time":2,"station_name":"Univ. Indonesia","i_long":106.831474,"is_transit":false,"transit":false,"station_id":"UI","i_lat":-6.360749,"distance":1109,"line":2},{"station_name":"Univ. Pancasila","i_lat":-6.339291,"line":2,"i_long":106.834175,"is_transit":false,"station_id":"UP","time":3,"transit":false,"distance":2264},{"station_id":"LNA","distance":1029,"i_long":106.832616,"transit":false,"is_transit":false,"station_name":"Lenteng Agung","time":2,"i_lat":-6.330363,"line":2},{"line":2,"transit":false,"i_long":106.838896,"i_lat":-6.3080680000000005,"is_transit":false,"time":3,"station_name":"Tanjung Barat","distance":2671,"station_id":"TNT"},{"station_id":"PSM","distance":2820,"line":2,"transit":false,"is_transit":false,"station_name":"Pasar Minggu","i_lat":-6.2842400000000005,"time":4,"i_long":106.843999},{"i_lat":-6.263214,"distance":2380,"is_transit":false,"time":2,"line":2,"transit":false,"i_long":106.851577,"station_id":"PSMB","station_name":"Pasar Minggu Baru"},{"time":2,"station_id":"DRN","transit":false,"station_name":"Duren Kalibata","distance":824,"is_transit":false,"i_lat":-6.255332,"i_long":106.85449,"line":2},{"line":2,"i_lat":-6.242512,"station_id":"CW","time":3,"is_transit":false,"station_name":"Cawang","distance":1546,"i_long":106.856607,"transit":false},{"station_name":"Tebet","station_id":"TEB","i_long":106.857948,"time":2,"transit":false,"distance":1230,"line":2,"i_lat":-6.226659,"is_transit":false},{"i_lat":-6.209883,"transit":true,"line":2,"is_transit":true,"distance":2610,"i_long":106.84912,"time":4,"station_id":"MRI","station_name":"Manggarai"},{"distance":1275,"station_name":"Matraman","i_long":106.858896,"i_lat":-6.212485,"transit":false,"line":1,"station_id":"MTR","time":2,"is_transit":false},{"time":8,"i_lat":-6.215091,"i_long":106.86807400000001,"line":1,"is_transit":true,"transit":true,"station_id":"JNG","station_name":"Jatinegara","distance":1377},{"station_id":"POK","station_name":"Pondok Jati","distance":1236,"time":2,"is_transit":false,"transit":false,"line":11,"i_lat":-6.209188,"i_long":106.861737},{"line":11,"transit":false,"station_name":"Kramat","station_id":"KMT","is_transit":false,"i_lat":-6.193792,"distance":1829,"time":2,"i_long":106.855437},{"distance":973,"i_long":106.850107,"line":11,"is_transit":false,"station_name":"Gang Sentiong","time":1,"station_id":"GST","transit":false,"i_lat":-6.185975},{"distance":1567,"time":8,"transit":false,"line":11,"i_long":106.84368,"station_name":"Pasar Senen","is_transit":false,"station_id":"PSE","i_lat":-6.174784},{"is_transit":false,"distance":1436,"transit":false,"i_long":106.839204,"i_lat":-6.161728,"time":4,"station_name":"Kemayoran","station_id":"KMO","line":11},{"i_long":106.836569,"line":11,"station_name":"Rajawali","transit":false,"station_id":"RJW","time":5,"is_transit":false,"i_lat":-6.14505,"distance":1901},{"line":4,"station_name":"Kampung Bandan","distance":1444,"station_id":"KPB","i_long":106.826365,"i_lat":-6.132549,"is_transit":true,"transit":true,"time":3},{"station_name":"Angke","transit":false,"time":9,"is_transit":false,"distance":4102,"line":1,"i_lat":-6.144674,"i_long":106.79867,"station_id":"AK"},{"i_long":106.800832,"i_lat":-6.155215,"distance":1230,"station_name":"Duri","line":1,"station_id":"DU","transit":true,"time":4,"is_transit":true},{"time":3,"line":5,"i_lat":-6.162021,"transit":false,"i_long":106.788277,"is_transit":false,"station_id":"GGL","distance":1700,"station_name":"Grogol"},{"transit":false,"station_name":"Pesing","is_transit":false,"time":2,"i_lat":-6.161433,"station_id":"PSG","line":5,"distance":2036,"i_long":106.771379},{"distance":1614,"station_name":"Taman Kota","is_transit":false,"time":2,"i_long":106.756522,"line":5,"i_lat":-6.1587309999999995,"station_id":"TKO","transit":false},{"station_id":"BOI","is_transit":false,"i_lat":-6.159876,"transit":false,"distance":2334,"i_long":106.737035,"time":2,"line":5,"station_name":"Bojongindah"},{"station_id":"RW","i_lat":-6.162758,"time":4,"station_name":"Rawa Buaya","is_transit":false,"transit":false,"i_long":106.723064,"distance":1152,"line":5},{"i_long":106.701612,"i_lat":-6.166068,"station_id":"KDS","is_transit":false,"time":3,"transit":false,"distance":2504,"station_name":"Kalideres","line":5}]]}