{"data":[[{"line":21,"i_lat":-6.466285,"transit":false,"i_long":106.905196,"station_id":"NMO","time":0,"is_transit":false,"distance":0,"station_name":"Nambo"},{"is_transit":false,"station_name":"Cibinong","i_lat":-6.46424,"time":10,"station_id":"CBN","transit":false,"i_long":106.851978,"distance":6527,"line":0},{"distance":6740,"station_id":"CTA","time":10,"transit":false,"i_long":106.800298,"station_name":"Citayam","line":1,"is_transit":true,"i_lat":-6.448811},{"station_name":"Depok","is_transit":false,"time":6,"distance":5084,"line":0,"transit":false,"i_long":106.816926,"i_lat":-6.405256,"station_id":"DP"},{"time":3,"distance":1584,"station_name":"Depokbaru","transit":false,"i_lat":-6.391065,"i_long":106.819451,"is_transit":false,"station_id":"DPB","line":0},{"station_id":"POC","i_lat":-6.369073,"i_long":106.831114,"station_name":"Pondok Cina","time":4,"distance":2727,"transit":false,"is_transit":false,"line":2},{"transit":false,"line":2,"time":2,"is_transit":false,"i_long":106.831474,"station_name":"Univ. Indonesia","i_lat":-6.360749,"distance":1109,"station_id":"UI"},{"line":2,"station_id":"UP","is_transit":false,"time":3,"station_name":"Univ. Pancasila","transit":false,"distance":2264,"i_lat":-6.339291,"i_long":106.834175},{"is_transit":false,"i_lat":-6.330363,"i_long":106.832616,"station_id":"LNA","line":2,"distance":1029,"transit":false,"station_name":"Lenteng Agung","time":2},{"station_name":"Tanjung Barat","is_transit":false,"time":3,"i_lat":-6.3080680000000005,"line":2,"distance":2671,"transit":false,"station_id":"TNT","i_long":106.838896},{"station_name":"Pasar Minggu","is_transit":false,"i_lat":-6.2842400000000005,"line":2,"i_long":106.843999,"distance":2820,"transit":false,"time":4,"station_id":"PSM"},{"time":2,"distance":2380,"station_id":"PSMB","station_name":"Pasar Minggu Baru","transit":false,"is_transit":false,"i_long":106.851577,"i_lat":-6.263214,"line":2},{"distance":824,"i_long":106.85449,"transit":false,"station_name":"Duren Kalibata","time":2,"line":0,"is_transit":false,"station_id":"DRN","i_lat":-6.255332},{"i_lat":-6.242512,"i_long":106.856607,"line":0,"distance":1546,"station_id":"CW","is_transit":false,"transit":false,"station_name":"Cawang","time":3},{"i_lat":-6.226659,"i_long":106.857948,"line":2,"station_name":"Tebet","station_id":"TEB","distance":1230,"transit":false,"time":2,"is_transit":false},{"distance":2610,"time":4,"is_transit":true,"transit":true,"station_id":"MRI","line":0,"i_lat":-6.209883,"i_long":106.84912,"station_name":"Manggarai"},{"i_long":106.822649,"line":1,"station_id":"SUD","transit":false,"distance":3186,"station_name":"Sudirman","is_transit":false,"i_lat":-6.202263,"time":4},{"i_long":106.819881,"time":1,"station_name":"Sudirman Baru","station_id":"SUDB","is_transit":false,"i_lat":-6.201433,"transit":false,"line":1,"distance":280},{"station_id":"KAT","distance":471,"time":1,"i_lat":-6.20132,"station_name":"Karet","line":1,"is_transit":false,"transit":false,"i_long":106.816351},{"is_transit":true,"station_name":"Tanah Abang","line":1,"station_id":"THB","distance":2029,"i_long":106.811091,"i_lat":-6.185545,"transit":false,"time":5}],[{"transit":false,"line":21,"distance":0,"i_long":106.905196,"station_id":"NMO","station_name":"Nambo","time":0,"i_lat":-6.466285,"is_transit":false},{"transit":false,"distance":6527,"is_transit":false,"i_long":106.851978,"station_id":"CBN","i_lat":-6.46424,"time":10,"line":0,"station_name":"Cibinong"},{"line":1,"station_id":"CTA","i_lat":-6.448811,"i_long":106.800298,"transit":false,"distance":6740,"time":10,"is_transit":true,"station_name":"Citayam"},{"is_transit":false,"i_long":106.816926,"time":6,"station_name":"Depok","i_lat":-6.405256,"line":0,"station_id":"DP","distance":5084,"transit":false},{"is_transit":false,"transit":false,"distance":1584,"i_lat":-6.391065,"time":3,"station_id":"DPB","i_long":106.819451,"line":0,"station_name":"Depokbaru"},{"station_name":"Pondok Cina","station_id":"POC","time":4,"is_transit":false,"i_long":106.831114,"distance":2727,"transit":false,"line":2,"i_lat":-6.369073},{"is_transit":false,"transit":false,"time":2,"i_lat":-6.360749,"line":2,"distance":1109,"station_id":"UI","station_name":"Univ. Indonesia","i_long":106.831474},{"station_name":"Univ. Pancasila","distance":2264,"is_transit":false,"station_id":"UP","transit":false,"time":3,"i_long":106.834175,"i_lat":-6.339291,"line":2},{"station_id":"LNA","transit":false,"station_name":"Lenteng Agung","time":2,"line":2,"i_lat":-6.330363,"i_long":106.832616,"distance":1029,"is_transit":false},{"station_name":"Tanjung Barat","i_lat":-6.3080680000000005,"distance":2671,"transit":false,"is_transit":false,"i_long":106.838896,"line":2,"time":3,"station_id":"TNT"},{"station_name":"Pasar Minggu","i_long":106.843999,"line":2,"station_id":"PSM","transit":false,"time":4,"is_transit":false,"i_lat":-6.2842400000000005,"distance":2820},{"time":2,"station_id":"PSMB","transit":false,"i_lat":-6.263214,"distance":2380,"line":2,"is_transit":false,"i_long":106.851577,"station_name":"Pasar Minggu Baru"},{"station_id":"DRN","transit":false,"i_lat":-6.255332,"i_long":106.85449,"time":2,"station_name":"Duren Kalibata","is_transit":false,"line":0,"distance":824},{"i_long":106.856607,"station_id":"CW","distance":1546,"is_transit":false,"station_name":"Cawang","line":0,"transit":false,"i_lat":-6.242512,"time":3},{"station_id":"TEB","is_transit":false,"i_lat":-6.226659,"transit":false,"i_long":106.857948,"station_name":"Tebet","distance":1230,"time":2,"line":2},{"transit":true,"line":0,"i_long":106.84912,"is_transit":true,"distance":2610,"time":4,"i_lat":-6.209883,"station_id":"MRI","station_name":"Manggarai"},{"transit":false,"is_transit":false,"i_lat":-6.198556,"distance":1590,"i_long":106.840169,"station_name":"Cikini","line":0,"time":4,"station_id":"CKI"},{"time":3,"transit":false,"station_id":"GDD","is_transit":false,"i_lat":-6.186295,"i_long":106.832183,"station_name":"Gondangdia","line":2,"distance":1750},{"line":2,"transit":false,"station_id":"JUA","time":4,"distance":2015,"i_long":106.828284,"i_lat":-6.166716,"is_transit":false,"station_name":"Juanda"},{"i_lat":-6.160725,"is_transit":false,"transit":false,"distance":1149,"station_id":"SW","station_name":"Sawah Besar","i_long":106.827103,"time":2,"line":2},{"transit":false,"station_name":"Manggabesar","time":2,"station_id":"MGB","line":2,"i_long":106.82482,"distance":906,"is_transit":false,"i_lat":-6.149769},{"transit":false,"i_lat":-6.141205,"i_long":106.820901,"station_name":"Jayakarta","line":7,"station_id":"JAY","time":2,"distance":1080,"is_transit":false},{"line":0,"station_id":"JAKK","distance":1264,"i_lat":-6.137569,"station_name":"Jakarta Kota","is_transit":true,"i_long":106.812439,"transit":true,"time":4},{"line":0,"station_name":"Kampung Bandan","distance":1364,"transit":false,"i_long":106.826365,"i_lat":-6.132549,"is_transit":true,"station_id":"KPB","time":3},{"i_long":106.79867,"station_name":"Angke","station_id":"AK","time":9,"is_transit":false,"transit":false,"line":0,"distance":4102,"i_lat":-6.144674},{"line":1,"station_name":"Duri","i_long":106.800832,"station_id":"DU","is_transit":true,"time":4,"i_lat":-6.155215,"transit":true,"distance":1230},{"distance":3632,"station_name":"Tanah Abang","i_long":106.811091,"i_lat":-6.185545,"line":1,"transit":false,"station_id":"THB","time":8,"is_transit":true}],[{"station_id":"NMO","distance":0,"station_name":"Nambo","is_transit":false,"time":0,"line":21,"transit":false,"i_lat":-6.466285,"i_long":106.905196},{"distance":6527,"station_id":"CBN","line":0,"i_lat":-6.46424,"transit":false,"is_transit":false,"time":10,"i_long":106.851978,"station_name":"Cibinong"},{"is_transit":true,"distance":6740,"station_name":"Citayam","transit":false,"time":10,"i_lat":-6.448811,"i_long":106.800298,"station_id":"CTA","line":1},{"station_id":"DP","transit":false,"time":6,"i_long":106.816926,"distance":5084,"is_transit":false,"line":0,"station_name":"Depok","i_lat":-6.405256},{"distance":1584,"station_id":"DPB","transit":false,"i_lat":-6.391065,"time":3,"station_name":"Depokbaru","is_transit":false,"line":0,"i_long":106.819451},{"i_long":106.831114,"line":2,"distance":2727,"i_lat":-6.369073,"station_name":"Pondok Cina","transit":false,"is_transit":false,"station_id":"POC","time":4},{"transit":false,"time":2,"station_id":"UI","i_long":106.831474,"is_transit":false,"station_name":"Univ. Indonesia","line":2,"i_lat":-6.360749,"distance":1109},{"distance":2264,"is_transit":false,"i_long":106.834175,"station_name":"Univ. Pancasila","line":2,"transit":false,"time":3,"station_id":"UP","i_lat":-6.339291},{"station_id":"LNA","transit":false,"is_transit":false,"i_lat":-6.330363,"i_long":106.832616,"distance":1029,"station_name":"Lenteng Agung","line":2,"time":2},{"i_long":106.838896,"transit":false,"distance":2671,"line":2,"i_lat":-6.3080680000000005,"time":3,"is_transit":false,"station_id":"TNT","station_name":"Tanjung Barat"},{"time":4,"station_id":"PSM","is_transit":false,"i_lat":-6.2842400000000005,"transit":false,"i_long":106.843999,"line":2,"distance":2820,"station_name":"Pasar Minggu"},{"i_lat":-6.263214,"time":2,"station_name":"Pasar Minggu Baru","distance":2380,"line":2,"i_long":106.851577,"transit":false,"station_id":"PSMB","is_transit":false},{"is_transit":false,"time":2,"i_lat":-6.255332,"line":0,"distance":824,"i_long":106.85449,"transit":false,"station_id":"DRN","station_name":"Duren Kalibata"},{"distance":1546,"i_lat":-6.242512,"i_long":106.856607,"line":0,"transit":false,"station_name":"Cawang","is_transit":false,"time":3,"station_id":"CW"},{"i_lat":-6.226659,"station_name":"Tebet","is_transit":false,"transit":false,"distance":1230,"i_long":106.857948,"station_id":"TEB","time":2,"line":2},{"line":0,"station_id":"MRI","transit":true,"station_name":"Manggarai","time":4,"is_transit":true,"i_lat":-6.209883,"distance":2610,"i_long":106.84912},{"time":2,"distance":1275,"i_lat":-6.212485,"station_id":"MTR","is_transit":false,"i_long":106.858896,"line":1,"station_name":"Matraman","transit":false},{"transit":true,"i_long":106.86807400000001,"time":8,"i_lat":-6.215091,"station_id":"JNG","distance":1377,"line":0,"station_name":"Jatinegara","is_transit":true},{"is_transit":false,"transit":false,"time":2,"i_lat":-6.209188,"station_name":"Pondok Jati","station_id":"POK","distance":1236,"i_long":106.861737,"line":11},{"distance":1829,"is_transit":false,"i_long":106.855437,"line":11,"station_id":"KMT","station_name":"Kramat","transit":false,"time":2,"i_lat":-6.193792},{"distance":973,"station_name":"Gang Sentiong","station_id":"GST","i_lat":-6.185975,"i_long":106.850107,"line":11,"transit":false,"time":1,"is_transit":false},{"is_transit":false,"line":11,"station_id":"PSE","i_lat":-6.174784,"i_long":106.84368,"time":8,"distance":1567,"station_name":"Pasar Senen","transit":false},{"i_lat":-6.161728,"is_transit":false,"station_name":"Kemayoran","time":4,"transit":false,"distance":1436,"i_long":106.839204,"line":11,"station_id":"KMO"},{"station_id":"RJW","transit":false,"is_transit":false,"i_long":106.836569,"line":11,"time":5,"station_name":"Rajawali","distance":1901,"i_lat":-6.14505},{"time":3,"distance":1444,"i_lat":-6.132549,"line":0,"station_name":"Kampung Bandan","transit":true,"is_transit":true,"i_long":106.826365,"station_id":"KPB"},{"station_name":"Angke","i_long":106.79867,"line":0,"time":9,"i_lat":-6.144674,"is_transit":false,"transit":false,"distance":4102,"station_id":"AK"},{"distance":1230,"line":1,"is_transit":true,"station_name":"Duri","station_id":"DU","transit":true,"i_lat":-6.155215,"time":4,"i_long":106.800832},{"station_id":"THB","line":1,"is_transit":true,"time":8,"i_lat":-6.185545,"transit":false,"i_long":106.811091,"station_name":"Tanah Abang","distance":3632}]]}