{"data":[[{"i_lat":-6.466285,"station_id":"NMO","i_long":106.905196,"transit":false,"line":21,"is_transit":false,"station_name":"Nambo","time":0,"distance":0},{"is_transit":false,"i_lat":-6.46424,"distance":6527,"i_long":106.851978,"line":21,"station_id":"CBN","station_name":"Cibinong","time":10,"transit":false},{"station_name":"Pondok Rajeg","station_id":"PDRG","time":0,"is_transit":false,"i_long":106.824374,"distance":0,"line":21,"transit":false,"i_lat":-6.460735},{"i_lat":-6.448811,"distance":0,"transit":true,"i_long":106.800298,"time":0,"station_name":"Citayam","station_id":"CTA","line":2,"is_transit":true},{"i_lat":-6.405256,"distance":5084,"transit":false,"line":2,"time":6,"is_transit":false,"station_id":"DP","station_name":"Depok","i_long":106.816926},{"time":3,"line":2,"station_name":"Depokbaru","station_id":"DPB","i_lat":-6.391065,"i_long":106.819451,"transit":false,"is_transit":false,"distance":1584},{"i_lat":-6.369073,"line":2,"is_transit":false,"transit":false,"time":4,"distance":2727,"station_name":"Pondok Cina","station_id":"POC","i_long":106.831114},{"transit":false,"i_long":106.831474,"line":2,"distance":1109,"is_transit":false,"station_id":"UI","i_lat":-6.360749,"time":2,"station_name":"Univ. Indonesia"},{"is_transit":false,"time":3,"station_id":"UP","station_name":"Univ. Pancasila","transit":false,"distance":2264,"line":2,"i_long":106.834175,"i_lat":-6.339291},{"station_id":"LNA","is_transit":false,"i_long":106.832616,"line":2,"i_lat":-6.330363,"station_name":"Lenteng Agung","transit":false,"distance":1029,"time":2},{"transit":false,"time":3,"station_id":"TNT","distance":2671,"line":2,"station_name":"Tanjung Barat","i_lat":-6.3080680000000005,"i_long":106.838896,"is_transit":false},{"line":2,"time":4,"i_long":106.843999,"transit":false,"distance":2820,"station_name":"Pasar Minggu","is_transit":false,"i_lat":-6.2842400000000005,"station_id":"PSM"},{"transit":false,"i_long":106.851577,"station_name":"Pasar Minggu Baru","time":2,"distance":2380,"station_id":"PSMB","i_lat":-6.263214,"line":2,"is_transit":false},{"station_id":"DRN","i_long":106.85449,"time":2,"station_name":"Duren Kalibata","line":2,"i_lat":-6.255332,"distance":824,"transit":false,"is_transit":false},{"time":3,"distance":1546,"station_id":"CW","is_transit":false,"i_long":106.856607,"transit":false,"i_lat":-6.242512,"station_name":"Cawang","line":2},{"station_id":"TEB","transit":false,"is_transit":false,"distance":1230,"station_name":"Tebet","i_long":106.857948,"i_lat":-6.226659,"line":2,"time":2},{"transit":true,"i_lat":-6.209883,"line":2,"station_name":"Manggarai","station_id":"MRI","i_long":106.84912,"is_transit":true,"distance":2610,"time":4},{"line":1,"station_name":"Sudirman","transit":false,"is_transit":false,"time":4,"station_id":"SUD","i_lat":-6.202263,"distance":3186,"i_long":106.822649},{"transit":false,"station_id":"SUDB","station_name":"Sudirman Baru","is_transit":false,"time":1,"i_lat":-6.201433,"i_long":106.819881,"line":1,"distance":280},{"transit":false,"station_name":"Karet","i_long":106.816351,"is_transit":false,"i_lat":-6.20132,"time":1,"distance":471,"station_id":"KAT","line":1},{"distance":2029,"line":1,"station_name":"Tanah Abang","is_transit":false,"transit":false,"i_lat":-6.185545,"time":5,"station_id":"THB","i_long":106.811091},{"i_long":106.800832,"distance":3632,"time":8,"i_lat":-6.155215,"transit":false,"line":1,"station_name":"Duri","is_transit":false,"station_id":"DU"},{"i_lat":-6.144674,"i_long":106.79867,"line":1,"distance":1230,"station_id":"AK","transit":false,"time":4,"station_name":"Angke","is_transit":false}],[{"i_lat":-6.466285,"is_transit":false,"transit":false,"time":0,"station_id":"NMO","i_long":106.905196,"line":21,"station_name":"Nambo","distance":0},{"time":10,"i_lat":-6.46424,"i_long":106.851978,"line":21,"station_id":"CBN","distance":6527,"transit":false,"station_name":"Cibinong","is_transit":false},{"i_long":106.824374,"distance":0,"transit":false,"is_transit":false,"i_lat":-6.460735,"station_id":"PDRG","line":21,"station_name":"Pondok Rajeg","time":0},{"distance":0,"station_name":"Citayam","time":0,"line":2,"is_transit":true,"transit":true,"station_id":"CTA","i_lat":-6.448811,"i_long":106.800298},{"line":2,"distance":5084,"is_transit":false,"transit":false,"station_id":"DP","i_lat":-6.405256,"time":6,"station_name":"Depok","i_long":106.816926},{"station_id":"DPB","i_long":106.819451,"is_transit":false,"time":3,"distance":1584,"station_name":"Depokbaru","transit":false,"i_lat":-6.391065,"line":2},{"is_transit":false,"line":2,"i_lat":-6.369073,"station_id":"POC","time":4,"i_long":106.831114,"transit":false,"station_name":"Pondok Cina","distance":2727},{"i_long":106.831474,"distance":1109,"time":2,"station_id":"UI","transit":false,"station_name":"Univ. Indonesia","is_transit":false,"i_lat":-6.360749,"line":2},{"station_id":"UP","station_name":"Univ. Pancasila","is_transit":false,"i_lat":-6.339291,"i_long":106.834175,"time":3,"distance":2264,"transit":false,"line":2},{"transit":false,"station_id":"LNA","i_lat":-6.330363,"distance":1029,"i_long":106.832616,"line":2,"time":2,"station_name":"Lenteng Agung","is_transit":false},{"station_name":"Tanjung Barat","is_transit":false,"i_long":106.838896,"line":2,"transit":false,"distance":2671,"station_id":"TNT","i_lat":-6.3080680000000005,"time":3},{"i_long":106.843999,"station_id":"PSM","is_transit":false,"time":4,"i_lat":-6.2842400000000005,"line":2,"station_name":"Pasar Minggu","distance":2820,"transit":false},{"i_lat":-6.263214,"time":2,"i_long":106.851577,"is_transit":false,"distance":2380,"station_name":"Pasar Minggu Baru","transit":false,"line":2,"station_id":"PSMB"},{"distance":824,"station_name":"Duren Kalibata","line":2,"transit":false,"is_transit":false,"station_id":"DRN","time":2,"i_lat":-6.255332,"i_long":106.85449},{"station_name":"Cawang","is_transit":false,"line":2,"i_long":106.856607,"time":3,"distance":1546,"station_id":"CW","i_lat":-6.242512,"transit":false},{"station_id":"TEB","i_lat":-6.226659,"distance":1230,"line":2,"station_name":"Tebet","is_transit":false,"transit":false,"time":2,"i_long":106.857948},{"line":2,"distance":2610,"station_name":"Manggarai","is_transit":false,"i_long":106.84912,"i_lat":-6.209883,"station_id":"MRI","time":4,"transit":false},{"transit":false,"station_id":"CKI","i_lat":-6.198556,"time":4,"i_long":106.840169,"distance":1590,"station_name":"Cikini","is_transit":false,"line":2},{"transit":false,"line":2,"time":3,"station_name":"Gondangdia","distance":1750,"i_lat":-6.186295,"i_long":106.832183,"station_id":"GDD","is_transit":false},{"line":2,"distance":2015,"time":4,"transit":false,"station_id":"JUA","i_lat":-6.166716,"is_transit":false,"i_long":106.828284,"station_name":"Juanda"},{"time":2,"transit":false,"is_transit":false,"i_long":106.827103,"distance":1149,"line":2,"i_lat":-6.160725,"station_id":"SW","station_name":"Sawah Besar"},{"transit":false,"i_lat":-6.149769,"station_name":"Manggabesar","time":2,"station_id":"MGB","line":2,"i_long":106.82482,"distance":906,"is_transit":false},{"i_lat":-6.141205,"i_long":106.820901,"line":2,"station_name":"Jayakarta","distance":1080,"station_id":"JAY","time":2,"transit":false,"is_transit":false},{"distance":1264,"time":4,"is_transit":true,"station_name":"Jakarta Kota","transit":true,"station_id":"JAKK","i_lat":-6.137569,"i_long":106.812439,"line":2},{"transit":true,"station_name":"Kampung Bandan","i_lat":-6.132549,"station_id":"KPB","line":4,"distance":1364,"time":3,"i_long":106.826365,"is_transit":true},{"distance":4102,"time":9,"station_id":"AK","i_lat":-6.144674,"is_transit":false,"transit":false,"i_long":106.79867,"line":1,"station_name":"Angke"}],[{"station_name":"Nambo","time":0,"station_id":"NMO","i_lat":-6.466285,"transit":false,"distance":0,"is_transit":false,"i_long":106.905196,"line":21},{"line":21,"time":10,"distance":6527,"transit":false,"station_name":"Cibinong","station_id":"CBN","is_transit":false,"i_long":106.851978,"i_lat":-6.46424},{"transit":false,"station_name":"Pondok Rajeg","line":21,"station_id":"PDRG","i_long":106.824374,"time":0,"distance":0,"is_transit":false,"i_lat":-6.460735},{"distance":0,"transit":true,"is_transit":true,"line":2,"station_id":"CTA","i_long":106.800298,"time":0,"station_name":"Citayam","i_lat":-6.448811},{"i_lat":-6.405256,"is_transit":false,"station_name":"Depok","station_id":"DP","transit":false,"line":2,"time":6,"distance":5084,"i_long":106.816926},{"time":3,"station_id":"DPB","distance":1584,"is_transit":false,"station_name":"Depokbaru","transit":false,"i_lat":-6.391065,"i_long":106.819451,"line":2},{"is_transit":false,"station_id":"POC","transit":false,"time":4,"station_name":"Pondok Cina","i_long":106.831114,"line":2,"i_lat":-6.369073,"distance":2727},{"is_transit":false,"distance":1109,"line":2,"station_id":"UI","i_lat":-6.360749,"i_long":106.831474,"time":2,"transit":false,"station_name":"Univ. Indonesia"},{"distance":2264,"line":2,"i_long":106.834175,"time":3,"transit":false,"is_transit":false,"station_id":"UP","station_name":"Univ. Pancasila","i_lat":-6.339291},{"i_lat":-6.330363,"station_id":"LNA","i_long":106.832616,"time":2,"distance":1029,"transit":false,"is_transit":false,"line":2,"station_name":"Lenteng Agung"},{"station_id":"TNT","distance":2671,"is_transit":false,"line":2,"time":3,"i_lat":-6.3080680000000005,"i_long":106.838896,"transit":false,"station_name":"Tanjung Barat"},{"i_lat":-6.2842400000000005,"station_name":"Pasar Minggu","time":4,"transit":false,"station_id":"PSM","line":2,"i_long":106.843999,"is_transit":false,"distance":2820},{"line":2,"station_name":"Pasar Minggu Baru","i_lat":-6.263214,"station_id":"PSMB","is_transit":false,"transit":false,"distance":2380,"time":2,"i_long":106.851577},{"station_id":"DRN","i_long":106.85449,"station_name":"Duren Kalibata","time":2,"transit":false,"is_transit":false,"i_lat":-6.255332,"line":2,"distance":824},{"i_lat":-6.242512,"transit":false,"i_long":106.856607,"station_name":"Cawang","time":3,"distance":1546,"line":2,"is_transit":false,"station_id":"CW"},{"line":2,"station_name":"Tebet","i_long":106.857948,"is_transit":false,"station_id":"TEB","distance":1230,"i_lat":-6.226659,"time":2,"transit":false},{"is_transit":true,"time":4,"i_long":106.84912,"station_id":"MRI","distance":2610,"station_name":"Manggarai","transit":true,"line":2,"i_lat":-6.209883},{"is_transit":false,"i_lat":-6.212485,"time":2,"transit":false,"station_id":"MTR","line":1,"distance":1275,"i_long":106.858896,"station_name":"Matraman"},{"i_long":106.86807400000001,"time":8,"distance":1377,"station_id":"JNG","station_name":"Jatinegara","is_transit":true,"i_lat":-6.215091,"transit":true,"line":1},{"line":11,"station_name":"Pondok Jati","i_long":106.861737,"distance":1236,"time":2,"is_transit":false,"transit":false,"station_id":"POK","i_lat":-6.209188},{"i_lat":-6.193792,"time":2,"station_id":"KMT","distance":1829,"station_name":"Kramat","i_long":106.855437,"is_transit":false,"line":11,"transit":false},{"station_name":"Gang Sentiong","is_transit":false,"i_lat":-6.185975,"transit":false,"station_id":"GST","i_long":106.850107,"distance":973,"time":1,"line":11},{"time":8,"transit":false,"station_name":"Pasar Senen","station_id":"PSE","is_transit":false,"i_lat":-6.174784,"line":11,"distance":1567,"i_long":106.84368},{"time":4,"station_name":"Kemayoran","station_id":"KMO","i_lat":-6.161728,"transit":false,"is_transit":false,"i_long":106.839204,"distance":1436,"line":11},{"i_lat":-6.14505,"line":11,"time":5,"station_id":"RJW","distance":1901,"transit":false,"is_transit":false,"i_long":106.836569,"station_name":"Rajawali"},{"is_transit":true,"station_id":"KPB","time":3,"i_lat":-6.132549,"distance":1444,"i_long":106.826365,"line":4,"station_name":"Kampung Bandan","transit":true},{"is_transit":false,"station_name":"Angke","station_id":"AK","distance":4102,"transit":false,"i_long":106.79867,"i_lat":-6.144674,"time":9,"line":1}]]}