{"data":[[{"line":21,"station_name":"Nambo","i_long":106.905196,"time":0,"i_lat":-6.466285,"is_transit":false,"distance":0,"station_id":"NMO","transit":false},{"station_id":"CBN","time":10,"i_long":106.851978,"line":21,"distance":6527,"transit":false,"station_name":"Cibinong","is_transit":false,"i_lat":-6.46424},{"i_lat":-6.460735,"i_long":106.824374,"time":0,"transit":false,"is_transit":false,"station_id":"PDRG","station_name":"Pondok Rajeg","distance":0,"line":21},{"i_long":106.800298,"station_id":"CTA","transit":true,"time":0,"i_lat":-6.448811,"is_transit":true,"station_name":"Citayam","distance":0,"line":2},{"is_transit":false,"i_long":106.816926,"station_id":"DP","transit":false,"distance":5084,"line":2,"time":6,"i_lat":-6.405256,"station_name":"Depok"},{"i_lat":-6.391065,"is_transit":false,"line":2,"i_long":106.819451,"station_name":"Depokbaru","transit":false,"distance":1584,"station_id":"DPB","time":3},{"i_long":106.831114,"station_id":"POC","distance":2727,"transit":false,"i_lat":-6.369073,"station_name":"Pondok Cina","line":2,"is_transit":false,"time":4},{"i_lat":-6.360749,"time":2,"i_long":106.831474,"is_transit":false,"distance":1109,"line":2,"station_id":"UI","station_name":"Univ. Indonesia","transit":false},{"i_long":106.834175,"station_name":"Univ. Pancasila","is_transit":false,"station_id":"UP","distance":2264,"transit":false,"i_lat":-6.339291,"time":3,"line":2},{"time":2,"is_transit":false,"distance":1029,"i_long":106.832616,"line":2,"i_lat":-6.330363,"station_id":"LNA","transit":false,"station_name":"Lenteng Agung"},{"station_id":"TNT","line":2,"i_long":106.838896,"distance":2671,"is_transit":false,"transit":false,"time":3,"i_lat":-6.3080680000000005,"station_name":"Tanjung Barat"},{"i_lat":-6.2842400000000005,"distance":2820,"station_id":"PSM","i_long":106.843999,"transit":false,"line":2,"station_name":"Pasar Minggu","is_transit":false,"time":4},{"transit":false,"station_id":"PSMB","station_name":"Pasar Minggu Baru","is_transit":false,"distance":2380,"i_lat":-6.263214,"time":2,"line":2,"i_long":106.851577},{"is_transit":false,"distance":824,"i_long":106.85449,"station_id":"DRN","i_lat":-6.255332,"transit":false,"station_name":"Duren Kalibata","line":2,"time":2},{"station_name":"Cawang","i_long":106.856607,"transit":false,"i_lat":-6.242512,"distance":1546,"time":3,"is_transit":false,"line":2,"station_id":"CW"},{"i_long":106.857948,"transit":false,"station_id":"TEB","i_lat":-6.226659,"is_transit":false,"line":2,"time":2,"station_name":"Tebet","distance":1230},{"distance":2610,"station_name":"Manggarai","i_long":106.84912,"line":2,"station_id":"MRI","is_transit":true,"i_lat":-6.209883,"time":4,"transit":true},{"station_id":"MTR","distance":1275,"transit":false,"time":2,"i_lat":-6.212485,"i_long":106.858896,"line":1,"is_transit":false,"station_name":"Matraman"},{"is_transit":true,"distance":1377,"transit":true,"station_id":"JNG","i_long":106.86807400000001,"station_name":"Jatinegara","time":8,"i_lat":-6.215091,"line":1},{"is_transit":false,"station_name":"Pondok Jati","transit":false,"i_long":106.861737,"station_id":"POK","i_lat":-6.209188,"time":2,"distance":1236,"line":11},{"distance":1829,"station_name":"Kramat","station_id":"KMT","is_transit":false,"time":2,"i_lat":-6.193792,"i_long":106.855437,"line":11,"transit":false},{"transit":false,"is_transit":false,"station_name":"Gang Sentiong","station_id":"GST","time":1,"i_lat":-6.185975,"distance":973,"i_long":106.850107,"line":11}],[{"transit":false,"station_name":"Nambo","time":0,"is_transit":false,"distance":0,"i_lat":-6.466285,"station_id":"NMO","line":21,"i_long":106.905196},{"i_long":106.851978,"station_name":"Cibinong","line":21,"transit":false,"station_id":"CBN","is_transit":false,"distance":6527,"i_lat":-6.46424,"time":10},{"distance":0,"transit":false,"is_transit":false,"i_long":106.824374,"station_name":"Pondok Rajeg","time":0,"i_lat":-6.460735,"line":21,"station_id":"PDRG"},{"transit":true,"i_long":106.800298,"line":2,"time":0,"is_transit":true,"station_name":"Citayam","i_lat":-6.448811,"distance":0,"station_id":"CTA"},{"station_name":"Depok","time":6,"i_lat":-6.405256,"line":2,"distance":5084,"station_id":"DP","i_long":106.816926,"is_transit":false,"transit":false},{"is_transit":false,"station_name":"Depokbaru","i_lat":-6.391065,"i_long":106.819451,"station_id":"DPB","distance":1584,"transit":false,"time":3,"line":2},{"station_name":"Pondok Cina","transit":false,"is_transit":false,"distance":2727,"i_long":106.831114,"time":4,"i_lat":-6.369073,"line":2,"station_id":"POC"},{"distance":1109,"station_id":"UI","i_lat":-6.360749,"station_name":"Univ. Indonesia","time":2,"line":2,"transit":false,"is_transit":false,"i_long":106.831474},{"is_transit":false,"time":3,"distance":2264,"transit":false,"line":2,"station_id":"UP","i_lat":-6.339291,"station_name":"Univ. Pancasila","i_long":106.834175},{"station_name":"Lenteng Agung","line":2,"distance":1029,"station_id":"LNA","transit":false,"i_long":106.832616,"is_transit":false,"time":2,"i_lat":-6.330363},{"transit":false,"station_name":"Tanjung Barat","i_long":106.838896,"line":2,"station_id":"TNT","i_lat":-6.3080680000000005,"is_transit":false,"distance":2671,"time":3},{"station_name":"Pasar Minggu","i_long":106.843999,"time":4,"distance":2820,"is_transit":false,"i_lat":-6.2842400000000005,"station_id":"PSM","transit":false,"line":2},{"station_id":"PSMB","distance":2380,"is_transit":false,"station_name":"Pasar Minggu Baru","transit":false,"i_lat":-6.263214,"line":2,"i_long":106.851577,"time":2},{"time":2,"i_long":106.85449,"line":2,"distance":824,"station_id":"DRN","transit":false,"is_transit":false,"station_name":"Duren Kalibata","i_lat":-6.255332},{"transit":false,"i_lat":-6.242512,"distance":1546,"time":3,"is_transit":false,"i_long":106.856607,"line":2,"station_name":"Cawang","station_id":"CW"},{"distance":1230,"time":2,"transit":false,"i_lat":-6.226659,"i_long":106.857948,"line":2,"is_transit":false,"station_name":"Tebet","station_id":"TEB"},{"station_name":"Manggarai","station_id":"MRI","distance":2610,"time":4,"transit":true,"i_long":106.84912,"line":2,"i_lat":-6.209883,"is_transit":true},{"i_lat":-6.202263,"station_name":"Sudirman","is_transit":false,"station_id":"SUD","distance":3186,"transit":false,"i_long":106.822649,"line":1,"time":4},{"distance":280,"line":1,"station_id":"SUDB","is_transit":false,"time":1,"i_long":106.819881,"transit":false,"station_name":"Sudirman Baru","i_lat":-6.201433},{"station_id":"KAT","i_long":106.816351,"transit":false,"is_transit":false,"station_name":"Karet","line":1,"distance":471,"time":1,"i_lat":-6.20132},{"transit":false,"distance":2029,"line":1,"is_transit":false,"station_name":"Tanah Abang","i_long":106.811091,"station_id":"THB","i_lat":-6.185545,"time":5},{"distance":3632,"i_lat":-6.155215,"time":8,"line":1,"i_long":106.800832,"transit":false,"is_transit":false,"station_name":"Duri","station_id":"DU"},{"time":4,"i_long":106.79867,"is_transit":false,"station_id":"AK","transit":false,"i_lat":-6.144674,"distance":1230,"line":1,"station_name":"Angke"},{"is_transit":true,"station_name":"Kampung Bandan","time":9,"transit":true,"i_long":106.826365,"station_id":"KPB","i_lat":-6.132549,"line":4,"distance":4102},{"i_long":106.836569,"station_name":"Rajawali","line":11,"transit":false,"time":3,"distance":1444,"i_lat":-6.14505,"station_id":"RJW","is_transit":false},{"distance":1901,"transit":false,"station_id":"KMO","is_transit":false,"time":5,"i_long":106.839204,"line":11,"i_lat":-6.161728,"station_name":"Kemayoran"},{"line":11,"is_transit":false,"distance":1436,"i_long":106.84368,"station_name":"Pasar Senen","time":4,"transit":false,"station_id":"PSE","i_lat":-6.174784},{"line":11,"station_id":"GST","transit":false,"distance":1567,"time":8,"i_lat":-6.185975,"station_name":"Gang Sentiong","i_long":106.850107,"is_transit":false}],[{"transit":false,"station_name":"Nambo","i_lat":-6.466285,"station_id":"NMO","i_long":106.905196,"time":0,"distance":0,"line":21,"is_transit":false},{"station_id":"CBN","time":10,"i_lat":-6.46424,"i_long":106.851978,"line":21,"transit":false,"is_transit":false,"station_name":"Cibinong","distance":6527},{"station_name":"Pondok Rajeg","station_id":"PDRG","is_transit":false,"distance":0,"transit":false,"i_lat":-6.460735,"i_long":106.824374,"line":21,"time":0},{"transit":true,"distance":0,"line":2,"station_id":"CTA","i_lat":-6.448811,"i_long":106.800298,"is_transit":true,"station_name":"Citayam","time":0},{"station_name":"Depok","i_lat":-6.405256,"is_transit":false,"distance":5084,"line":2,"time":6,"transit":false,"i_long":106.816926,"station_id":"DP"},{"time":3,"is_transit":false,"station_id":"DPB","line":2,"distance":1584,"transit":false,"i_lat":-6.391065,"i_long":106.819451,"station_name":"Depokbaru"},{"distance":2727,"transit":false,"time":4,"station_name":"Pondok Cina","station_id":"POC","i_lat":-6.369073,"i_long":106.831114,"line":2,"is_transit":false},{"time":2,"is_transit":false,"line":2,"transit":false,"station_name":"Univ. Indonesia","station_id":"UI","distance":1109,"i_lat":-6.360749,"i_long":106.831474},{"time":3,"distance":2264,"station_name":"Univ. Pancasila","station_id":"UP","transit":false,"line":2,"i_long":106.834175,"i_lat":-6.339291,"is_transit":false},{"line":2,"station_name":"Lenteng Agung","transit":false,"distance":1029,"station_id":"LNA","is_transit":false,"i_lat":-6.330363,"time":2,"i_long":106.832616},{"time":3,"i_lat":-6.3080680000000005,"station_id":"TNT","line":2,"is_transit":false,"station_name":"Tanjung Barat","transit":false,"distance":2671,"i_long":106.838896},{"station_name":"Pasar Minggu","i_lat":-6.2842400000000005,"time":4,"distance":2820,"station_id":"PSM","transit":false,"i_long":106.843999,"line":2,"is_transit":false},{"station_name":"Pasar Minggu Baru","i_lat":-6.263214,"distance":2380,"i_long":106.851577,"transit":false,"is_transit":false,"station_id":"PSMB","line":2,"time":2},{"i_long":106.85449,"transit":false,"time":2,"i_lat":-6.255332,"station_id":"DRN","station_name":"Duren Kalibata","is_transit":false,"line":2,"distance":824},{"i_lat":-6.242512,"i_long":106.856607,"line":2,"transit":false,"station_id":"CW","station_name":"Cawang","is_transit":false,"distance":1546,"time":3},{"station_id":"TEB","transit":false,"station_name":"Tebet","i_long":106.857948,"i_lat":-6.226659,"distance":1230,"is_transit":false,"line":2,"time":2},{"i_lat":-6.209883,"i_long":106.84912,"line":2,"station_id":"MRI","station_name":"Manggarai","distance":2610,"transit":false,"is_transit":false,"time":4},{"transit":false,"station_id":"CKI","i_long":106.840169,"is_transit":false,"distance":1590,"line":2,"i_lat":-6.198556,"station_name":"Cikini","time":4},{"station_id":"GDD","station_name":"Gondangdia","i_lat":-6.186295,"distance":1750,"is_transit":false,"i_long":106.832183,"time":3,"line":2,"transit":false},{"time":4,"i_lat":-6.166716,"transit":false,"i_long":106.828284,"station_id":"JUA","station_name":"Juanda","is_transit":false,"line":2,"distance":2015},{"transit":false,"i_lat":-6.160725,"is_transit":false,"distance":1149,"i_long":106.827103,"line":2,"time":2,"station_name":"Sawah Besar","station_id":"SW"},{"is_transit":false,"transit":false,"i_long":106.82482,"distance":906,"station_name":"Manggabesar","line":2,"station_id":"MGB","i_lat":-6.149769,"time":2},{"i_long":106.820901,"is_transit":false,"station_id":"JAY","time":2,"station_name":"Jayakarta","i_lat":-6.141205,"transit":false,"line":2,"distance":1080},{"transit":true,"station_name":"Jakarta Kota","is_transit":true,"time":4,"distance":1264,"i_long":106.812439,"line":2,"station_id":"JAKK","i_lat":-6.137569},{"distance":1364,"station_name":"Kampung Bandan","line":4,"is_transit":true,"transit":true,"i_long":106.826365,"i_lat":-6.132549,"station_id":"KPB","time":3},{"i_long":106.836569,"time":3,"line":11,"i_lat":-6.14505,"distance":1444,"transit":false,"is_transit":false,"station_name":"Rajawali","station_id":"RJW"},{"transit":false,"station_id":"KMO","i_lat":-6.161728,"is_transit":false,"time":5,"distance":1901,"i_long":106.839204,"line":11,"station_name":"Kemayoran"},{"station_name":"Pasar Senen","time":4,"is_transit":false,"distance":1436,"station_id":"PSE","i_lat":-6.174784,"line":11,"transit":false,"i_long":106.84368},{"i_long":106.850107,"station_name":"Gang Sentiong","time":8,"station_id":"GST","line":11,"i_lat":-6.185975,"distance":1567,"is_transit":false,"transit":false}]]}