{"data":[[{"time":0,"distance":0,"transit":false,"station_id":"NMO","station_name":"Nambo","line":21,"i_lat":-6.466285,"is_transit":false,"i_long":106.905196},{"station_id":"CBN","station_name":"Cibinong","distance":6527,"time":10,"is_transit":false,"transit":false,"line":0,"i_long":106.851978,"i_lat":-6.46424},{"station_name":"Citayam","station_id":"CTA","time":10,"i_lat":-6.448811,"i_long":106.800298,"is_transit":true,"line":1,"transit":false,"distance":6740},{"line":0,"i_long":106.816926,"time":6,"distance":5084,"station_id":"DP","is_transit":false,"transit":false,"station_name":"Depok","i_lat":-6.405256},{"time":3,"i_lat":-6.391065,"distance":1584,"station_id":"DPB","is_transit":false,"transit":false,"i_long":106.819451,"line":0,"station_name":"Depokbaru"},{"station_id":"POC","distance":2727,"is_transit":false,"i_long":106.831114,"station_name":"Pondok Cina","time":4,"i_lat":-6.369073,"transit":false,"line":2}]]}