{"data":[[{"station_name":"Nambo","i_long":106.905196,"line":21,"time":0,"station_id":"NMO","is_transit":false,"transit":false,"i_lat":-6.466285,"distance":0},{"transit":false,"is_transit":false,"station_name":"Cibinong","time":10,"i_lat":-6.46424,"distance":6527,"station_id":"CBN","i_long":106.851978,"line":21},{"station_name":"Pondok Rajeg","i_long":106.824374,"station_id":"PDRG","transit":false,"line":21,"time":0,"distance":0,"is_transit":false,"i_lat":-6.460735},{"distance":0,"i_lat":-6.448811,"station_id":"CTA","station_name":"Citayam","transit":true,"is_transit":true,"time":0,"i_long":106.800298,"line":2},{"i_lat":-6.405256,"is_transit":false,"station_name":"Depok","station_id":"DP","line":2,"time":6,"transit":false,"distance":5084,"i_long":106.816926},{"station_name":"Depokbaru","distance":1584,"time":3,"i_lat":-6.391065,"transit":false,"is_transit":false,"line":2,"i_long":106.819451,"station_id":"DPB"},{"distance":2727,"i_lat":-6.369073,"is_transit":false,"transit":false,"station_name":"Pondok Cina","time":4,"i_long":106.831114,"line":2,"station_id":"POC"},{"distance":1109,"time":2,"station_id":"UI","transit":false,"i_lat":-6.360749,"is_transit":false,"station_name":"Univ. Indonesia","i_long":106.831474,"line":2},{"is_transit":false,"distance":2264,"transit":false,"station_name":"Univ. Pancasila","time":3,"i_lat":-6.339291,"line":2,"i_long":106.834175,"station_id":"UP"},{"time":2,"distance":1029,"i_long":106.832616,"station_name":"Lenteng Agung","line":2,"i_lat":-6.330363,"transit":false,"station_id":"LNA","is_transit":false},{"distance":2671,"i_lat":-6.3080680000000005,"station_id":"TNT","station_name":"Tanjung Barat","time":3,"is_transit":false,"transit":false,"i_long":106.838896,"line":2},{"line":2,"time":4,"i_long":106.843999,"station_id":"PSM","transit":false,"is_transit":false,"distance":2820,"station_name":"Pasar Minggu","i_lat":-6.2842400000000005},{"distance":2380,"transit":false,"is_transit":false,"i_lat":-6.263214,"station_id":"PSMB","i_long":106.851577,"station_name":"Pasar Minggu Baru","time":2,"line":2},{"line":2,"transit":false,"time":2,"station_name":"Duren Kalibata","station_id":"DRN","is_transit":false,"distance":824,"i_lat":-6.255332,"i_long":106.85449},{"time":3,"i_lat":-6.242512,"i_long":106.856607,"transit":false,"station_name":"Cawang","line":2,"is_transit":false,"station_id":"CW","distance":1546},{"is_transit":false,"station_name":"Tebet","i_lat":-6.226659,"station_id":"TEB","distance":1230,"time":2,"i_long":106.857948,"transit":false,"line":2},{"time":4,"distance":2610,"station_name":"Manggarai","is_transit":true,"i_lat":-6.209883,"transit":true,"i_long":106.84912,"station_id":"MRI","line":2},{"station_id":"MTR","transit":false,"line":1,"station_name":"Matraman","is_transit":false,"i_long":106.858896,"i_lat":-6.212485,"time":2,"distance":1275}],[{"station_id":"NMO","transit":false,"i_lat":-6.466285,"line":21,"distance":0,"i_long":106.905196,"is_transit":false,"time":0,"station_name":"Nambo"},{"line":21,"station_name":"Cibinong","is_transit":false,"station_id":"CBN","distance":6527,"i_lat":-6.46424,"time":10,"transit":false,"i_long":106.851978},{"i_lat":-6.460735,"line":21,"transit":false,"distance":0,"i_long":106.824374,"time":0,"station_id":"PDRG","is_transit":false,"station_name":"Pondok Rajeg"},{"station_id":"CTA","is_transit":true,"i_long":106.800298,"transit":true,"i_lat":-6.448811,"distance":0,"time":0,"line":2,"station_name":"Citayam"},{"transit":false,"is_transit":false,"i_lat":-6.405256,"time":6,"distance":5084,"i_long":106.816926,"line":2,"station_id":"DP","station_name":"Depok"},{"line":2,"transit":false,"station_id":"DPB","distance":1584,"is_transit":false,"station_name":"Depokbaru","i_lat":-6.391065,"i_long":106.819451,"time":3},{"time":4,"line":2,"distance":2727,"is_transit":false,"i_lat":-6.369073,"i_long":106.831114,"station_id":"POC","transit":false,"station_name":"Pondok Cina"},{"time":2,"distance":1109,"i_lat":-6.360749,"i_long":106.831474,"line":2,"station_name":"Univ. Indonesia","station_id":"UI","transit":false,"is_transit":false},{"transit":false,"distance":2264,"i_long":106.834175,"line":2,"station_name":"Univ. Pancasila","station_id":"UP","i_lat":-6.339291,"is_transit":false,"time":3},{"transit":false,"i_lat":-6.330363,"time":2,"distance":1029,"is_transit":false,"station_id":"LNA","i_long":106.832616,"line":2,"station_name":"Lenteng Agung"},{"station_name":"Tanjung Barat","line":2,"i_long":106.838896,"distance":2671,"is_transit":false,"time":3,"transit":false,"station_id":"TNT","i_lat":-6.3080680000000005},{"line":2,"time":4,"station_id":"PSM","transit":false,"is_transit":false,"i_long":106.843999,"distance":2820,"station_name":"Pasar Minggu","i_lat":-6.2842400000000005},{"transit":false,"line":2,"distance":2380,"time":2,"i_long":106.851577,"station_id":"PSMB","station_name":"Pasar Minggu Baru","is_transit":false,"i_lat":-6.263214},{"station_name":"Duren Kalibata","station_id":"DRN","is_transit":false,"i_long":106.85449,"distance":824,"i_lat":-6.255332,"time":2,"transit":false,"line":2},{"station_name":"Cawang","time":3,"station_id":"CW","distance":1546,"i_lat":-6.242512,"line":2,"is_transit":false,"i_long":106.856607,"transit":false},{"station_id":"TEB","distance":1230,"i_long":106.857948,"i_lat":-6.226659,"transit":false,"station_name":"Tebet","time":2,"line":2,"is_transit":false},{"is_transit":true,"transit":true,"line":2,"i_long":106.84912,"station_id":"MRI","station_name":"Manggarai","distance":2610,"time":4,"i_lat":-6.209883},{"i_long":106.822649,"transit":false,"is_transit":false,"time":4,"line":1,"station_name":"Sudirman","distance":3186,"i_lat":-6.202263,"station_id":"SUD"},{"is_transit":false,"transit":false,"time":1,"i_lat":-6.201433,"i_long":106.819881,"station_name":"Sudirman Baru","line":1,"station_id":"SUDB","distance":280},{"distance":471,"i_long":106.816351,"is_transit":false,"line":1,"transit":false,"time":1,"station_name":"Karet","station_id":"KAT","i_lat":-6.20132},{"distance":2029,"i_long":106.811091,"i_lat":-6.185545,"line":1,"time":5,"transit":false,"is_transit":false,"station_id":"THB","station_name":"Tanah Abang"},{"distance":3632,"line":1,"i_long":106.800832,"transit":false,"is_transit":false,"station_id":"DU","time":8,"i_lat":-6.155215,"station_name":"Duri"},{"i_lat":-6.144674,"time":4,"is_transit":false,"distance":1230,"i_long":106.79867,"line":1,"transit":false,"station_id":"AK","station_name":"Angke"},{"station_name":"Kampung Bandan","i_lat":-6.132549,"time":9,"i_long":106.826365,"line":4,"station_id":"KPB","is_transit":true,"distance":4102,"transit":true},{"transit":false,"distance":1444,"time":3,"i_lat":-6.14505,"line":11,"station_id":"RJW","is_transit":false,"i_long":106.836569,"station_name":"Rajawali"},{"station_name":"Kemayoran","i_long":106.839204,"distance":1901,"line":11,"transit":false,"time":5,"i_lat":-6.161728,"station_id":"KMO","is_transit":false},{"is_transit":false,"time":4,"station_name":"Pasar Senen","distance":1436,"line":11,"i_long":106.84368,"i_lat":-6.174784,"station_id":"PSE","transit":false},{"i_lat":-6.185975,"station_id":"GST","time":8,"station_name":"Gang Sentiong","is_transit":false,"transit":false,"distance":1567,"i_long":106.850107,"line":11},{"is_transit":false,"line":11,"station_id":"KMT","station_name":"Kramat","time":1,"i_lat":-6.193792,"transit":false,"distance":973,"i_long":106.855437},{"station_id":"POK","time":2,"i_long":106.861737,"line":11,"station_name":"Pondok Jati","is_transit":false,"i_lat":-6.209188,"distance":1829,"transit":false},{"station_name":"Jatinegara","time":9,"distance":1236,"i_long":106.86807400000001,"line":1,"i_lat":-6.215091,"transit":true,"is_transit":true,"station_id":"JNG"},{"is_transit":false,"i_lat":-6.212485,"i_long":106.858896,"transit":false,"time":2,"distance":1377,"station_id":"MTR","station_name":"Matraman","line":1}],[{"transit":false,"i_lat":-6.466285,"station_name":"Nambo","is_transit":false,"time":0,"line":21,"i_long":106.905196,"station_id":"NMO","distance":0},{"station_id":"CBN","time":10,"is_transit":false,"station_name":"Cibinong","i_lat":-6.46424,"distance":6527,"i_long":106.851978,"line":21,"transit":false},{"distance":0,"station_name":"Pondok Rajeg","time":0,"i_long":106.824374,"line":21,"is_transit":false,"i_lat":-6.460735,"station_id":"PDRG","transit":false},{"time":0,"distance":0,"station_name":"Citayam","i_lat":-6.448811,"line":2,"is_transit":true,"station_id":"CTA","i_long":106.800298,"transit":true},{"is_transit":false,"line":2,"transit":false,"time":6,"i_long":106.816926,"distance":5084,"station_name":"Depok","station_id":"DP","i_lat":-6.405256},{"time":3,"distance":1584,"station_id":"DPB","is_transit":false,"transit":false,"station_name":"Depokbaru","i_lat":-6.391065,"i_long":106.819451,"line":2},{"transit":false,"i_long":106.831114,"is_transit":false,"distance":2727,"i_lat":-6.369073,"station_id":"POC","station_name":"Pondok Cina","time":4,"line":2},{"is_transit":false,"i_long":106.831474,"station_id":"UI","transit":false,"line":2,"i_lat":-6.360749,"distance":1109,"time":2,"station_name":"Univ. Indonesia"},{"station_name":"Univ. Pancasila","is_transit":false,"i_lat":-6.339291,"i_long":106.834175,"time":3,"transit":false,"line":2,"distance":2264,"station_id":"UP"},{"station_id":"LNA","station_name":"Lenteng Agung","is_transit":false,"transit":false,"distance":1029,"time":2,"i_lat":-6.330363,"line":2,"i_long":106.832616},{"station_name":"Tanjung Barat","transit":false,"i_long":106.838896,"station_id":"TNT","is_transit":false,"distance":2671,"i_lat":-6.3080680000000005,"time":3,"line":2},{"station_id":"PSM","time":4,"i_lat":-6.2842400000000005,"i_long":106.843999,"is_transit":false,"distance":2820,"transit":false,"station_name":"Pasar Minggu","line":2},{"station_name":"Pasar Minggu Baru","time":2,"i_long":106.851577,"line":2,"i_lat":-6.263214,"station_id":"PSMB","transit":false,"is_transit":false,"distance":2380},{"i_lat":-6.255332,"line":2,"i_long":106.85449,"station_id":"DRN","transit":false,"is_transit":false,"station_name":"Duren Kalibata","distance":824,"time":2},{"station_id":"CW","station_name":"Cawang","transit":false,"is_transit":false,"distance":1546,"i_long":106.856607,"time":3,"line":2,"i_lat":-6.242512},{"time":2,"line":2,"station_id":"TEB","distance":1230,"transit":false,"i_long":106.857948,"station_name":"Tebet","is_transit":false,"i_lat":-6.226659},{"transit":false,"station_name":"Manggarai","i_long":106.84912,"i_lat":-6.209883,"time":4,"station_id":"MRI","is_transit":false,"line":2,"distance":2610},{"station_id":"CKI","distance":1590,"time":4,"line":2,"i_lat":-6.198556,"is_transit":false,"i_long":106.840169,"station_name":"Cikini","transit":false},{"time":3,"is_transit":false,"station_name":"Gondangdia","i_lat":-6.186295,"line":2,"station_id":"GDD","transit":false,"distance":1750,"i_long":106.832183},{"time":4,"station_id":"JUA","distance":2015,"i_long":106.828284,"i_lat":-6.166716,"transit":false,"line":2,"is_transit":false,"station_name":"Juanda"},{"distance":1149,"station_name":"Sawah Besar","time":2,"line":2,"transit":false,"is_transit":false,"i_lat":-6.160725,"station_id":"SW","i_long":106.827103},{"transit":false,"i_long":106.82482,"is_transit":false,"station_name":"Manggabesar","time":2,"station_id":"MGB","distance":906,"i_lat":-6.149769,"line":2},{"i_lat":-6.141205,"time":2,"is_transit":false,"station_name":"Jayakarta","i_long":106.820901,"station_id":"JAY","distance":1080,"line":2,"transit":false},{"transit":true,"station_id":"JAKK","is_transit":true,"distance":1264,"station_name":"Jakarta Kota","i_long":106.812439,"time":4,"line":2,"i_lat":-6.137569},{"i_lat":-6.132549,"distance":1364,"transit":true,"station_name":"Kampung Bandan","line":4,"is_transit":true,"i_long":106.826365,"station_id":"KPB","time":3},{"distance":1444,"is_transit":false,"i_lat":-6.14505,"station_name":"Rajawali","time":3,"line":11,"station_id":"RJW","transit":false,"i_long":106.836569},{"distance":1901,"is_transit":false,"station_name":"Kemayoran","i_lat":-6.161728,"station_id":"KMO","transit":false,"i_long":106.839204,"line":11,"time":5},{"line":11,"is_transit":false,"transit":false,"time":4,"i_lat":-6.174784,"i_long":106.84368,"station_id":"PSE","station_name":"Pasar Senen","distance":1436},{"station_name":"Gang Sentiong","is_transit":false,"time":8,"line":11,"distance":1567,"transit":false,"i_long":106.850107,"i_lat":-6.185975,"station_id":"GST"},{"time":1,"distance":973,"station_id":"KMT","station_name":"Kramat","is_transit":false,"i_lat":-6.193792,"line":11,"i_long":106.855437,"transit":false},{"is_transit":false,"station_name":"Pondok Jati","time":2,"transit":false,"distance":1829,"station_id":"POK","i_long":106.861737,"line":11,"i_lat":-6.209188},{"station_id":"JNG","i_long":106.86807400000001,"i_lat":-6.215091,"distance":1236,"line":1,"transit":true,"time":9,"is_transit":true,"station_name":"Jatinegara"},{"station_name":"Matraman","is_transit":false,"time":2,"station_id":"MTR","transit":false,"distance":1377,"i_lat":-6.212485,"line":1,"i_long":106.858896}]]}