{"data":[[{"line":21,"station_name":"Nambo","time":0,"i_lat":-6.466285,"station_id":"NMO","is_transit":false,"transit":false,"distance":0,"i_long":106.905196},{"station_id":"CBN","line":0,"is_transit":false,"time":10,"transit":false,"i_lat":-6.46424,"distance":6527,"i_long":106.851978,"station_name":"Cibinong"},{"station_name":"Citayam","i_lat":-6.448811,"time":10,"distance":6740,"station_id":"CTA","i_long":106.800298,"line":1,"transit":false,"is_transit":true},{"i_long":106.816926,"time":6,"transit":false,"station_name":"Depok","distance":5084,"station_id":"DP","line":0,"is_transit":false,"i_lat":-6.405256},{"is_transit":false,"time":3,"transit":false,"line":0,"i_lat":-6.391065,"distance":1584,"station_id":"DPB","i_long":106.819451,"station_name":"Depokbaru"},{"transit":false,"i_long":106.831114,"line":2,"i_lat":-6.369073,"time":4,"is_transit":false,"station_name":"Pondok Cina","distance":2727,"station_id":"POC"},{"distance":1109,"station_name":"Univ. Indonesia","transit":false,"i_lat":-6.360749,"is_transit":false,"station_id":"UI","time":2,"i_long":106.831474,"line":2},{"line":2,"station_name":"Univ. Pancasila","is_transit":false,"time":3,"station_id":"UP","i_long":106.834175,"distance":2264,"transit":false,"i_lat":-6.339291},{"station_id":"LNA","is_transit":false,"station_name":"Lenteng Agung","i_lat":-6.330363,"distance":1029,"transit":false,"time":2,"i_long":106.832616,"line":2},{"i_lat":-6.3080680000000005,"distance":2671,"is_transit":false,"station_id":"TNT","line":2,"transit":false,"station_name":"Tanjung Barat","time":3,"i_long":106.838896},{"station_name":"Pasar Minggu","transit":false,"i_lat":-6.2842400000000005,"distance":2820,"station_id":"PSM","i_long":106.843999,"time":4,"line":2,"is_transit":false},{"distance":2380,"line":2,"station_id":"PSMB","i_long":106.851577,"transit":false,"time":2,"i_lat":-6.263214,"station_name":"Pasar Minggu Baru","is_transit":false},{"time":2,"transit":false,"i_lat":-6.255332,"station_name":"Duren Kalibata","line":0,"station_id":"DRN","i_long":106.85449,"distance":824,"is_transit":false},{"time":3,"station_name":"Cawang","line":0,"i_lat":-6.242512,"is_transit":false,"distance":1546,"transit":false,"i_long":106.856607,"station_id":"CW"}]]}