{"data":[[{"i_lat":-6.466285,"station_id":"NMO","line":21,"distance":0,"i_long":106.905196,"transit":false,"is_transit":false,"time":0,"station_name":"Nambo"},{"i_long":106.851978,"is_transit":false,"station_id":"CBN","station_name":"Cibinong","time":10,"line":21,"transit":false,"distance":6527,"i_lat":-6.46424},{"i_lat":-6.460735,"is_transit":false,"time":0,"line":21,"transit":false,"i_long":106.824374,"distance":0,"station_id":"PDRG","station_name":"Pondok Rajeg"},{"station_name":"Citayam","distance":0,"time":0,"is_transit":true,"station_id":"CTA","line":2,"transit":true,"i_lat":-6.448811,"i_long":106.800298},{"line":2,"time":6,"distance":5084,"i_long":106.816926,"station_name":"Depok","station_id":"DP","is_transit":false,"i_lat":-6.405256,"transit":false},{"time":3,"i_long":106.819451,"transit":false,"station_name":"Depokbaru","i_lat":-6.391065,"is_transit":false,"distance":1584,"station_id":"DPB","line":2},{"i_long":106.831114,"distance":2727,"transit":false,"station_id":"POC","time":4,"i_lat":-6.369073,"station_name":"Pondok Cina","line":2,"is_transit":false},{"distance":1109,"station_id":"UI","transit":false,"time":2,"i_long":106.831474,"line":2,"i_lat":-6.360749,"is_transit":false,"station_name":"Univ. Indonesia"},{"i_long":106.834175,"station_id":"UP","i_lat":-6.339291,"is_transit":false,"transit":false,"distance":2264,"time":3,"station_name":"Univ. Pancasila","line":2},{"distance":1029,"i_lat":-6.330363,"station_name":"Lenteng Agung","transit":false,"station_id":"LNA","time":2,"i_long":106.832616,"is_transit":false,"line":2},{"station_name":"Tanjung Barat","line":2,"is_transit":false,"distance":2671,"i_lat":-6.3080680000000005,"i_long":106.838896,"transit":false,"time":3,"station_id":"TNT"},{"station_name":"Pasar Minggu","station_id":"PSM","time":4,"i_long":106.843999,"distance":2820,"transit":false,"is_transit":false,"i_lat":-6.2842400000000005,"line":2},{"station_id":"PSMB","distance":2380,"is_transit":false,"time":2,"i_long":106.851577,"line":2,"station_name":"Pasar Minggu Baru","transit":false,"i_lat":-6.263214},{"transit":false,"station_name":"Duren Kalibata","station_id":"DRN","line":2,"distance":824,"i_long":106.85449,"time":2,"i_lat":-6.255332,"is_transit":false},{"line":2,"is_transit":false,"i_lat":-6.242512,"time":3,"station_id":"CW","distance":1546,"station_name":"Cawang","transit":false,"i_long":106.856607},{"distance":1230,"station_id":"TEB","is_transit":false,"line":2,"transit":false,"time":2,"i_lat":-6.226659,"i_long":106.857948,"station_name":"Tebet"},{"distance":2610,"time":4,"station_id":"MRI","i_lat":-6.209883,"line":2,"i_long":106.84912,"station_name":"Manggarai","transit":true,"is_transit":true},{"line":1,"is_transit":false,"time":4,"station_name":"Sudirman","i_lat":-6.202263,"transit":false,"i_long":106.822649,"distance":3186,"station_id":"SUD"},{"line":1,"time":1,"transit":false,"station_name":"Sudirman Baru","is_transit":false,"station_id":"SUDB","i_long":106.819881,"distance":280,"i_lat":-6.201433},{"transit":false,"station_name":"Karet","is_transit":false,"time":1,"distance":471,"station_id":"KAT","i_lat":-6.20132,"line":1,"i_long":106.816351},{"transit":true,"is_transit":true,"i_lat":-6.185545,"station_name":"Tanah Abang","distance":2029,"time":5,"line":1,"station_id":"THB","i_long":106.811091},{"distance":3191,"is_transit":false,"station_name":"Palmerah","i_long":106.79689,"line":6,"transit":false,"station_id":"PLM","i_lat":-6.207404,"time":6},{"station_id":"KBY","is_transit":false,"i_lat":-6.237242,"line":6,"time":7,"i_long":106.780334,"station_name":"Kebayoran","transit":false,"distance":3737},{"distance":6218,"time":8,"i_lat":-6.276362,"is_transit":false,"line":6,"station_id":"PDJ","station_name":"Pondokranji","transit":false,"i_long":106.74273},{"line":6,"station_id":"JMU","time":3,"is_transit":false,"station_name":"Jurangmangu","transit":false,"distance":2179,"i_lat":-6.288927,"i_long":106.728916}],[{"station_name":"Nambo","distance":0,"transit":false,"station_id":"NMO","time":0,"is_transit":false,"i_lat":-6.466285,"line":21,"i_long":106.905196},{"time":10,"distance":6527,"transit":false,"is_transit":false,"i_long":106.851978,"line":21,"i_lat":-6.46424,"station_name":"Cibinong","station_id":"CBN"},{"time":0,"i_lat":-6.460735,"distance":0,"is_transit":false,"i_long":106.824374,"station_id":"PDRG","station_name":"Pondok Rajeg","transit":false,"line":21},{"i_lat":-6.448811,"station_id":"CTA","time":0,"i_long":106.800298,"line":2,"station_name":"Citayam","transit":true,"distance":0,"is_transit":true},{"i_long":106.816926,"transit":false,"i_lat":-6.405256,"distance":5084,"station_id":"DP","is_transit":false,"time":6,"line":2,"station_name":"Depok"},{"transit":false,"station_id":"DPB","line":2,"distance":1584,"i_lat":-6.391065,"station_name":"Depokbaru","time":3,"is_transit":false,"i_long":106.819451},{"station_id":"POC","time":4,"i_long":106.831114,"line":2,"is_transit":false,"distance":2727,"i_lat":-6.369073,"transit":false,"station_name":"Pondok Cina"},{"line":2,"distance":1109,"i_long":106.831474,"time":2,"transit":false,"station_id":"UI","station_name":"Univ. Indonesia","i_lat":-6.360749,"is_transit":false},{"is_transit":false,"distance":2264,"time":3,"transit":false,"i_lat":-6.339291,"station_name":"Univ. Pancasila","station_id":"UP","i_long":106.834175,"line":2},{"station_name":"Lenteng Agung","line":2,"transit":false,"i_long":106.832616,"i_lat":-6.330363,"distance":1029,"is_transit":false,"time":2,"station_id":"LNA"},{"time":3,"distance":2671,"station_id":"TNT","transit":false,"station_name":"Tanjung Barat","is_transit":false,"i_long":106.838896,"line":2,"i_lat":-6.3080680000000005},{"i_lat":-6.2842400000000005,"station_id":"PSM","is_transit":false,"distance":2820,"transit":false,"station_name":"Pasar Minggu","i_long":106.843999,"line":2,"time":4},{"time":2,"station_name":"Pasar Minggu Baru","distance":2380,"transit":false,"is_transit":false,"i_lat":-6.263214,"station_id":"PSMB","i_long":106.851577,"line":2},{"time":2,"is_transit":false,"station_id":"DRN","i_long":106.85449,"i_lat":-6.255332,"line":2,"transit":false,"distance":824,"station_name":"Duren Kalibata"},{"is_transit":false,"distance":1546,"transit":false,"time":3,"i_lat":-6.242512,"station_id":"CW","i_long":106.856607,"station_name":"Cawang","line":2},{"transit":false,"i_lat":-6.226659,"station_id":"TEB","i_long":106.857948,"time":2,"is_transit":false,"distance":1230,"line":2,"station_name":"Tebet"},{"transit":false,"time":4,"distance":2610,"is_transit":false,"i_long":106.84912,"station_id":"MRI","station_name":"Manggarai","i_lat":-6.209883,"line":2},{"distance":1590,"is_transit":false,"line":2,"station_id":"CKI","station_name":"Cikini","i_lat":-6.198556,"transit":false,"time":4,"i_long":106.840169},{"station_id":"GDD","i_long":106.832183,"i_lat":-6.186295,"distance":1750,"transit":false,"station_name":"Gondangdia","is_transit":false,"time":3,"line":2},{"i_lat":-6.166716,"station_id":"JUA","transit":false,"distance":2015,"station_name":"Juanda","line":2,"i_long":106.828284,"time":4,"is_transit":false},{"time":2,"i_lat":-6.160725,"line":2,"i_long":106.827103,"station_name":"Sawah Besar","station_id":"SW","distance":1149,"transit":false,"is_transit":false},{"is_transit":false,"transit":false,"station_id":"MGB","time":2,"i_long":106.82482,"distance":906,"station_name":"Manggabesar","i_lat":-6.149769,"line":2},{"i_lat":-6.141205,"i_long":106.820901,"distance":1080,"time":2,"is_transit":false,"transit":false,"station_id":"JAY","line":2,"station_name":"Jayakarta"},{"distance":1264,"station_id":"JAKK","is_transit":true,"transit":true,"time":4,"i_long":106.812439,"line":2,"i_lat":-6.137569,"station_name":"Jakarta Kota"},{"i_long":106.826365,"line":4,"station_name":"Kampung Bandan","station_id":"KPB","time":3,"is_transit":true,"transit":true,"i_lat":-6.132549,"distance":1364},{"i_lat":-6.144674,"station_id":"AK","distance":4102,"station_name":"Angke","transit":false,"line":1,"is_transit":false,"time":9,"i_long":106.79867},{"time":4,"i_lat":-6.155215,"distance":1230,"transit":false,"line":1,"is_transit":false,"i_long":106.800832,"station_id":"DU","station_name":"Duri"},{"station_id":"THB","time":8,"line":1,"station_name":"Tanah Abang","transit":true,"is_transit":true,"i_lat":-6.185545,"distance":3632,"i_long":106.811091},{"station_id":"PLM","distance":3191,"line":6,"time":6,"is_transit":false,"i_long":106.79689,"station_name":"Palmerah","i_lat":-6.207404,"transit":false},{"time":7,"distance":3737,"station_id":"KBY","station_name":"Kebayoran","i_lat":-6.237242,"transit":false,"is_transit":false,"i_long":106.780334,"line":6},{"distance":6218,"transit":false,"station_id":"PDJ","is_transit":false,"station_name":"Pondokranji","i_long":106.74273,"i_lat":-6.276362,"line":6,"time":8},{"distance":2179,"is_transit":false,"time":3,"station_name":"Jurangmangu","transit":false,"i_long":106.728916,"line":6,"i_lat":-6.288927,"station_id":"JMU"}],[{"is_transit":false,"i_long":106.905196,"time":0,"i_lat":-6.466285,"transit":false,"line":21,"distance":0,"station_id":"NMO","station_name":"Nambo"},{"line":21,"station_id":"CBN","is_transit":false,"station_name":"Cibinong","distance":6527,"i_lat":-6.46424,"i_long":106.851978,"time":10,"transit":false},{"station_name":"Pondok Rajeg","station_id":"PDRG","line":21,"transit":false,"i_long":106.824374,"time":0,"i_lat":-6.460735,"distance":0,"is_transit":false},{"i_long":106.800298,"transit":true,"line":2,"station_id":"CTA","is_transit":true,"i_lat":-6.448811,"distance":0,"time":0,"station_name":"Citayam"},{"i_lat":-6.405256,"line":2,"distance":5084,"transit":false,"station_name":"Depok","time":6,"i_long":106.816926,"station_id":"DP","is_transit":false},{"station_name":"Depokbaru","i_long":106.819451,"transit":false,"station_id":"DPB","time":3,"i_lat":-6.391065,"distance":1584,"line":2,"is_transit":false},{"distance":2727,"transit":false,"i_long":106.831114,"station_name":"Pondok Cina","is_transit":false,"time":4,"i_lat":-6.369073,"line":2,"station_id":"POC"},{"transit":false,"is_transit":false,"i_lat":-6.360749,"line":2,"i_long":106.831474,"station_id":"UI","time":2,"distance":1109,"station_name":"Univ. Indonesia"},{"station_id":"UP","is_transit":false,"distance":2264,"transit":false,"time":3,"i_lat":-6.339291,"station_name":"Univ. Pancasila","i_long":106.834175,"line":2},{"is_transit":false,"station_name":"Lenteng Agung","distance":1029,"station_id":"LNA","transit":false,"time":2,"i_long":106.832616,"i_lat":-6.330363,"line":2},{"is_transit":false,"line":2,"distance":2671,"i_long":106.838896,"time":3,"transit":false,"station_id":"TNT","station_name":"Tanjung Barat","i_lat":-6.3080680000000005},{"transit":false,"distance":2820,"station_id":"PSM","station_name":"Pasar Minggu","i_lat":-6.2842400000000005,"i_long":106.843999,"line":2,"is_transit":false,"time":4},{"i_long":106.851577,"i_lat":-6.263214,"distance":2380,"transit":false,"station_name":"Pasar Minggu Baru","time":2,"is_transit":false,"line":2,"station_id":"PSMB"},{"i_lat":-6.255332,"i_long":106.85449,"line":2,"time":2,"is_transit":false,"station_id":"DRN","distance":824,"transit":false,"station_name":"Duren Kalibata"},{"time":3,"transit":false,"distance":1546,"is_transit":false,"i_lat":-6.242512,"line":2,"station_id":"CW","station_name":"Cawang","i_long":106.856607},{"station_id":"TEB","is_transit":false,"transit":false,"station_name":"Tebet","distance":1230,"time":2,"i_lat":-6.226659,"i_long":106.857948,"line":2},{"time":4,"i_lat":-6.209883,"transit":true,"station_id":"MRI","distance":2610,"i_long":106.84912,"line":2,"is_transit":true,"station_name":"Manggarai"},{"time":2,"i_long":106.858896,"transit":false,"distance":1275,"station_id":"MTR","station_name":"Matraman","i_lat":-6.212485,"line":1,"is_transit":false},{"time":8,"is_transit":true,"station_id":"JNG","i_long":106.86807400000001,"transit":true,"station_name":"Jatinegara","line":1,"i_lat":-6.215091,"distance":1377},{"distance":1236,"is_transit":false,"transit":false,"i_lat":-6.209188,"station_id":"POK","i_long":106.861737,"time":2,"station_name":"Pondok Jati","line":11},{"station_id":"KMT","i_long":106.855437,"is_transit":false,"station_name":"Kramat","time":2,"distance":1829,"line":11,"i_lat":-6.193792,"transit":false},{"station_name":"Gang Sentiong","time":1,"i_lat":-6.185975,"transit":false,"station_id":"GST","is_transit":false,"distance":973,"i_long":106.850107,"line":11},{"i_long":106.84368,"line":11,"station_id":"PSE","transit":false,"distance":1567,"is_transit":false,"time":8,"station_name":"Pasar Senen","i_lat":-6.174784},{"transit":false,"line":11,"station_name":"Kemayoran","station_id":"KMO","i_long":106.839204,"i_lat":-6.161728,"distance":1436,"is_transit":false,"time":4},{"i_lat":-6.14505,"station_name":"Rajawali","i_long":106.836569,"station_id":"RJW","is_transit":false,"distance":1901,"transit":false,"time":5,"line":11},{"line":4,"transit":true,"i_long":106.826365,"time":3,"is_transit":true,"distance":1444,"station_id":"KPB","station_name":"Kampung Bandan","i_lat":-6.132549},{"i_lat":-6.144674,"line":1,"transit":false,"distance":4102,"station_id":"AK","is_transit":false,"i_long":106.79867,"station_name":"Angke","time":9},{"i_lat":-6.155215,"distance":1230,"transit":false,"station_name":"Duri","station_id":"DU","time":4,"line":1,"i_long":106.800832,"is_transit":false},{"i_long":106.811091,"station_id":"THB","station_name":"Tanah Abang","i_lat":-6.185545,"transit":true,"is_transit":true,"distance":3632,"time":8,"line":1},{"i_long":106.79689,"station_id":"PLM","line":6,"station_name":"Palmerah","time":6,"transit":false,"distance":3191,"i_lat":-6.207404,"is_transit":false},{"distance":3737,"i_lat":-6.237242,"line":6,"transit":false,"station_name":"Kebayoran","i_long":106.780334,"station_id":"KBY","time":7,"is_transit":false},{"transit":false,"time":8,"i_long":106.74273,"station_id":"PDJ","i_lat":-6.276362,"line":6,"station_name":"Pondokranji","is_transit":false,"distance":6218},{"i_lat":-6.288927,"distance":2179,"transit":false,"time":3,"is_transit":false,"station_name":"Jurangmangu","i_long":106.728916,"line":6,"station_id":"JMU"}]]}