{"data":[[{"station_id":"NMO","line":21,"distance":0,"i_lat":-6.466285,"station_name":"Nambo","is_transit":false,"i_long":106.905196,"time":0,"transit":false},{"is_transit":false,"i_lat":-6.46424,"transit":false,"distance":6527,"station_name":"Cibinong","time":10,"station_id":"CBN","i_long":106.851978,"line":21},{"line":21,"station_name":"Pondok Rajeg","transit":false,"distance":0,"i_long":106.824374,"is_transit":false,"station_id":"PDRG","time":0,"i_lat":-6.460735},{"time":0,"i_lat":-6.448811,"line":2,"station_id":"CTA","station_name":"Citayam","is_transit":true,"distance":0,"transit":true,"i_long":106.800298},{"line":2,"is_transit":false,"transit":false,"i_long":106.816926,"i_lat":-6.405256,"station_name":"Depok","time":6,"station_id":"DP","distance":5084},{"distance":1584,"is_transit":false,"line":2,"station_id":"DPB","time":3,"i_lat":-6.391065,"i_long":106.819451,"transit":false,"station_name":"Depokbaru"},{"station_name":"Pondok Cina","is_transit":false,"station_id":"POC","transit":false,"i_lat":-6.369073,"i_long":106.831114,"time":4,"line":2,"distance":2727},{"line":2,"station_name":"Univ. Indonesia","distance":1109,"i_lat":-6.360749,"station_id":"UI","time":2,"transit":false,"is_transit":false,"i_long":106.831474},{"distance":2264,"i_long":106.834175,"is_transit":false,"transit":false,"i_lat":-6.339291,"station_id":"UP","station_name":"Univ. Pancasila","time":3,"line":2},{"is_transit":false,"station_name":"Lenteng Agung","i_lat":-6.330363,"time":2,"station_id":"LNA","transit":false,"distance":1029,"line":2,"i_long":106.832616},{"is_transit":false,"i_lat":-6.3080680000000005,"station_name":"Tanjung Barat","distance":2671,"line":2,"time":3,"station_id":"TNT","i_long":106.838896,"transit":false},{"i_lat":-6.2842400000000005,"station_id":"PSM","transit":false,"distance":2820,"is_transit":false,"i_long":106.843999,"line":2,"station_name":"Pasar Minggu","time":4},{"is_transit":false,"station_name":"Pasar Minggu Baru","distance":2380,"i_lat":-6.263214,"i_long":106.851577,"time":2,"line":2,"station_id":"PSMB","transit":false},{"transit":false,"i_lat":-6.255332,"station_name":"Duren Kalibata","is_transit":false,"station_id":"DRN","time":2,"distance":824,"i_long":106.85449,"line":2},{"i_long":106.856607,"line":2,"time":3,"station_id":"CW","distance":1546,"i_lat":-6.242512,"transit":false,"station_name":"Cawang","is_transit":false},{"time":2,"distance":1230,"i_lat":-6.226659,"is_transit":false,"station_name":"Tebet","line":2,"i_long":106.857948,"station_id":"TEB","transit":false},{"i_long":106.84912,"station_id":"MRI","transit":true,"is_transit":true,"time":4,"line":2,"distance":2610,"station_name":"Manggarai","i_lat":-6.209883},{"time":4,"i_lat":-6.202263,"station_name":"Sudirman","station_id":"SUD","transit":false,"distance":3186,"is_transit":false,"i_long":106.822649,"line":1},{"distance":280,"i_long":106.819881,"transit":false,"line":1,"i_lat":-6.201433,"time":1,"station_name":"Sudirman Baru","is_transit":false,"station_id":"SUDB"},{"station_name":"Karet","time":1,"transit":false,"distance":471,"i_lat":-6.20132,"line":1,"is_transit":false,"station_id":"KAT","i_long":106.816351},{"time":5,"distance":2029,"i_long":106.811091,"station_id":"THB","i_lat":-6.185545,"transit":false,"station_name":"Tanah Abang","line":1,"is_transit":false},{"is_transit":true,"i_long":106.800832,"station_name":"Duri","i_lat":-6.155215,"distance":3632,"time":8,"station_id":"DU","line":1,"transit":true},{"time":3,"i_lat":-6.162021,"distance":1700,"i_long":106.788277,"station_id":"GGL","station_name":"Grogol","line":5,"is_transit":false,"transit":false},{"transit":false,"station_id":"PSG","is_transit":false,"station_name":"Pesing","i_long":106.771379,"line":5,"time":2,"distance":2036,"i_lat":-6.161433},{"transit":false,"station_id":"TKO","i_long":106.756522,"station_name":"Taman Kota","is_transit":false,"time":2,"distance":1614,"i_lat":-6.1587309999999995,"line":5},{"station_id":"BOI","transit":false,"time":2,"line":5,"i_lat":-6.159876,"distance":2334,"station_name":"Bojongindah","i_long":106.737035,"is_transit":false},{"i_lat":-6.162758,"is_transit":false,"time":4,"distance":1152,"i_long":106.723064,"line":5,"transit":false,"station_id":"RW","station_name":"Rawa Buaya"},{"is_transit":false,"distance":2504,"i_long":106.701612,"station_name":"Kalideres","transit":false,"i_lat":-6.166068,"line":5,"time":3,"station_id":"KDS"}],[{"is_transit":false,"i_long":106.905196,"station_name":"Nambo","station_id":"NMO","i_lat":-6.466285,"time":0,"transit":false,"distance":0,"line":21},{"line":21,"station_id":"CBN","station_name":"Cibinong","time":10,"transit":false,"distance":6527,"i_long":106.851978,"is_transit":false,"i_lat":-6.46424},{"distance":0,"i_lat":-6.460735,"i_long":106.824374,"time":0,"station_id":"PDRG","line":21,"transit":false,"is_transit":false,"station_name":"Pondok Rajeg"},{"transit":true,"distance":0,"time":0,"is_transit":true,"station_id":"CTA","station_name":"Citayam","i_long":106.800298,"i_lat":-6.448811,"line":2},{"is_transit":false,"i_lat":-6.405256,"distance":5084,"station_id":"DP","transit":false,"i_long":106.816926,"time":6,"line":2,"station_name":"Depok"},{"is_transit":false,"i_long":106.819451,"station_name":"Depokbaru","distance":1584,"i_lat":-6.391065,"time":3,"transit":false,"station_id":"DPB","line":2},{"i_lat":-6.369073,"station_id":"POC","distance":2727,"station_name":"Pondok Cina","line":2,"time":4,"i_long":106.831114,"transit":false,"is_transit":false},{"line":2,"is_transit":false,"i_long":106.831474,"time":2,"station_id":"UI","distance":1109,"i_lat":-6.360749,"transit":false,"station_name":"Univ. Indonesia"},{"station_name":"Univ. Pancasila","is_transit":false,"station_id":"UP","distance":2264,"time":3,"i_long":106.834175,"line":2,"i_lat":-6.339291,"transit":false},{"time":2,"distance":1029,"i_lat":-6.330363,"i_long":106.832616,"transit":false,"is_transit":false,"station_name":"Lenteng Agung","line":2,"station_id":"LNA"},{"time":3,"distance":2671,"i_long":106.838896,"station_id":"TNT","is_transit":false,"station_name":"Tanjung Barat","transit":false,"i_lat":-6.3080680000000005,"line":2},{"transit":false,"is_transit":false,"line":2,"distance":2820,"station_id":"PSM","i_lat":-6.2842400000000005,"station_name":"Pasar Minggu","i_long":106.843999,"time":4},{"i_lat":-6.263214,"i_long":106.851577,"station_name":"Pasar Minggu Baru","distance":2380,"is_transit":false,"line":2,"station_id":"PSMB","time":2,"transit":false},{"station_id":"DRN","transit":false,"distance":824,"is_transit":false,"line":2,"time":2,"i_lat":-6.255332,"station_name":"Duren Kalibata","i_long":106.85449},{"line":2,"time":3,"i_long":106.856607,"distance":1546,"is_transit":false,"station_name":"Cawang","transit":false,"station_id":"CW","i_lat":-6.242512},{"transit":false,"i_lat":-6.226659,"station_id":"TEB","distance":1230,"is_transit":false,"i_long":106.857948,"line":2,"time":2,"station_name":"Tebet"},{"line":2,"i_lat":-6.209883,"time":4,"distance":2610,"transit":false,"station_name":"Manggarai","is_transit":false,"station_id":"MRI","i_long":106.84912},{"i_lat":-6.198556,"station_id":"CKI","time":4,"i_long":106.840169,"station_name":"Cikini","is_transit":false,"distance":1590,"line":2,"transit":false},{"line":2,"is_transit":false,"station_name":"Gondangdia","transit":false,"i_long":106.832183,"time":3,"distance":1750,"station_id":"GDD","i_lat":-6.186295},{"i_lat":-6.166716,"time":4,"station_id":"JUA","transit":false,"distance":2015,"station_name":"Juanda","i_long":106.828284,"line":2,"is_transit":false},{"station_id":"SW","line":2,"transit":false,"is_transit":false,"station_name":"Sawah Besar","time":2,"i_long":106.827103,"distance":1149,"i_lat":-6.160725},{"i_lat":-6.149769,"station_name":"Manggabesar","station_id":"MGB","transit":false,"distance":906,"is_transit":false,"i_long":106.82482,"line":2,"time":2},{"i_lat":-6.141205,"time":2,"station_id":"JAY","is_transit":false,"line":2,"transit":false,"distance":1080,"station_name":"Jayakarta","i_long":106.820901},{"line":2,"station_id":"JAKK","i_long":106.812439,"time":4,"i_lat":-6.137569,"transit":true,"is_transit":true,"distance":1264,"station_name":"Jakarta Kota"},{"is_transit":true,"i_lat":-6.132549,"transit":true,"distance":1364,"station_name":"Kampung Bandan","time":3,"station_id":"KPB","i_long":106.826365,"line":4},{"station_id":"AK","distance":4102,"is_transit":false,"time":9,"transit":false,"station_name":"Angke","i_long":106.79867,"line":1,"i_lat":-6.144674},{"is_transit":true,"station_id":"DU","i_long":106.800832,"line":1,"transit":true,"distance":1230,"i_lat":-6.155215,"station_name":"Duri","time":4},{"station_id":"GGL","station_name":"Grogol","time":3,"line":5,"is_transit":false,"transit":false,"i_long":106.788277,"distance":1700,"i_lat":-6.162021},{"station_id":"PSG","time":2,"transit":false,"i_long":106.771379,"is_transit":false,"station_name":"Pesing","i_lat":-6.161433,"line":5,"distance":2036},{"time":2,"station_id":"TKO","line":5,"i_lat":-6.1587309999999995,"is_transit":false,"distance":1614,"station_name":"Taman Kota","transit":false,"i_long":106.756522},{"station_name":"Bojongindah","i_long":106.737035,"i_lat":-6.159876,"station_id":"BOI","transit":false,"line":5,"distance":2334,"time":2,"is_transit":false},{"line":5,"time":4,"is_transit":false,"distance":1152,"station_name":"Rawa Buaya","transit":false,"i_lat":-6.162758,"i_long":106.723064,"station_id":"RW"},{"i_long":106.701612,"transit":false,"is_transit":false,"distance":2504,"station_name":"Kalideres","time":3,"i_lat":-6.166068,"station_id":"KDS","line":5}],[{"transit":false,"i_lat":-6.466285,"i_long":106.905196,"line":21,"distance":0,"station_id":"NMO","station_name":"Nambo","is_transit":false,"time":0},{"transit":false,"station_id":"CBN","distance":6527,"is_transit":false,"time":10,"i_lat":-6.46424,"station_name":"Cibinong","line":21,"i_long":106.851978},{"i_lat":-6.460735,"transit":false,"distance":0,"time":0,"station_id":"PDRG","line":21,"is_transit":false,"i_long":106.824374,"station_name":"Pondok Rajeg"},{"i_lat":-6.448811,"time":0,"station_id":"CTA","transit":true,"is_transit":true,"station_name":"Citayam","i_long":106.800298,"line":2,"distance":0},{"time":6,"station_name":"Depok","is_transit":false,"transit":false,"i_long":106.816926,"line":2,"station_id":"DP","distance":5084,"i_lat":-6.405256},{"station_id":"DPB","distance":1584,"station_name":"Depokbaru","i_lat":-6.391065,"i_long":106.819451,"line":2,"transit":false,"is_transit":false,"time":3},{"i_long":106.831114,"i_lat":-6.369073,"line":2,"distance":2727,"station_name":"Pondok Cina","is_transit":false,"transit":false,"time":4,"station_id":"POC"},{"distance":1109,"transit":false,"time":2,"station_id":"UI","station_name":"Univ. Indonesia","i_lat":-6.360749,"is_transit":false,"i_long":106.831474,"line":2},{"transit":false,"line":2,"is_transit":false,"station_id":"UP","i_lat":-6.339291,"i_long":106.834175,"distance":2264,"time":3,"station_name":"Univ. Pancasila"},{"distance":1029,"line":2,"i_lat":-6.330363,"station_name":"Lenteng Agung","is_transit":false,"i_long":106.832616,"station_id":"LNA","time":2,"transit":false},{"transit":false,"station_name":"Tanjung Barat","distance":2671,"line":2,"station_id":"TNT","is_transit":false,"time":3,"i_lat":-6.3080680000000005,"i_long":106.838896},{"line":2,"is_transit":false,"transit":false,"i_lat":-6.2842400000000005,"time":4,"i_long":106.843999,"station_id":"PSM","distance":2820,"station_name":"Pasar Minggu"},{"transit":false,"station_name":"Pasar Minggu Baru","distance":2380,"time":2,"is_transit":false,"station_id":"PSMB","i_long":106.851577,"line":2,"i_lat":-6.263214},{"line":2,"time":2,"transit":false,"i_long":106.85449,"is_transit":false,"station_id":"DRN","i_lat":-6.255332,"station_name":"Duren Kalibata","distance":824},{"transit":false,"distance":1546,"station_id":"CW","line":2,"time":3,"is_transit":false,"i_long":106.856607,"i_lat":-6.242512,"station_name":"Cawang"},{"i_lat":-6.226659,"is_transit":false,"station_id":"TEB","transit":false,"time":2,"line":2,"i_long":106.857948,"distance":1230,"station_name":"Tebet"},{"is_transit":true,"station_name":"Manggarai","transit":true,"line":2,"i_lat":-6.209883,"distance":2610,"time":4,"station_id":"MRI","i_long":106.84912},{"transit":false,"i_lat":-6.212485,"line":1,"time":2,"station_id":"MTR","is_transit":false,"distance":1275,"station_name":"Matraman","i_long":106.858896},{"time":8,"transit":true,"station_name":"Jatinegara","station_id":"JNG","i_lat":-6.215091,"is_transit":true,"line":1,"i_long":106.86807400000001,"distance":1377},{"line":11,"station_name":"Pondok Jati","is_transit":false,"transit":false,"distance":1236,"i_long":106.861737,"time":2,"station_id":"POK","i_lat":-6.209188},{"distance":1829,"line":11,"i_long":106.855437,"time":2,"station_id":"KMT","transit":false,"station_name":"Kramat","i_lat":-6.193792,"is_transit":false},{"transit":false,"i_lat":-6.185975,"time":1,"station_id":"GST","line":11,"i_long":106.850107,"station_name":"Gang Sentiong","is_transit":false,"distance":973},{"station_id":"PSE","i_lat":-6.174784,"distance":1567,"time":8,"is_transit":false,"station_name":"Pasar Senen","line":11,"transit":false,"i_long":106.84368},{"line":11,"time":4,"i_long":106.839204,"distance":1436,"is_transit":false,"i_lat":-6.161728,"transit":false,"station_id":"KMO","station_name":"Kemayoran"},{"station_id":"RJW","transit":false,"station_name":"Rajawali","time":5,"i_lat":-6.14505,"is_transit":false,"distance":1901,"line":11,"i_long":106.836569},{"line":4,"is_transit":true,"time":3,"distance":1444,"station_name":"Kampung Bandan","transit":true,"i_lat":-6.132549,"i_long":106.826365,"station_id":"KPB"},{"i_lat":-6.144674,"time":9,"transit":false,"station_id":"AK","station_name":"Angke","i_long":106.79867,"is_transit":false,"line":1,"distance":4102},{"i_long":106.800832,"station_name":"Duri","i_lat":-6.155215,"transit":true,"distance":1230,"line":1,"time":4,"station_id":"DU","is_transit":true},{"station_id":"GGL","is_transit":false,"line":5,"station_name":"Grogol","distance":1700,"i_lat":-6.162021,"time":3,"transit":false,"i_long":106.788277},{"i_lat":-6.161433,"time":2,"station_name":"Pesing","i_long":106.771379,"distance":2036,"transit":false,"is_transit":false,"station_id":"PSG","line":5},{"time":2,"i_long":106.756522,"is_transit":false,"transit":false,"line":5,"distance":1614,"station_id":"TKO","station_name":"Taman Kota","i_lat":-6.1587309999999995},{"transit":false,"i_lat":-6.159876,"is_transit":false,"line":5,"station_name":"Bojongindah","station_id":"BOI","distance":2334,"time":2,"i_long":106.737035},{"transit":false,"is_transit":false,"i_long":106.723064,"line":5,"distance":1152,"station_id":"RW","station_name":"Rawa Buaya","i_lat":-6.162758,"time":4},{"transit":false,"station_name":"Kalideres","i_lat":-6.166068,"line":5,"i_long":106.701612,"is_transit":false,"time":3,"station_id":"KDS","distance":2504}]]}