{"data":[[{"distance":0,"time":0,"station_id":"NMO","station_name":"Nambo","i_long":106.905196,"i_lat":-6.466285,"line":21,"is_transit":false,"transit":false},{"i_long":106.851978,"line":21,"is_transit":false,"distance":6527,"station_name":"Cibinong","i_lat":-6.46424,"station_id":"CBN","transit":false,"time":10},{"time":0,"i_long":106.824374,"transit":false,"distance":0,"station_name":"Pondok Rajeg","is_transit":false,"station_id":"PDRG","i_lat":-6.460735,"line":21},{"station_id":"CTA","distance":0,"station_name":"Citayam","i_long":106.800298,"time":0,"i_lat":-6.448811,"line":2,"is_transit":true,"transit":true},{"station_id":"DP","station_name":"Depok","time":6,"i_lat":-6.405256,"line":2,"transit":false,"is_transit":false,"i_long":106.816926,"distance":5084},{"is_transit":false,"distance":1584,"station_id":"DPB","i_long":106.819451,"transit":false,"station_name":"Depokbaru","i_lat":-6.391065,"line":2,"time":3},{"is_transit":false,"distance":2727,"i_lat":-6.369073,"line":2,"transit":false,"i_long":106.831114,"station_id":"POC","station_name":"Pondok Cina","time":4},{"is_transit":false,"i_long":106.831474,"station_id":"UI","i_lat":-6.360749,"distance":1109,"station_name":"Univ. Indonesia","transit":false,"time":2,"line":2},{"station_name":"Univ. Pancasila","time":3,"transit":false,"distance":2264,"line":2,"i_lat":-6.339291,"is_transit":false,"station_id":"UP","i_long":106.834175},{"i_long":106.832616,"station_name":"Lenteng Agung","line":2,"is_transit":false,"distance":1029,"time":2,"transit":false,"i_lat":-6.330363,"station_id":"LNA"},{"i_lat":-6.3080680000000005,"transit":false,"line":2,"time":3,"distance":2671,"station_id":"TNT","station_name":"Tanjung Barat","is_transit":false,"i_long":106.838896},{"station_id":"PSM","i_long":106.843999,"distance":2820,"i_lat":-6.2842400000000005,"line":2,"transit":false,"is_transit":false,"station_name":"Pasar Minggu","time":4},{"is_transit":false,"transit":false,"station_id":"PSMB","line":2,"station_name":"Pasar Minggu Baru","time":2,"distance":2380,"i_long":106.851577,"i_lat":-6.263214},{"i_lat":-6.255332,"i_long":106.85449,"distance":824,"station_name":"Duren Kalibata","transit":false,"is_transit":false,"station_id":"DRN","line":2,"time":2},{"transit":false,"is_transit":false,"i_long":106.856607,"line":2,"station_name":"Cawang","station_id":"CW","time":3,"distance":1546,"i_lat":-6.242512},{"is_transit":false,"transit":false,"i_long":106.857948,"distance":1230,"i_lat":-6.226659,"line":2,"time":2,"station_name":"Tebet","station_id":"TEB"},{"station_id":"MRI","i_long":106.84912,"is_transit":true,"station_name":"Manggarai","time":4,"i_lat":-6.209883,"distance":2610,"transit":true,"line":2},{"station_id":"SUD","station_name":"Sudirman","distance":3186,"i_lat":-6.202263,"i_long":106.822649,"time":4,"transit":false,"line":1,"is_transit":false},{"transit":false,"line":1,"i_lat":-6.201433,"distance":280,"station_name":"Sudirman Baru","is_transit":false,"station_id":"SUDB","time":1,"i_long":106.819881},{"is_transit":false,"i_long":106.816351,"station_name":"Karet","station_id":"KAT","transit":false,"i_lat":-6.20132,"distance":471,"line":1,"time":1},{"i_lat":-6.185545,"is_transit":true,"distance":2029,"i_long":106.811091,"line":1,"transit":true,"station_id":"THB","time":5,"station_name":"Tanah Abang"},{"station_name":"Palmerah","transit":false,"i_lat":-6.207404,"is_transit":false,"i_long":106.79689,"station_id":"PLM","line":6,"distance":3191,"time":6},{"station_name":"Kebayoran","i_lat":-6.237242,"station_id":"KBY","i_long":106.780334,"is_transit":false,"transit":false,"distance":3737,"line":6,"time":7},{"station_name":"Pondokranji","transit":false,"i_long":106.74273,"distance":6218,"is_transit":false,"station_id":"PDJ","time":8,"line":6,"i_lat":-6.276362},{"i_lat":-6.288927,"station_name":"Jurangmangu","is_transit":false,"i_long":106.728916,"transit":false,"time":3,"distance":2179,"station_id":"JMU","line":6},{"station_name":"Sudimara","i_lat":-6.296963,"station_id":"SDM","distance":1994,"time":4,"line":6,"transit":false,"i_long":106.712277,"is_transit":false},{"station_id":"RU","i_lat":-6.314823,"time":6,"distance":4566,"i_long":106.675475,"line":6,"transit":false,"station_name":"Rawa Buntu","is_transit":false},{"i_long":106.66566,"distance":2413,"line":6,"time":4,"is_transit":false,"i_lat":-6.319871,"transit":false,"station_id":"SRP","station_name":"Serpong"},{"i_long":106.640411,"is_transit":false,"station_name":"Cisauk","station_id":"CSK","transit":false,"time":4,"distance":1784,"i_lat":-6.32484,"line":3}],[{"is_transit":false,"time":0,"line":21,"i_lat":-6.466285,"station_name":"Nambo","station_id":"NMO","transit":false,"distance":0,"i_long":106.905196},{"is_transit":false,"i_lat":-6.46424,"line":21,"time":10,"transit":false,"station_name":"Cibinong","i_long":106.851978,"station_id":"CBN","distance":6527},{"distance":0,"station_name":"Pondok Rajeg","is_transit":false,"i_lat":-6.460735,"transit":false,"station_id":"PDRG","line":21,"i_long":106.824374,"time":0},{"line":2,"transit":true,"station_name":"Citayam","is_transit":true,"i_long":106.800298,"distance":0,"time":0,"i_lat":-6.448811,"station_id":"CTA"},{"i_lat":-6.405256,"station_name":"Depok","distance":5084,"transit":false,"line":2,"i_long":106.816926,"station_id":"DP","is_transit":false,"time":6},{"distance":1584,"i_lat":-6.391065,"transit":false,"station_id":"DPB","time":3,"is_transit":false,"i_long":106.819451,"station_name":"Depokbaru","line":2},{"time":4,"line":2,"i_long":106.831114,"is_transit":false,"transit":false,"station_name":"Pondok Cina","station_id":"POC","i_lat":-6.369073,"distance":2727},{"line":2,"distance":1109,"i_long":106.831474,"station_name":"Univ. Indonesia","time":2,"is_transit":false,"transit":false,"station_id":"UI","i_lat":-6.360749},{"distance":2264,"station_id":"UP","is_transit":false,"i_lat":-6.339291,"i_long":106.834175,"station_name":"Univ. Pancasila","line":2,"transit":false,"time":3},{"line":2,"i_lat":-6.330363,"is_transit":false,"station_name":"Lenteng Agung","station_id":"LNA","i_long":106.832616,"distance":1029,"transit":false,"time":2},{"station_id":"TNT","i_lat":-6.3080680000000005,"line":2,"transit":false,"i_long":106.838896,"is_transit":false,"time":3,"station_name":"Tanjung Barat","distance":2671},{"line":2,"station_id":"PSM","time":4,"is_transit":false,"distance":2820,"i_lat":-6.2842400000000005,"transit":false,"station_name":"Pasar Minggu","i_long":106.843999},{"line":2,"time":2,"station_id":"PSMB","distance":2380,"i_lat":-6.263214,"transit":false,"is_transit":false,"i_long":106.851577,"station_name":"Pasar Minggu Baru"},{"distance":824,"i_long":106.85449,"transit":false,"line":2,"i_lat":-6.255332,"station_id":"DRN","time":2,"is_transit":false,"station_name":"Duren Kalibata"},{"station_name":"Cawang","is_transit":false,"i_lat":-6.242512,"station_id":"CW","line":2,"distance":1546,"i_long":106.856607,"transit":false,"time":3},{"is_transit":false,"line":2,"i_lat":-6.226659,"time":2,"transit":false,"station_name":"Tebet","distance":1230,"i_long":106.857948,"station_id":"TEB"},{"time":4,"transit":false,"station_name":"Manggarai","distance":2610,"is_transit":false,"line":2,"i_lat":-6.209883,"i_long":106.84912,"station_id":"MRI"},{"transit":false,"time":4,"i_long":106.840169,"i_lat":-6.198556,"line":2,"station_id":"CKI","distance":1590,"station_name":"Cikini","is_transit":false},{"i_long":106.832183,"is_transit":false,"distance":1750,"line":2,"i_lat":-6.186295,"station_name":"Gondangdia","station_id":"GDD","time":3,"transit":false},{"is_transit":false,"time":4,"station_name":"Juanda","i_lat":-6.166716,"distance":2015,"transit":false,"line":2,"i_long":106.828284,"station_id":"JUA"},{"station_name":"Sawah Besar","i_lat":-6.160725,"distance":1149,"i_long":106.827103,"is_transit":false,"line":2,"station_id":"SW","time":2,"transit":false},{"is_transit":false,"transit":false,"i_lat":-6.149769,"station_id":"MGB","time":2,"station_name":"Manggabesar","i_long":106.82482,"distance":906,"line":2},{"time":2,"is_transit":false,"i_lat":-6.141205,"i_long":106.820901,"transit":false,"station_name":"Jayakarta","station_id":"JAY","line":2,"distance":1080},{"distance":1264,"transit":true,"is_transit":true,"i_long":106.812439,"station_id":"JAKK","station_name":"Jakarta Kota","line":2,"time":4,"i_lat":-6.137569},{"station_name":"Kampung Bandan","transit":true,"i_long":106.826365,"line":4,"is_transit":true,"time":3,"distance":1364,"i_lat":-6.132549,"station_id":"KPB"},{"distance":4102,"line":1,"i_lat":-6.144674,"time":9,"transit":false,"is_transit":false,"station_name":"Angke","i_long":106.79867,"station_id":"AK"},{"time":4,"i_lat":-6.155215,"transit":false,"is_transit":false,"distance":1230,"line":1,"station_id":"DU","station_name":"Duri","i_long":106.800832},{"distance":3632,"i_long":106.811091,"line":1,"station_id":"THB","is_transit":true,"station_name":"Tanah Abang","time":8,"i_lat":-6.185545,"transit":true},{"station_name":"Palmerah","is_transit":false,"i_lat":-6.207404,"transit":false,"i_long":106.79689,"line":6,"time":6,"station_id":"PLM","distance":3191},{"transit":false,"time":7,"station_id":"KBY","station_name":"Kebayoran","i_long":106.780334,"distance":3737,"line":6,"i_lat":-6.237242,"is_transit":false},{"station_id":"PDJ","time":8,"is_transit":false,"i_lat":-6.276362,"transit":false,"distance":6218,"station_name":"Pondokranji","line":6,"i_long":106.74273},{"station_id":"JMU","is_transit":false,"station_name":"Jurangmangu","i_lat":-6.288927,"time":3,"i_long":106.728916,"line":6,"transit":false,"distance":2179},{"distance":1994,"i_long":106.712277,"i_lat":-6.296963,"line":6,"station_name":"Sudimara","is_transit":false,"time":4,"station_id":"SDM","transit":false},{"distance":4566,"station_name":"Rawa Buntu","i_lat":-6.314823,"i_long":106.675475,"station_id":"RU","transit":false,"line":6,"is_transit":false,"time":6},{"distance":2413,"i_lat":-6.319871,"time":4,"i_long":106.66566,"station_name":"Serpong","is_transit":false,"line":6,"transit":false,"station_id":"SRP"},{"i_lat":-6.32484,"i_long":106.640411,"is_transit":false,"line":3,"station_name":"Cisauk","station_id":"CSK","time":4,"transit":false,"distance":1784}],[{"distance":0,"is_transit":false,"transit":false,"station_id":"NMO","time":0,"i_lat":-6.466285,"i_long":106.905196,"station_name":"Nambo","line":21},{"transit":false,"i_lat":-6.46424,"distance":6527,"is_transit":false,"time":10,"station_name":"Cibinong","i_long":106.851978,"station_id":"CBN","line":21},{"station_name":"Pondok Rajeg","line":21,"transit":false,"station_id":"PDRG","i_lat":-6.460735,"time":0,"is_transit":false,"distance":0,"i_long":106.824374},{"station_name":"Citayam","time":0,"distance":0,"i_long":106.800298,"transit":true,"station_id":"CTA","i_lat":-6.448811,"line":2,"is_transit":true},{"line":2,"is_transit":false,"time":6,"distance":5084,"station_id":"DP","station_name":"Depok","i_lat":-6.405256,"i_long":106.816926,"transit":false},{"time":3,"station_name":"Depokbaru","transit":false,"i_lat":-6.391065,"i_long":106.819451,"is_transit":false,"distance":1584,"line":2,"station_id":"DPB"},{"i_long":106.831114,"line":2,"is_transit":false,"station_id":"POC","time":4,"i_lat":-6.369073,"transit":false,"distance":2727,"station_name":"Pondok Cina"},{"i_lat":-6.360749,"transit":false,"station_id":"UI","i_long":106.831474,"time":2,"station_name":"Univ. Indonesia","distance":1109,"is_transit":false,"line":2},{"line":2,"station_name":"Univ. Pancasila","transit":false,"i_long":106.834175,"is_transit":false,"distance":2264,"station_id":"UP","time":3,"i_lat":-6.339291},{"time":2,"i_lat":-6.330363,"distance":1029,"station_name":"Lenteng Agung","line":2,"i_long":106.832616,"transit":false,"is_transit":false,"station_id":"LNA"},{"time":3,"transit":false,"station_id":"TNT","distance":2671,"i_lat":-6.3080680000000005,"station_name":"Tanjung Barat","line":2,"i_long":106.838896,"is_transit":false},{"line":2,"i_long":106.843999,"station_id":"PSM","station_name":"Pasar Minggu","distance":2820,"transit":false,"is_transit":false,"time":4,"i_lat":-6.2842400000000005},{"i_lat":-6.263214,"distance":2380,"is_transit":false,"transit":false,"i_long":106.851577,"line":2,"station_id":"PSMB","time":2,"station_name":"Pasar Minggu Baru"},{"i_lat":-6.255332,"station_id":"DRN","i_long":106.85449,"is_transit":false,"time":2,"line":2,"distance":824,"transit":false,"station_name":"Duren Kalibata"},{"station_name":"Cawang","is_transit":false,"i_lat":-6.242512,"station_id":"CW","distance":1546,"transit":false,"line":2,"i_long":106.856607,"time":3},{"line":2,"station_id":"TEB","distance":1230,"transit":false,"i_long":106.857948,"station_name":"Tebet","is_transit":false,"time":2,"i_lat":-6.226659},{"line":2,"station_id":"MRI","transit":true,"distance":2610,"i_lat":-6.209883,"station_name":"Manggarai","time":4,"i_long":106.84912,"is_transit":true},{"station_name":"Matraman","i_lat":-6.212485,"transit":false,"station_id":"MTR","time":2,"distance":1275,"i_long":106.858896,"line":1,"is_transit":false},{"i_lat":-6.215091,"i_long":106.86807400000001,"station_name":"Jatinegara","transit":true,"distance":1377,"station_id":"JNG","is_transit":true,"line":1,"time":8},{"transit":false,"station_name":"Pondok Jati","station_id":"POK","is_transit":false,"time":2,"distance":1236,"line":11,"i_lat":-6.209188,"i_long":106.861737},{"i_long":106.855437,"transit":false,"line":11,"station_id":"KMT","i_lat":-6.193792,"distance":1829,"station_name":"Kramat","is_transit":false,"time":2},{"time":1,"transit":false,"station_id":"GST","distance":973,"i_lat":-6.185975,"is_transit":false,"station_name":"Gang Sentiong","i_long":106.850107,"line":11},{"time":8,"is_transit":false,"distance":1567,"line":11,"transit":false,"station_id":"PSE","i_lat":-6.174784,"i_long":106.84368,"station_name":"Pasar Senen"},{"station_name":"Kemayoran","is_transit":false,"i_long":106.839204,"distance":1436,"station_id":"KMO","line":11,"i_lat":-6.161728,"transit":false,"time":4},{"line":11,"station_id":"RJW","is_transit":false,"i_long":106.836569,"distance":1901,"time":5,"i_lat":-6.14505,"transit":false,"station_name":"Rajawali"},{"transit":true,"is_transit":true,"time":3,"i_lat":-6.132549,"i_long":106.826365,"line":4,"station_name":"Kampung Bandan","station_id":"KPB","distance":1444},{"distance":4102,"is_transit":false,"i_lat":-6.144674,"transit":false,"time":9,"i_long":106.79867,"station_name":"Angke","line":1,"station_id":"AK"},{"transit":false,"station_id":"DU","is_transit":false,"line":1,"i_long":106.800832,"station_name":"Duri","i_lat":-6.155215,"time":4,"distance":1230},{"is_transit":true,"station_name":"Tanah Abang","i_lat":-6.185545,"station_id":"THB","time":8,"transit":true,"line":1,"i_long":106.811091,"distance":3632},{"station_name":"Palmerah","line":6,"i_long":106.79689,"transit":false,"is_transit":false,"station_id":"PLM","time":6,"i_lat":-6.207404,"distance":3191},{"transit":false,"time":7,"line":6,"i_lat":-6.237242,"station_name":"Kebayoran","distance":3737,"i_long":106.780334,"station_id":"KBY","is_transit":false},{"station_name":"Pondokranji","time":8,"distance":6218,"i_long":106.74273,"is_transit":false,"line":6,"transit":false,"station_id":"PDJ","i_lat":-6.276362},{"i_lat":-6.288927,"is_transit":false,"station_name":"Jurangmangu","time":3,"distance":2179,"line":6,"station_id":"JMU","transit":false,"i_long":106.728916},{"station_id":"SDM","line":6,"i_long":106.712277,"transit":false,"i_lat":-6.296963,"distance":1994,"is_transit":false,"station_name":"Sudimara","time":4},{"time":6,"is_transit":false,"transit":false,"station_id":"RU","i_long":106.675475,"i_lat":-6.314823,"line":6,"distance":4566,"station_name":"Rawa Buntu"},{"station_name":"Serpong","is_transit":false,"line":6,"time":4,"station_id":"SRP","distance":2413,"transit":false,"i_long":106.66566,"i_lat":-6.319871},{"is_transit":false,"transit":false,"station_name":"Cisauk","distance":1784,"i_lat":-6.32484,"time":4,"station_id":"CSK","i_long":106.640411,"line":3}]]}