{"data":[[{"distance":0,"is_transit":false,"station_id":"NMO","station_name":"Nambo","i_lat":-6.466285,"transit":false,"line":21,"i_long":106.905196,"time":0},{"time":10,"i_lat":-6.46424,"i_long":106.851978,"station_id":"CBN","distance":6527,"transit":false,"line":21,"station_name":"Cibinong","is_transit":false},{"transit":false,"line":21,"i_long":106.824374,"time":0,"station_name":"Pondok Rajeg","station_id":"PDRG","distance":0,"i_lat":-6.460735,"is_transit":false},{"transit":true,"station_id":"CTA","station_name":"Citayam","is_transit":true,"i_long":106.800298,"line":2,"distance":0,"time":0,"i_lat":-6.448811},{"line":2,"station_id":"DP","is_transit":false,"time":6,"i_lat":-6.405256,"i_long":106.816926,"distance":5084,"transit":false,"station_name":"Depok"},{"is_transit":false,"station_id":"DPB","station_name":"Depokbaru","distance":1584,"transit":false,"i_long":106.819451,"time":3,"line":2,"i_lat":-6.391065},{"distance":2727,"i_lat":-6.369073,"station_id":"POC","station_name":"Pondok Cina","i_long":106.831114,"line":2,"transit":false,"time":4,"is_transit":false},{"time":2,"station_name":"Univ. Indonesia","i_long":106.831474,"distance":1109,"is_transit":false,"line":2,"station_id":"UI","i_lat":-6.360749,"transit":false},{"station_id":"UP","i_long":106.834175,"i_lat":-6.339291,"station_name":"Univ. Pancasila","transit":false,"distance":2264,"is_transit":false,"time":3,"line":2},{"line":2,"transit":false,"i_long":106.832616,"station_id":"LNA","station_name":"Lenteng Agung","i_lat":-6.330363,"distance":1029,"time":2,"is_transit":false},{"line":2,"distance":2671,"transit":false,"i_long":106.838896,"station_id":"TNT","time":3,"is_transit":false,"station_name":"Tanjung Barat","i_lat":-6.3080680000000005},{"i_lat":-6.2842400000000005,"is_transit":false,"distance":2820,"station_id":"PSM","time":4,"transit":false,"line":2,"i_long":106.843999,"station_name":"Pasar Minggu"},{"i_lat":-6.263214,"transit":false,"line":2,"distance":2380,"i_long":106.851577,"station_id":"PSMB","time":2,"station_name":"Pasar Minggu Baru","is_transit":false},{"station_name":"Duren Kalibata","i_lat":-6.255332,"line":2,"time":2,"distance":824,"station_id":"DRN","is_transit":false,"i_long":106.85449,"transit":false},{"time":3,"distance":1546,"transit":false,"line":2,"i_lat":-6.242512,"station_name":"Cawang","is_transit":false,"station_id":"CW","i_long":106.856607},{"station_name":"Tebet","is_transit":false,"station_id":"TEB","distance":1230,"transit":false,"i_long":106.857948,"time":2,"i_lat":-6.226659,"line":2},{"distance":2610,"time":4,"station_name":"Manggarai","transit":true,"line":2,"i_long":106.84912,"i_lat":-6.209883,"is_transit":true,"station_id":"MRI"},{"is_transit":false,"transit":false,"line":1,"station_name":"Sudirman","i_long":106.822649,"station_id":"SUD","distance":3186,"i_lat":-6.202263,"time":4}],[{"time":0,"is_transit":false,"station_id":"NMO","station_name":"Nambo","i_long":106.905196,"line":21,"transit":false,"i_lat":-6.466285,"distance":0},{"line":21,"station_id":"CBN","time":10,"distance":6527,"transit":false,"station_name":"Cibinong","i_long":106.851978,"is_transit":false,"i_lat":-6.46424},{"i_long":106.824374,"line":21,"transit":false,"is_transit":false,"distance":0,"station_name":"Pondok Rajeg","station_id":"PDRG","time":0,"i_lat":-6.460735},{"line":2,"i_lat":-6.448811,"distance":0,"station_name":"Citayam","station_id":"CTA","is_transit":true,"transit":true,"time":0,"i_long":106.800298},{"station_id":"DP","station_name":"Depok","i_lat":-6.405256,"i_long":106.816926,"line":2,"is_transit":false,"distance":5084,"transit":false,"time":6},{"transit":false,"distance":1584,"station_id":"DPB","line":2,"i_lat":-6.391065,"i_long":106.819451,"station_name":"Depokbaru","is_transit":false,"time":3},{"i_long":106.831114,"distance":2727,"station_name":"Pondok Cina","time":4,"station_id":"POC","is_transit":false,"transit":false,"i_lat":-6.369073,"line":2},{"station_id":"UI","time":2,"transit":false,"distance":1109,"is_transit":false,"i_lat":-6.360749,"i_long":106.831474,"station_name":"Univ. Indonesia","line":2},{"i_long":106.834175,"is_transit":false,"i_lat":-6.339291,"station_name":"Univ. Pancasila","line":2,"station_id":"UP","time":3,"transit":false,"distance":2264},{"i_lat":-6.330363,"line":2,"station_name":"Lenteng Agung","is_transit":false,"transit":false,"station_id":"LNA","i_long":106.832616,"distance":1029,"time":2},{"station_id":"TNT","distance":2671,"is_transit":false,"time":3,"transit":false,"i_lat":-6.3080680000000005,"i_long":106.838896,"station_name":"Tanjung Barat","line":2},{"is_transit":false,"transit":false,"line":2,"distance":2820,"time":4,"i_lat":-6.2842400000000005,"i_long":106.843999,"station_name":"Pasar Minggu","station_id":"PSM"},{"line":2,"distance":2380,"is_transit":false,"i_long":106.851577,"i_lat":-6.263214,"transit":false,"time":2,"station_id":"PSMB","station_name":"Pasar Minggu Baru"},{"i_lat":-6.255332,"time":2,"station_name":"Duren Kalibata","station_id":"DRN","i_long":106.85449,"line":2,"distance":824,"is_transit":false,"transit":false},{"station_id":"CW","i_lat":-6.242512,"line":2,"time":3,"station_name":"Cawang","distance":1546,"is_transit":false,"transit":false,"i_long":106.856607},{"station_name":"Tebet","i_lat":-6.226659,"distance":1230,"line":2,"time":2,"is_transit":false,"i_long":106.857948,"transit":false,"station_id":"TEB"},{"i_lat":-6.209883,"i_long":106.84912,"is_transit":false,"distance":2610,"line":2,"transit":false,"station_id":"MRI","station_name":"Manggarai","time":4},{"line":2,"is_transit":false,"i_long":106.840169,"station_name":"Cikini","distance":1590,"i_lat":-6.198556,"station_id":"CKI","time":4,"transit":false},{"distance":1750,"is_transit":false,"i_long":106.832183,"i_lat":-6.186295,"line":2,"station_name":"Gondangdia","transit":false,"station_id":"GDD","time":3},{"transit":false,"line":2,"i_lat":-6.166716,"is_transit":false,"i_long":106.828284,"time":4,"station_id":"JUA","distance":2015,"station_name":"Juanda"},{"is_transit":false,"transit":false,"i_lat":-6.160725,"i_long":106.827103,"station_id":"SW","time":2,"station_name":"Sawah Besar","distance":1149,"line":2},{"line":2,"station_id":"MGB","station_name":"Manggabesar","is_transit":false,"distance":906,"i_lat":-6.149769,"i_long":106.82482,"time":2,"transit":false},{"distance":1080,"i_lat":-6.141205,"station_name":"Jayakarta","transit":false,"i_long":106.820901,"station_id":"JAY","is_transit":false,"time":2,"line":2},{"station_id":"JAKK","distance":1264,"is_transit":true,"i_lat":-6.137569,"transit":true,"i_long":106.812439,"line":2,"station_name":"Jakarta Kota","time":4},{"line":4,"station_name":"Kampung Bandan","i_lat":-6.132549,"distance":1364,"station_id":"KPB","time":3,"transit":true,"is_transit":true,"i_long":106.826365},{"time":9,"station_id":"AK","is_transit":false,"i_long":106.79867,"transit":false,"line":1,"station_name":"Angke","i_lat":-6.144674,"distance":4102},{"i_lat":-6.155215,"station_id":"DU","transit":false,"is_transit":false,"i_long":106.800832,"line":1,"time":4,"station_name":"Duri","distance":1230},{"station_id":"THB","is_transit":false,"i_lat":-6.185545,"station_name":"Tanah Abang","line":1,"transit":false,"i_long":106.811091,"distance":3632,"time":8},{"station_id":"KAT","time":5,"station_name":"Karet","distance":2029,"i_lat":-6.20132,"line":1,"i_long":106.816351,"transit":false,"is_transit":false},{"station_id":"SUDB","line":1,"station_name":"Sudirman Baru","time":1,"distance":471,"transit":false,"i_long":106.819881,"is_transit":false,"i_lat":-6.201433},{"i_long":106.822649,"line":1,"time":1,"station_name":"Sudirman","i_lat":-6.202263,"transit":false,"distance":280,"station_id":"SUD","is_transit":false}],[{"i_long":106.905196,"i_lat":-6.466285,"station_id":"NMO","is_transit":false,"distance":0,"line":21,"transit":false,"time":0,"station_name":"Nambo"},{"is_transit":false,"i_lat":-6.46424,"distance":6527,"time":10,"line":21,"station_name":"Cibinong","i_long":106.851978,"station_id":"CBN","transit":false},{"station_name":"Pondok Rajeg","i_long":106.824374,"time":0,"is_transit":false,"transit":false,"distance":0,"i_lat":-6.460735,"line":21,"station_id":"PDRG"},{"i_lat":-6.448811,"transit":true,"line":2,"is_transit":true,"station_id":"CTA","time":0,"i_long":106.800298,"station_name":"Citayam","distance":0},{"transit":false,"line":2,"station_id":"DP","station_name":"Depok","time":6,"i_lat":-6.405256,"is_transit":false,"distance":5084,"i_long":106.816926},{"line":2,"i_lat":-6.391065,"is_transit":false,"station_id":"DPB","transit":false,"time":3,"station_name":"Depokbaru","distance":1584,"i_long":106.819451},{"transit":false,"is_transit":false,"station_id":"POC","distance":2727,"time":4,"i_lat":-6.369073,"station_name":"Pondok Cina","i_long":106.831114,"line":2},{"time":2,"distance":1109,"line":2,"station_id":"UI","is_transit":false,"i_lat":-6.360749,"i_long":106.831474,"transit":false,"station_name":"Univ. Indonesia"},{"station_name":"Univ. Pancasila","transit":false,"time":3,"i_lat":-6.339291,"line":2,"i_long":106.834175,"is_transit":false,"station_id":"UP","distance":2264},{"time":2,"station_id":"LNA","transit":false,"is_transit":false,"i_lat":-6.330363,"station_name":"Lenteng Agung","i_long":106.832616,"line":2,"distance":1029},{"i_long":106.838896,"is_transit":false,"station_id":"TNT","time":3,"station_name":"Tanjung Barat","distance":2671,"i_lat":-6.3080680000000005,"line":2,"transit":false},{"is_transit":false,"station_name":"Pasar Minggu","transit":false,"i_lat":-6.2842400000000005,"time":4,"i_long":106.843999,"station_id":"PSM","distance":2820,"line":2},{"i_lat":-6.263214,"distance":2380,"line":2,"station_id":"PSMB","station_name":"Pasar Minggu Baru","is_transit":false,"time":2,"transit":false,"i_long":106.851577},{"distance":824,"transit":false,"line":2,"i_lat":-6.255332,"i_long":106.85449,"station_id":"DRN","is_transit":false,"time":2,"station_name":"Duren Kalibata"},{"is_transit":false,"line":2,"distance":1546,"i_lat":-6.242512,"station_name":"Cawang","station_id":"CW","time":3,"i_long":106.856607,"transit":false},{"line":2,"station_id":"TEB","distance":1230,"i_lat":-6.226659,"is_transit":false,"station_name":"Tebet","time":2,"i_long":106.857948,"transit":false},{"is_transit":true,"station_name":"Manggarai","i_long":106.84912,"i_lat":-6.209883,"distance":2610,"time":4,"line":2,"station_id":"MRI","transit":true},{"is_transit":false,"time":2,"i_long":106.858896,"distance":1275,"transit":false,"station_id":"MTR","i_lat":-6.212485,"line":1,"station_name":"Matraman"},{"station_name":"Jatinegara","station_id":"JNG","transit":true,"is_transit":true,"i_lat":-6.215091,"i_long":106.86807400000001,"distance":1377,"line":1,"time":8},{"is_transit":false,"transit":false,"line":11,"station_name":"Pondok Jati","distance":1236,"i_long":106.861737,"station_id":"POK","i_lat":-6.209188,"time":2},{"i_long":106.855437,"line":11,"is_transit":false,"station_id":"KMT","station_name":"Kramat","transit":false,"i_lat":-6.193792,"distance":1829,"time":2},{"i_lat":-6.185975,"station_id":"GST","station_name":"Gang Sentiong","transit":false,"time":1,"i_long":106.850107,"is_transit":false,"line":11,"distance":973},{"distance":1567,"is_transit":false,"station_name":"Pasar Senen","line":11,"station_id":"PSE","time":8,"transit":false,"i_lat":-6.174784,"i_long":106.84368},{"station_name":"Kemayoran","time":4,"station_id":"KMO","line":11,"i_lat":-6.161728,"transit":false,"is_transit":false,"i_long":106.839204,"distance":1436},{"distance":1901,"i_lat":-6.14505,"time":5,"transit":false,"line":11,"station_id":"RJW","is_transit":false,"station_name":"Rajawali","i_long":106.836569},{"station_name":"Kampung Bandan","station_id":"KPB","distance":1444,"i_long":106.826365,"i_lat":-6.132549,"transit":true,"time":3,"is_transit":true,"line":4},{"i_lat":-6.144674,"is_transit":false,"line":1,"station_id":"AK","time":9,"station_name":"Angke","i_long":106.79867,"transit":false,"distance":4102},{"station_id":"DU","time":4,"is_transit":false,"i_lat":-6.155215,"transit":false,"distance":1230,"line":1,"i_long":106.800832,"station_name":"Duri"},{"transit":false,"line":1,"station_name":"Tanah Abang","distance":3632,"is_transit":false,"time":8,"i_lat":-6.185545,"i_long":106.811091,"station_id":"THB"},{"i_long":106.816351,"transit":false,"station_name":"Karet","time":5,"line":1,"i_lat":-6.20132,"station_id":"KAT","is_transit":false,"distance":2029},{"transit":false,"distance":471,"i_long":106.819881,"time":1,"i_lat":-6.201433,"line":1,"station_id":"SUDB","station_name":"Sudirman Baru","is_transit":false},{"is_transit":false,"station_id":"SUD","time":1,"i_long":106.822649,"line":1,"i_lat":-6.202263,"distance":280,"station_name":"Sudirman","transit":false}]]}