{"data":[[{"station_id":"NMO","station_name":"Nambo","is_transit":false,"distance":0,"i_lat":-6.466285,"line":21,"time":0,"i_long":106.905196,"transit":false},{"transit":false,"time":10,"i_long":106.851978,"line":0,"is_transit":false,"i_lat":-6.46424,"station_name":"Cibinong","distance":6527,"station_id":"CBN"},{"station_name":"Citayam","station_id":"CTA","is_transit":true,"i_long":106.800298,"line":1,"i_lat":-6.448811,"time":10,"distance":6740,"transit":false},{"distance":5084,"station_name":"Depok","i_lat":-6.405256,"station_id":"DP","is_transit":false,"time":6,"transit":false,"line":0,"i_long":106.816926},{"line":0,"distance":1584,"time":3,"transit":false,"i_lat":-6.391065,"station_id":"DPB","station_name":"Depokbaru","i_long":106.819451,"is_transit":false},{"distance":2727,"transit":false,"i_lat":-6.369073,"line":2,"is_transit":false,"i_long":106.831114,"station_id":"POC","station_name":"Pondok Cina","time":4},{"distance":1109,"i_long":106.831474,"is_transit":false,"line":2,"time":2,"station_name":"Univ. Indonesia","i_lat":-6.360749,"transit":false,"station_id":"UI"},{"transit":false,"i_lat":-6.339291,"i_long":106.834175,"line":2,"station_name":"Univ. Pancasila","time":3,"station_id":"UP","is_transit":false,"distance":2264},{"line":2,"transit":false,"distance":1029,"i_long":106.832616,"station_id":"LNA","i_lat":-6.330363,"station_name":"Lenteng Agung","is_transit":false,"time":2},{"station_id":"TNT","time":3,"distance":2671,"transit":false,"i_lat":-6.3080680000000005,"line":2,"station_name":"Tanjung Barat","i_long":106.838896,"is_transit":false},{"time":4,"line":2,"station_name":"Pasar Minggu","transit":false,"station_id":"PSM","distance":2820,"i_long":106.843999,"is_transit":false,"i_lat":-6.2842400000000005},{"transit":false,"is_transit":false,"distance":2380,"line":2,"i_lat":-6.263214,"station_id":"PSMB","i_long":106.851577,"time":2,"station_name":"Pasar Minggu Baru"},{"station_name":"Duren Kalibata","i_lat":-6.255332,"distance":824,"line":0,"i_long":106.85449,"is_transit":false,"time":2,"transit":false,"station_id":"DRN"},{"i_long":106.856607,"station_id":"CW","line":0,"is_transit":false,"transit":false,"station_name":"Cawang","i_lat":-6.242512,"distance":1546,"time":3},{"line":2,"station_id":"TEB","i_lat":-6.226659,"distance":1230,"time":2,"transit":false,"i_long":106.857948,"is_transit":false,"station_name":"Tebet"},{"distance":2610,"time":4,"i_lat":-6.209883,"is_transit":true,"station_name":"Manggarai","i_long":106.84912,"transit":true,"station_id":"MRI","line":0},{"i_lat":-6.202263,"distance":3186,"is_transit":false,"line":1,"time":4,"transit":false,"station_id":"SUD","station_name":"Sudirman","i_long":106.822649},{"line":1,"station_id":"SUDB","time":1,"distance":280,"i_lat":-6.201433,"station_name":"Sudirman Baru","transit":false,"is_transit":false,"i_long":106.819881},{"is_transit":false,"i_long":106.816351,"line":1,"transit":false,"station_id":"KAT","station_name":"Karet","i_lat":-6.20132,"distance":471,"time":1},{"i_long":106.811091,"distance":2029,"i_lat":-6.185545,"line":1,"station_name":"Tanah Abang","transit":true,"time":5,"station_id":"THB","is_transit":true},{"is_transit":false,"transit":false,"line":6,"station_name":"Palmerah","station_id":"PLM","time":6,"i_lat":-6.207404,"i_long":106.79689,"distance":3191},{"transit":false,"line":6,"distance":3737,"i_long":106.780334,"time":7,"station_name":"Kebayoran","i_lat":-6.237242,"station_id":"KBY","is_transit":false},{"is_transit":false,"station_name":"Pondokranji","transit":false,"i_long":106.74273,"distance":6218,"line":6,"i_lat":-6.276362,"station_id":"PDJ","time":8},{"i_lat":-6.288927,"line":6,"station_name":"Jurangmangu","i_long":106.728916,"station_id":"JMU","is_transit":false,"distance":2179,"time":3,"transit":false},{"i_lat":-6.296963,"i_long":106.712277,"line":6,"station_id":"SDM","time":4,"is_transit":false,"distance":1994,"transit":false,"station_name":"Sudimara"},{"line":6,"station_name":"Rawa Buntu","transit":false,"time":6,"distance":4566,"i_long":106.675475,"station_id":"RU","i_lat":-6.314823,"is_transit":false},{"transit":false,"distance":2413,"station_id":"SRP","time":4,"station_name":"Serpong","is_transit":false,"line":6,"i_lat":-6.319871,"i_long":106.66566},{"time":4,"transit":false,"i_long":106.640411,"line":0,"station_name":"Cisauk","distance":1784,"station_id":"CSK","i_lat":-6.32484,"is_transit":false},{"distance":2519,"station_id":"CC","is_transit":false,"i_lat":-6.329547,"i_long":106.617853,"line":0,"transit":false,"station_name":"Cicayur","time":4}],[{"i_long":106.905196,"line":21,"i_lat":-6.466285,"time":0,"station_id":"NMO","station_name":"Nambo","is_transit":false,"distance":0,"transit":false},{"distance":6527,"station_id":"CBN","i_lat":-6.46424,"is_transit":false,"time":10,"transit":false,"line":0,"station_name":"Cibinong","i_long":106.851978},{"station_id":"CTA","time":10,"is_transit":true,"i_long":106.800298,"station_name":"Citayam","i_lat":-6.448811,"distance":6740,"line":1,"transit":false},{"transit":false,"is_transit":false,"station_name":"Depok","i_long":106.816926,"distance":5084,"line":0,"time":6,"i_lat":-6.405256,"station_id":"DP"},{"is_transit":false,"distance":1584,"line":0,"time":3,"i_lat":-6.391065,"station_id":"DPB","station_name":"Depokbaru","transit":false,"i_long":106.819451},{"station_name":"Pondok Cina","is_transit":false,"time":4,"line":2,"i_lat":-6.369073,"distance":2727,"i_long":106.831114,"station_id":"POC","transit":false},{"is_transit":false,"time":2,"transit":false,"i_lat":-6.360749,"line":2,"station_name":"Univ. Indonesia","distance":1109,"i_long":106.831474,"station_id":"UI"},{"transit":false,"line":2,"station_id":"UP","i_lat":-6.339291,"i_long":106.834175,"station_name":"Univ. Pancasila","is_transit":false,"distance":2264,"time":3},{"distance":1029,"time":2,"i_long":106.832616,"transit":false,"station_name":"Lenteng Agung","station_id":"LNA","i_lat":-6.330363,"is_transit":false,"line":2},{"distance":2671,"line":2,"is_transit":false,"time":3,"station_id":"TNT","i_long":106.838896,"station_name":"Tanjung Barat","transit":false,"i_lat":-6.3080680000000005},{"transit":false,"i_lat":-6.2842400000000005,"line":2,"distance":2820,"i_long":106.843999,"station_name":"Pasar Minggu","station_id":"PSM","is_transit":false,"time":4},{"station_id":"PSMB","i_long":106.851577,"distance":2380,"is_transit":false,"time":2,"station_name":"Pasar Minggu Baru","line":2,"i_lat":-6.263214,"transit":false},{"station_name":"Duren Kalibata","time":2,"distance":824,"is_transit":false,"line":0,"i_lat":-6.255332,"i_long":106.85449,"station_id":"DRN","transit":false},{"distance":1546,"i_lat":-6.242512,"station_id":"CW","station_name":"Cawang","time":3,"i_long":106.856607,"is_transit":false,"line":0,"transit":false},{"line":2,"is_transit":false,"station_name":"Tebet","time":2,"distance":1230,"station_id":"TEB","transit":false,"i_lat":-6.226659,"i_long":106.857948},{"transit":true,"i_long":106.84912,"station_name":"Manggarai","time":4,"distance":2610,"is_transit":true,"station_id":"MRI","line":0,"i_lat":-6.209883},{"transit":false,"is_transit":false,"station_name":"Cikini","distance":1590,"i_lat":-6.198556,"time":4,"i_long":106.840169,"line":0,"station_id":"CKI"},{"time":3,"line":2,"i_long":106.832183,"is_transit":false,"i_lat":-6.186295,"station_id":"GDD","station_name":"Gondangdia","distance":1750,"transit":false},{"line":2,"is_transit":false,"distance":2015,"i_long":106.828284,"station_id":"JUA","time":4,"transit":false,"station_name":"Juanda","i_lat":-6.166716},{"is_transit":false,"transit":false,"time":2,"station_id":"SW","station_name":"Sawah Besar","distance":1149,"i_lat":-6.160725,"line":2,"i_long":106.827103},{"i_long":106.82482,"station_name":"Manggabesar","i_lat":-6.149769,"time":2,"line":2,"distance":906,"transit":false,"station_id":"MGB","is_transit":false},{"i_long":106.820901,"station_id":"JAY","distance":1080,"station_name":"Jayakarta","transit":false,"is_transit":false,"i_lat":-6.141205,"line":7,"time":2},{"i_long":106.812439,"distance":1264,"station_name":"Jakarta Kota","time":4,"is_transit":true,"station_id":"JAKK","i_lat":-6.137569,"line":0,"transit":true},{"distance":1364,"station_name":"Kampung Bandan","station_id":"KPB","i_lat":-6.132549,"is_transit":true,"time":3,"i_long":106.826365,"line":0,"transit":false},{"i_long":106.79867,"time":9,"is_transit":false,"station_name":"Angke","transit":false,"i_lat":-6.144674,"line":0,"station_id":"AK","distance":4102},{"is_transit":true,"transit":true,"station_name":"Duri","time":4,"line":1,"i_long":106.800832,"distance":1230,"i_lat":-6.155215,"station_id":"DU"},{"is_transit":true,"i_long":106.811091,"line":1,"transit":true,"station_id":"THB","station_name":"Tanah Abang","time":8,"i_lat":-6.185545,"distance":3632},{"distance":3191,"station_id":"PLM","line":6,"station_name":"Palmerah","is_transit":false,"time":6,"i_long":106.79689,"transit":false,"i_lat":-6.207404},{"transit":false,"is_transit":false,"i_long":106.780334,"station_name":"Kebayoran","distance":3737,"i_lat":-6.237242,"line":6,"station_id":"KBY","time":7},{"i_lat":-6.276362,"i_long":106.74273,"line":6,"station_name":"Pondokranji","is_transit":false,"transit":false,"time":8,"distance":6218,"station_id":"PDJ"},{"time":3,"station_name":"Jurangmangu","transit":false,"i_long":106.728916,"line":6,"is_transit":false,"station_id":"JMU","i_lat":-6.288927,"distance":2179},{"station_name":"Sudimara","i_long":106.712277,"distance":1994,"line":6,"transit":false,"time":4,"is_transit":false,"i_lat":-6.296963,"station_id":"SDM"},{"station_id":"RU","station_name":"Rawa Buntu","time":6,"transit":false,"i_lat":-6.314823,"line":6,"distance":4566,"is_transit":false,"i_long":106.675475},{"i_lat":-6.319871,"line":6,"distance":2413,"time":4,"transit":false,"station_id":"SRP","i_long":106.66566,"is_transit":false,"station_name":"Serpong"},{"transit":false,"i_lat":-6.32484,"distance":1784,"line":0,"i_long":106.640411,"station_id":"CSK","station_name":"Cisauk","is_transit":false,"time":4},{"distance":2519,"station_id":"CC","transit":false,"station_name":"Cicayur","i_lat":-6.329547,"time":4,"line":0,"i_long":106.617853,"is_transit":false}],[{"station_id":"NMO","station_name":"Nambo","is_transit":false,"distance":0,"i_lat":-6.466285,"time":0,"line":21,"transit":false,"i_long":106.905196},{"line":0,"station_id":"CBN","station_name":"Cibinong","distance":6527,"i_lat":-6.46424,"i_long":106.851978,"is_transit":false,"time":10,"transit":false},{"i_lat":-6.448811,"station_id":"CTA","i_long":106.800298,"is_transit":true,"line":1,"station_name":"Citayam","time":10,"distance":6740,"transit":false},{"distance":5084,"station_name":"Depok","transit":false,"i_long":106.816926,"station_id":"DP","time":6,"is_transit":false,"line":0,"i_lat":-6.405256},{"distance":1584,"station_name":"Depokbaru","i_lat":-6.391065,"time":3,"line":0,"i_long":106.819451,"station_id":"DPB","is_transit":false,"transit":false},{"station_name":"Pondok Cina","i_lat":-6.369073,"station_id":"POC","is_transit":false,"i_long":106.831114,"time":4,"transit":false,"line":2,"distance":2727},{"transit":false,"line":2,"i_lat":-6.360749,"station_id":"UI","is_transit":false,"i_long":106.831474,"station_name":"Univ. Indonesia","time":2,"distance":1109},{"is_transit":false,"time":3,"transit":false,"i_long":106.834175,"line":2,"distance":2264,"station_name":"Univ. Pancasila","station_id":"UP","i_lat":-6.339291},{"line":2,"distance":1029,"station_name":"Lenteng Agung","transit":false,"time":2,"i_lat":-6.330363,"station_id":"LNA","i_long":106.832616,"is_transit":false},{"station_id":"TNT","time":3,"station_name":"Tanjung Barat","line":2,"is_transit":false,"i_long":106.838896,"distance":2671,"i_lat":-6.3080680000000005,"transit":false},{"time":4,"transit":false,"i_lat":-6.2842400000000005,"line":2,"station_id":"PSM","distance":2820,"i_long":106.843999,"station_name":"Pasar Minggu","is_transit":false},{"time":2,"i_lat":-6.263214,"line":2,"station_name":"Pasar Minggu Baru","station_id":"PSMB","is_transit":false,"i_long":106.851577,"transit":false,"distance":2380},{"is_transit":false,"time":2,"i_lat":-6.255332,"station_id":"DRN","transit":false,"station_name":"Duren Kalibata","i_long":106.85449,"line":0,"distance":824},{"line":0,"i_long":106.856607,"is_transit":false,"distance":1546,"station_name":"Cawang","transit":false,"station_id":"CW","time":3,"i_lat":-6.242512},{"station_id":"TEB","transit":false,"i_lat":-6.226659,"line":2,"station_name":"Tebet","i_long":106.857948,"time":2,"distance":1230,"is_transit":false},{"i_lat":-6.209883,"line":0,"transit":true,"time":4,"station_name":"Manggarai","station_id":"MRI","distance":2610,"i_long":106.84912,"is_transit":true},{"line":1,"station_id":"MTR","is_transit":false,"station_name":"Matraman","transit":false,"distance":1275,"i_long":106.858896,"i_lat":-6.212485,"time":2},{"station_name":"Jatinegara","i_lat":-6.215091,"is_transit":true,"time":8,"distance":1377,"transit":true,"i_long":106.86807400000001,"line":0,"station_id":"JNG"},{"i_lat":-6.209188,"time":2,"distance":1236,"line":11,"transit":false,"station_name":"Pondok Jati","station_id":"POK","is_transit":false,"i_long":106.861737},{"time":2,"i_lat":-6.193792,"i_long":106.855437,"station_name":"Kramat","is_transit":false,"transit":false,"distance":1829,"station_id":"KMT","line":11},{"line":11,"transit":false,"station_id":"GST","time":1,"distance":973,"station_name":"Gang Sentiong","i_lat":-6.185975,"is_transit":false,"i_long":106.850107},{"time":8,"station_id":"PSE","distance":1567,"station_name":"Pasar Senen","i_lat":-6.174784,"line":11,"transit":false,"i_long":106.84368,"is_transit":false},{"line":11,"distance":1436,"i_long":106.839204,"station_name":"Kemayoran","is_transit":false,"time":4,"station_id":"KMO","i_lat":-6.161728,"transit":false},{"transit":false,"station_name":"Rajawali","time":5,"is_transit":false,"station_id":"RJW","distance":1901,"i_lat":-6.14505,"i_long":106.836569,"line":11},{"is_transit":true,"distance":1444,"transit":true,"i_lat":-6.132549,"time":3,"i_long":106.826365,"line":0,"station_name":"Kampung Bandan","station_id":"KPB"},{"distance":4102,"is_transit":false,"transit":false,"station_id":"AK","i_lat":-6.144674,"station_name":"Angke","time":9,"i_long":106.79867,"line":0},{"time":4,"is_transit":true,"station_name":"Duri","distance":1230,"transit":true,"line":1,"station_id":"DU","i_long":106.800832,"i_lat":-6.155215},{"line":1,"is_transit":true,"time":8,"distance":3632,"station_id":"THB","station_name":"Tanah Abang","transit":true,"i_lat":-6.185545,"i_long":106.811091},{"station_name":"Palmerah","transit":false,"distance":3191,"station_id":"PLM","line":6,"is_transit":false,"time":6,"i_lat":-6.207404,"i_long":106.79689},{"distance":3737,"i_long":106.780334,"line":6,"station_name":"Kebayoran","i_lat":-6.237242,"transit":false,"station_id":"KBY","time":7,"is_transit":false},{"i_lat":-6.276362,"station_id":"PDJ","time":8,"transit":false,"distance":6218,"i_long":106.74273,"station_name":"Pondokranji","is_transit":false,"line":6},{"line":6,"time":3,"transit":false,"station_name":"Jurangmangu","distance":2179,"station_id":"JMU","is_transit":false,"i_lat":-6.288927,"i_long":106.728916},{"station_name":"Sudimara","i_lat":-6.296963,"is_transit":false,"distance":1994,"i_long":106.712277,"station_id":"SDM","transit":false,"time":4,"line":6},{"line":6,"i_lat":-6.314823,"station_name":"Rawa Buntu","distance":4566,"is_transit":false,"transit":false,"station_id":"RU","i_long":106.675475,"time":6},{"transit":false,"i_long":106.66566,"station_id":"SRP","line":6,"is_transit":false,"i_lat":-6.319871,"station_name":"Serpong","time":4,"distance":2413},{"distance":1784,"is_transit":false,"i_long":106.640411,"line":0,"station_name":"Cisauk","transit":false,"i_lat":-6.32484,"time":4,"station_id":"CSK"},{"distance":2519,"time":4,"station_name":"Cicayur","station_id":"CC","transit":false,"i_lat":-6.329547,"i_long":106.617853,"line":0,"is_transit":false}]]}