{"data":[[{"station_id":"NMO","station_name":"Nambo","distance":0,"time":0,"is_transit":false,"i_lat":-6.466285,"line":21,"transit":false,"i_long":106.905196},{"distance":6527,"station_name":"Cibinong","i_lat":-6.46424,"station_id":"CBN","i_long":106.851978,"transit":false,"is_transit":false,"time":10,"line":21},{"i_lat":-6.460735,"line":21,"is_transit":false,"time":0,"transit":false,"station_id":"PDRG","station_name":"Pondok Rajeg","distance":0,"i_long":106.824374},{"line":2,"i_lat":-6.448811,"i_long":106.800298,"transit":true,"time":0,"station_id":"CTA","is_transit":true,"station_name":"Citayam","distance":0},{"transit":false,"time":6,"line":2,"is_transit":false,"i_lat":-6.405256,"i_long":106.816926,"distance":5084,"station_id":"DP","station_name":"Depok"},{"i_long":106.819451,"line":2,"station_id":"DPB","transit":false,"station_name":"Depokbaru","time":3,"is_transit":false,"distance":1584,"i_lat":-6.391065},{"distance":2727,"i_lat":-6.369073,"station_id":"POC","line":2,"time":4,"transit":false,"i_long":106.831114,"is_transit":false,"station_name":"Pondok Cina"},{"station_name":"Univ. Indonesia","is_transit":false,"line":2,"i_long":106.831474,"station_id":"UI","i_lat":-6.360749,"time":2,"distance":1109,"transit":false},{"line":2,"time":3,"transit":false,"station_name":"Univ. Pancasila","distance":2264,"i_lat":-6.339291,"i_long":106.834175,"is_transit":false,"station_id":"UP"},{"is_transit":false,"time":2,"distance":1029,"line":2,"i_long":106.832616,"transit":false,"i_lat":-6.330363,"station_id":"LNA","station_name":"Lenteng Agung"},{"transit":false,"is_transit":false,"i_long":106.838896,"line":2,"station_id":"TNT","station_name":"Tanjung Barat","time":3,"i_lat":-6.3080680000000005,"distance":2671},{"transit":false,"distance":2820,"time":4,"i_lat":-6.2842400000000005,"is_transit":false,"i_long":106.843999,"station_name":"Pasar Minggu","line":2,"station_id":"PSM"},{"line":2,"station_name":"Pasar Minggu Baru","is_transit":false,"distance":2380,"station_id":"PSMB","transit":false,"i_lat":-6.263214,"i_long":106.851577,"time":2},{"station_name":"Duren Kalibata","station_id":"DRN","distance":824,"line":2,"i_lat":-6.255332,"time":2,"transit":false,"is_transit":false,"i_long":106.85449},{"station_id":"CW","is_transit":false,"distance":1546,"i_lat":-6.242512,"line":2,"time":3,"i_long":106.856607,"station_name":"Cawang","transit":false},{"station_name":"Tebet","i_long":106.857948,"line":2,"is_transit":false,"time":2,"distance":1230,"i_lat":-6.226659,"station_id":"TEB","transit":false},{"i_long":106.84912,"line":2,"time":4,"transit":false,"is_transit":false,"distance":2610,"station_id":"MRI","i_lat":-6.209883,"station_name":"Manggarai"},{"is_transit":false,"time":4,"i_lat":-6.198556,"station_name":"Cikini","transit":false,"station_id":"CKI","i_long":106.840169,"distance":1590,"line":2},{"time":3,"station_name":"Gondangdia","is_transit":false,"distance":1750,"line":2,"i_long":106.832183,"station_id":"GDD","transit":false,"i_lat":-6.186295},{"time":4,"transit":false,"station_name":"Juanda","i_long":106.828284,"distance":2015,"station_id":"JUA","line":2,"is_transit":false,"i_lat":-6.166716},{"station_id":"SW","station_name":"Sawah Besar","time":2,"distance":1149,"transit":false,"is_transit":false,"line":2,"i_long":106.827103,"i_lat":-6.160725},{"station_id":"MGB","is_transit":false,"station_name":"Manggabesar","transit":false,"time":2,"line":2,"i_long":106.82482,"i_lat":-6.149769,"distance":906}],[{"i_lat":-6.466285,"station_id":"NMO","is_transit":false,"time":0,"i_long":106.905196,"station_name":"Nambo","line":21,"transit":false,"distance":0},{"station_id":"CBN","i_long":106.851978,"line":21,"i_lat":-6.46424,"station_name":"Cibinong","transit":false,"time":10,"is_transit":false,"distance":6527},{"line":21,"distance":0,"time":0,"transit":false,"station_id":"PDRG","is_transit":false,"i_lat":-6.460735,"station_name":"Pondok Rajeg","i_long":106.824374},{"time":0,"i_lat":-6.448811,"i_long":106.800298,"line":2,"station_name":"Citayam","station_id":"CTA","is_transit":true,"distance":0,"transit":true},{"station_id":"DP","is_transit":false,"i_lat":-6.405256,"time":6,"station_name":"Depok","i_long":106.816926,"transit":false,"line":2,"distance":5084},{"i_lat":-6.391065,"transit":false,"station_id":"DPB","station_name":"Depokbaru","is_transit":false,"distance":1584,"line":2,"time":3,"i_long":106.819451},{"station_name":"Pondok Cina","is_transit":false,"line":2,"station_id":"POC","time":4,"i_long":106.831114,"distance":2727,"i_lat":-6.369073,"transit":false},{"line":2,"i_lat":-6.360749,"i_long":106.831474,"transit":false,"distance":1109,"station_id":"UI","time":2,"station_name":"Univ. Indonesia","is_transit":false},{"time":3,"station_name":"Univ. Pancasila","is_transit":false,"distance":2264,"transit":false,"station_id":"UP","i_long":106.834175,"i_lat":-6.339291,"line":2},{"i_long":106.832616,"station_name":"Lenteng Agung","is_transit":false,"distance":1029,"i_lat":-6.330363,"line":2,"time":2,"transit":false,"station_id":"LNA"},{"time":3,"line":2,"station_name":"Tanjung Barat","i_lat":-6.3080680000000005,"i_long":106.838896,"is_transit":false,"transit":false,"station_id":"TNT","distance":2671},{"transit":false,"i_long":106.843999,"station_id":"PSM","station_name":"Pasar Minggu","is_transit":false,"i_lat":-6.2842400000000005,"line":2,"distance":2820,"time":4},{"transit":false,"distance":2380,"i_lat":-6.263214,"station_id":"PSMB","station_name":"Pasar Minggu Baru","is_transit":false,"time":2,"line":2,"i_long":106.851577},{"station_id":"DRN","is_transit":false,"distance":824,"i_long":106.85449,"time":2,"transit":false,"station_name":"Duren Kalibata","line":2,"i_lat":-6.255332},{"line":2,"i_lat":-6.242512,"distance":1546,"is_transit":false,"station_id":"CW","station_name":"Cawang","transit":false,"time":3,"i_long":106.856607},{"transit":false,"line":2,"i_long":106.857948,"station_name":"Tebet","distance":1230,"time":2,"station_id":"TEB","i_lat":-6.226659,"is_transit":false},{"is_transit":true,"transit":true,"i_long":106.84912,"distance":2610,"station_name":"Manggarai","line":2,"station_id":"MRI","i_lat":-6.209883,"time":4},{"line":1,"time":4,"distance":3186,"is_transit":false,"transit":false,"station_name":"Sudirman","station_id":"SUD","i_lat":-6.202263,"i_long":106.822649},{"line":1,"station_name":"Sudirman Baru","i_lat":-6.201433,"station_id":"SUDB","is_transit":false,"i_long":106.819881,"distance":280,"transit":false,"time":1},{"station_id":"KAT","i_long":106.816351,"line":1,"is_transit":false,"station_name":"Karet","i_lat":-6.20132,"transit":false,"time":1,"distance":471},{"i_long":106.811091,"time":5,"is_transit":false,"distance":2029,"line":1,"transit":false,"station_name":"Tanah Abang","i_lat":-6.185545,"station_id":"THB"},{"station_id":"DU","transit":false,"distance":3632,"i_lat":-6.155215,"station_name":"Duri","line":1,"i_long":106.800832,"time":8,"is_transit":false},{"transit":false,"time":4,"station_name":"Angke","distance":1230,"i_long":106.79867,"station_id":"AK","i_lat":-6.144674,"line":1,"is_transit":false},{"distance":4102,"is_transit":true,"i_lat":-6.132549,"station_id":"KPB","transit":true,"station_name":"Kampung Bandan","i_long":106.826365,"line":4,"time":9},{"station_id":"JAKK","station_name":"Jakarta Kota","transit":true,"time":3,"distance":1364,"i_lat":-6.137569,"i_long":106.812439,"is_transit":true,"line":2},{"line":2,"i_long":106.820901,"station_name":"Jayakarta","transit":false,"is_transit":false,"i_lat":-6.141205,"station_id":"JAY","time":4,"distance":1264},{"is_transit":false,"time":2,"i_long":106.82482,"i_lat":-6.149769,"station_name":"Manggabesar","distance":1080,"transit":false,"station_id":"MGB","line":2}],[{"station_name":"Nambo","i_long":106.905196,"is_transit":false,"distance":0,"time":0,"transit":false,"i_lat":-6.466285,"line":21,"station_id":"NMO"},{"time":10,"station_id":"CBN","distance":6527,"line":21,"station_name":"Cibinong","is_transit":false,"transit":false,"i_lat":-6.46424,"i_long":106.851978},{"time":0,"distance":0,"line":21,"i_lat":-6.460735,"i_long":106.824374,"is_transit":false,"transit":false,"station_id":"PDRG","station_name":"Pondok Rajeg"},{"station_id":"CTA","i_lat":-6.448811,"line":2,"i_long":106.800298,"time":0,"transit":true,"station_name":"Citayam","is_transit":true,"distance":0},{"is_transit":false,"i_long":106.816926,"distance":5084,"station_id":"DP","station_name":"Depok","i_lat":-6.405256,"time":6,"transit":false,"line":2},{"transit":false,"time":3,"station_id":"DPB","is_transit":false,"distance":1584,"station_name":"Depokbaru","i_lat":-6.391065,"i_long":106.819451,"line":2},{"station_id":"POC","station_name":"Pondok Cina","transit":false,"is_transit":false,"distance":2727,"i_long":106.831114,"line":2,"time":4,"i_lat":-6.369073},{"time":2,"transit":false,"line":2,"station_name":"Univ. Indonesia","is_transit":false,"distance":1109,"station_id":"UI","i_lat":-6.360749,"i_long":106.831474},{"station_name":"Univ. Pancasila","i_lat":-6.339291,"distance":2264,"is_transit":false,"line":2,"transit":false,"station_id":"UP","i_long":106.834175,"time":3},{"station_id":"LNA","i_long":106.832616,"is_transit":false,"i_lat":-6.330363,"transit":false,"time":2,"distance":1029,"line":2,"station_name":"Lenteng Agung"},{"station_name":"Tanjung Barat","transit":false,"time":3,"i_lat":-6.3080680000000005,"i_long":106.838896,"distance":2671,"is_transit":false,"station_id":"TNT","line":2},{"is_transit":false,"distance":2820,"i_long":106.843999,"transit":false,"time":4,"line":2,"station_name":"Pasar Minggu","i_lat":-6.2842400000000005,"station_id":"PSM"},{"i_long":106.851577,"station_name":"Pasar Minggu Baru","time":2,"transit":false,"line":2,"distance":2380,"station_id":"PSMB","is_transit":false,"i_lat":-6.263214},{"line":2,"i_lat":-6.255332,"i_long":106.85449,"time":2,"transit":false,"distance":824,"station_name":"Duren Kalibata","station_id":"DRN","is_transit":false},{"i_lat":-6.242512,"line":2,"i_long":106.856607,"distance":1546,"is_transit":false,"station_name":"Cawang","station_id":"CW","time":3,"transit":false},{"station_id":"TEB","is_transit":false,"distance":1230,"line":2,"time":2,"i_long":106.857948,"station_name":"Tebet","i_lat":-6.226659,"transit":false},{"transit":true,"is_transit":true,"distance":2610,"station_name":"Manggarai","i_long":106.84912,"line":2,"station_id":"MRI","i_lat":-6.209883,"time":4},{"station_id":"MTR","is_transit":false,"transit":false,"line":1,"i_long":106.858896,"distance":1275,"time":2,"station_name":"Matraman","i_lat":-6.212485},{"station_id":"JNG","i_long":106.86807400000001,"distance":1377,"station_name":"Jatinegara","line":1,"transit":true,"is_transit":true,"time":8,"i_lat":-6.215091},{"time":2,"station_name":"Pondok Jati","distance":1236,"is_transit":false,"i_lat":-6.209188,"line":11,"transit":false,"i_long":106.861737,"station_id":"POK"},{"is_transit":false,"i_long":106.855437,"distance":1829,"line":11,"station_name":"Kramat","transit":false,"i_lat":-6.193792,"time":2,"station_id":"KMT"},{"distance":973,"time":1,"station_name":"Gang Sentiong","transit":false,"i_lat":-6.185975,"line":11,"station_id":"GST","is_transit":false,"i_long":106.850107},{"time":8,"is_transit":false,"transit":false,"i_long":106.84368,"i_lat":-6.174784,"station_id":"PSE","line":11,"station_name":"Pasar Senen","distance":1567},{"i_lat":-6.161728,"station_id":"KMO","line":11,"distance":1436,"i_long":106.839204,"transit":false,"is_transit":false,"station_name":"Kemayoran","time":4},{"station_name":"Rajawali","is_transit":false,"station_id":"RJW","transit":false,"i_lat":-6.14505,"line":11,"i_long":106.836569,"distance":1901,"time":5},{"i_lat":-6.132549,"line":4,"time":3,"transit":true,"is_transit":true,"distance":1444,"station_name":"Kampung Bandan","i_long":106.826365,"station_id":"KPB"},{"line":2,"station_id":"JAKK","is_transit":true,"time":3,"distance":1364,"transit":true,"i_long":106.812439,"station_name":"Jakarta Kota","i_lat":-6.137569},{"distance":1264,"station_id":"JAY","i_long":106.820901,"i_lat":-6.141205,"line":2,"transit":false,"time":4,"station_name":"Jayakarta","is_transit":false},{"station_name":"Manggabesar","station_id":"MGB","transit":false,"distance":1080,"time":2,"i_lat":-6.149769,"is_transit":false,"i_long":106.82482,"line":2}]]}