{"data":[[{"station_name":"Nambo","transit":false,"distance":0,"station_id":"NMO","line":21,"time":0,"i_lat":-6.466285,"i_long":106.905196,"is_transit":false},{"line":21,"transit":false,"time":10,"station_name":"Cibinong","i_lat":-6.46424,"i_long":106.851978,"station_id":"CBN","distance":6527,"is_transit":false},{"transit":false,"station_name":"Pondok Rajeg","is_transit":false,"time":0,"i_lat":-6.460735,"distance":0,"line":21,"station_id":"PDRG","i_long":106.824374},{"station_name":"Citayam","i_lat":-6.448811,"distance":0,"line":2,"time":0,"i_long":106.800298,"is_transit":true,"transit":true,"station_id":"CTA"},{"transit":false,"distance":5084,"i_long":106.816926,"station_name":"Depok","is_transit":false,"line":2,"i_lat":-6.405256,"station_id":"DP","time":6},{"is_transit":false,"i_lat":-6.391065,"i_long":106.819451,"line":2,"distance":1584,"station_name":"Depokbaru","transit":false,"station_id":"DPB","time":3},{"i_long":106.831114,"station_id":"POC","line":2,"distance":2727,"transit":false,"station_name":"Pondok Cina","time":4,"is_transit":false,"i_lat":-6.369073},{"station_id":"UI","line":2,"station_name":"Univ. Indonesia","i_lat":-6.360749,"is_transit":false,"i_long":106.831474,"distance":1109,"transit":false,"time":2}]]}