{"data":[[{"transit":false,"station_id":"NMO","station_name":"Nambo","is_transit":false,"time":0,"i_lat":-6.466285,"i_long":106.905196,"line":21,"distance":0},{"transit":false,"station_name":"Cibinong","i_long":106.851978,"is_transit":false,"i_lat":-6.46424,"time":10,"distance":6527,"station_id":"CBN","line":21},{"distance":0,"line":21,"station_name":"Pondok Rajeg","is_transit":false,"transit":false,"i_lat":-6.460735,"time":0,"station_id":"PDRG","i_long":106.824374},{"i_long":106.800298,"distance":0,"time":0,"i_lat":-6.448811,"transit":true,"line":2,"station_name":"Citayam","is_transit":true,"station_id":"CTA"},{"i_lat":-6.405256,"i_long":106.816926,"line":2,"distance":5084,"station_id":"DP","transit":false,"time":6,"station_name":"Depok","is_transit":false},{"i_lat":-6.391065,"is_transit":false,"transit":false,"time":3,"station_id":"DPB","i_long":106.819451,"line":2,"station_name":"Depokbaru","distance":1584},{"time":4,"i_lat":-6.369073,"i_long":106.831114,"line":2,"station_id":"POC","distance":2727,"transit":false,"is_transit":false,"station_name":"Pondok Cina"},{"i_long":106.831474,"transit":false,"is_transit":false,"distance":1109,"i_lat":-6.360749,"station_id":"UI","line":2,"station_name":"Univ. Indonesia","time":2},{"distance":2264,"station_name":"Univ. Pancasila","time":3,"line":2,"is_transit":false,"transit":false,"station_id":"UP","i_lat":-6.339291,"i_long":106.834175},{"line":2,"distance":1029,"is_transit":false,"transit":false,"station_id":"LNA","i_lat":-6.330363,"time":2,"station_name":"Lenteng Agung","i_long":106.832616},{"station_id":"TNT","i_long":106.838896,"is_transit":false,"station_name":"Tanjung Barat","time":3,"distance":2671,"transit":false,"i_lat":-6.3080680000000005,"line":2},{"is_transit":false,"line":2,"i_lat":-6.2842400000000005,"station_id":"PSM","time":4,"i_long":106.843999,"transit":false,"station_name":"Pasar Minggu","distance":2820},{"i_long":106.851577,"distance":2380,"time":2,"station_id":"PSMB","transit":false,"station_name":"Pasar Minggu Baru","is_transit":false,"i_lat":-6.263214,"line":2},{"station_id":"DRN","station_name":"Duren Kalibata","is_transit":false,"i_lat":-6.255332,"i_long":106.85449,"time":2,"distance":824,"transit":false,"line":2},{"transit":false,"station_id":"CW","i_lat":-6.242512,"distance":1546,"i_long":106.856607,"line":2,"time":3,"is_transit":false,"station_name":"Cawang"},{"is_transit":false,"station_name":"Tebet","i_long":106.857948,"line":2,"transit":false,"distance":1230,"station_id":"TEB","i_lat":-6.226659,"time":2},{"i_long":106.84912,"station_id":"MRI","is_transit":false,"time":4,"i_lat":-6.209883,"line":2,"station_name":"Manggarai","distance":2610,"transit":false},{"i_long":106.840169,"station_id":"CKI","distance":1590,"is_transit":false,"line":2,"time":4,"station_name":"Cikini","transit":false,"i_lat":-6.198556}],[{"distance":0,"time":0,"i_long":106.905196,"station_name":"Nambo","transit":false,"line":21,"station_id":"NMO","is_transit":false,"i_lat":-6.466285},{"transit":false,"station_name":"Cibinong","time":10,"i_lat":-6.46424,"i_long":106.851978,"station_id":"CBN","distance":6527,"is_transit":false,"line":21},{"line":21,"distance":0,"i_long":106.824374,"station_name":"Pondok Rajeg","transit":false,"is_transit":false,"time":0,"station_id":"PDRG","i_lat":-6.460735},{"station_name":"Citayam","time":0,"i_lat":-6.448811,"is_transit":true,"station_id":"CTA","i_long":106.800298,"line":2,"transit":true,"distance":0},{"transit":false,"station_id":"DP","i_lat":-6.405256,"time":6,"i_long":106.816926,"distance":5084,"station_name":"Depok","is_transit":false,"line":2},{"transit":false,"line":2,"time":3,"station_name":"Depokbaru","distance":1584,"i_lat":-6.391065,"i_long":106.819451,"station_id":"DPB","is_transit":false},{"line":2,"distance":2727,"transit":false,"time":4,"station_id":"POC","i_lat":-6.369073,"is_transit":false,"i_long":106.831114,"station_name":"Pondok Cina"},{"transit":false,"is_transit":false,"time":2,"i_long":106.831474,"distance":1109,"line":2,"i_lat":-6.360749,"station_id":"UI","station_name":"Univ. Indonesia"},{"transit":false,"i_lat":-6.339291,"station_name":"Univ. Pancasila","time":3,"station_id":"UP","line":2,"i_long":106.834175,"is_transit":false,"distance":2264},{"i_lat":-6.330363,"i_long":106.832616,"line":2,"station_name":"Lenteng Agung","distance":1029,"station_id":"LNA","time":2,"transit":false,"is_transit":false},{"distance":2671,"is_transit":false,"time":3,"station_name":"Tanjung Barat","transit":false,"station_id":"TNT","i_lat":-6.3080680000000005,"i_long":106.838896,"line":2},{"transit":false,"station_name":"Pasar Minggu","i_lat":-6.2842400000000005,"station_id":"PSM","line":2,"distance":2820,"time":4,"i_long":106.843999,"is_transit":false},{"distance":2380,"time":2,"station_id":"PSMB","i_lat":-6.263214,"is_transit":false,"transit":false,"i_long":106.851577,"line":2,"station_name":"Pasar Minggu Baru"},{"station_name":"Duren Kalibata","time":2,"station_id":"DRN","i_lat":-6.255332,"transit":false,"distance":824,"is_transit":false,"i_long":106.85449,"line":2},{"line":2,"time":3,"transit":false,"distance":1546,"station_name":"Cawang","station_id":"CW","is_transit":false,"i_long":106.856607,"i_lat":-6.242512},{"transit":false,"station_name":"Tebet","line":2,"station_id":"TEB","i_long":106.857948,"time":2,"is_transit":false,"distance":1230,"i_lat":-6.226659},{"transit":true,"distance":2610,"is_transit":true,"line":2,"station_id":"MRI","i_long":106.84912,"time":4,"station_name":"Manggarai","i_lat":-6.209883},{"i_lat":-6.202263,"transit":false,"i_long":106.822649,"station_name":"Sudirman","time":4,"line":1,"is_transit":false,"distance":3186,"station_id":"SUD"},{"distance":280,"i_lat":-6.201433,"station_name":"Sudirman Baru","is_transit":false,"transit":false,"i_long":106.819881,"line":1,"station_id":"SUDB","time":1},{"line":1,"station_name":"Karet","distance":471,"station_id":"KAT","transit":false,"i_lat":-6.20132,"i_long":106.816351,"is_transit":false,"time":1},{"i_long":106.811091,"time":5,"transit":false,"line":1,"station_id":"THB","station_name":"Tanah Abang","i_lat":-6.185545,"is_transit":false,"distance":2029},{"is_transit":false,"i_long":106.800832,"time":8,"i_lat":-6.155215,"distance":3632,"station_name":"Duri","line":1,"transit":false,"station_id":"DU"},{"i_lat":-6.144674,"time":4,"i_long":106.79867,"is_transit":false,"line":1,"distance":1230,"transit":false,"station_id":"AK","station_name":"Angke"},{"station_name":"Kampung Bandan","distance":4102,"time":9,"is_transit":true,"i_lat":-6.132549,"transit":true,"line":4,"i_long":106.826365,"station_id":"KPB"},{"is_transit":true,"time":3,"i_lat":-6.137569,"distance":1364,"station_id":"JAKK","line":2,"transit":true,"station_name":"Jakarta Kota","i_long":106.812439},{"station_name":"Jayakarta","i_lat":-6.141205,"transit":false,"station_id":"JAY","distance":1264,"i_long":106.820901,"is_transit":false,"time":4,"line":2},{"distance":1080,"station_id":"MGB","i_lat":-6.149769,"i_long":106.82482,"line":2,"station_name":"Manggabesar","time":2,"transit":false,"is_transit":false},{"station_id":"SW","i_long":106.827103,"distance":906,"time":2,"is_transit":false,"i_lat":-6.160725,"transit":false,"station_name":"Sawah Besar","line":2},{"time":2,"station_id":"JUA","i_lat":-6.166716,"i_long":106.828284,"transit":false,"distance":1149,"line":2,"station_name":"Juanda","is_transit":false},{"distance":2015,"i_long":106.832183,"line":2,"time":4,"i_lat":-6.186295,"station_id":"GDD","station_name":"Gondangdia","is_transit":false,"transit":false},{"is_transit":false,"i_lat":-6.198556,"time":3,"transit":false,"station_id":"CKI","line":2,"distance":1750,"i_long":106.840169,"station_name":"Cikini"}],[{"i_long":106.905196,"time":0,"distance":0,"station_id":"NMO","station_name":"Nambo","is_transit":false,"i_lat":-6.466285,"transit":false,"line":21},{"line":21,"station_name":"Cibinong","i_long":106.851978,"distance":6527,"time":10,"is_transit":false,"transit":false,"station_id":"CBN","i_lat":-6.46424},{"i_lat":-6.460735,"time":0,"station_id":"PDRG","distance":0,"station_name":"Pondok Rajeg","i_long":106.824374,"is_transit":false,"line":21,"transit":false},{"station_name":"Citayam","is_transit":true,"i_lat":-6.448811,"transit":true,"station_id":"CTA","i_long":106.800298,"distance":0,"time":0,"line":2},{"station_name":"Depok","transit":false,"is_transit":false,"time":6,"station_id":"DP","i_lat":-6.405256,"line":2,"distance":5084,"i_long":106.816926},{"time":3,"station_name":"Depokbaru","station_id":"DPB","i_lat":-6.391065,"transit":false,"is_transit":false,"i_long":106.819451,"distance":1584,"line":2},{"i_lat":-6.369073,"line":2,"time":4,"station_id":"POC","transit":false,"distance":2727,"is_transit":false,"i_long":106.831114,"station_name":"Pondok Cina"},{"is_transit":false,"station_id":"UI","time":2,"i_lat":-6.360749,"distance":1109,"i_long":106.831474,"line":2,"station_name":"Univ. Indonesia","transit":false},{"is_transit":false,"station_name":"Univ. Pancasila","station_id":"UP","distance":2264,"transit":false,"i_long":106.834175,"i_lat":-6.339291,"time":3,"line":2},{"time":2,"distance":1029,"station_id":"LNA","i_lat":-6.330363,"line":2,"i_long":106.832616,"station_name":"Lenteng Agung","transit":false,"is_transit":false},{"i_lat":-6.3080680000000005,"time":3,"distance":2671,"transit":false,"line":2,"station_id":"TNT","is_transit":false,"station_name":"Tanjung Barat","i_long":106.838896},{"station_id":"PSM","time":4,"distance":2820,"is_transit":false,"i_lat":-6.2842400000000005,"station_name":"Pasar Minggu","i_long":106.843999,"line":2,"transit":false},{"time":2,"i_long":106.851577,"line":2,"station_name":"Pasar Minggu Baru","is_transit":false,"distance":2380,"i_lat":-6.263214,"transit":false,"station_id":"PSMB"},{"station_name":"Duren Kalibata","time":2,"i_lat":-6.255332,"is_transit":false,"station_id":"DRN","i_long":106.85449,"line":2,"distance":824,"transit":false},{"station_name":"Cawang","line":2,"station_id":"CW","transit":false,"is_transit":false,"time":3,"i_lat":-6.242512,"distance":1546,"i_long":106.856607},{"transit":false,"time":2,"distance":1230,"station_id":"TEB","is_transit":false,"station_name":"Tebet","i_lat":-6.226659,"line":2,"i_long":106.857948},{"is_transit":true,"time":4,"transit":true,"i_lat":-6.209883,"i_long":106.84912,"line":2,"station_id":"MRI","station_name":"Manggarai","distance":2610},{"is_transit":false,"station_name":"Matraman","transit":false,"distance":1275,"station_id":"MTR","i_lat":-6.212485,"time":2,"i_long":106.858896,"line":1},{"i_long":106.86807400000001,"station_id":"JNG","line":1,"i_lat":-6.215091,"is_transit":true,"time":8,"distance":1377,"station_name":"Jatinegara","transit":true},{"station_id":"POK","transit":false,"is_transit":false,"i_long":106.861737,"line":11,"i_lat":-6.209188,"station_name":"Pondok Jati","distance":1236,"time":2},{"station_id":"KMT","time":2,"is_transit":false,"i_long":106.855437,"i_lat":-6.193792,"line":11,"transit":false,"distance":1829,"station_name":"Kramat"},{"station_id":"GST","i_long":106.850107,"is_transit":false,"i_lat":-6.185975,"transit":false,"distance":973,"line":11,"station_name":"Gang Sentiong","time":1},{"station_id":"PSE","line":11,"station_name":"Pasar Senen","transit":false,"time":8,"i_lat":-6.174784,"distance":1567,"i_long":106.84368,"is_transit":false},{"time":4,"station_id":"KMO","station_name":"Kemayoran","i_lat":-6.161728,"line":11,"transit":false,"is_transit":false,"distance":1436,"i_long":106.839204},{"transit":false,"line":11,"distance":1901,"time":5,"station_name":"Rajawali","i_lat":-6.14505,"is_transit":false,"station_id":"RJW","i_long":106.836569},{"line":4,"i_lat":-6.132549,"distance":1444,"station_id":"KPB","transit":true,"station_name":"Kampung Bandan","is_transit":true,"time":3,"i_long":106.826365},{"is_transit":true,"i_lat":-6.137569,"line":2,"i_long":106.812439,"time":3,"station_id":"JAKK","transit":true,"station_name":"Jakarta Kota","distance":1364},{"is_transit":false,"time":4,"transit":false,"station_id":"JAY","i_lat":-6.141205,"i_long":106.820901,"line":2,"station_name":"Jayakarta","distance":1264},{"station_id":"MGB","is_transit":false,"distance":1080,"i_lat":-6.149769,"line":2,"i_long":106.82482,"time":2,"station_name":"Manggabesar","transit":false},{"i_lat":-6.160725,"station_id":"SW","i_long":106.827103,"distance":906,"time":2,"is_transit":false,"transit":false,"station_name":"Sawah Besar","line":2},{"distance":1149,"is_transit":false,"i_long":106.828284,"i_lat":-6.166716,"transit":false,"line":2,"station_name":"Juanda","time":2,"station_id":"JUA"},{"is_transit":false,"station_name":"Gondangdia","distance":2015,"i_lat":-6.186295,"i_long":106.832183,"transit":false,"time":4,"station_id":"GDD","line":2},{"line":2,"time":3,"i_lat":-6.198556,"i_long":106.840169,"distance":1750,"transit":false,"station_name":"Cikini","station_id":"CKI","is_transit":false}]]}