{"data":[[{"time":0,"is_transit":false,"station_name":"Nambo","i_long":106.905196,"distance":0,"line":21,"i_lat":-6.466285,"transit":false,"station_id":"NMO"},{"station_name":"Cibinong","i_lat":-6.46424,"line":21,"is_transit":false,"station_id":"CBN","distance":6527,"transit":false,"i_long":106.851978,"time":10},{"distance":0,"i_long":106.824374,"line":21,"station_id":"PDRG","time":0,"is_transit":false,"transit":false,"station_name":"Pondok Rajeg","i_lat":-6.460735},{"distance":0,"i_lat":-6.448811,"i_long":106.800298,"line":2,"station_name":"Citayam","time":0,"is_transit":true,"station_id":"CTA","transit":true},{"time":6,"line":2,"i_lat":-6.405256,"i_long":106.816926,"is_transit":false,"transit":false,"station_id":"DP","station_name":"Depok","distance":5084},{"line":2,"station_name":"Depokbaru","distance":1584,"i_lat":-6.391065,"is_transit":false,"time":3,"i_long":106.819451,"station_id":"DPB","transit":false},{"line":2,"i_lat":-6.369073,"i_long":106.831114,"is_transit":false,"station_id":"POC","transit":false,"time":4,"station_name":"Pondok Cina","distance":2727},{"distance":1109,"station_id":"UI","line":2,"time":2,"is_transit":false,"station_name":"Univ. Indonesia","transit":false,"i_long":106.831474,"i_lat":-6.360749},{"is_transit":false,"transit":false,"line":2,"station_id":"UP","distance":2264,"i_lat":-6.339291,"time":3,"station_name":"Univ. Pancasila","i_long":106.834175}]]}