{"data":[[{"station_id":"NMO","time":0,"i_lat":-6.466285,"is_transit":false,"transit":false,"station_name":"Nambo","i_long":106.905196,"distance":0,"line":21},{"distance":6527,"i_long":106.851978,"line":21,"station_id":"CBN","time":10,"station_name":"Cibinong","i_lat":-6.46424,"is_transit":false,"transit":false},{"station_name":"Pondok Rajeg","transit":false,"time":0,"distance":0,"i_long":106.824374,"station_id":"PDRG","is_transit":false,"i_lat":-6.460735,"line":21},{"i_long":106.800298,"i_lat":-6.448811,"station_name":"Citayam","transit":true,"is_transit":true,"distance":0,"station_id":"CTA","time":0,"line":2},{"station_name":"Depok","station_id":"DP","i_lat":-6.405256,"time":6,"is_transit":false,"i_long":106.816926,"line":2,"transit":false,"distance":5084},{"transit":false,"line":2,"distance":1584,"station_name":"Depokbaru","is_transit":false,"time":3,"i_lat":-6.391065,"station_id":"DPB","i_long":106.819451},{"i_long":106.831114,"station_id":"POC","i_lat":-6.369073,"time":4,"station_name":"Pondok Cina","transit":false,"line":2,"distance":2727,"is_transit":false},{"i_long":106.831474,"is_transit":false,"line":2,"time":2,"transit":false,"station_id":"UI","distance":1109,"station_name":"Univ. Indonesia","i_lat":-6.360749},{"line":2,"station_name":"Univ. Pancasila","i_long":106.834175,"is_transit":false,"distance":2264,"time":3,"transit":false,"station_id":"UP","i_lat":-6.339291},{"i_lat":-6.330363,"line":2,"i_long":106.832616,"distance":1029,"transit":false,"station_name":"Lenteng Agung","time":2,"station_id":"LNA","is_transit":false},{"time":3,"i_long":106.838896,"line":2,"transit":false,"station_name":"Tanjung Barat","distance":2671,"station_id":"TNT","is_transit":false,"i_lat":-6.3080680000000005},{"line":2,"transit":false,"station_id":"PSM","time":4,"i_lat":-6.2842400000000005,"station_name":"Pasar Minggu","distance":2820,"is_transit":false,"i_long":106.843999},{"i_long":106.851577,"line":2,"station_name":"Pasar Minggu Baru","station_id":"PSMB","time":2,"transit":false,"distance":2380,"i_lat":-6.263214,"is_transit":false},{"distance":824,"i_lat":-6.255332,"i_long":106.85449,"line":2,"transit":false,"station_id":"DRN","station_name":"Duren Kalibata","time":2,"is_transit":false},{"is_transit":false,"time":3,"station_name":"Cawang","distance":1546,"i_lat":-6.242512,"line":2,"transit":false,"i_long":106.856607,"station_id":"CW"},{"line":2,"distance":1230,"transit":false,"i_lat":-6.226659,"is_transit":false,"time":2,"station_name":"Tebet","station_id":"TEB","i_long":106.857948},{"time":4,"station_name":"Manggarai","line":2,"i_long":106.84912,"distance":2610,"station_id":"MRI","transit":true,"i_lat":-6.209883,"is_transit":true},{"station_name":"Sudirman","station_id":"SUD","i_lat":-6.202263,"time":4,"transit":false,"line":1,"is_transit":false,"i_long":106.822649,"distance":3186}],[{"time":0,"station_id":"NMO","i_lat":-6.466285,"station_name":"Nambo","is_transit":false,"line":21,"i_long":106.905196,"distance":0,"transit":false},{"i_long":106.851978,"distance":6527,"transit":false,"i_lat":-6.46424,"station_name":"Cibinong","line":21,"station_id":"CBN","time":10,"is_transit":false},{"transit":false,"i_lat":-6.460735,"i_long":106.824374,"is_transit":false,"time":0,"station_name":"Pondok Rajeg","distance":0,"line":21,"station_id":"PDRG"},{"distance":0,"station_name":"Citayam","i_lat":-6.448811,"time":0,"transit":true,"station_id":"CTA","is_transit":true,"line":2,"i_long":106.800298},{"station_id":"DP","transit":false,"distance":5084,"time":6,"i_lat":-6.405256,"i_long":106.816926,"line":2,"is_transit":false,"station_name":"Depok"},{"transit":false,"time":3,"station_id":"DPB","is_transit":false,"distance":1584,"i_lat":-6.391065,"i_long":106.819451,"line":2,"station_name":"Depokbaru"},{"station_id":"POC","time":4,"transit":false,"i_long":106.831114,"line":2,"is_transit":false,"station_name":"Pondok Cina","distance":2727,"i_lat":-6.369073},{"station_name":"Univ. Indonesia","line":2,"i_long":106.831474,"transit":false,"station_id":"UI","is_transit":false,"i_lat":-6.360749,"time":2,"distance":1109},{"time":3,"i_long":106.834175,"transit":false,"is_transit":false,"distance":2264,"i_lat":-6.339291,"station_id":"UP","line":2,"station_name":"Univ. Pancasila"},{"station_id":"LNA","transit":false,"i_long":106.832616,"is_transit":false,"station_name":"Lenteng Agung","time":2,"distance":1029,"i_lat":-6.330363,"line":2},{"transit":false,"time":3,"is_transit":false,"station_id":"TNT","i_lat":-6.3080680000000005,"line":2,"station_name":"Tanjung Barat","i_long":106.838896,"distance":2671},{"is_transit":false,"time":4,"i_lat":-6.2842400000000005,"i_long":106.843999,"distance":2820,"line":2,"transit":false,"station_id":"PSM","station_name":"Pasar Minggu"},{"transit":false,"line":2,"i_lat":-6.263214,"station_name":"Pasar Minggu Baru","time":2,"i_long":106.851577,"station_id":"PSMB","is_transit":false,"distance":2380},{"is_transit":false,"time":2,"i_long":106.85449,"station_name":"Duren Kalibata","i_lat":-6.255332,"transit":false,"distance":824,"line":2,"station_id":"DRN"},{"line":2,"station_id":"CW","station_name":"Cawang","distance":1546,"is_transit":false,"i_lat":-6.242512,"i_long":106.856607,"time":3,"transit":false},{"station_name":"Tebet","transit":false,"distance":1230,"station_id":"TEB","is_transit":false,"time":2,"i_long":106.857948,"line":2,"i_lat":-6.226659},{"time":4,"station_id":"MRI","station_name":"Manggarai","distance":2610,"i_long":106.84912,"transit":false,"i_lat":-6.209883,"line":2,"is_transit":false},{"distance":1590,"transit":false,"time":4,"is_transit":false,"station_id":"CKI","i_lat":-6.198556,"station_name":"Cikini","line":2,"i_long":106.840169},{"time":3,"i_lat":-6.186295,"i_long":106.832183,"line":2,"station_name":"Gondangdia","station_id":"GDD","transit":false,"distance":1750,"is_transit":false},{"station_name":"Juanda","transit":false,"time":4,"distance":2015,"i_lat":-6.166716,"station_id":"JUA","line":2,"i_long":106.828284,"is_transit":false},{"i_long":106.827103,"distance":1149,"time":2,"i_lat":-6.160725,"station_name":"Sawah Besar","station_id":"SW","is_transit":false,"line":2,"transit":false},{"station_name":"Manggabesar","station_id":"MGB","is_transit":false,"time":2,"line":2,"i_lat":-6.149769,"i_long":106.82482,"distance":906,"transit":false},{"line":2,"time":2,"transit":false,"station_name":"Jayakarta","distance":1080,"is_transit":false,"i_long":106.820901,"i_lat":-6.141205,"station_id":"JAY"},{"is_transit":true,"time":4,"station_id":"JAKK","line":2,"i_long":106.812439,"distance":1264,"station_name":"Jakarta Kota","i_lat":-6.137569,"transit":true},{"is_transit":true,"time":3,"i_lat":-6.132549,"line":4,"i_long":106.826365,"transit":true,"station_id":"KPB","station_name":"Kampung Bandan","distance":1364},{"is_transit":false,"i_long":106.79867,"i_lat":-6.144674,"time":9,"transit":false,"station_id":"AK","distance":4102,"line":1,"station_name":"Angke"},{"i_lat":-6.155215,"transit":false,"i_long":106.800832,"station_id":"DU","distance":1230,"station_name":"Duri","line":1,"time":4,"is_transit":false},{"i_long":106.811091,"i_lat":-6.185545,"transit":false,"distance":3632,"line":1,"is_transit":false,"station_id":"THB","station_name":"Tanah Abang","time":8},{"distance":2029,"station_id":"KAT","i_lat":-6.20132,"is_transit":false,"time":5,"station_name":"Karet","i_long":106.816351,"line":1,"transit":false},{"i_lat":-6.201433,"is_transit":false,"station_id":"SUDB","time":1,"i_long":106.819881,"line":1,"transit":false,"station_name":"Sudirman Baru","distance":471},{"transit":false,"station_id":"SUD","i_lat":-6.202263,"station_name":"Sudirman","i_long":106.822649,"line":1,"is_transit":false,"distance":280,"time":1}],[{"station_name":"Nambo","i_lat":-6.466285,"station_id":"NMO","is_transit":false,"distance":0,"i_long":106.905196,"time":0,"line":21,"transit":false},{"i_lat":-6.46424,"line":21,"station_name":"Cibinong","is_transit":false,"transit":false,"time":10,"distance":6527,"i_long":106.851978,"station_id":"CBN"},{"is_transit":false,"i_lat":-6.460735,"station_id":"PDRG","time":0,"distance":0,"station_name":"Pondok Rajeg","i_long":106.824374,"line":21,"transit":false},{"line":2,"time":0,"station_name":"Citayam","i_lat":-6.448811,"distance":0,"is_transit":true,"i_long":106.800298,"transit":true,"station_id":"CTA"},{"station_id":"DP","distance":5084,"i_long":106.816926,"time":6,"i_lat":-6.405256,"transit":false,"line":2,"station_name":"Depok","is_transit":false},{"i_lat":-6.391065,"time":3,"line":2,"station_id":"DPB","transit":false,"is_transit":false,"i_long":106.819451,"distance":1584,"station_name":"Depokbaru"},{"station_id":"POC","station_name":"Pondok Cina","i_lat":-6.369073,"distance":2727,"transit":false,"time":4,"i_long":106.831114,"is_transit":false,"line":2},{"station_name":"Univ. Indonesia","transit":false,"distance":1109,"station_id":"UI","line":2,"i_long":106.831474,"is_transit":false,"time":2,"i_lat":-6.360749},{"station_id":"UP","is_transit":false,"station_name":"Univ. Pancasila","time":3,"distance":2264,"i_lat":-6.339291,"i_long":106.834175,"line":2,"transit":false},{"time":2,"transit":false,"is_transit":false,"i_lat":-6.330363,"station_name":"Lenteng Agung","station_id":"LNA","i_long":106.832616,"line":2,"distance":1029},{"time":3,"i_long":106.838896,"station_id":"TNT","is_transit":false,"line":2,"i_lat":-6.3080680000000005,"transit":false,"station_name":"Tanjung Barat","distance":2671},{"i_lat":-6.2842400000000005,"transit":false,"i_long":106.843999,"is_transit":false,"station_name":"Pasar Minggu","line":2,"distance":2820,"time":4,"station_id":"PSM"},{"transit":false,"distance":2380,"i_lat":-6.263214,"time":2,"is_transit":false,"i_long":106.851577,"station_name":"Pasar Minggu Baru","station_id":"PSMB","line":2},{"station_name":"Duren Kalibata","station_id":"DRN","is_transit":false,"transit":false,"time":2,"distance":824,"i_lat":-6.255332,"i_long":106.85449,"line":2},{"station_id":"CW","transit":false,"time":3,"distance":1546,"line":2,"i_lat":-6.242512,"station_name":"Cawang","is_transit":false,"i_long":106.856607},{"time":2,"transit":false,"station_id":"TEB","station_name":"Tebet","distance":1230,"i_lat":-6.226659,"line":2,"is_transit":false,"i_long":106.857948},{"i_long":106.84912,"time":4,"station_name":"Manggarai","is_transit":true,"transit":true,"station_id":"MRI","line":2,"distance":2610,"i_lat":-6.209883},{"is_transit":false,"time":2,"line":1,"station_name":"Matraman","distance":1275,"i_long":106.858896,"station_id":"MTR","i_lat":-6.212485,"transit":false},{"transit":true,"station_id":"JNG","i_long":106.86807400000001,"is_transit":true,"line":1,"time":8,"distance":1377,"i_lat":-6.215091,"station_name":"Jatinegara"},{"i_lat":-6.209188,"i_long":106.861737,"transit":false,"station_id":"POK","time":2,"is_transit":false,"distance":1236,"station_name":"Pondok Jati","line":11},{"distance":1829,"time":2,"i_long":106.855437,"i_lat":-6.193792,"line":11,"transit":false,"is_transit":false,"station_id":"KMT","station_name":"Kramat"},{"is_transit":false,"station_id":"GST","transit":false,"distance":973,"i_lat":-6.185975,"i_long":106.850107,"station_name":"Gang Sentiong","time":1,"line":11},{"distance":1567,"i_lat":-6.174784,"station_name":"Pasar Senen","is_transit":false,"time":8,"line":11,"i_long":106.84368,"transit":false,"station_id":"PSE"},{"i_lat":-6.161728,"is_transit":false,"transit":false,"time":4,"station_name":"Kemayoran","line":11,"i_long":106.839204,"distance":1436,"station_id":"KMO"},{"station_name":"Rajawali","is_transit":false,"i_lat":-6.14505,"i_long":106.836569,"transit":false,"time":5,"line":11,"distance":1901,"station_id":"RJW"},{"distance":1444,"i_lat":-6.132549,"time":3,"i_long":106.826365,"line":4,"station_name":"Kampung Bandan","transit":true,"station_id":"KPB","is_transit":true},{"distance":4102,"transit":false,"i_long":106.79867,"i_lat":-6.144674,"line":1,"is_transit":false,"station_name":"Angke","station_id":"AK","time":9},{"distance":1230,"i_lat":-6.155215,"time":4,"station_name":"Duri","is_transit":false,"i_long":106.800832,"line":1,"transit":false,"station_id":"DU"},{"station_name":"Tanah Abang","i_long":106.811091,"is_transit":false,"line":1,"distance":3632,"station_id":"THB","transit":false,"i_lat":-6.185545,"time":8},{"transit":false,"station_name":"Karet","time":5,"i_long":106.816351,"i_lat":-6.20132,"station_id":"KAT","distance":2029,"line":1,"is_transit":false},{"i_lat":-6.201433,"is_transit":false,"i_long":106.819881,"station_id":"SUDB","station_name":"Sudirman Baru","line":1,"transit":false,"time":1,"distance":471},{"distance":280,"is_transit":false,"station_id":"SUD","time":1,"i_lat":-6.202263,"transit":false,"i_long":106.822649,"line":1,"station_name":"Sudirman"}]]}