{"data":[[{"station_id":"NMO","i_long":106.905196,"distance":0,"transit":false,"i_lat":-6.466285,"is_transit":false,"time":0,"line":21,"station_name":"Nambo"},{"station_name":"Cibinong","line":21,"transit":false,"time":10,"i_lat":-6.46424,"is_transit":false,"distance":6527,"station_id":"CBN","i_long":106.851978},{"time":0,"i_long":106.824374,"station_name":"Pondok Rajeg","transit":false,"distance":0,"i_lat":-6.460735,"station_id":"PDRG","line":21,"is_transit":false},{"i_lat":-6.448811,"station_name":"Citayam","distance":0,"i_long":106.800298,"station_id":"CTA","time":0,"transit":true,"line":2,"is_transit":true},{"station_name":"Depok","is_transit":false,"transit":false,"distance":5084,"station_id":"DP","line":2,"i_long":106.816926,"i_lat":-6.405256,"time":6},{"station_name":"Depokbaru","is_transit":false,"line":2,"i_lat":-6.391065,"station_id":"DPB","time":3,"transit":false,"distance":1584,"i_long":106.819451},{"time":4,"transit":false,"distance":2727,"i_long":106.831114,"station_id":"POC","station_name":"Pondok Cina","is_transit":false,"i_lat":-6.369073,"line":2},{"station_name":"Univ. Indonesia","i_long":106.831474,"transit":false,"line":2,"time":2,"station_id":"UI","i_lat":-6.360749,"is_transit":false,"distance":1109},{"time":3,"station_name":"Univ. Pancasila","transit":false,"station_id":"UP","is_transit":false,"line":2,"i_lat":-6.339291,"i_long":106.834175,"distance":2264},{"time":2,"distance":1029,"transit":false,"station_name":"Lenteng Agung","is_transit":false,"i_lat":-6.330363,"station_id":"LNA","line":2,"i_long":106.832616},{"station_name":"Tanjung Barat","i_lat":-6.3080680000000005,"distance":2671,"line":2,"is_transit":false,"time":3,"station_id":"TNT","transit":false,"i_long":106.838896},{"transit":false,"station_id":"PSM","line":2,"distance":2820,"i_lat":-6.2842400000000005,"station_name":"Pasar Minggu","time":4,"is_transit":false,"i_long":106.843999},{"station_name":"Pasar Minggu Baru","line":2,"distance":2380,"time":2,"i_lat":-6.263214,"i_long":106.851577,"is_transit":false,"station_id":"PSMB","transit":false},{"station_name":"Duren Kalibata","station_id":"DRN","transit":false,"i_long":106.85449,"line":2,"is_transit":false,"i_lat":-6.255332,"distance":824,"time":2},{"time":3,"transit":false,"distance":1546,"is_transit":false,"station_name":"Cawang","i_long":106.856607,"station_id":"CW","i_lat":-6.242512,"line":2},{"i_lat":-6.226659,"i_long":106.857948,"transit":false,"distance":1230,"time":2,"station_name":"Tebet","line":2,"station_id":"TEB","is_transit":false},{"time":4,"i_long":106.84912,"distance":2610,"i_lat":-6.209883,"station_name":"Manggarai","is_transit":true,"line":2,"station_id":"MRI","transit":true},{"time":2,"distance":1275,"line":1,"station_id":"MTR","station_name":"Matraman","is_transit":false,"i_lat":-6.212485,"transit":false,"i_long":106.858896},{"distance":1377,"is_transit":false,"station_name":"Jatinegara","time":8,"i_lat":-6.215091,"i_long":106.86807400000001,"transit":false,"line":1,"station_id":"JNG"},{"station_id":"KLD","i_lat":-6.2135,"i_long":106.899548,"time":3,"transit":false,"is_transit":false,"station_name":"Klender","distance":3395,"line":1},{"is_transit":false,"station_id":"BUA","line":1,"transit":false,"time":2,"i_lat":-6.215568,"station_name":"Buaran","distance":3100,"i_long":106.922662},{"station_name":"Klenderbaru","distance":1305,"i_long":106.939679,"transit":false,"line":1,"station_id":"KLDB","is_transit":false,"i_lat":-6.217455,"time":1},{"time":8,"station_name":"Cakung","i_lat":-6.219053,"i_long":106.951283,"distance":1385,"station_id":"CUK","is_transit":false,"transit":false,"line":1}],[{"i_long":106.905196,"time":0,"station_name":"Nambo","i_lat":-6.466285,"line":21,"is_transit":false,"transit":false,"distance":0,"station_id":"NMO"},{"station_id":"CBN","time":10,"transit":false,"station_name":"Cibinong","is_transit":false,"i_lat":-6.46424,"i_long":106.851978,"distance":6527,"line":21},{"transit":false,"line":21,"station_name":"Pondok Rajeg","distance":0,"i_long":106.824374,"is_transit":false,"time":0,"station_id":"PDRG","i_lat":-6.460735},{"station_id":"CTA","i_lat":-6.448811,"is_transit":true,"transit":true,"line":2,"station_name":"Citayam","time":0,"i_long":106.800298,"distance":0},{"i_long":106.816926,"station_name":"Depok","transit":false,"is_transit":false,"distance":5084,"i_lat":-6.405256,"line":2,"time":6,"station_id":"DP"},{"is_transit":false,"i_long":106.819451,"station_name":"Depokbaru","i_lat":-6.391065,"line":2,"time":3,"transit":false,"distance":1584,"station_id":"DPB"},{"distance":2727,"i_long":106.831114,"station_id":"POC","i_lat":-6.369073,"line":2,"is_transit":false,"time":4,"transit":false,"station_name":"Pondok Cina"},{"station_id":"UI","transit":false,"station_name":"Univ. Indonesia","i_long":106.831474,"distance":1109,"is_transit":false,"time":2,"i_lat":-6.360749,"line":2},{"is_transit":false,"i_long":106.834175,"time":3,"distance":2264,"i_lat":-6.339291,"line":2,"station_name":"Univ. Pancasila","station_id":"UP","transit":false},{"station_id":"LNA","i_long":106.832616,"line":2,"transit":false,"is_transit":false,"time":2,"station_name":"Lenteng Agung","distance":1029,"i_lat":-6.330363},{"distance":2671,"station_id":"TNT","is_transit":false,"time":3,"transit":false,"i_lat":-6.3080680000000005,"i_long":106.838896,"station_name":"Tanjung Barat","line":2},{"time":4,"station_name":"Pasar Minggu","is_transit":false,"station_id":"PSM","distance":2820,"i_lat":-6.2842400000000005,"i_long":106.843999,"line":2,"transit":false},{"is_transit":false,"distance":2380,"station_id":"PSMB","station_name":"Pasar Minggu Baru","time":2,"i_lat":-6.263214,"i_long":106.851577,"transit":false,"line":2},{"time":2,"station_name":"Duren Kalibata","station_id":"DRN","line":2,"i_lat":-6.255332,"is_transit":false,"transit":false,"i_long":106.85449,"distance":824},{"i_lat":-6.242512,"line":2,"i_long":106.856607,"time":3,"station_name":"Cawang","is_transit":false,"station_id":"CW","transit":false,"distance":1546},{"distance":1230,"i_long":106.857948,"is_transit":false,"station_name":"Tebet","time":2,"line":2,"transit":false,"i_lat":-6.226659,"station_id":"TEB"},{"i_lat":-6.209883,"line":2,"is_transit":true,"station_id":"MRI","distance":2610,"transit":true,"i_long":106.84912,"station_name":"Manggarai","time":4},{"station_name":"Sudirman","station_id":"SUD","distance":3186,"line":1,"i_lat":-6.202263,"time":4,"is_transit":false,"transit":false,"i_long":106.822649},{"station_id":"SUDB","is_transit":false,"distance":280,"i_lat":-6.201433,"line":1,"time":1,"i_long":106.819881,"station_name":"Sudirman Baru","transit":false},{"station_name":"Karet","i_long":106.816351,"line":1,"is_transit":false,"time":1,"distance":471,"i_lat":-6.20132,"station_id":"KAT","transit":false},{"i_long":106.811091,"line":1,"time":5,"is_transit":false,"transit":false,"distance":2029,"station_id":"THB","i_lat":-6.185545,"station_name":"Tanah Abang"},{"distance":3632,"line":1,"time":8,"station_name":"Duri","i_lat":-6.155215,"i_long":106.800832,"station_id":"DU","is_transit":false,"transit":false},{"is_transit":false,"time":4,"distance":1230,"i_long":106.79867,"line":1,"i_lat":-6.144674,"station_id":"AK","station_name":"Angke","transit":false},{"station_id":"KPB","distance":4102,"time":9,"i_long":106.826365,"station_name":"Kampung Bandan","line":4,"transit":true,"is_transit":true,"i_lat":-6.132549},{"time":3,"i_lat":-6.14505,"transit":false,"station_id":"RJW","station_name":"Rajawali","distance":1444,"line":11,"is_transit":false,"i_long":106.836569},{"distance":1901,"station_id":"KMO","line":11,"i_lat":-6.161728,"station_name":"Kemayoran","is_transit":false,"time":5,"transit":false,"i_long":106.839204},{"station_name":"Pasar Senen","is_transit":false,"distance":1436,"i_lat":-6.174784,"line":11,"station_id":"PSE","time":4,"transit":false,"i_long":106.84368},{"transit":false,"station_id":"GST","station_name":"Gang Sentiong","is_transit":false,"distance":1567,"i_lat":-6.185975,"time":8,"i_long":106.850107,"line":11},{"station_name":"Kramat","time":1,"station_id":"KMT","transit":false,"i_long":106.855437,"line":11,"distance":973,"i_lat":-6.193792,"is_transit":false},{"line":11,"is_transit":false,"distance":1829,"transit":false,"station_name":"Pondok Jati","i_long":106.861737,"i_lat":-6.209188,"station_id":"POK","time":2},{"station_name":"Jatinegara","i_lat":-6.215091,"is_transit":true,"distance":1236,"station_id":"JNG","time":9,"line":1,"i_long":106.86807400000001,"transit":true},{"i_lat":-6.2135,"station_name":"Klender","transit":false,"distance":3395,"is_transit":false,"station_id":"KLD","line":1,"i_long":106.899548,"time":3},{"i_long":106.922662,"i_lat":-6.215568,"time":2,"is_transit":false,"station_name":"Buaran","transit":false,"line":1,"station_id":"BUA","distance":3100},{"distance":1305,"i_long":106.939679,"transit":false,"i_lat":-6.217455,"station_id":"KLDB","time":1,"is_transit":false,"line":1,"station_name":"Klenderbaru"},{"distance":1385,"is_transit":false,"time":8,"i_lat":-6.219053,"station_name":"Cakung","station_id":"CUK","i_long":106.951283,"line":1,"transit":false}],[{"is_transit":false,"time":0,"station_name":"Nambo","station_id":"NMO","i_lat":-6.466285,"line":21,"transit":false,"distance":0,"i_long":106.905196},{"distance":6527,"line":21,"station_name":"Cibinong","is_transit":false,"i_lat":-6.46424,"i_long":106.851978,"time":10,"transit":false,"station_id":"CBN"},{"distance":0,"i_long":106.824374,"is_transit":false,"transit":false,"station_name":"Pondok Rajeg","time":0,"station_id":"PDRG","line":21,"i_lat":-6.460735},{"i_lat":-6.448811,"station_name":"Citayam","transit":true,"is_transit":true,"station_id":"CTA","i_long":106.800298,"time":0,"distance":0,"line":2},{"i_long":106.816926,"i_lat":-6.405256,"station_name":"Depok","transit":false,"time":6,"distance":5084,"line":2,"station_id":"DP","is_transit":false},{"i_long":106.819451,"transit":false,"line":2,"i_lat":-6.391065,"is_transit":false,"station_id":"DPB","time":3,"station_name":"Depokbaru","distance":1584},{"transit":false,"i_long":106.831114,"station_name":"Pondok Cina","distance":2727,"line":2,"station_id":"POC","is_transit":false,"i_lat":-6.369073,"time":4},{"line":2,"i_long":106.831474,"station_name":"Univ. Indonesia","distance":1109,"i_lat":-6.360749,"is_transit":false,"transit":false,"time":2,"station_id":"UI"},{"transit":false,"line":2,"is_transit":false,"i_lat":-6.339291,"station_id":"UP","station_name":"Univ. Pancasila","distance":2264,"i_long":106.834175,"time":3},{"distance":1029,"station_id":"LNA","station_name":"Lenteng Agung","i_lat":-6.330363,"line":2,"i_long":106.832616,"is_transit":false,"transit":false,"time":2},{"is_transit":false,"time":3,"i_lat":-6.3080680000000005,"i_long":106.838896,"line":2,"station_id":"TNT","station_name":"Tanjung Barat","distance":2671,"transit":false},{"station_name":"Pasar Minggu","i_lat":-6.2842400000000005,"transit":false,"i_long":106.843999,"distance":2820,"line":2,"is_transit":false,"time":4,"station_id":"PSM"},{"distance":2380,"time":2,"i_long":106.851577,"is_transit":false,"station_id":"PSMB","line":2,"transit":false,"i_lat":-6.263214,"station_name":"Pasar Minggu Baru"},{"time":2,"is_transit":false,"transit":false,"station_name":"Duren Kalibata","line":2,"i_lat":-6.255332,"distance":824,"i_long":106.85449,"station_id":"DRN"},{"station_id":"CW","line":2,"time":3,"i_long":106.856607,"station_name":"Cawang","distance":1546,"transit":false,"i_lat":-6.242512,"is_transit":false},{"station_name":"Tebet","is_transit":false,"time":2,"station_id":"TEB","transit":false,"i_long":106.857948,"distance":1230,"i_lat":-6.226659,"line":2},{"i_lat":-6.209883,"line":2,"i_long":106.84912,"distance":2610,"station_id":"MRI","time":4,"transit":false,"is_transit":false,"station_name":"Manggarai"},{"station_id":"CKI","is_transit":false,"i_long":106.840169,"line":2,"time":4,"distance":1590,"i_lat":-6.198556,"transit":false,"station_name":"Cikini"},{"station_name":"Gondangdia","transit":false,"time":3,"line":2,"station_id":"GDD","i_lat":-6.186295,"is_transit":false,"distance":1750,"i_long":106.832183},{"distance":2015,"transit":false,"i_lat":-6.166716,"station_id":"JUA","i_long":106.828284,"time":4,"is_transit":false,"line":2,"station_name":"Juanda"},{"distance":1149,"transit":false,"station_id":"SW","line":2,"time":2,"station_name":"Sawah Besar","is_transit":false,"i_long":106.827103,"i_lat":-6.160725},{"station_name":"Manggabesar","station_id":"MGB","i_long":106.82482,"i_lat":-6.149769,"distance":906,"transit":false,"time":2,"is_transit":false,"line":2},{"station_name":"Jayakarta","time":2,"i_long":106.820901,"distance":1080,"transit":false,"station_id":"JAY","is_transit":false,"i_lat":-6.141205,"line":2},{"station_name":"Jakarta Kota","time":4,"i_lat":-6.137569,"i_long":106.812439,"station_id":"JAKK","line":2,"is_transit":true,"transit":true,"distance":1264},{"time":3,"is_transit":true,"transit":true,"i_long":106.826365,"i_lat":-6.132549,"distance":1364,"station_id":"KPB","station_name":"Kampung Bandan","line":4},{"station_id":"RJW","time":3,"line":11,"is_transit":false,"distance":1444,"transit":false,"i_lat":-6.14505,"station_name":"Rajawali","i_long":106.836569},{"transit":false,"distance":1901,"station_id":"KMO","line":11,"is_transit":false,"i_lat":-6.161728,"time":5,"station_name":"Kemayoran","i_long":106.839204},{"transit":false,"i_long":106.84368,"i_lat":-6.174784,"is_transit":false,"distance":1436,"station_id":"PSE","time":4,"station_name":"Pasar Senen","line":11},{"distance":1567,"time":8,"station_id":"GST","is_transit":false,"station_name":"Gang Sentiong","transit":false,"i_lat":-6.185975,"line":11,"i_long":106.850107},{"i_lat":-6.193792,"distance":973,"i_long":106.855437,"station_name":"Kramat","time":1,"station_id":"KMT","is_transit":false,"line":11,"transit":false},{"i_lat":-6.209188,"distance":1829,"station_id":"POK","transit":false,"is_transit":false,"time":2,"i_long":106.861737,"station_name":"Pondok Jati","line":11},{"is_transit":true,"transit":true,"distance":1236,"station_id":"JNG","i_lat":-6.215091,"i_long":106.86807400000001,"time":9,"line":1,"station_name":"Jatinegara"},{"transit":false,"i_long":106.899548,"station_id":"KLD","station_name":"Klender","i_lat":-6.2135,"time":3,"is_transit":false,"distance":3395,"line":1},{"is_transit":false,"line":1,"station_name":"Buaran","station_id":"BUA","transit":false,"distance":3100,"i_lat":-6.215568,"i_long":106.922662,"time":2},{"line":1,"transit":false,"distance":1305,"i_long":106.939679,"station_name":"Klenderbaru","time":1,"station_id":"KLDB","is_transit":false,"i_lat":-6.217455},{"i_lat":-6.219053,"line":1,"station_name":"Cakung","station_id":"CUK","is_transit":false,"i_long":106.951283,"distance":1385,"transit":false,"time":8}]]}