{"data":[[{"i_lat":-6.466285,"time":0,"i_long":106.905196,"transit":false,"line":21,"is_transit":false,"station_id":"NMO","station_name":"Nambo","distance":0},{"station_id":"CBN","is_transit":false,"time":10,"i_lat":-6.46424,"i_long":106.851978,"distance":6527,"transit":false,"station_name":"Cibinong","line":21},{"i_long":106.824374,"station_name":"Pondok Rajeg","i_lat":-6.460735,"line":21,"time":0,"station_id":"PDRG","distance":0,"is_transit":false,"transit":false},{"station_id":"CTA","i_lat":-6.448811,"i_long":106.800298,"line":2,"is_transit":true,"transit":true,"station_name":"Citayam","time":0,"distance":0},{"station_name":"Depok","i_lat":-6.405256,"transit":false,"line":2,"is_transit":false,"i_long":106.816926,"distance":5084,"station_id":"DP","time":6},{"time":3,"distance":1584,"station_name":"Depokbaru","station_id":"DPB","i_lat":-6.391065,"i_long":106.819451,"is_transit":false,"transit":false,"line":2},{"station_id":"POC","is_transit":false,"transit":false,"time":4,"i_lat":-6.369073,"i_long":106.831114,"station_name":"Pondok Cina","line":2,"distance":2727},{"time":2,"line":2,"distance":1109,"i_lat":-6.360749,"i_long":106.831474,"station_name":"Univ. Indonesia","transit":false,"station_id":"UI","is_transit":false},{"is_transit":false,"station_name":"Univ. Pancasila","line":2,"time":3,"transit":false,"i_lat":-6.339291,"i_long":106.834175,"distance":2264,"station_id":"UP"},{"distance":1029,"line":2,"station_id":"LNA","time":2,"transit":false,"i_lat":-6.330363,"station_name":"Lenteng Agung","is_transit":false,"i_long":106.832616},{"i_lat":-6.3080680000000005,"line":2,"i_long":106.838896,"station_name":"Tanjung Barat","station_id":"TNT","time":3,"is_transit":false,"distance":2671,"transit":false},{"time":4,"transit":false,"station_name":"Pasar Minggu","i_long":106.843999,"is_transit":false,"distance":2820,"i_lat":-6.2842400000000005,"station_id":"PSM","line":2},{"i_long":106.851577,"is_transit":false,"distance":2380,"line":2,"station_id":"PSMB","transit":false,"station_name":"Pasar Minggu Baru","i_lat":-6.263214,"time":2},{"distance":824,"time":2,"i_long":106.85449,"transit":false,"is_transit":false,"station_name":"Duren Kalibata","station_id":"DRN","i_lat":-6.255332,"line":2},{"line":2,"station_id":"CW","i_long":106.856607,"time":3,"distance":1546,"is_transit":false,"i_lat":-6.242512,"transit":false,"station_name":"Cawang"},{"time":2,"transit":false,"i_long":106.857948,"distance":1230,"line":2,"i_lat":-6.226659,"is_transit":false,"station_id":"TEB","station_name":"Tebet"},{"time":4,"line":2,"station_name":"Manggarai","transit":true,"station_id":"MRI","is_transit":true,"i_lat":-6.209883,"distance":2610,"i_long":106.84912},{"distance":3186,"line":1,"is_transit":false,"i_lat":-6.202263,"time":4,"i_long":106.822649,"station_id":"SUD","station_name":"Sudirman","transit":false},{"line":1,"time":1,"station_id":"SUDB","i_long":106.819881,"is_transit":false,"transit":false,"distance":280,"station_name":"Sudirman Baru","i_lat":-6.201433},{"is_transit":false,"distance":471,"transit":false,"station_name":"Karet","time":1,"i_lat":-6.20132,"line":1,"i_long":106.816351,"station_id":"KAT"},{"distance":2029,"transit":true,"station_name":"Tanah Abang","time":5,"line":1,"i_long":106.811091,"is_transit":true,"station_id":"THB","i_lat":-6.185545},{"station_id":"PLM","i_lat":-6.207404,"i_long":106.79689,"station_name":"Palmerah","line":6,"time":6,"distance":3191,"is_transit":false,"transit":false},{"i_lat":-6.237242,"distance":3737,"station_name":"Kebayoran","transit":false,"station_id":"KBY","i_long":106.780334,"is_transit":false,"time":7,"line":6}],[{"line":21,"time":0,"i_long":106.905196,"is_transit":false,"transit":false,"station_id":"NMO","distance":0,"i_lat":-6.466285,"station_name":"Nambo"},{"i_long":106.851978,"station_id":"CBN","i_lat":-6.46424,"transit":false,"line":21,"distance":6527,"is_transit":false,"time":10,"station_name":"Cibinong"},{"station_name":"Pondok Rajeg","transit":false,"station_id":"PDRG","is_transit":false,"i_long":106.824374,"line":21,"distance":0,"i_lat":-6.460735,"time":0},{"distance":0,"line":2,"i_lat":-6.448811,"station_id":"CTA","time":0,"i_long":106.800298,"is_transit":true,"transit":true,"station_name":"Citayam"},{"distance":5084,"transit":false,"station_name":"Depok","i_long":106.816926,"line":2,"i_lat":-6.405256,"is_transit":false,"time":6,"station_id":"DP"},{"distance":1584,"station_name":"Depokbaru","transit":false,"line":2,"station_id":"DPB","time":3,"is_transit":false,"i_lat":-6.391065,"i_long":106.819451},{"station_name":"Pondok Cina","i_long":106.831114,"line":2,"distance":2727,"transit":false,"station_id":"POC","is_transit":false,"time":4,"i_lat":-6.369073},{"transit":false,"station_id":"UI","i_long":106.831474,"station_name":"Univ. Indonesia","time":2,"distance":1109,"is_transit":false,"line":2,"i_lat":-6.360749},{"i_long":106.834175,"is_transit":false,"transit":false,"station_name":"Univ. Pancasila","distance":2264,"time":3,"i_lat":-6.339291,"station_id":"UP","line":2},{"i_lat":-6.330363,"station_name":"Lenteng Agung","line":2,"distance":1029,"is_transit":false,"transit":false,"time":2,"i_long":106.832616,"station_id":"LNA"},{"station_id":"TNT","distance":2671,"transit":false,"i_lat":-6.3080680000000005,"is_transit":false,"i_long":106.838896,"station_name":"Tanjung Barat","time":3,"line":2},{"is_transit":false,"i_long":106.843999,"station_name":"Pasar Minggu","distance":2820,"time":4,"transit":false,"i_lat":-6.2842400000000005,"station_id":"PSM","line":2},{"i_lat":-6.263214,"distance":2380,"i_long":106.851577,"station_id":"PSMB","station_name":"Pasar Minggu Baru","time":2,"is_transit":false,"transit":false,"line":2},{"station_id":"DRN","transit":false,"station_name":"Duren Kalibata","i_long":106.85449,"i_lat":-6.255332,"line":2,"time":2,"is_transit":false,"distance":824},{"distance":1546,"i_long":106.856607,"transit":false,"station_name":"Cawang","station_id":"CW","time":3,"line":2,"is_transit":false,"i_lat":-6.242512},{"station_id":"TEB","distance":1230,"i_lat":-6.226659,"line":2,"station_name":"Tebet","is_transit":false,"i_long":106.857948,"time":2,"transit":false},{"station_name":"Manggarai","i_lat":-6.209883,"is_transit":false,"distance":2610,"i_long":106.84912,"line":2,"time":4,"station_id":"MRI","transit":false},{"line":2,"transit":false,"station_id":"CKI","time":4,"is_transit":false,"station_name":"Cikini","i_lat":-6.198556,"distance":1590,"i_long":106.840169},{"is_transit":false,"time":3,"station_name":"Gondangdia","i_lat":-6.186295,"line":2,"distance":1750,"i_long":106.832183,"transit":false,"station_id":"GDD"},{"is_transit":false,"station_id":"JUA","i_long":106.828284,"line":2,"i_lat":-6.166716,"distance":2015,"transit":false,"time":4,"station_name":"Juanda"},{"i_lat":-6.160725,"time":2,"is_transit":false,"i_long":106.827103,"transit":false,"line":2,"station_id":"SW","station_name":"Sawah Besar","distance":1149},{"i_lat":-6.149769,"time":2,"distance":906,"station_id":"MGB","station_name":"Manggabesar","transit":false,"i_long":106.82482,"line":2,"is_transit":false},{"i_lat":-6.141205,"time":2,"i_long":106.820901,"transit":false,"station_id":"JAY","station_name":"Jayakarta","line":2,"is_transit":false,"distance":1080},{"is_transit":true,"time":4,"station_id":"JAKK","distance":1264,"i_lat":-6.137569,"i_long":106.812439,"transit":true,"line":2,"station_name":"Jakarta Kota"},{"i_lat":-6.132549,"time":3,"station_name":"Kampung Bandan","distance":1364,"line":4,"station_id":"KPB","i_long":106.826365,"transit":true,"is_transit":true},{"distance":4102,"station_name":"Angke","is_transit":false,"i_lat":-6.144674,"line":1,"time":9,"station_id":"AK","transit":false,"i_long":106.79867},{"time":4,"is_transit":false,"line":1,"i_lat":-6.155215,"station_id":"DU","distance":1230,"station_name":"Duri","i_long":106.800832,"transit":false},{"transit":true,"i_long":106.811091,"time":8,"station_name":"Tanah Abang","station_id":"THB","distance":3632,"i_lat":-6.185545,"is_transit":true,"line":1},{"distance":3191,"time":6,"is_transit":false,"line":6,"transit":false,"station_id":"PLM","station_name":"Palmerah","i_lat":-6.207404,"i_long":106.79689},{"line":6,"station_id":"KBY","i_long":106.780334,"time":7,"distance":3737,"is_transit":false,"transit":false,"station_name":"Kebayoran","i_lat":-6.237242}],[{"transit":false,"station_name":"Nambo","line":21,"station_id":"NMO","distance":0,"i_lat":-6.466285,"i_long":106.905196,"time":0,"is_transit":false},{"i_lat":-6.46424,"line":21,"station_name":"Cibinong","time":10,"i_long":106.851978,"distance":6527,"station_id":"CBN","is_transit":false,"transit":false},{"transit":false,"i_lat":-6.460735,"time":0,"is_transit":false,"i_long":106.824374,"station_id":"PDRG","distance":0,"line":21,"station_name":"Pondok Rajeg"},{"is_transit":true,"i_lat":-6.448811,"i_long":106.800298,"transit":true,"line":2,"station_name":"Citayam","time":0,"distance":0,"station_id":"CTA"},{"is_transit":false,"i_lat":-6.405256,"i_long":106.816926,"station_id":"DP","transit":false,"station_name":"Depok","line":2,"distance":5084,"time":6},{"station_name":"Depokbaru","transit":false,"i_lat":-6.391065,"distance":1584,"station_id":"DPB","i_long":106.819451,"line":2,"is_transit":false,"time":3},{"i_lat":-6.369073,"is_transit":false,"i_long":106.831114,"station_name":"Pondok Cina","distance":2727,"line":2,"time":4,"station_id":"POC","transit":false},{"transit":false,"station_name":"Univ. Indonesia","line":2,"time":2,"i_long":106.831474,"distance":1109,"is_transit":false,"i_lat":-6.360749,"station_id":"UI"},{"is_transit":false,"i_long":106.834175,"line":2,"station_name":"Univ. Pancasila","i_lat":-6.339291,"transit":false,"distance":2264,"time":3,"station_id":"UP"},{"time":2,"station_id":"LNA","station_name":"Lenteng Agung","line":2,"i_lat":-6.330363,"distance":1029,"is_transit":false,"transit":false,"i_long":106.832616},{"distance":2671,"i_lat":-6.3080680000000005,"is_transit":false,"station_name":"Tanjung Barat","time":3,"station_id":"TNT","transit":false,"i_long":106.838896,"line":2},{"transit":false,"line":2,"station_name":"Pasar Minggu","time":4,"station_id":"PSM","is_transit":false,"i_lat":-6.2842400000000005,"distance":2820,"i_long":106.843999},{"time":2,"is_transit":false,"station_name":"Pasar Minggu Baru","line":2,"i_lat":-6.263214,"station_id":"PSMB","distance":2380,"transit":false,"i_long":106.851577},{"time":2,"station_name":"Duren Kalibata","distance":824,"is_transit":false,"i_lat":-6.255332,"station_id":"DRN","transit":false,"line":2,"i_long":106.85449},{"transit":false,"i_lat":-6.242512,"time":3,"i_long":106.856607,"line":2,"distance":1546,"station_name":"Cawang","station_id":"CW","is_transit":false},{"station_id":"TEB","i_lat":-6.226659,"i_long":106.857948,"is_transit":false,"time":2,"station_name":"Tebet","line":2,"transit":false,"distance":1230},{"i_long":106.84912,"time":4,"is_transit":true,"i_lat":-6.209883,"line":2,"transit":true,"distance":2610,"station_id":"MRI","station_name":"Manggarai"},{"is_transit":false,"transit":false,"distance":1275,"station_id":"MTR","station_name":"Matraman","i_lat":-6.212485,"i_long":106.858896,"line":1,"time":2},{"station_id":"JNG","time":8,"i_long":106.86807400000001,"is_transit":true,"line":1,"transit":true,"distance":1377,"station_name":"Jatinegara","i_lat":-6.215091},{"line":11,"transit":false,"i_lat":-6.209188,"station_id":"POK","time":2,"distance":1236,"is_transit":false,"station_name":"Pondok Jati","i_long":106.861737},{"time":2,"line":11,"station_name":"Kramat","station_id":"KMT","i_lat":-6.193792,"distance":1829,"is_transit":false,"transit":false,"i_long":106.855437},{"is_transit":false,"i_lat":-6.185975,"distance":973,"time":1,"line":11,"i_long":106.850107,"transit":false,"station_name":"Gang Sentiong","station_id":"GST"},{"time":8,"station_name":"Pasar Senen","distance":1567,"line":11,"transit":false,"station_id":"PSE","i_long":106.84368,"i_lat":-6.174784,"is_transit":false},{"transit":false,"station_name":"Kemayoran","line":11,"distance":1436,"is_transit":false,"time":4,"station_id":"KMO","i_lat":-6.161728,"i_long":106.839204},{"i_long":106.836569,"station_id":"RJW","distance":1901,"transit":false,"time":5,"station_name":"Rajawali","is_transit":false,"i_lat":-6.14505,"line":11},{"transit":true,"is_transit":true,"i_long":106.826365,"line":4,"time":3,"distance":1444,"station_id":"KPB","i_lat":-6.132549,"station_name":"Kampung Bandan"},{"i_lat":-6.144674,"station_id":"AK","i_long":106.79867,"transit":false,"time":9,"station_name":"Angke","distance":4102,"is_transit":false,"line":1},{"time":4,"distance":1230,"line":1,"station_name":"Duri","i_long":106.800832,"station_id":"DU","is_transit":false,"transit":false,"i_lat":-6.155215},{"i_long":106.811091,"distance":3632,"line":1,"time":8,"is_transit":true,"transit":true,"station_name":"Tanah Abang","i_lat":-6.185545,"station_id":"THB"},{"distance":3191,"i_lat":-6.207404,"is_transit":false,"transit":false,"station_id":"PLM","time":6,"station_name":"Palmerah","i_long":106.79689,"line":6},{"line":6,"station_name":"Kebayoran","transit":false,"time":7,"is_transit":false,"station_id":"KBY","i_lat":-6.237242,"i_long":106.780334,"distance":3737}]]}