{"data":[[{"station_id":"NMO","distance":0,"station_name":"Nambo","transit":false,"is_transit":false,"i_lat":-6.466285,"i_long":106.905196,"line":21,"time":0},{"i_lat":-6.46424,"station_name":"Cibinong","line":21,"transit":false,"distance":6527,"i_long":106.851978,"station_id":"CBN","time":10,"is_transit":false},{"station_id":"PDRG","distance":0,"i_long":106.824374,"i_lat":-6.460735,"is_transit":false,"station_name":"Pondok Rajeg","time":0,"line":21,"transit":false},{"station_id":"CTA","distance":0,"time":0,"i_lat":-6.448811,"i_long":106.800298,"line":2,"transit":true,"station_name":"Citayam","is_transit":true},{"is_transit":false,"station_id":"DP","time":6,"line":2,"station_name":"Depok","i_lat":-6.405256,"i_long":106.816926,"transit":false,"distance":5084},{"i_long":106.819451,"i_lat":-6.391065,"line":2,"station_name":"Depokbaru","is_transit":false,"transit":false,"station_id":"DPB","distance":1584,"time":3},{"station_name":"Pondok Cina","is_transit":false,"transit":false,"distance":2727,"line":2,"i_long":106.831114,"time":4,"i_lat":-6.369073,"station_id":"POC"},{"station_id":"UI","station_name":"Univ. Indonesia","is_transit":false,"transit":false,"time":2,"distance":1109,"i_lat":-6.360749,"i_long":106.831474,"line":2},{"station_name":"Univ. Pancasila","line":2,"i_long":106.834175,"transit":false,"is_transit":false,"time":3,"station_id":"UP","distance":2264,"i_lat":-6.339291},{"i_lat":-6.330363,"distance":1029,"station_name":"Lenteng Agung","transit":false,"time":2,"line":2,"station_id":"LNA","i_long":106.832616,"is_transit":false},{"i_lat":-6.3080680000000005,"is_transit":false,"station_id":"TNT","line":2,"time":3,"distance":2671,"transit":false,"station_name":"Tanjung Barat","i_long":106.838896},{"i_long":106.843999,"station_id":"PSM","i_lat":-6.2842400000000005,"line":2,"station_name":"Pasar Minggu","is_transit":false,"distance":2820,"transit":false,"time":4},{"distance":2380,"i_long":106.851577,"is_transit":false,"time":2,"line":2,"station_id":"PSMB","station_name":"Pasar Minggu Baru","i_lat":-6.263214,"transit":false},{"is_transit":false,"distance":824,"station_name":"Duren Kalibata","transit":false,"station_id":"DRN","time":2,"i_lat":-6.255332,"i_long":106.85449,"line":2},{"is_transit":false,"transit":false,"i_lat":-6.242512,"i_long":106.856607,"time":3,"station_name":"Cawang","line":2,"distance":1546,"station_id":"CW"},{"time":2,"is_transit":false,"line":2,"transit":false,"station_name":"Tebet","distance":1230,"i_lat":-6.226659,"station_id":"TEB","i_long":106.857948},{"time":4,"line":2,"station_id":"MRI","station_name":"Manggarai","distance":2610,"i_lat":-6.209883,"is_transit":true,"transit":true,"i_long":106.84912},{"is_transit":false,"time":2,"i_lat":-6.212485,"transit":false,"station_name":"Matraman","line":1,"i_long":106.858896,"station_id":"MTR","distance":1275},{"transit":false,"i_long":106.86807400000001,"distance":1377,"is_transit":false,"time":8,"station_name":"Jatinegara","i_lat":-6.215091,"station_id":"JNG","line":1},{"transit":false,"station_name":"Klender","line":1,"i_lat":-6.2135,"time":3,"station_id":"KLD","distance":3395,"i_long":106.899548,"is_transit":false},{"line":1,"station_name":"Buaran","transit":false,"i_lat":-6.215568,"i_long":106.922662,"time":2,"distance":3100,"is_transit":false,"station_id":"BUA"},{"station_name":"Klenderbaru","is_transit":false,"time":1,"i_long":106.939679,"distance":1305,"i_lat":-6.217455,"line":1,"station_id":"KLDB","transit":false},{"distance":1385,"i_long":106.951283,"time":8,"transit":false,"line":1,"station_id":"CUK","station_name":"Cakung","is_transit":false,"i_lat":-6.219053}],[{"station_id":"NMO","is_transit":false,"i_long":106.905196,"line":21,"i_lat":-6.466285,"station_name":"Nambo","transit":false,"time":0,"distance":0},{"station_name":"Cibinong","time":10,"line":21,"transit":false,"station_id":"CBN","is_transit":false,"i_lat":-6.46424,"distance":6527,"i_long":106.851978},{"i_long":106.824374,"i_lat":-6.460735,"station_id":"PDRG","is_transit":false,"station_name":"Pondok Rajeg","time":0,"distance":0,"transit":false,"line":21},{"time":0,"i_lat":-6.448811,"station_id":"CTA","station_name":"Citayam","distance":0,"is_transit":true,"i_long":106.800298,"line":2,"transit":true},{"line":2,"i_lat":-6.405256,"station_id":"DP","transit":false,"is_transit":false,"time":6,"distance":5084,"station_name":"Depok","i_long":106.816926},{"distance":1584,"time":3,"station_id":"DPB","i_long":106.819451,"transit":false,"station_name":"Depokbaru","is_transit":false,"i_lat":-6.391065,"line":2},{"i_lat":-6.369073,"distance":2727,"station_id":"POC","transit":false,"i_long":106.831114,"line":2,"station_name":"Pondok Cina","is_transit":false,"time":4},{"station_name":"Univ. Indonesia","is_transit":false,"time":2,"line":2,"i_lat":-6.360749,"i_long":106.831474,"distance":1109,"transit":false,"station_id":"UI"},{"station_id":"UP","distance":2264,"i_long":106.834175,"transit":false,"is_transit":false,"time":3,"i_lat":-6.339291,"line":2,"station_name":"Univ. Pancasila"},{"transit":false,"is_transit":false,"station_name":"Lenteng Agung","i_long":106.832616,"distance":1029,"time":2,"i_lat":-6.330363,"station_id":"LNA","line":2},{"time":3,"i_lat":-6.3080680000000005,"line":2,"station_id":"TNT","is_transit":false,"i_long":106.838896,"station_name":"Tanjung Barat","transit":false,"distance":2671},{"distance":2820,"is_transit":false,"station_id":"PSM","line":2,"i_lat":-6.2842400000000005,"station_name":"Pasar Minggu","transit":false,"i_long":106.843999,"time":4},{"time":2,"i_lat":-6.263214,"distance":2380,"line":2,"i_long":106.851577,"is_transit":false,"station_id":"PSMB","transit":false,"station_name":"Pasar Minggu Baru"},{"time":2,"station_id":"DRN","transit":false,"line":2,"distance":824,"is_transit":false,"i_long":106.85449,"station_name":"Duren Kalibata","i_lat":-6.255332},{"i_long":106.856607,"is_transit":false,"line":2,"time":3,"distance":1546,"station_name":"Cawang","station_id":"CW","i_lat":-6.242512,"transit":false},{"i_long":106.857948,"transit":false,"time":2,"is_transit":false,"i_lat":-6.226659,"station_id":"TEB","station_name":"Tebet","line":2,"distance":1230},{"time":4,"is_transit":true,"station_id":"MRI","line":2,"i_long":106.84912,"station_name":"Manggarai","transit":true,"i_lat":-6.209883,"distance":2610},{"i_long":106.822649,"transit":false,"is_transit":false,"line":1,"time":4,"station_id":"SUD","i_lat":-6.202263,"distance":3186,"station_name":"Sudirman"},{"station_name":"Sudirman Baru","is_transit":false,"i_lat":-6.201433,"i_long":106.819881,"line":1,"time":1,"distance":280,"station_id":"SUDB","transit":false},{"station_name":"Karet","line":1,"i_lat":-6.20132,"distance":471,"time":1,"station_id":"KAT","transit":false,"is_transit":false,"i_long":106.816351},{"transit":false,"station_name":"Tanah Abang","line":1,"i_long":106.811091,"is_transit":false,"i_lat":-6.185545,"time":5,"distance":2029,"station_id":"THB"},{"time":8,"line":1,"station_id":"DU","transit":false,"i_lat":-6.155215,"station_name":"Duri","distance":3632,"is_transit":false,"i_long":106.800832},{"transit":false,"station_id":"AK","line":1,"i_lat":-6.144674,"distance":1230,"station_name":"Angke","is_transit":false,"i_long":106.79867,"time":4},{"station_id":"KPB","line":4,"distance":4102,"station_name":"Kampung Bandan","time":9,"i_long":106.826365,"transit":true,"is_transit":true,"i_lat":-6.132549},{"is_transit":false,"distance":1444,"station_id":"RJW","i_long":106.836569,"transit":false,"i_lat":-6.14505,"time":3,"line":11,"station_name":"Rajawali"},{"distance":1901,"transit":false,"line":11,"station_name":"Kemayoran","time":5,"station_id":"KMO","is_transit":false,"i_long":106.839204,"i_lat":-6.161728},{"is_transit":false,"line":11,"station_id":"PSE","distance":1436,"time":4,"station_name":"Pasar Senen","transit":false,"i_lat":-6.174784,"i_long":106.84368},{"line":11,"distance":1567,"i_long":106.850107,"station_name":"Gang Sentiong","i_lat":-6.185975,"is_transit":false,"station_id":"GST","time":8,"transit":false},{"is_transit":false,"time":1,"distance":973,"station_id":"KMT","transit":false,"i_lat":-6.193792,"line":11,"i_long":106.855437,"station_name":"Kramat"},{"line":11,"station_name":"Pondok Jati","time":2,"transit":false,"station_id":"POK","is_transit":false,"distance":1829,"i_lat":-6.209188,"i_long":106.861737},{"i_lat":-6.215091,"distance":1236,"time":9,"line":1,"i_long":106.86807400000001,"station_name":"Jatinegara","station_id":"JNG","transit":true,"is_transit":true},{"i_lat":-6.2135,"time":3,"distance":3395,"line":1,"i_long":106.899548,"transit":false,"station_id":"KLD","is_transit":false,"station_name":"Klender"},{"distance":3100,"station_name":"Buaran","time":2,"line":1,"i_long":106.922662,"transit":false,"i_lat":-6.215568,"station_id":"BUA","is_transit":false},{"time":1,"line":1,"distance":1305,"i_lat":-6.217455,"i_long":106.939679,"transit":false,"is_transit":false,"station_name":"Klenderbaru","station_id":"KLDB"},{"line":1,"transit":false,"distance":1385,"is_transit":false,"station_name":"Cakung","time":8,"station_id":"CUK","i_lat":-6.219053,"i_long":106.951283}],[{"distance":0,"time":0,"i_long":106.905196,"is_transit":false,"line":21,"station_id":"NMO","station_name":"Nambo","transit":false,"i_lat":-6.466285},{"i_lat":-6.46424,"time":10,"i_long":106.851978,"is_transit":false,"line":21,"distance":6527,"station_name":"Cibinong","transit":false,"station_id":"CBN"},{"i_long":106.824374,"time":0,"is_transit":false,"line":21,"transit":false,"distance":0,"i_lat":-6.460735,"station_id":"PDRG","station_name":"Pondok Rajeg"},{"time":0,"line":2,"is_transit":true,"distance":0,"station_id":"CTA","i_lat":-6.448811,"i_long":106.800298,"transit":true,"station_name":"Citayam"},{"line":2,"time":6,"distance":5084,"transit":false,"is_transit":false,"i_lat":-6.405256,"i_long":106.816926,"station_id":"DP","station_name":"Depok"},{"time":3,"transit":false,"i_long":106.819451,"i_lat":-6.391065,"distance":1584,"station_name":"Depokbaru","is_transit":false,"line":2,"station_id":"DPB"},{"line":2,"time":4,"is_transit":false,"station_id":"POC","i_lat":-6.369073,"i_long":106.831114,"station_name":"Pondok Cina","distance":2727,"transit":false},{"station_name":"Univ. Indonesia","time":2,"line":2,"distance":1109,"station_id":"UI","i_long":106.831474,"is_transit":false,"i_lat":-6.360749,"transit":false},{"is_transit":false,"i_lat":-6.339291,"i_long":106.834175,"distance":2264,"station_name":"Univ. Pancasila","station_id":"UP","line":2,"transit":false,"time":3},{"is_transit":false,"distance":1029,"transit":false,"time":2,"station_name":"Lenteng Agung","i_long":106.832616,"i_lat":-6.330363,"line":2,"station_id":"LNA"},{"i_long":106.838896,"time":3,"transit":false,"station_name":"Tanjung Barat","distance":2671,"station_id":"TNT","is_transit":false,"i_lat":-6.3080680000000005,"line":2},{"i_lat":-6.2842400000000005,"i_long":106.843999,"station_name":"Pasar Minggu","time":4,"station_id":"PSM","distance":2820,"transit":false,"line":2,"is_transit":false},{"line":2,"time":2,"station_name":"Pasar Minggu Baru","distance":2380,"station_id":"PSMB","transit":false,"i_lat":-6.263214,"is_transit":false,"i_long":106.851577},{"i_long":106.85449,"i_lat":-6.255332,"time":2,"station_name":"Duren Kalibata","is_transit":false,"station_id":"DRN","distance":824,"transit":false,"line":2},{"i_long":106.856607,"station_id":"CW","is_transit":false,"line":2,"distance":1546,"time":3,"transit":false,"station_name":"Cawang","i_lat":-6.242512},{"line":2,"station_id":"TEB","station_name":"Tebet","i_lat":-6.226659,"transit":false,"time":2,"i_long":106.857948,"distance":1230,"is_transit":false},{"i_long":106.84912,"distance":2610,"station_name":"Manggarai","i_lat":-6.209883,"transit":false,"line":2,"station_id":"MRI","time":4,"is_transit":false},{"is_transit":false,"i_lat":-6.198556,"station_id":"CKI","time":4,"distance":1590,"transit":false,"i_long":106.840169,"station_name":"Cikini","line":2},{"time":3,"is_transit":false,"distance":1750,"i_long":106.832183,"transit":false,"line":2,"i_lat":-6.186295,"station_id":"GDD","station_name":"Gondangdia"},{"i_lat":-6.166716,"station_name":"Juanda","is_transit":false,"distance":2015,"i_long":106.828284,"line":2,"transit":false,"time":4,"station_id":"JUA"},{"transit":false,"i_lat":-6.160725,"line":2,"i_long":106.827103,"is_transit":false,"distance":1149,"station_id":"SW","station_name":"Sawah Besar","time":2},{"station_id":"MGB","is_transit":false,"i_long":106.82482,"i_lat":-6.149769,"line":2,"distance":906,"transit":false,"station_name":"Manggabesar","time":2},{"distance":1080,"station_name":"Jayakarta","station_id":"JAY","i_long":106.820901,"transit":false,"i_lat":-6.141205,"line":2,"is_transit":false,"time":2},{"station_name":"Jakarta Kota","transit":true,"i_long":106.812439,"distance":1264,"is_transit":true,"time":4,"station_id":"JAKK","i_lat":-6.137569,"line":2},{"station_name":"Kampung Bandan","time":3,"transit":true,"i_lat":-6.132549,"is_transit":true,"distance":1364,"i_long":106.826365,"station_id":"KPB","line":4},{"time":3,"line":11,"distance":1444,"station_name":"Rajawali","transit":false,"i_lat":-6.14505,"station_id":"RJW","is_transit":false,"i_long":106.836569},{"station_id":"KMO","station_name":"Kemayoran","distance":1901,"i_lat":-6.161728,"time":5,"transit":false,"is_transit":false,"line":11,"i_long":106.839204},{"station_id":"PSE","transit":false,"station_name":"Pasar Senen","line":11,"is_transit":false,"time":4,"distance":1436,"i_lat":-6.174784,"i_long":106.84368},{"time":8,"i_lat":-6.185975,"transit":false,"is_transit":false,"distance":1567,"station_id":"GST","station_name":"Gang Sentiong","i_long":106.850107,"line":11},{"station_id":"KMT","i_lat":-6.193792,"line":11,"time":1,"station_name":"Kramat","is_transit":false,"transit":false,"distance":973,"i_long":106.855437},{"is_transit":false,"transit":false,"i_lat":-6.209188,"line":11,"distance":1829,"time":2,"station_name":"Pondok Jati","station_id":"POK","i_long":106.861737},{"time":9,"i_lat":-6.215091,"station_name":"Jatinegara","station_id":"JNG","is_transit":true,"distance":1236,"line":1,"transit":true,"i_long":106.86807400000001},{"distance":3395,"i_long":106.899548,"transit":false,"station_name":"Klender","line":1,"is_transit":false,"time":3,"station_id":"KLD","i_lat":-6.2135},{"line":1,"transit":false,"station_id":"BUA","i_long":106.922662,"station_name":"Buaran","is_transit":false,"i_lat":-6.215568,"distance":3100,"time":2},{"distance":1305,"time":1,"station_name":"Klenderbaru","line":1,"station_id":"KLDB","i_lat":-6.217455,"i_long":106.939679,"transit":false,"is_transit":false},{"transit":false,"is_transit":false,"i_long":106.951283,"station_id":"CUK","time":8,"i_lat":-6.219053,"station_name":"Cakung","distance":1385,"line":1}]]}