{"data":[[{"i_lat":-6.466285,"transit":false,"line":21,"is_transit":false,"station_id":"NMO","station_name":"Nambo","distance":0,"time":0,"i_long":106.905196},{"station_name":"Cibinong","is_transit":false,"station_id":"CBN","time":10,"transit":false,"i_long":106.851978,"line":21,"distance":6527,"i_lat":-6.46424},{"line":21,"station_id":"PDRG","transit":false,"station_name":"Pondok Rajeg","is_transit":false,"distance":0,"time":0,"i_lat":-6.460735,"i_long":106.824374},{"line":2,"i_lat":-6.448811,"is_transit":true,"transit":true,"station_id":"CTA","station_name":"Citayam","time":0,"distance":0,"i_long":106.800298},{"i_lat":-6.405256,"i_long":106.816926,"station_name":"Depok","time":6,"line":2,"station_id":"DP","is_transit":false,"transit":false,"distance":5084},{"time":3,"is_transit":false,"distance":1584,"line":2,"station_name":"Depokbaru","i_lat":-6.391065,"i_long":106.819451,"transit":false,"station_id":"DPB"},{"i_long":106.831114,"line":2,"is_transit":false,"i_lat":-6.369073,"station_id":"POC","station_name":"Pondok Cina","time":4,"distance":2727,"transit":false},{"i_lat":-6.360749,"distance":1109,"is_transit":false,"time":2,"line":2,"i_long":106.831474,"transit":false,"station_name":"Univ. Indonesia","station_id":"UI"},{"transit":false,"is_transit":false,"line":2,"time":3,"i_long":106.834175,"station_id":"UP","distance":2264,"station_name":"Univ. Pancasila","i_lat":-6.339291},{"i_long":106.832616,"time":2,"station_name":"Lenteng Agung","distance":1029,"station_id":"LNA","line":2,"i_lat":-6.330363,"is_transit":false,"transit":false},{"is_transit":false,"transit":false,"i_long":106.838896,"station_name":"Tanjung Barat","distance":2671,"i_lat":-6.3080680000000005,"station_id":"TNT","time":3,"line":2},{"line":2,"station_id":"PSM","distance":2820,"transit":false,"i_lat":-6.2842400000000005,"is_transit":false,"time":4,"station_name":"Pasar Minggu","i_long":106.843999},{"time":2,"distance":2380,"transit":false,"i_lat":-6.263214,"station_name":"Pasar Minggu Baru","i_long":106.851577,"is_transit":false,"line":2,"station_id":"PSMB"},{"i_long":106.85449,"time":2,"station_name":"Duren Kalibata","is_transit":false,"transit":false,"i_lat":-6.255332,"line":2,"station_id":"DRN","distance":824},{"i_long":106.856607,"distance":1546,"i_lat":-6.242512,"transit":false,"station_name":"Cawang","station_id":"CW","time":3,"line":2,"is_transit":false},{"time":2,"station_id":"TEB","is_transit":false,"transit":false,"station_name":"Tebet","i_lat":-6.226659,"i_long":106.857948,"distance":1230,"line":2},{"is_transit":true,"distance":2610,"time":4,"i_lat":-6.209883,"i_long":106.84912,"station_name":"Manggarai","line":2,"transit":true,"station_id":"MRI"},{"station_name":"Sudirman","i_lat":-6.202263,"transit":false,"distance":3186,"line":1,"is_transit":false,"time":4,"station_id":"SUD","i_long":106.822649},{"i_lat":-6.201433,"is_transit":false,"station_id":"SUDB","transit":false,"time":1,"distance":280,"i_long":106.819881,"line":1,"station_name":"Sudirman Baru"},{"i_lat":-6.20132,"line":1,"transit":false,"time":1,"i_long":106.816351,"distance":471,"is_transit":false,"station_name":"Karet","station_id":"KAT"},{"transit":true,"time":5,"station_name":"Tanah Abang","distance":2029,"station_id":"THB","i_lat":-6.185545,"i_long":106.811091,"line":1,"is_transit":true},{"line":6,"i_long":106.79689,"i_lat":-6.207404,"station_name":"Palmerah","distance":3191,"station_id":"PLM","is_transit":false,"transit":false,"time":6},{"is_transit":false,"i_lat":-6.237242,"distance":3737,"station_name":"Kebayoran","transit":false,"station_id":"KBY","time":7,"line":6,"i_long":106.780334},{"is_transit":false,"time":8,"station_name":"Pondokranji","line":6,"distance":6218,"station_id":"PDJ","i_lat":-6.276362,"i_long":106.74273,"transit":false},{"distance":2179,"station_id":"JMU","station_name":"Jurangmangu","line":6,"transit":false,"i_lat":-6.288927,"i_long":106.728916,"time":3,"is_transit":false}],[{"time":0,"is_transit":false,"station_name":"Nambo","transit":false,"distance":0,"i_long":106.905196,"line":21,"i_lat":-6.466285,"station_id":"NMO"},{"time":10,"distance":6527,"i_lat":-6.46424,"transit":false,"station_id":"CBN","station_name":"Cibinong","i_long":106.851978,"is_transit":false,"line":21},{"i_long":106.824374,"transit":false,"is_transit":false,"time":0,"station_name":"Pondok Rajeg","station_id":"PDRG","distance":0,"line":21,"i_lat":-6.460735},{"station_id":"CTA","transit":true,"is_transit":true,"i_long":106.800298,"time":0,"line":2,"distance":0,"station_name":"Citayam","i_lat":-6.448811},{"distance":5084,"station_name":"Depok","i_long":106.816926,"station_id":"DP","time":6,"line":2,"i_lat":-6.405256,"transit":false,"is_transit":false},{"i_long":106.819451,"time":3,"line":2,"station_id":"DPB","is_transit":false,"transit":false,"station_name":"Depokbaru","distance":1584,"i_lat":-6.391065},{"i_lat":-6.369073,"transit":false,"is_transit":false,"distance":2727,"station_id":"POC","station_name":"Pondok Cina","i_long":106.831114,"time":4,"line":2},{"transit":false,"i_long":106.831474,"time":2,"i_lat":-6.360749,"line":2,"station_id":"UI","is_transit":false,"distance":1109,"station_name":"Univ. Indonesia"},{"transit":false,"line":2,"is_transit":false,"distance":2264,"i_lat":-6.339291,"time":3,"station_name":"Univ. Pancasila","station_id":"UP","i_long":106.834175},{"i_long":106.832616,"line":2,"i_lat":-6.330363,"station_id":"LNA","time":2,"transit":false,"distance":1029,"is_transit":false,"station_name":"Lenteng Agung"},{"line":2,"time":3,"distance":2671,"station_name":"Tanjung Barat","i_long":106.838896,"transit":false,"station_id":"TNT","is_transit":false,"i_lat":-6.3080680000000005},{"transit":false,"station_id":"PSM","i_lat":-6.2842400000000005,"is_transit":false,"i_long":106.843999,"time":4,"station_name":"Pasar Minggu","distance":2820,"line":2},{"is_transit":false,"transit":false,"line":2,"i_lat":-6.263214,"time":2,"i_long":106.851577,"station_name":"Pasar Minggu Baru","distance":2380,"station_id":"PSMB"},{"time":2,"station_name":"Duren Kalibata","distance":824,"station_id":"DRN","i_long":106.85449,"i_lat":-6.255332,"is_transit":false,"transit":false,"line":2},{"distance":1546,"time":3,"i_long":106.856607,"transit":false,"station_name":"Cawang","station_id":"CW","i_lat":-6.242512,"is_transit":false,"line":2},{"is_transit":false,"i_long":106.857948,"station_id":"TEB","time":2,"distance":1230,"transit":false,"line":2,"station_name":"Tebet","i_lat":-6.226659},{"distance":2610,"i_long":106.84912,"time":4,"line":2,"transit":false,"is_transit":false,"station_name":"Manggarai","i_lat":-6.209883,"station_id":"MRI"},{"station_name":"Cikini","distance":1590,"transit":false,"i_long":106.840169,"time":4,"is_transit":false,"i_lat":-6.198556,"line":2,"station_id":"CKI"},{"is_transit":false,"transit":false,"station_name":"Gondangdia","i_lat":-6.186295,"station_id":"GDD","distance":1750,"time":3,"line":2,"i_long":106.832183},{"transit":false,"i_lat":-6.166716,"time":4,"i_long":106.828284,"line":2,"station_id":"JUA","is_transit":false,"distance":2015,"station_name":"Juanda"},{"station_name":"Sawah Besar","i_lat":-6.160725,"line":2,"i_long":106.827103,"transit":false,"station_id":"SW","time":2,"is_transit":false,"distance":1149},{"line":2,"station_id":"MGB","transit":false,"is_transit":false,"i_lat":-6.149769,"i_long":106.82482,"distance":906,"station_name":"Manggabesar","time":2},{"i_lat":-6.141205,"station_name":"Jayakarta","i_long":106.820901,"line":2,"transit":false,"station_id":"JAY","time":2,"is_transit":false,"distance":1080},{"station_name":"Jakarta Kota","distance":1264,"is_transit":true,"station_id":"JAKK","time":4,"line":2,"transit":true,"i_lat":-6.137569,"i_long":106.812439},{"station_id":"KPB","distance":1364,"i_lat":-6.132549,"line":4,"i_long":106.826365,"is_transit":true,"time":3,"transit":true,"station_name":"Kampung Bandan"},{"i_long":106.79867,"is_transit":false,"station_id":"AK","time":9,"line":1,"transit":false,"i_lat":-6.144674,"station_name":"Angke","distance":4102},{"station_name":"Duri","i_long":106.800832,"is_transit":false,"transit":false,"distance":1230,"station_id":"DU","time":4,"i_lat":-6.155215,"line":1},{"station_name":"Tanah Abang","i_long":106.811091,"distance":3632,"station_id":"THB","time":8,"i_lat":-6.185545,"is_transit":true,"transit":true,"line":1},{"transit":false,"i_lat":-6.207404,"time":6,"is_transit":false,"station_id":"PLM","distance":3191,"i_long":106.79689,"line":6,"station_name":"Palmerah"},{"station_id":"KBY","is_transit":false,"distance":3737,"transit":false,"i_lat":-6.237242,"station_name":"Kebayoran","i_long":106.780334,"time":7,"line":6},{"transit":false,"station_id":"PDJ","station_name":"Pondokranji","i_long":106.74273,"distance":6218,"line":6,"is_transit":false,"i_lat":-6.276362,"time":8},{"distance":2179,"time":3,"i_long":106.728916,"station_name":"Jurangmangu","transit":false,"station_id":"JMU","i_lat":-6.288927,"is_transit":false,"line":6}],[{"station_name":"Nambo","transit":false,"is_transit":false,"time":0,"distance":0,"i_lat":-6.466285,"i_long":106.905196,"line":21,"station_id":"NMO"},{"station_name":"Cibinong","station_id":"CBN","i_long":106.851978,"time":10,"distance":6527,"is_transit":false,"i_lat":-6.46424,"transit":false,"line":21},{"station_name":"Pondok Rajeg","distance":0,"i_lat":-6.460735,"is_transit":false,"i_long":106.824374,"transit":false,"line":21,"time":0,"station_id":"PDRG"},{"station_name":"Citayam","i_lat":-6.448811,"line":2,"transit":true,"i_long":106.800298,"station_id":"CTA","time":0,"is_transit":true,"distance":0},{"i_long":106.816926,"line":2,"time":6,"transit":false,"station_name":"Depok","station_id":"DP","is_transit":false,"distance":5084,"i_lat":-6.405256},{"transit":false,"time":3,"is_transit":false,"distance":1584,"i_lat":-6.391065,"station_name":"Depokbaru","station_id":"DPB","line":2,"i_long":106.819451},{"i_lat":-6.369073,"is_transit":false,"time":4,"i_long":106.831114,"station_name":"Pondok Cina","line":2,"distance":2727,"transit":false,"station_id":"POC"},{"i_long":106.831474,"is_transit":false,"station_name":"Univ. Indonesia","line":2,"distance":1109,"station_id":"UI","i_lat":-6.360749,"time":2,"transit":false},{"station_name":"Univ. Pancasila","is_transit":false,"station_id":"UP","i_long":106.834175,"i_lat":-6.339291,"line":2,"time":3,"distance":2264,"transit":false},{"station_id":"LNA","i_lat":-6.330363,"line":2,"distance":1029,"i_long":106.832616,"is_transit":false,"station_name":"Lenteng Agung","time":2,"transit":false},{"station_name":"Tanjung Barat","is_transit":false,"i_lat":-6.3080680000000005,"distance":2671,"i_long":106.838896,"station_id":"TNT","time":3,"line":2,"transit":false},{"distance":2820,"i_lat":-6.2842400000000005,"is_transit":false,"time":4,"transit":false,"i_long":106.843999,"station_name":"Pasar Minggu","station_id":"PSM","line":2},{"line":2,"i_long":106.851577,"transit":false,"station_name":"Pasar Minggu Baru","station_id":"PSMB","is_transit":false,"time":2,"distance":2380,"i_lat":-6.263214},{"station_name":"Duren Kalibata","station_id":"DRN","distance":824,"transit":false,"time":2,"line":2,"is_transit":false,"i_long":106.85449,"i_lat":-6.255332},{"station_name":"Cawang","i_lat":-6.242512,"time":3,"station_id":"CW","distance":1546,"is_transit":false,"line":2,"transit":false,"i_long":106.856607},{"distance":1230,"station_id":"TEB","is_transit":false,"station_name":"Tebet","time":2,"i_lat":-6.226659,"line":2,"i_long":106.857948,"transit":false},{"is_transit":true,"line":2,"station_name":"Manggarai","i_long":106.84912,"time":4,"station_id":"MRI","distance":2610,"transit":true,"i_lat":-6.209883},{"distance":1275,"i_long":106.858896,"transit":false,"is_transit":false,"line":1,"time":2,"station_name":"Matraman","i_lat":-6.212485,"station_id":"MTR"},{"station_name":"Jatinegara","time":8,"station_id":"JNG","i_long":106.86807400000001,"transit":true,"is_transit":true,"i_lat":-6.215091,"distance":1377,"line":1},{"is_transit":false,"transit":false,"distance":1236,"i_long":106.861737,"time":2,"station_id":"POK","line":11,"station_name":"Pondok Jati","i_lat":-6.209188},{"distance":1829,"line":11,"i_lat":-6.193792,"is_transit":false,"station_id":"KMT","i_long":106.855437,"transit":false,"station_name":"Kramat","time":2},{"time":1,"transit":false,"station_name":"Gang Sentiong","i_lat":-6.185975,"station_id":"GST","i_long":106.850107,"is_transit":false,"distance":973,"line":11},{"i_lat":-6.174784,"i_long":106.84368,"station_name":"Pasar Senen","time":8,"station_id":"PSE","is_transit":false,"line":11,"transit":false,"distance":1567},{"line":11,"time":4,"i_lat":-6.161728,"distance":1436,"transit":false,"station_id":"KMO","i_long":106.839204,"is_transit":false,"station_name":"Kemayoran"},{"station_name":"Rajawali","is_transit":false,"distance":1901,"i_long":106.836569,"transit":false,"line":11,"i_lat":-6.14505,"time":5,"station_id":"RJW"},{"distance":1444,"transit":true,"i_lat":-6.132549,"time":3,"is_transit":true,"station_id":"KPB","i_long":106.826365,"line":4,"station_name":"Kampung Bandan"},{"station_name":"Angke","transit":false,"station_id":"AK","is_transit":false,"time":9,"i_lat":-6.144674,"i_long":106.79867,"line":1,"distance":4102},{"transit":false,"distance":1230,"station_id":"DU","i_lat":-6.155215,"time":4,"line":1,"i_long":106.800832,"station_name":"Duri","is_transit":false},{"is_transit":true,"i_long":106.811091,"i_lat":-6.185545,"time":8,"distance":3632,"station_name":"Tanah Abang","transit":true,"line":1,"station_id":"THB"},{"i_long":106.79689,"line":6,"i_lat":-6.207404,"is_transit":false,"station_name":"Palmerah","transit":false,"time":6,"station_id":"PLM","distance":3191},{"is_transit":false,"i_long":106.780334,"station_name":"Kebayoran","time":7,"distance":3737,"i_lat":-6.237242,"station_id":"KBY","line":6,"transit":false},{"line":6,"distance":6218,"station_name":"Pondokranji","i_long":106.74273,"station_id":"PDJ","is_transit":false,"time":8,"i_lat":-6.276362,"transit":false},{"transit":false,"station_name":"Jurangmangu","line":6,"station_id":"JMU","i_lat":-6.288927,"time":3,"is_transit":false,"i_long":106.728916,"distance":2179}]]}