{"data":[[{"is_transit":false,"line":21,"station_id":"NMO","i_lat":-6.466285,"distance":0,"i_long":106.905196,"station_name":"Nambo","time":0,"transit":false},{"is_transit":false,"i_lat":-6.46424,"transit":false,"line":21,"i_long":106.851978,"station_name":"Cibinong","station_id":"CBN","time":10,"distance":6527},{"transit":false,"station_name":"Pondok Rajeg","is_transit":false,"time":0,"station_id":"PDRG","line":21,"i_lat":-6.460735,"distance":0,"i_long":106.824374},{"transit":true,"is_transit":true,"line":2,"station_name":"Citayam","i_long":106.800298,"distance":0,"i_lat":-6.448811,"station_id":"CTA","time":0},{"distance":5084,"i_lat":-6.405256,"transit":false,"time":6,"is_transit":false,"i_long":106.816926,"line":2,"station_id":"DP","station_name":"Depok"},{"time":3,"distance":1584,"station_id":"DPB","i_long":106.819451,"line":2,"is_transit":false,"transit":false,"station_name":"Depokbaru","i_lat":-6.391065},{"i_long":106.831114,"station_id":"POC","time":4,"station_name":"Pondok Cina","distance":2727,"is_transit":false,"i_lat":-6.369073,"line":2,"transit":false},{"time":2,"i_lat":-6.360749,"i_long":106.831474,"station_name":"Univ. Indonesia","station_id":"UI","line":2,"is_transit":false,"transit":false,"distance":1109},{"i_long":106.834175,"distance":2264,"station_name":"Univ. Pancasila","is_transit":false,"station_id":"UP","line":2,"i_lat":-6.339291,"time":3,"transit":false},{"transit":false,"station_name":"Lenteng Agung","is_transit":false,"i_long":106.832616,"distance":1029,"station_id":"LNA","time":2,"i_lat":-6.330363,"line":2}]]}