{"data":[[{"transit":false,"distance":0,"time":0,"i_lat":-6.466285,"i_long":106.905196,"is_transit":false,"line":21,"station_id":"NMO","station_name":"Nambo"},{"time":10,"is_transit":false,"station_id":"CBN","i_lat":-6.46424,"station_name":"Cibinong","line":21,"distance":6527,"transit":false,"i_long":106.851978},{"station_id":"PDRG","transit":false,"station_name":"Pondok Rajeg","distance":0,"time":0,"is_transit":false,"i_lat":-6.460735,"line":21,"i_long":106.824374},{"time":0,"is_transit":true,"i_lat":-6.448811,"i_long":106.800298,"line":2,"transit":true,"distance":0,"station_id":"CTA","station_name":"Citayam"},{"line":2,"distance":5084,"time":6,"i_long":106.816926,"i_lat":-6.405256,"transit":false,"station_id":"DP","station_name":"Depok","is_transit":false},{"is_transit":false,"distance":1584,"transit":false,"line":2,"station_id":"DPB","time":3,"i_long":106.819451,"i_lat":-6.391065,"station_name":"Depokbaru"},{"time":4,"i_lat":-6.369073,"i_long":106.831114,"distance":2727,"is_transit":false,"station_id":"POC","line":2,"transit":false,"station_name":"Pondok Cina"},{"station_id":"UI","transit":false,"is_transit":false,"i_lat":-6.360749,"distance":1109,"line":2,"station_name":"Univ. Indonesia","i_long":106.831474,"time":2},{"line":2,"time":3,"transit":false,"station_id":"UP","is_transit":false,"distance":2264,"station_name":"Univ. Pancasila","i_lat":-6.339291,"i_long":106.834175},{"transit":false,"time":2,"is_transit":false,"station_id":"LNA","station_name":"Lenteng Agung","i_lat":-6.330363,"distance":1029,"i_long":106.832616,"line":2},{"i_long":106.838896,"line":2,"distance":2671,"station_id":"TNT","transit":false,"is_transit":false,"station_name":"Tanjung Barat","time":3,"i_lat":-6.3080680000000005},{"i_lat":-6.2842400000000005,"distance":2820,"line":2,"i_long":106.843999,"station_name":"Pasar Minggu","time":4,"is_transit":false,"station_id":"PSM","transit":false},{"line":2,"distance":2380,"time":2,"is_transit":false,"transit":false,"station_name":"Pasar Minggu Baru","station_id":"PSMB","i_lat":-6.263214,"i_long":106.851577},{"line":2,"station_name":"Duren Kalibata","i_lat":-6.255332,"station_id":"DRN","is_transit":false,"i_long":106.85449,"distance":824,"transit":false,"time":2},{"station_id":"CW","i_long":106.856607,"line":2,"is_transit":false,"station_name":"Cawang","i_lat":-6.242512,"transit":false,"time":3,"distance":1546},{"i_long":106.857948,"time":2,"is_transit":false,"distance":1230,"line":2,"transit":false,"station_name":"Tebet","i_lat":-6.226659,"station_id":"TEB"},{"station_id":"MRI","transit":true,"distance":2610,"i_lat":-6.209883,"station_name":"Manggarai","line":2,"i_long":106.84912,"time":4,"is_transit":true},{"time":4,"is_transit":false,"i_long":106.822649,"station_id":"SUD","station_name":"Sudirman","line":1,"transit":false,"i_lat":-6.202263,"distance":3186},{"line":1,"station_id":"SUDB","transit":false,"time":1,"distance":280,"station_name":"Sudirman Baru","is_transit":false,"i_lat":-6.201433,"i_long":106.819881},{"is_transit":false,"transit":false,"i_long":106.816351,"station_id":"KAT","time":1,"distance":471,"i_lat":-6.20132,"line":1,"station_name":"Karet"},{"distance":2029,"station_name":"Tanah Abang","i_long":106.811091,"time":5,"i_lat":-6.185545,"is_transit":false,"station_id":"THB","transit":false,"line":1}],[{"i_lat":-6.466285,"transit":false,"station_id":"NMO","i_long":106.905196,"line":21,"distance":0,"is_transit":false,"time":0,"station_name":"Nambo"},{"station_name":"Cibinong","i_long":106.851978,"line":21,"time":10,"distance":6527,"i_lat":-6.46424,"transit":false,"is_transit":false,"station_id":"CBN"},{"i_long":106.824374,"station_name":"Pondok Rajeg","line":21,"i_lat":-6.460735,"time":0,"transit":false,"station_id":"PDRG","distance":0,"is_transit":false},{"station_name":"Citayam","is_transit":true,"i_long":106.800298,"transit":true,"time":0,"i_lat":-6.448811,"distance":0,"station_id":"CTA","line":2},{"line":2,"transit":false,"distance":5084,"i_long":106.816926,"station_id":"DP","time":6,"is_transit":false,"i_lat":-6.405256,"station_name":"Depok"},{"line":2,"station_name":"Depokbaru","i_lat":-6.391065,"distance":1584,"time":3,"is_transit":false,"transit":false,"station_id":"DPB","i_long":106.819451},{"station_id":"POC","station_name":"Pondok Cina","distance":2727,"line":2,"time":4,"i_lat":-6.369073,"transit":false,"i_long":106.831114,"is_transit":false},{"distance":1109,"is_transit":false,"transit":false,"station_name":"Univ. Indonesia","i_lat":-6.360749,"i_long":106.831474,"station_id":"UI","time":2,"line":2},{"i_lat":-6.339291,"station_name":"Univ. Pancasila","i_long":106.834175,"station_id":"UP","line":2,"is_transit":false,"time":3,"distance":2264,"transit":false},{"station_name":"Lenteng Agung","distance":1029,"transit":false,"line":2,"time":2,"i_lat":-6.330363,"station_id":"LNA","is_transit":false,"i_long":106.832616},{"i_long":106.838896,"time":3,"station_id":"TNT","line":2,"station_name":"Tanjung Barat","transit":false,"i_lat":-6.3080680000000005,"is_transit":false,"distance":2671},{"transit":false,"is_transit":false,"distance":2820,"station_name":"Pasar Minggu","time":4,"station_id":"PSM","i_lat":-6.2842400000000005,"i_long":106.843999,"line":2},{"i_long":106.851577,"station_name":"Pasar Minggu Baru","i_lat":-6.263214,"is_transit":false,"time":2,"line":2,"station_id":"PSMB","transit":false,"distance":2380},{"line":2,"transit":false,"station_name":"Duren Kalibata","i_long":106.85449,"distance":824,"station_id":"DRN","time":2,"is_transit":false,"i_lat":-6.255332},{"station_id":"CW","i_long":106.856607,"distance":1546,"line":2,"transit":false,"station_name":"Cawang","time":3,"i_lat":-6.242512,"is_transit":false},{"i_lat":-6.226659,"is_transit":false,"station_name":"Tebet","station_id":"TEB","distance":1230,"i_long":106.857948,"line":2,"transit":false,"time":2},{"station_id":"MRI","time":4,"i_long":106.84912,"station_name":"Manggarai","distance":2610,"i_lat":-6.209883,"line":2,"transit":false,"is_transit":false},{"line":2,"time":4,"transit":false,"station_name":"Cikini","is_transit":false,"station_id":"CKI","distance":1590,"i_lat":-6.198556,"i_long":106.840169},{"transit":false,"station_id":"GDD","distance":1750,"time":3,"i_long":106.832183,"line":2,"station_name":"Gondangdia","i_lat":-6.186295,"is_transit":false},{"i_lat":-6.166716,"line":2,"is_transit":false,"transit":false,"station_name":"Juanda","time":4,"i_long":106.828284,"distance":2015,"station_id":"JUA"},{"station_id":"SW","transit":false,"is_transit":false,"distance":1149,"station_name":"Sawah Besar","line":2,"time":2,"i_lat":-6.160725,"i_long":106.827103},{"line":2,"transit":false,"distance":906,"station_name":"Manggabesar","time":2,"station_id":"MGB","is_transit":false,"i_lat":-6.149769,"i_long":106.82482},{"distance":1080,"i_lat":-6.141205,"station_id":"JAY","transit":false,"station_name":"Jayakarta","i_long":106.820901,"line":2,"is_transit":false,"time":2},{"is_transit":true,"i_long":106.812439,"line":2,"station_id":"JAKK","i_lat":-6.137569,"distance":1264,"station_name":"Jakarta Kota","transit":true,"time":4},{"station_name":"Kampung Bandan","is_transit":true,"i_lat":-6.132549,"station_id":"KPB","line":4,"distance":1364,"time":3,"i_long":106.826365,"transit":true},{"transit":false,"time":9,"i_lat":-6.144674,"i_long":106.79867,"distance":4102,"is_transit":false,"line":1,"station_id":"AK","station_name":"Angke"},{"station_id":"DU","time":4,"line":1,"distance":1230,"transit":false,"station_name":"Duri","is_transit":false,"i_lat":-6.155215,"i_long":106.800832},{"transit":false,"is_transit":false,"i_lat":-6.185545,"i_long":106.811091,"distance":3632,"station_id":"THB","station_name":"Tanah Abang","line":1,"time":8}],[{"distance":0,"station_name":"Nambo","i_lat":-6.466285,"line":21,"transit":false,"i_long":106.905196,"station_id":"NMO","time":0,"is_transit":false},{"distance":6527,"transit":false,"is_transit":false,"line":21,"station_name":"Cibinong","station_id":"CBN","time":10,"i_lat":-6.46424,"i_long":106.851978},{"transit":false,"station_name":"Pondok Rajeg","distance":0,"station_id":"PDRG","i_lat":-6.460735,"time":0,"is_transit":false,"i_long":106.824374,"line":21},{"station_name":"Citayam","is_transit":true,"time":0,"i_lat":-6.448811,"i_long":106.800298,"distance":0,"transit":true,"line":2,"station_id":"CTA"},{"time":6,"station_id":"DP","transit":false,"is_transit":false,"line":2,"i_long":106.816926,"station_name":"Depok","i_lat":-6.405256,"distance":5084},{"is_transit":false,"i_lat":-6.391065,"i_long":106.819451,"transit":false,"distance":1584,"station_id":"DPB","line":2,"station_name":"Depokbaru","time":3},{"line":2,"station_id":"POC","station_name":"Pondok Cina","time":4,"i_long":106.831114,"is_transit":false,"transit":false,"distance":2727,"i_lat":-6.369073},{"station_id":"UI","time":2,"line":2,"i_long":106.831474,"transit":false,"station_name":"Univ. Indonesia","distance":1109,"is_transit":false,"i_lat":-6.360749},{"is_transit":false,"station_name":"Univ. Pancasila","i_long":106.834175,"line":2,"transit":false,"i_lat":-6.339291,"station_id":"UP","distance":2264,"time":3},{"station_name":"Lenteng Agung","i_long":106.832616,"line":2,"transit":false,"is_transit":false,"distance":1029,"time":2,"station_id":"LNA","i_lat":-6.330363},{"distance":2671,"station_id":"TNT","is_transit":false,"time":3,"i_long":106.838896,"station_name":"Tanjung Barat","i_lat":-6.3080680000000005,"transit":false,"line":2},{"transit":false,"station_name":"Pasar Minggu","station_id":"PSM","time":4,"i_lat":-6.2842400000000005,"distance":2820,"is_transit":false,"i_long":106.843999,"line":2},{"i_lat":-6.263214,"line":2,"distance":2380,"is_transit":false,"time":2,"station_name":"Pasar Minggu Baru","station_id":"PSMB","transit":false,"i_long":106.851577},{"transit":false,"station_name":"Duren Kalibata","distance":824,"station_id":"DRN","line":2,"i_long":106.85449,"time":2,"is_transit":false,"i_lat":-6.255332},{"station_id":"CW","station_name":"Cawang","i_long":106.856607,"i_lat":-6.242512,"line":2,"transit":false,"time":3,"distance":1546,"is_transit":false},{"line":2,"station_id":"TEB","time":2,"transit":false,"station_name":"Tebet","is_transit":false,"distance":1230,"i_lat":-6.226659,"i_long":106.857948},{"transit":true,"is_transit":true,"i_long":106.84912,"line":2,"i_lat":-6.209883,"station_id":"MRI","station_name":"Manggarai","time":4,"distance":2610},{"distance":1275,"station_name":"Matraman","i_lat":-6.212485,"station_id":"MTR","i_long":106.858896,"line":1,"is_transit":false,"transit":false,"time":2},{"line":1,"distance":1377,"station_name":"Jatinegara","station_id":"JNG","i_long":106.86807400000001,"i_lat":-6.215091,"transit":true,"time":8,"is_transit":true},{"line":11,"distance":1236,"is_transit":false,"transit":false,"i_lat":-6.209188,"station_name":"Pondok Jati","time":2,"i_long":106.861737,"station_id":"POK"},{"i_long":106.855437,"distance":1829,"i_lat":-6.193792,"station_id":"KMT","is_transit":false,"line":11,"transit":false,"time":2,"station_name":"Kramat"},{"is_transit":false,"distance":973,"i_long":106.850107,"i_lat":-6.185975,"station_id":"GST","station_name":"Gang Sentiong","transit":false,"time":1,"line":11},{"i_long":106.84368,"station_name":"Pasar Senen","station_id":"PSE","transit":false,"distance":1567,"line":11,"time":8,"is_transit":false,"i_lat":-6.174784},{"transit":false,"time":4,"i_long":106.839204,"is_transit":false,"line":11,"i_lat":-6.161728,"station_id":"KMO","station_name":"Kemayoran","distance":1436},{"line":11,"i_long":106.836569,"transit":false,"time":5,"is_transit":false,"distance":1901,"station_name":"Rajawali","i_lat":-6.14505,"station_id":"RJW"},{"transit":true,"station_name":"Kampung Bandan","time":3,"i_long":106.826365,"is_transit":true,"station_id":"KPB","i_lat":-6.132549,"distance":1444,"line":4},{"transit":false,"station_name":"Angke","station_id":"AK","time":9,"is_transit":false,"distance":4102,"i_long":106.79867,"i_lat":-6.144674,"line":1},{"i_lat":-6.155215,"time":4,"transit":false,"is_transit":false,"station_id":"DU","distance":1230,"station_name":"Duri","i_long":106.800832,"line":1},{"time":8,"distance":3632,"i_long":106.811091,"line":1,"station_id":"THB","transit":false,"is_transit":false,"station_name":"Tanah Abang","i_lat":-6.185545}]]}