{"data":[[{"station_id":"NMO","distance":0,"i_long":106.905196,"line":21,"station_name":"Nambo","transit":false,"i_lat":-6.466285,"time":0,"is_transit":false},{"station_id":"CBN","line":21,"is_transit":false,"distance":6527,"i_long":106.851978,"station_name":"Cibinong","time":10,"transit":false,"i_lat":-6.46424},{"distance":0,"station_name":"Pondok Rajeg","station_id":"PDRG","time":0,"i_lat":-6.460735,"is_transit":false,"i_long":106.824374,"transit":false,"line":21},{"transit":true,"station_id":"CTA","distance":0,"station_name":"Citayam","i_lat":-6.448811,"i_long":106.800298,"line":2,"is_transit":true,"time":0},{"station_id":"DP","station_name":"Depok","transit":false,"is_transit":false,"distance":5084,"i_lat":-6.405256,"time":6,"i_long":106.816926,"line":2},{"i_long":106.819451,"station_name":"Depokbaru","transit":false,"distance":1584,"line":2,"i_lat":-6.391065,"station_id":"DPB","is_transit":false,"time":3},{"transit":false,"i_long":106.831114,"station_name":"Pondok Cina","station_id":"POC","i_lat":-6.369073,"line":2,"is_transit":false,"time":4,"distance":2727},{"i_long":106.831474,"is_transit":false,"distance":1109,"station_id":"UI","station_name":"Univ. Indonesia","time":2,"i_lat":-6.360749,"transit":false,"line":2},{"station_name":"Univ. Pancasila","transit":false,"station_id":"UP","is_transit":false,"i_lat":-6.339291,"time":3,"i_long":106.834175,"distance":2264,"line":2},{"i_lat":-6.330363,"i_long":106.832616,"station_id":"LNA","line":2,"distance":1029,"station_name":"Lenteng Agung","is_transit":false,"transit":false,"time":2},{"i_long":106.838896,"station_name":"Tanjung Barat","line":2,"distance":2671,"time":3,"station_id":"TNT","i_lat":-6.3080680000000005,"transit":false,"is_transit":false},{"i_lat":-6.2842400000000005,"i_long":106.843999,"station_id":"PSM","distance":2820,"transit":false,"station_name":"Pasar Minggu","is_transit":false,"time":4,"line":2},{"distance":2380,"station_name":"Pasar Minggu Baru","i_long":106.851577,"line":2,"transit":false,"is_transit":false,"time":2,"i_lat":-6.263214,"station_id":"PSMB"},{"i_long":106.85449,"distance":824,"station_id":"DRN","transit":false,"is_transit":false,"line":2,"station_name":"Duren Kalibata","time":2,"i_lat":-6.255332},{"is_transit":false,"transit":false,"station_id":"CW","distance":1546,"i_lat":-6.242512,"line":2,"i_long":106.856607,"station_name":"Cawang","time":3},{"is_transit":false,"time":2,"i_long":106.857948,"line":2,"station_id":"TEB","station_name":"Tebet","transit":false,"distance":1230,"i_lat":-6.226659},{"station_name":"Manggarai","transit":true,"is_transit":true,"i_lat":-6.209883,"i_long":106.84912,"station_id":"MRI","time":4,"distance":2610,"line":2},{"transit":false,"is_transit":false,"station_name":"Sudirman","time":4,"station_id":"SUD","distance":3186,"line":1,"i_lat":-6.202263,"i_long":106.822649},{"distance":280,"i_lat":-6.201433,"station_name":"Sudirman Baru","transit":false,"station_id":"SUDB","i_long":106.819881,"line":1,"is_transit":false,"time":1},{"i_long":106.816351,"distance":471,"i_lat":-6.20132,"line":1,"station_name":"Karet","is_transit":false,"transit":false,"station_id":"KAT","time":1},{"i_lat":-6.185545,"line":1,"station_name":"Tanah Abang","station_id":"THB","is_transit":false,"time":5,"transit":false,"i_long":106.811091,"distance":2029},{"i_long":106.800832,"station_id":"DU","is_transit":false,"station_name":"Duri","line":1,"transit":false,"time":8,"i_lat":-6.155215,"distance":3632},{"station_id":"AK","time":4,"distance":1230,"station_name":"Angke","i_lat":-6.144674,"is_transit":false,"transit":false,"i_long":106.79867,"line":1}],[{"station_id":"NMO","is_transit":false,"transit":false,"distance":0,"i_long":106.905196,"time":0,"i_lat":-6.466285,"line":21,"station_name":"Nambo"},{"distance":6527,"station_id":"CBN","station_name":"Cibinong","i_lat":-6.46424,"time":10,"i_long":106.851978,"transit":false,"line":21,"is_transit":false},{"is_transit":false,"station_name":"Pondok Rajeg","transit":false,"station_id":"PDRG","time":0,"distance":0,"i_lat":-6.460735,"line":21,"i_long":106.824374},{"line":2,"transit":true,"station_name":"Citayam","i_lat":-6.448811,"station_id":"CTA","distance":0,"is_transit":true,"time":0,"i_long":106.800298},{"is_transit":false,"distance":5084,"transit":false,"time":6,"i_long":106.816926,"line":2,"station_id":"DP","i_lat":-6.405256,"station_name":"Depok"},{"station_name":"Depokbaru","time":3,"distance":1584,"i_lat":-6.391065,"line":2,"i_long":106.819451,"transit":false,"station_id":"DPB","is_transit":false},{"is_transit":false,"station_id":"POC","i_lat":-6.369073,"time":4,"station_name":"Pondok Cina","transit":false,"i_long":106.831114,"line":2,"distance":2727},{"time":2,"i_lat":-6.360749,"i_long":106.831474,"distance":1109,"line":2,"is_transit":false,"station_id":"UI","transit":false,"station_name":"Univ. Indonesia"},{"station_name":"Univ. Pancasila","is_transit":false,"i_long":106.834175,"transit":false,"station_id":"UP","time":3,"distance":2264,"i_lat":-6.339291,"line":2},{"i_long":106.832616,"transit":false,"distance":1029,"station_id":"LNA","line":2,"is_transit":false,"i_lat":-6.330363,"station_name":"Lenteng Agung","time":2},{"is_transit":false,"transit":false,"i_lat":-6.3080680000000005,"time":3,"distance":2671,"station_name":"Tanjung Barat","i_long":106.838896,"station_id":"TNT","line":2},{"i_lat":-6.2842400000000005,"transit":false,"is_transit":false,"line":2,"time":4,"i_long":106.843999,"distance":2820,"station_name":"Pasar Minggu","station_id":"PSM"},{"transit":false,"station_id":"PSMB","i_lat":-6.263214,"line":2,"station_name":"Pasar Minggu Baru","time":2,"distance":2380,"i_long":106.851577,"is_transit":false},{"time":2,"station_name":"Duren Kalibata","distance":824,"i_lat":-6.255332,"i_long":106.85449,"station_id":"DRN","line":2,"transit":false,"is_transit":false},{"time":3,"station_id":"CW","station_name":"Cawang","transit":false,"distance":1546,"i_lat":-6.242512,"line":2,"is_transit":false,"i_long":106.856607},{"time":2,"line":2,"i_long":106.857948,"is_transit":false,"distance":1230,"station_name":"Tebet","transit":false,"i_lat":-6.226659,"station_id":"TEB"},{"time":4,"i_lat":-6.209883,"distance":2610,"line":2,"i_long":106.84912,"is_transit":false,"transit":false,"station_name":"Manggarai","station_id":"MRI"},{"is_transit":false,"time":4,"line":2,"transit":false,"station_name":"Cikini","station_id":"CKI","i_lat":-6.198556,"i_long":106.840169,"distance":1590},{"is_transit":false,"distance":1750,"i_long":106.832183,"time":3,"line":2,"transit":false,"station_name":"Gondangdia","i_lat":-6.186295,"station_id":"GDD"},{"station_name":"Juanda","distance":2015,"line":2,"station_id":"JUA","time":4,"is_transit":false,"transit":false,"i_lat":-6.166716,"i_long":106.828284},{"transit":false,"i_lat":-6.160725,"distance":1149,"is_transit":false,"i_long":106.827103,"station_id":"SW","time":2,"station_name":"Sawah Besar","line":2},{"i_long":106.82482,"station_id":"MGB","i_lat":-6.149769,"line":2,"station_name":"Manggabesar","transit":false,"is_transit":false,"time":2,"distance":906},{"time":2,"line":2,"distance":1080,"station_id":"JAY","i_lat":-6.141205,"is_transit":false,"transit":false,"station_name":"Jayakarta","i_long":106.820901},{"i_lat":-6.137569,"i_long":106.812439,"transit":true,"line":2,"station_name":"Jakarta Kota","station_id":"JAKK","is_transit":true,"time":4,"distance":1264},{"station_name":"Kampung Bandan","station_id":"KPB","distance":1364,"transit":true,"i_long":106.826365,"line":4,"time":3,"i_lat":-6.132549,"is_transit":true},{"time":9,"station_id":"AK","distance":4102,"i_lat":-6.144674,"transit":false,"is_transit":false,"line":1,"i_long":106.79867,"station_name":"Angke"}],[{"distance":0,"i_lat":-6.466285,"i_long":106.905196,"line":21,"transit":false,"station_id":"NMO","time":0,"station_name":"Nambo","is_transit":false},{"station_id":"CBN","is_transit":false,"distance":6527,"transit":false,"station_name":"Cibinong","time":10,"i_long":106.851978,"line":21,"i_lat":-6.46424},{"transit":false,"station_name":"Pondok Rajeg","is_transit":false,"time":0,"distance":0,"i_lat":-6.460735,"i_long":106.824374,"line":21,"station_id":"PDRG"},{"line":2,"distance":0,"i_long":106.800298,"transit":true,"station_id":"CTA","station_name":"Citayam","time":0,"i_lat":-6.448811,"is_transit":true},{"i_long":106.816926,"distance":5084,"is_transit":false,"line":2,"transit":false,"time":6,"i_lat":-6.405256,"station_name":"Depok","station_id":"DP"},{"station_id":"DPB","station_name":"Depokbaru","distance":1584,"i_long":106.819451,"is_transit":false,"i_lat":-6.391065,"transit":false,"time":3,"line":2},{"time":4,"station_name":"Pondok Cina","line":2,"station_id":"POC","i_lat":-6.369073,"i_long":106.831114,"transit":false,"is_transit":false,"distance":2727},{"station_id":"UI","time":2,"i_lat":-6.360749,"is_transit":false,"i_long":106.831474,"distance":1109,"transit":false,"line":2,"station_name":"Univ. Indonesia"},{"line":2,"station_name":"Univ. Pancasila","i_lat":-6.339291,"distance":2264,"transit":false,"station_id":"UP","time":3,"is_transit":false,"i_long":106.834175},{"i_lat":-6.330363,"i_long":106.832616,"line":2,"station_id":"LNA","time":2,"distance":1029,"transit":false,"is_transit":false,"station_name":"Lenteng Agung"},{"station_name":"Tanjung Barat","is_transit":false,"distance":2671,"i_long":106.838896,"line":2,"i_lat":-6.3080680000000005,"station_id":"TNT","transit":false,"time":3},{"transit":false,"line":2,"is_transit":false,"distance":2820,"i_lat":-6.2842400000000005,"station_name":"Pasar Minggu","time":4,"station_id":"PSM","i_long":106.843999},{"transit":false,"distance":2380,"station_id":"PSMB","line":2,"is_transit":false,"time":2,"station_name":"Pasar Minggu Baru","i_long":106.851577,"i_lat":-6.263214},{"time":2,"station_name":"Duren Kalibata","line":2,"distance":824,"i_lat":-6.255332,"station_id":"DRN","is_transit":false,"transit":false,"i_long":106.85449},{"distance":1546,"station_id":"CW","is_transit":false,"station_name":"Cawang","line":2,"i_long":106.856607,"time":3,"i_lat":-6.242512,"transit":false},{"transit":false,"station_name":"Tebet","i_long":106.857948,"time":2,"distance":1230,"station_id":"TEB","is_transit":false,"i_lat":-6.226659,"line":2},{"transit":true,"station_name":"Manggarai","i_lat":-6.209883,"i_long":106.84912,"time":4,"is_transit":true,"distance":2610,"line":2,"station_id":"MRI"},{"line":1,"station_id":"MTR","is_transit":false,"time":2,"transit":false,"station_name":"Matraman","i_lat":-6.212485,"i_long":106.858896,"distance":1275},{"line":1,"time":8,"transit":true,"i_long":106.86807400000001,"station_name":"Jatinegara","station_id":"JNG","distance":1377,"i_lat":-6.215091,"is_transit":true},{"i_lat":-6.209188,"line":11,"time":2,"station_id":"POK","distance":1236,"i_long":106.861737,"station_name":"Pondok Jati","transit":false,"is_transit":false},{"i_long":106.855437,"transit":false,"station_id":"KMT","distance":1829,"is_transit":false,"line":11,"time":2,"station_name":"Kramat","i_lat":-6.193792},{"transit":false,"distance":973,"station_name":"Gang Sentiong","i_lat":-6.185975,"i_long":106.850107,"line":11,"is_transit":false,"station_id":"GST","time":1},{"distance":1567,"station_name":"Pasar Senen","station_id":"PSE","time":8,"is_transit":false,"i_long":106.84368,"line":11,"transit":false,"i_lat":-6.174784},{"line":11,"station_id":"KMO","transit":false,"is_transit":false,"station_name":"Kemayoran","distance":1436,"i_lat":-6.161728,"i_long":106.839204,"time":4},{"is_transit":false,"transit":false,"distance":1901,"i_lat":-6.14505,"i_long":106.836569,"station_name":"Rajawali","station_id":"RJW","time":5,"line":11},{"is_transit":true,"station_id":"KPB","station_name":"Kampung Bandan","i_lat":-6.132549,"i_long":106.826365,"distance":1444,"transit":true,"line":4,"time":3},{"time":9,"station_id":"AK","station_name":"Angke","distance":4102,"is_transit":false,"i_lat":-6.144674,"transit":false,"i_long":106.79867,"line":1}]]}