{"data":[[{"station_name":"Nambo","station_id":"NMO","is_transit":false,"i_lat":-6.466285,"distance":0,"transit":false,"time":0,"i_long":106.905196,"line":21},{"station_id":"CBN","station_name":"Cibinong","transit":false,"line":21,"distance":6527,"is_transit":false,"i_lat":-6.46424,"i_long":106.851978,"time":10},{"i_long":106.824374,"is_transit":false,"transit":false,"line":21,"station_name":"Pondok Rajeg","station_id":"PDRG","distance":0,"time":0,"i_lat":-6.460735},{"transit":true,"is_transit":true,"i_lat":-6.448811,"station_name":"Citayam","station_id":"CTA","distance":0,"time":0,"i_long":106.800298,"line":2},{"time":6,"station_name":"Depok","transit":false,"i_lat":-6.405256,"i_long":106.816926,"is_transit":false,"distance":5084,"station_id":"DP","line":2},{"i_lat":-6.391065,"station_id":"DPB","is_transit":false,"station_name":"Depokbaru","transit":false,"line":2,"distance":1584,"i_long":106.819451,"time":3},{"line":2,"is_transit":false,"transit":false,"time":4,"station_name":"Pondok Cina","station_id":"POC","i_lat":-6.369073,"distance":2727,"i_long":106.831114},{"distance":1109,"time":2,"i_long":106.831474,"station_id":"UI","station_name":"Univ. Indonesia","transit":false,"i_lat":-6.360749,"line":2,"is_transit":false},{"time":3,"station_name":"Univ. Pancasila","i_long":106.834175,"transit":false,"i_lat":-6.339291,"distance":2264,"station_id":"UP","is_transit":false,"line":2},{"transit":false,"i_long":106.832616,"line":2,"station_id":"LNA","is_transit":false,"distance":1029,"time":2,"i_lat":-6.330363,"station_name":"Lenteng Agung"}]]}