{"data":[[{"transit":false,"line":21,"i_lat":-6.466285,"distance":0,"station_name":"Nambo","is_transit":false,"station_id":"NMO","time":0,"i_long":106.905196},{"is_transit":false,"i_long":106.851978,"station_name":"Cibinong","station_id":"CBN","transit":false,"i_lat":-6.46424,"distance":6527,"line":21,"time":10},{"i_lat":-6.460735,"is_transit":false,"distance":0,"i_long":106.824374,"line":21,"transit":false,"station_id":"PDRG","time":0,"station_name":"Pondok Rajeg"},{"station_name":"Citayam","transit":true,"i_lat":-6.448811,"is_transit":true,"i_long":106.800298,"station_id":"CTA","line":2,"distance":0,"time":0},{"station_name":"Depok","i_lat":-6.405256,"station_id":"DP","i_long":106.816926,"is_transit":false,"transit":false,"distance":5084,"line":2,"time":6},{"station_name":"Depokbaru","transit":false,"i_long":106.819451,"distance":1584,"is_transit":false,"station_id":"DPB","time":3,"line":2,"i_lat":-6.391065},{"i_lat":-6.369073,"station_name":"Pondok Cina","is_transit":false,"i_long":106.831114,"transit":false,"time":4,"distance":2727,"station_id":"POC","line":2},{"station_name":"Univ. Indonesia","i_lat":-6.360749,"station_id":"UI","distance":1109,"time":2,"line":2,"transit":false,"i_long":106.831474,"is_transit":false},{"station_id":"UP","i_lat":-6.339291,"time":3,"distance":2264,"i_long":106.834175,"line":2,"transit":false,"station_name":"Univ. Pancasila","is_transit":false},{"i_long":106.832616,"distance":1029,"line":2,"time":2,"is_transit":false,"i_lat":-6.330363,"transit":false,"station_id":"LNA","station_name":"Lenteng Agung"},{"i_long":106.838896,"is_transit":false,"station_name":"Tanjung Barat","station_id":"TNT","transit":false,"time":3,"distance":2671,"i_lat":-6.3080680000000005,"line":2},{"is_transit":false,"time":4,"line":2,"i_lat":-6.2842400000000005,"station_name":"Pasar Minggu","station_id":"PSM","transit":false,"distance":2820,"i_long":106.843999},{"is_transit":false,"i_lat":-6.263214,"line":2,"time":2,"transit":false,"station_name":"Pasar Minggu Baru","i_long":106.851577,"station_id":"PSMB","distance":2380},{"distance":824,"station_name":"Duren Kalibata","is_transit":false,"i_lat":-6.255332,"transit":false,"station_id":"DRN","line":2,"i_long":106.85449,"time":2},{"line":2,"transit":false,"station_name":"Cawang","is_transit":false,"i_long":106.856607,"distance":1546,"time":3,"i_lat":-6.242512,"station_id":"CW"},{"i_lat":-6.226659,"station_name":"Tebet","distance":1230,"transit":false,"line":2,"i_long":106.857948,"station_id":"TEB","is_transit":false,"time":2},{"distance":2610,"i_lat":-6.209883,"transit":true,"station_id":"MRI","time":4,"is_transit":true,"i_long":106.84912,"station_name":"Manggarai","line":2},{"transit":false,"i_lat":-6.212485,"station_id":"MTR","station_name":"Matraman","i_long":106.858896,"line":1,"is_transit":false,"time":2,"distance":1275},{"transit":true,"i_lat":-6.215091,"line":1,"is_transit":true,"station_id":"JNG","i_long":106.86807400000001,"time":8,"station_name":"Jatinegara","distance":1377},{"distance":1236,"is_transit":false,"transit":false,"time":2,"i_long":106.861737,"station_name":"Pondok Jati","line":11,"i_lat":-6.209188,"station_id":"POK"},{"i_long":106.855437,"station_id":"KMT","is_transit":false,"line":11,"station_name":"Kramat","time":2,"distance":1829,"i_lat":-6.193792,"transit":false},{"transit":false,"is_transit":false,"i_long":106.850107,"line":11,"i_lat":-6.185975,"station_id":"GST","time":1,"station_name":"Gang Sentiong","distance":973}],[{"time":0,"line":21,"transit":false,"distance":0,"station_id":"NMO","i_lat":-6.466285,"is_transit":false,"station_name":"Nambo","i_long":106.905196},{"i_lat":-6.46424,"distance":6527,"transit":false,"line":21,"is_transit":false,"i_long":106.851978,"station_id":"CBN","time":10,"station_name":"Cibinong"},{"distance":0,"i_long":106.824374,"station_id":"PDRG","line":21,"station_name":"Pondok Rajeg","time":0,"is_transit":false,"i_lat":-6.460735,"transit":false},{"distance":0,"i_long":106.800298,"transit":true,"station_name":"Citayam","station_id":"CTA","time":0,"is_transit":true,"i_lat":-6.448811,"line":2},{"i_long":106.816926,"transit":false,"distance":5084,"station_name":"Depok","station_id":"DP","time":6,"i_lat":-6.405256,"line":2,"is_transit":false},{"transit":false,"station_name":"Depokbaru","line":2,"is_transit":false,"time":3,"i_long":106.819451,"i_lat":-6.391065,"station_id":"DPB","distance":1584},{"transit":false,"time":4,"i_long":106.831114,"i_lat":-6.369073,"line":2,"station_id":"POC","distance":2727,"station_name":"Pondok Cina","is_transit":false},{"i_long":106.831474,"is_transit":false,"distance":1109,"line":2,"i_lat":-6.360749,"station_name":"Univ. Indonesia","station_id":"UI","time":2,"transit":false},{"is_transit":false,"time":3,"station_name":"Univ. Pancasila","i_lat":-6.339291,"distance":2264,"transit":false,"line":2,"i_long":106.834175,"station_id":"UP"},{"station_name":"Lenteng Agung","i_lat":-6.330363,"distance":1029,"i_long":106.832616,"is_transit":false,"line":2,"station_id":"LNA","time":2,"transit":false},{"is_transit":false,"transit":false,"i_lat":-6.3080680000000005,"station_id":"TNT","time":3,"station_name":"Tanjung Barat","i_long":106.838896,"distance":2671,"line":2},{"time":4,"is_transit":false,"i_lat":-6.2842400000000005,"i_long":106.843999,"transit":false,"station_name":"Pasar Minggu","station_id":"PSM","line":2,"distance":2820},{"distance":2380,"transit":false,"is_transit":false,"i_long":106.851577,"station_id":"PSMB","station_name":"Pasar Minggu Baru","line":2,"time":2,"i_lat":-6.263214},{"station_name":"Duren Kalibata","transit":false,"i_long":106.85449,"line":2,"is_transit":false,"time":2,"distance":824,"i_lat":-6.255332,"station_id":"DRN"},{"distance":1546,"line":2,"i_lat":-6.242512,"time":3,"transit":false,"is_transit":false,"station_name":"Cawang","i_long":106.856607,"station_id":"CW"},{"time":2,"i_lat":-6.226659,"transit":false,"is_transit":false,"distance":1230,"line":2,"station_id":"TEB","station_name":"Tebet","i_long":106.857948},{"distance":2610,"i_long":106.84912,"line":2,"station_id":"MRI","is_transit":true,"station_name":"Manggarai","time":4,"i_lat":-6.209883,"transit":true},{"i_long":106.822649,"i_lat":-6.202263,"station_name":"Sudirman","transit":false,"is_transit":false,"distance":3186,"station_id":"SUD","time":4,"line":1},{"station_name":"Sudirman Baru","station_id":"SUDB","i_lat":-6.201433,"time":1,"is_transit":false,"i_long":106.819881,"line":1,"transit":false,"distance":280},{"transit":false,"line":1,"distance":471,"station_name":"Karet","is_transit":false,"time":1,"i_lat":-6.20132,"station_id":"KAT","i_long":106.816351},{"i_long":106.811091,"station_id":"THB","i_lat":-6.185545,"time":5,"station_name":"Tanah Abang","transit":false,"line":1,"distance":2029,"is_transit":false},{"i_long":106.800832,"is_transit":false,"line":1,"time":8,"transit":false,"station_id":"DU","distance":3632,"station_name":"Duri","i_lat":-6.155215},{"line":1,"station_name":"Angke","i_long":106.79867,"is_transit":false,"distance":1230,"time":4,"transit":false,"station_id":"AK","i_lat":-6.144674},{"i_lat":-6.132549,"line":4,"i_long":106.826365,"distance":4102,"transit":true,"station_name":"Kampung Bandan","time":9,"station_id":"KPB","is_transit":true},{"time":3,"i_long":106.836569,"line":11,"transit":false,"station_name":"Rajawali","distance":1444,"station_id":"RJW","is_transit":false,"i_lat":-6.14505},{"line":11,"transit":false,"station_id":"KMO","time":5,"i_lat":-6.161728,"station_name":"Kemayoran","distance":1901,"is_transit":false,"i_long":106.839204},{"i_long":106.84368,"line":11,"station_name":"Pasar Senen","station_id":"PSE","time":4,"transit":false,"distance":1436,"i_lat":-6.174784,"is_transit":false},{"distance":1567,"i_lat":-6.185975,"i_long":106.850107,"line":11,"transit":false,"station_id":"GST","station_name":"Gang Sentiong","time":8,"is_transit":false}],[{"is_transit":false,"time":0,"station_name":"Nambo","distance":0,"i_lat":-6.466285,"line":21,"transit":false,"i_long":106.905196,"station_id":"NMO"},{"line":21,"distance":6527,"transit":false,"i_lat":-6.46424,"is_transit":false,"time":10,"station_name":"Cibinong","station_id":"CBN","i_long":106.851978},{"time":0,"station_name":"Pondok Rajeg","line":21,"i_long":106.824374,"distance":0,"station_id":"PDRG","transit":false,"i_lat":-6.460735,"is_transit":false},{"transit":true,"i_lat":-6.448811,"station_id":"CTA","is_transit":true,"distance":0,"i_long":106.800298,"time":0,"line":2,"station_name":"Citayam"},{"distance":5084,"i_lat":-6.405256,"line":2,"transit":false,"is_transit":false,"station_name":"Depok","time":6,"i_long":106.816926,"station_id":"DP"},{"distance":1584,"i_lat":-6.391065,"time":3,"is_transit":false,"station_id":"DPB","line":2,"i_long":106.819451,"transit":false,"station_name":"Depokbaru"},{"time":4,"station_name":"Pondok Cina","distance":2727,"is_transit":false,"i_long":106.831114,"line":2,"i_lat":-6.369073,"transit":false,"station_id":"POC"},{"time":2,"station_id":"UI","i_lat":-6.360749,"station_name":"Univ. Indonesia","distance":1109,"i_long":106.831474,"line":2,"transit":false,"is_transit":false},{"i_long":106.834175,"station_name":"Univ. Pancasila","station_id":"UP","line":2,"distance":2264,"time":3,"transit":false,"is_transit":false,"i_lat":-6.339291},{"time":2,"distance":1029,"station_id":"LNA","i_lat":-6.330363,"line":2,"transit":false,"is_transit":false,"i_long":106.832616,"station_name":"Lenteng Agung"},{"transit":false,"line":2,"time":3,"station_name":"Tanjung Barat","distance":2671,"i_lat":-6.3080680000000005,"station_id":"TNT","i_long":106.838896,"is_transit":false},{"station_id":"PSM","is_transit":false,"station_name":"Pasar Minggu","transit":false,"distance":2820,"i_lat":-6.2842400000000005,"line":2,"time":4,"i_long":106.843999},{"time":2,"is_transit":false,"station_id":"PSMB","line":2,"transit":false,"station_name":"Pasar Minggu Baru","distance":2380,"i_lat":-6.263214,"i_long":106.851577},{"line":2,"i_lat":-6.255332,"transit":false,"distance":824,"i_long":106.85449,"station_name":"Duren Kalibata","station_id":"DRN","time":2,"is_transit":false},{"line":2,"distance":1546,"i_lat":-6.242512,"station_id":"CW","is_transit":false,"station_name":"Cawang","time":3,"transit":false,"i_long":106.856607},{"time":2,"is_transit":false,"distance":1230,"i_lat":-6.226659,"station_name":"Tebet","transit":false,"station_id":"TEB","i_long":106.857948,"line":2},{"transit":false,"i_lat":-6.209883,"station_id":"MRI","station_name":"Manggarai","i_long":106.84912,"line":2,"time":4,"is_transit":false,"distance":2610},{"is_transit":false,"time":4,"i_long":106.840169,"station_name":"Cikini","i_lat":-6.198556,"transit":false,"distance":1590,"line":2,"station_id":"CKI"},{"line":2,"station_id":"GDD","station_name":"Gondangdia","distance":1750,"is_transit":false,"i_lat":-6.186295,"i_long":106.832183,"time":3,"transit":false},{"station_name":"Juanda","transit":false,"distance":2015,"station_id":"JUA","is_transit":false,"time":4,"i_long":106.828284,"line":2,"i_lat":-6.166716},{"time":2,"station_id":"SW","station_name":"Sawah Besar","distance":1149,"i_long":106.827103,"transit":false,"i_lat":-6.160725,"line":2,"is_transit":false},{"station_name":"Manggabesar","i_lat":-6.149769,"time":2,"i_long":106.82482,"distance":906,"station_id":"MGB","is_transit":false,"line":2,"transit":false},{"is_transit":false,"line":2,"i_long":106.820901,"station_id":"JAY","transit":false,"time":2,"station_name":"Jayakarta","i_lat":-6.141205,"distance":1080},{"distance":1264,"time":4,"is_transit":true,"station_id":"JAKK","line":2,"transit":true,"i_lat":-6.137569,"station_name":"Jakarta Kota","i_long":106.812439},{"transit":true,"i_long":106.826365,"i_lat":-6.132549,"station_name":"Kampung Bandan","station_id":"KPB","line":4,"distance":1364,"is_transit":true,"time":3},{"time":3,"distance":1444,"i_lat":-6.14505,"line":11,"station_id":"RJW","is_transit":false,"i_long":106.836569,"station_name":"Rajawali","transit":false},{"time":5,"i_lat":-6.161728,"station_name":"Kemayoran","transit":false,"station_id":"KMO","distance":1901,"line":11,"i_long":106.839204,"is_transit":false},{"transit":false,"is_transit":false,"time":4,"line":11,"i_long":106.84368,"station_id":"PSE","station_name":"Pasar Senen","i_lat":-6.174784,"distance":1436},{"line":11,"distance":1567,"station_id":"GST","time":8,"is_transit":false,"transit":false,"i_long":106.850107,"i_lat":-6.185975,"station_name":"Gang Sentiong"}]]}