{"data":[[{"distance":0,"station_name":"Nambo","i_lat":-6.466285,"time":0,"is_transit":false,"transit":false,"station_id":"NMO","i_long":106.905196,"line":21},{"time":10,"i_lat":-6.46424,"station_name":"Cibinong","line":21,"is_transit":false,"i_long":106.851978,"station_id":"CBN","transit":false,"distance":6527},{"i_long":106.824374,"is_transit":false,"time":0,"station_name":"Pondok Rajeg","i_lat":-6.460735,"station_id":"PDRG","distance":0,"transit":false,"line":21},{"station_id":"CTA","station_name":"Citayam","transit":true,"i_lat":-6.448811,"line":2,"time":0,"distance":0,"is_transit":true,"i_long":106.800298},{"station_id":"DP","i_lat":-6.405256,"time":6,"line":2,"is_transit":false,"station_name":"Depok","transit":false,"distance":5084,"i_long":106.816926},{"time":3,"transit":false,"station_id":"DPB","distance":1584,"line":2,"is_transit":false,"station_name":"Depokbaru","i_lat":-6.391065,"i_long":106.819451},{"station_name":"Pondok Cina","distance":2727,"station_id":"POC","i_lat":-6.369073,"i_long":106.831114,"time":4,"is_transit":false,"transit":false,"line":2},{"i_lat":-6.360749,"transit":false,"station_id":"UI","i_long":106.831474,"time":2,"is_transit":false,"distance":1109,"line":2,"station_name":"Univ. Indonesia"},{"station_name":"Univ. Pancasila","distance":2264,"transit":false,"line":2,"is_transit":false,"i_lat":-6.339291,"i_long":106.834175,"station_id":"UP","time":3},{"i_lat":-6.330363,"time":2,"transit":false,"station_id":"LNA","line":2,"station_name":"Lenteng Agung","distance":1029,"i_long":106.832616,"is_transit":false},{"station_name":"Tanjung Barat","is_transit":false,"distance":2671,"i_long":106.838896,"transit":false,"line":2,"station_id":"TNT","time":3,"i_lat":-6.3080680000000005},{"i_lat":-6.2842400000000005,"i_long":106.843999,"is_transit":false,"distance":2820,"time":4,"transit":false,"station_name":"Pasar Minggu","station_id":"PSM","line":2},{"station_id":"PSMB","line":2,"is_transit":false,"i_lat":-6.263214,"station_name":"Pasar Minggu Baru","time":2,"transit":false,"distance":2380,"i_long":106.851577},{"line":2,"is_transit":false,"station_name":"Duren Kalibata","distance":824,"time":2,"transit":false,"station_id":"DRN","i_lat":-6.255332,"i_long":106.85449},{"line":2,"is_transit":false,"station_name":"Cawang","i_long":106.856607,"distance":1546,"transit":false,"station_id":"CW","i_lat":-6.242512,"time":3},{"i_long":106.857948,"station_name":"Tebet","time":2,"is_transit":false,"i_lat":-6.226659,"transit":false,"station_id":"TEB","line":2,"distance":1230},{"time":4,"i_long":106.84912,"i_lat":-6.209883,"line":2,"transit":true,"distance":2610,"station_id":"MRI","is_transit":true,"station_name":"Manggarai"},{"transit":false,"distance":3186,"is_transit":false,"time":4,"station_name":"Sudirman","i_long":106.822649,"line":1,"i_lat":-6.202263,"station_id":"SUD"},{"station_id":"SUDB","is_transit":false,"transit":false,"time":1,"i_lat":-6.201433,"line":1,"station_name":"Sudirman Baru","distance":280,"i_long":106.819881},{"line":1,"station_name":"Karet","i_lat":-6.20132,"i_long":106.816351,"transit":false,"is_transit":false,"time":1,"distance":471,"station_id":"KAT"},{"i_long":106.811091,"transit":true,"line":1,"i_lat":-6.185545,"time":5,"station_name":"Tanah Abang","distance":2029,"station_id":"THB","is_transit":true},{"station_name":"Palmerah","i_lat":-6.207404,"i_long":106.79689,"is_transit":false,"distance":3191,"time":6,"line":6,"station_id":"PLM","transit":false},{"i_long":106.780334,"transit":false,"is_transit":false,"line":6,"time":7,"station_id":"KBY","i_lat":-6.237242,"distance":3737,"station_name":"Kebayoran"},{"is_transit":false,"station_name":"Pondokranji","i_lat":-6.276362,"i_long":106.74273,"line":6,"time":8,"distance":6218,"station_id":"PDJ","transit":false},{"station_name":"Jurangmangu","line":6,"i_lat":-6.288927,"distance":2179,"time":3,"is_transit":false,"station_id":"JMU","transit":false,"i_long":106.728916}],[{"transit":false,"station_name":"Nambo","line":21,"i_long":106.905196,"is_transit":false,"i_lat":-6.466285,"time":0,"distance":0,"station_id":"NMO"},{"time":10,"line":21,"station_id":"CBN","transit":false,"i_lat":-6.46424,"station_name":"Cibinong","is_transit":false,"distance":6527,"i_long":106.851978},{"transit":false,"station_id":"PDRG","line":21,"i_lat":-6.460735,"distance":0,"is_transit":false,"station_name":"Pondok Rajeg","i_long":106.824374,"time":0},{"station_id":"CTA","line":2,"distance":0,"time":0,"station_name":"Citayam","i_long":106.800298,"is_transit":true,"transit":true,"i_lat":-6.448811},{"is_transit":false,"distance":5084,"station_id":"DP","i_long":106.816926,"transit":false,"i_lat":-6.405256,"time":6,"line":2,"station_name":"Depok"},{"distance":1584,"transit":false,"line":2,"time":3,"is_transit":false,"station_id":"DPB","station_name":"Depokbaru","i_long":106.819451,"i_lat":-6.391065},{"is_transit":false,"line":2,"station_id":"POC","distance":2727,"time":4,"station_name":"Pondok Cina","transit":false,"i_lat":-6.369073,"i_long":106.831114},{"line":2,"distance":1109,"i_long":106.831474,"station_name":"Univ. Indonesia","i_lat":-6.360749,"is_transit":false,"station_id":"UI","time":2,"transit":false},{"is_transit":false,"time":3,"distance":2264,"station_id":"UP","transit":false,"i_lat":-6.339291,"line":2,"i_long":106.834175,"station_name":"Univ. Pancasila"},{"line":2,"is_transit":false,"time":2,"station_name":"Lenteng Agung","station_id":"LNA","transit":false,"distance":1029,"i_lat":-6.330363,"i_long":106.832616},{"i_lat":-6.3080680000000005,"time":3,"distance":2671,"line":2,"i_long":106.838896,"station_name":"Tanjung Barat","station_id":"TNT","is_transit":false,"transit":false},{"i_lat":-6.2842400000000005,"time":4,"distance":2820,"line":2,"i_long":106.843999,"transit":false,"is_transit":false,"station_id":"PSM","station_name":"Pasar Minggu"},{"distance":2380,"station_name":"Pasar Minggu Baru","time":2,"line":2,"i_long":106.851577,"transit":false,"i_lat":-6.263214,"station_id":"PSMB","is_transit":false},{"time":2,"is_transit":false,"transit":false,"station_id":"DRN","i_lat":-6.255332,"line":2,"station_name":"Duren Kalibata","i_long":106.85449,"distance":824},{"i_long":106.856607,"is_transit":false,"line":2,"time":3,"transit":false,"i_lat":-6.242512,"distance":1546,"station_id":"CW","station_name":"Cawang"},{"distance":1230,"transit":false,"station_name":"Tebet","is_transit":false,"station_id":"TEB","i_lat":-6.226659,"i_long":106.857948,"line":2,"time":2},{"transit":false,"station_name":"Manggarai","distance":2610,"i_long":106.84912,"line":2,"is_transit":false,"station_id":"MRI","time":4,"i_lat":-6.209883},{"time":4,"i_lat":-6.198556,"distance":1590,"station_name":"Cikini","i_long":106.840169,"line":2,"station_id":"CKI","is_transit":false,"transit":false},{"i_lat":-6.186295,"i_long":106.832183,"is_transit":false,"time":3,"transit":false,"station_id":"GDD","distance":1750,"station_name":"Gondangdia","line":2},{"distance":2015,"i_lat":-6.166716,"station_id":"JUA","station_name":"Juanda","is_transit":false,"transit":false,"time":4,"i_long":106.828284,"line":2},{"i_lat":-6.160725,"station_id":"SW","transit":false,"station_name":"Sawah Besar","is_transit":false,"line":2,"distance":1149,"i_long":106.827103,"time":2},{"line":2,"is_transit":false,"i_lat":-6.149769,"i_long":106.82482,"distance":906,"transit":false,"time":2,"station_name":"Manggabesar","station_id":"MGB"},{"transit":false,"i_lat":-6.141205,"line":2,"time":2,"is_transit":false,"station_id":"JAY","i_long":106.820901,"distance":1080,"station_name":"Jayakarta"},{"is_transit":true,"distance":1264,"transit":true,"i_lat":-6.137569,"station_id":"JAKK","station_name":"Jakarta Kota","i_long":106.812439,"line":2,"time":4},{"transit":true,"station_id":"KPB","time":3,"i_lat":-6.132549,"station_name":"Kampung Bandan","distance":1364,"is_transit":true,"i_long":106.826365,"line":4},{"i_long":106.79867,"i_lat":-6.144674,"station_id":"AK","transit":false,"distance":4102,"station_name":"Angke","time":9,"line":1,"is_transit":false},{"station_id":"DU","i_lat":-6.155215,"transit":false,"distance":1230,"line":1,"is_transit":false,"i_long":106.800832,"time":4,"station_name":"Duri"},{"transit":true,"i_long":106.811091,"station_name":"Tanah Abang","station_id":"THB","time":8,"distance":3632,"is_transit":true,"i_lat":-6.185545,"line":1},{"station_id":"PLM","time":6,"distance":3191,"transit":false,"i_long":106.79689,"i_lat":-6.207404,"is_transit":false,"station_name":"Palmerah","line":6},{"station_id":"KBY","time":7,"station_name":"Kebayoran","transit":false,"i_lat":-6.237242,"i_long":106.780334,"distance":3737,"line":6,"is_transit":false},{"station_id":"PDJ","time":8,"i_long":106.74273,"distance":6218,"line":6,"is_transit":false,"transit":false,"station_name":"Pondokranji","i_lat":-6.276362},{"transit":false,"station_name":"Jurangmangu","i_lat":-6.288927,"time":3,"i_long":106.728916,"is_transit":false,"distance":2179,"line":6,"station_id":"JMU"}],[{"transit":false,"time":0,"station_id":"NMO","distance":0,"i_lat":-6.466285,"i_long":106.905196,"station_name":"Nambo","line":21,"is_transit":false},{"station_id":"CBN","i_long":106.851978,"time":10,"transit":false,"is_transit":false,"station_name":"Cibinong","line":21,"distance":6527,"i_lat":-6.46424},{"line":21,"i_lat":-6.460735,"time":0,"distance":0,"station_name":"Pondok Rajeg","station_id":"PDRG","transit":false,"i_long":106.824374,"is_transit":false},{"time":0,"transit":true,"line":2,"station_name":"Citayam","distance":0,"station_id":"CTA","is_transit":true,"i_lat":-6.448811,"i_long":106.800298},{"line":2,"station_name":"Depok","station_id":"DP","transit":false,"time":6,"distance":5084,"i_lat":-6.405256,"i_long":106.816926,"is_transit":false},{"time":3,"i_lat":-6.391065,"station_id":"DPB","transit":false,"line":2,"i_long":106.819451,"is_transit":false,"station_name":"Depokbaru","distance":1584},{"distance":2727,"line":2,"station_name":"Pondok Cina","station_id":"POC","transit":false,"time":4,"i_lat":-6.369073,"is_transit":false,"i_long":106.831114},{"station_id":"UI","station_name":"Univ. Indonesia","transit":false,"i_lat":-6.360749,"i_long":106.831474,"line":2,"is_transit":false,"time":2,"distance":1109},{"is_transit":false,"i_long":106.834175,"time":3,"distance":2264,"station_name":"Univ. Pancasila","transit":false,"i_lat":-6.339291,"line":2,"station_id":"UP"},{"is_transit":false,"distance":1029,"time":2,"station_name":"Lenteng Agung","station_id":"LNA","line":2,"i_lat":-6.330363,"i_long":106.832616,"transit":false},{"is_transit":false,"time":3,"distance":2671,"station_id":"TNT","i_lat":-6.3080680000000005,"transit":false,"station_name":"Tanjung Barat","i_long":106.838896,"line":2},{"i_long":106.843999,"station_name":"Pasar Minggu","is_transit":false,"station_id":"PSM","i_lat":-6.2842400000000005,"distance":2820,"time":4,"transit":false,"line":2},{"i_long":106.851577,"transit":false,"line":2,"station_id":"PSMB","time":2,"distance":2380,"station_name":"Pasar Minggu Baru","i_lat":-6.263214,"is_transit":false},{"station_id":"DRN","i_long":106.85449,"line":2,"station_name":"Duren Kalibata","i_lat":-6.255332,"is_transit":false,"transit":false,"time":2,"distance":824},{"station_id":"CW","transit":false,"i_lat":-6.242512,"line":2,"station_name":"Cawang","time":3,"i_long":106.856607,"is_transit":false,"distance":1546},{"station_name":"Tebet","transit":false,"distance":1230,"line":2,"station_id":"TEB","i_lat":-6.226659,"i_long":106.857948,"is_transit":false,"time":2},{"station_id":"MRI","station_name":"Manggarai","line":2,"i_lat":-6.209883,"transit":true,"i_long":106.84912,"is_transit":true,"distance":2610,"time":4},{"time":2,"station_id":"MTR","transit":false,"i_long":106.858896,"line":1,"is_transit":false,"i_lat":-6.212485,"distance":1275,"station_name":"Matraman"},{"i_lat":-6.215091,"is_transit":true,"time":8,"station_id":"JNG","distance":1377,"station_name":"Jatinegara","line":1,"transit":true,"i_long":106.86807400000001},{"is_transit":false,"station_name":"Pondok Jati","transit":false,"i_lat":-6.209188,"i_long":106.861737,"line":11,"station_id":"POK","time":2,"distance":1236},{"transit":false,"station_id":"KMT","i_lat":-6.193792,"distance":1829,"station_name":"Kramat","time":2,"is_transit":false,"i_long":106.855437,"line":11},{"is_transit":false,"transit":false,"i_lat":-6.185975,"time":1,"station_id":"GST","station_name":"Gang Sentiong","distance":973,"i_long":106.850107,"line":11},{"station_id":"PSE","line":11,"is_transit":false,"station_name":"Pasar Senen","i_long":106.84368,"time":8,"transit":false,"i_lat":-6.174784,"distance":1567},{"station_id":"KMO","i_lat":-6.161728,"distance":1436,"line":11,"is_transit":false,"transit":false,"i_long":106.839204,"station_name":"Kemayoran","time":4},{"time":5,"i_long":106.836569,"is_transit":false,"station_name":"Rajawali","i_lat":-6.14505,"station_id":"RJW","distance":1901,"line":11,"transit":false},{"time":3,"is_transit":true,"distance":1444,"transit":true,"line":4,"i_long":106.826365,"i_lat":-6.132549,"station_id":"KPB","station_name":"Kampung Bandan"},{"i_long":106.79867,"station_id":"AK","distance":4102,"i_lat":-6.144674,"time":9,"line":1,"is_transit":false,"transit":false,"station_name":"Angke"},{"station_id":"DU","i_long":106.800832,"line":1,"station_name":"Duri","is_transit":false,"time":4,"distance":1230,"transit":false,"i_lat":-6.155215},{"distance":3632,"time":8,"station_id":"THB","is_transit":true,"i_long":106.811091,"station_name":"Tanah Abang","line":1,"transit":true,"i_lat":-6.185545},{"time":6,"distance":3191,"station_name":"Palmerah","station_id":"PLM","i_long":106.79689,"i_lat":-6.207404,"is_transit":false,"line":6,"transit":false},{"transit":false,"is_transit":false,"distance":3737,"station_id":"KBY","station_name":"Kebayoran","i_lat":-6.237242,"time":7,"i_long":106.780334,"line":6},{"distance":6218,"station_id":"PDJ","i_lat":-6.276362,"i_long":106.74273,"transit":false,"is_transit":false,"line":6,"time":8,"station_name":"Pondokranji"},{"station_id":"JMU","is_transit":false,"distance":2179,"i_long":106.728916,"i_lat":-6.288927,"line":6,"station_name":"Jurangmangu","transit":false,"time":3}]]}