{"data":[[{"line":21,"distance":0,"station_name":"Nambo","is_transit":false,"i_lat":-6.466285,"station_id":"NMO","i_long":106.905196,"time":0,"transit":false},{"line":21,"distance":6527,"i_lat":-6.46424,"station_name":"Cibinong","station_id":"CBN","i_long":106.851978,"is_transit":false,"time":10,"transit":false},{"is_transit":false,"line":21,"distance":0,"i_long":106.824374,"station_id":"PDRG","transit":false,"station_name":"Pondok Rajeg","time":0,"i_lat":-6.460735},{"i_lat":-6.448811,"distance":0,"i_long":106.800298,"station_id":"CTA","line":2,"time":0,"station_name":"Citayam","is_transit":true,"transit":true},{"i_long":106.816926,"distance":5084,"i_lat":-6.405256,"is_transit":false,"transit":false,"station_id":"DP","time":6,"line":2,"station_name":"Depok"},{"transit":false,"station_id":"DPB","station_name":"Depokbaru","time":3,"distance":1584,"is_transit":false,"i_lat":-6.391065,"i_long":106.819451,"line":2},{"station_id":"POC","time":4,"is_transit":false,"distance":2727,"station_name":"Pondok Cina","i_lat":-6.369073,"i_long":106.831114,"transit":false,"line":2},{"station_id":"UI","i_lat":-6.360749,"line":2,"distance":1109,"time":2,"i_long":106.831474,"station_name":"Univ. Indonesia","transit":false,"is_transit":false},{"is_transit":false,"line":2,"i_long":106.834175,"time":3,"station_id":"UP","transit":false,"station_name":"Univ. Pancasila","i_lat":-6.339291,"distance":2264},{"distance":1029,"transit":false,"time":2,"station_name":"Lenteng Agung","i_lat":-6.330363,"line":2,"station_id":"LNA","is_transit":false,"i_long":106.832616},{"transit":false,"line":2,"i_lat":-6.3080680000000005,"station_id":"TNT","station_name":"Tanjung Barat","time":3,"i_long":106.838896,"is_transit":false,"distance":2671},{"time":4,"i_lat":-6.2842400000000005,"transit":false,"is_transit":false,"i_long":106.843999,"station_id":"PSM","station_name":"Pasar Minggu","distance":2820,"line":2},{"station_name":"Pasar Minggu Baru","time":2,"transit":false,"distance":2380,"line":2,"i_lat":-6.263214,"i_long":106.851577,"station_id":"PSMB","is_transit":false},{"i_long":106.85449,"distance":824,"is_transit":false,"time":2,"transit":false,"station_id":"DRN","station_name":"Duren Kalibata","i_lat":-6.255332,"line":2},{"station_name":"Cawang","is_transit":false,"transit":false,"time":3,"station_id":"CW","distance":1546,"i_lat":-6.242512,"line":2,"i_long":106.856607},{"i_lat":-6.226659,"i_long":106.857948,"time":2,"transit":false,"distance":1230,"line":2,"station_name":"Tebet","station_id":"TEB","is_transit":false},{"distance":2610,"station_name":"Manggarai","i_lat":-6.209883,"transit":true,"i_long":106.84912,"line":2,"station_id":"MRI","time":4,"is_transit":true},{"time":2,"line":1,"distance":1275,"i_long":106.858896,"station_name":"Matraman","station_id":"MTR","transit":false,"i_lat":-6.212485,"is_transit":false},{"is_transit":false,"time":8,"i_lat":-6.215091,"line":1,"station_name":"Jatinegara","station_id":"JNG","transit":false,"distance":1377,"i_long":106.86807400000001}],[{"is_transit":false,"station_name":"Nambo","transit":false,"i_lat":-6.466285,"distance":0,"time":0,"station_id":"NMO","i_long":106.905196,"line":21},{"is_transit":false,"time":10,"transit":false,"station_name":"Cibinong","i_long":106.851978,"line":21,"distance":6527,"station_id":"CBN","i_lat":-6.46424},{"line":21,"station_name":"Pondok Rajeg","is_transit":false,"i_lat":-6.460735,"transit":false,"distance":0,"station_id":"PDRG","time":0,"i_long":106.824374},{"i_lat":-6.448811,"distance":0,"station_id":"CTA","station_name":"Citayam","transit":true,"time":0,"i_long":106.800298,"line":2,"is_transit":true},{"station_id":"DP","is_transit":false,"time":6,"i_lat":-6.405256,"i_long":106.816926,"station_name":"Depok","transit":false,"distance":5084,"line":2},{"is_transit":false,"station_name":"Depokbaru","transit":false,"i_lat":-6.391065,"station_id":"DPB","distance":1584,"i_long":106.819451,"line":2,"time":3},{"i_lat":-6.369073,"station_name":"Pondok Cina","distance":2727,"i_long":106.831114,"time":4,"station_id":"POC","transit":false,"line":2,"is_transit":false},{"station_id":"UI","distance":1109,"transit":false,"station_name":"Univ. Indonesia","time":2,"i_long":106.831474,"i_lat":-6.360749,"line":2,"is_transit":false},{"is_transit":false,"line":2,"distance":2264,"i_lat":-6.339291,"transit":false,"station_id":"UP","i_long":106.834175,"time":3,"station_name":"Univ. Pancasila"},{"transit":false,"distance":1029,"line":2,"is_transit":false,"station_id":"LNA","i_lat":-6.330363,"time":2,"station_name":"Lenteng Agung","i_long":106.832616},{"distance":2671,"i_long":106.838896,"i_lat":-6.3080680000000005,"line":2,"transit":false,"is_transit":false,"time":3,"station_id":"TNT","station_name":"Tanjung Barat"},{"station_id":"PSM","distance":2820,"i_long":106.843999,"station_name":"Pasar Minggu","is_transit":false,"i_lat":-6.2842400000000005,"line":2,"time":4,"transit":false},{"i_lat":-6.263214,"i_long":106.851577,"station_id":"PSMB","station_name":"Pasar Minggu Baru","time":2,"transit":false,"distance":2380,"is_transit":false,"line":2},{"i_lat":-6.255332,"line":2,"station_name":"Duren Kalibata","i_long":106.85449,"station_id":"DRN","transit":false,"distance":824,"time":2,"is_transit":false},{"distance":1546,"line":2,"transit":false,"time":3,"i_long":106.856607,"is_transit":false,"station_name":"Cawang","station_id":"CW","i_lat":-6.242512},{"station_name":"Tebet","distance":1230,"i_long":106.857948,"station_id":"TEB","i_lat":-6.226659,"transit":false,"is_transit":false,"line":2,"time":2},{"line":2,"is_transit":true,"distance":2610,"station_id":"MRI","i_lat":-6.209883,"station_name":"Manggarai","time":4,"i_long":106.84912,"transit":true},{"station_name":"Sudirman","i_lat":-6.202263,"station_id":"SUD","transit":false,"line":1,"is_transit":false,"distance":3186,"time":4,"i_long":106.822649},{"time":1,"line":1,"distance":280,"i_lat":-6.201433,"i_long":106.819881,"transit":false,"is_transit":false,"station_name":"Sudirman Baru","station_id":"SUDB"},{"line":1,"transit":false,"distance":471,"is_transit":false,"station_name":"Karet","time":1,"station_id":"KAT","i_lat":-6.20132,"i_long":106.816351},{"distance":2029,"time":5,"i_long":106.811091,"is_transit":false,"line":1,"station_id":"THB","station_name":"Tanah Abang","transit":false,"i_lat":-6.185545},{"i_lat":-6.155215,"time":8,"i_long":106.800832,"is_transit":false,"line":1,"distance":3632,"station_name":"Duri","transit":false,"station_id":"DU"},{"i_long":106.79867,"is_transit":false,"time":4,"line":1,"transit":false,"distance":1230,"i_lat":-6.144674,"station_id":"AK","station_name":"Angke"},{"time":9,"line":4,"is_transit":true,"station_id":"KPB","distance":4102,"i_lat":-6.132549,"i_long":106.826365,"transit":true,"station_name":"Kampung Bandan"},{"line":11,"time":3,"distance":1444,"transit":false,"is_transit":false,"i_lat":-6.14505,"i_long":106.836569,"station_id":"RJW","station_name":"Rajawali"},{"time":5,"transit":false,"i_long":106.839204,"i_lat":-6.161728,"distance":1901,"station_name":"Kemayoran","is_transit":false,"line":11,"station_id":"KMO"},{"line":11,"time":4,"is_transit":false,"station_id":"PSE","i_lat":-6.174784,"i_long":106.84368,"station_name":"Pasar Senen","distance":1436,"transit":false},{"station_name":"Gang Sentiong","time":8,"line":11,"distance":1567,"station_id":"GST","i_long":106.850107,"is_transit":false,"i_lat":-6.185975,"transit":false},{"is_transit":false,"i_lat":-6.193792,"i_long":106.855437,"distance":973,"station_name":"Kramat","station_id":"KMT","line":11,"transit":false,"time":1},{"is_transit":false,"transit":false,"distance":1829,"time":2,"station_name":"Pondok Jati","i_long":106.861737,"i_lat":-6.209188,"line":11,"station_id":"POK"},{"i_long":106.86807400000001,"time":9,"transit":false,"station_name":"Jatinegara","station_id":"JNG","distance":1236,"is_transit":false,"i_lat":-6.215091,"line":1}],[{"i_lat":-6.466285,"i_long":106.905196,"transit":false,"station_name":"Nambo","station_id":"NMO","time":0,"distance":0,"line":21,"is_transit":false},{"line":21,"time":10,"transit":false,"station_name":"Cibinong","station_id":"CBN","distance":6527,"i_lat":-6.46424,"is_transit":false,"i_long":106.851978},{"i_long":106.824374,"i_lat":-6.460735,"time":0,"station_name":"Pondok Rajeg","is_transit":false,"station_id":"PDRG","distance":0,"transit":false,"line":21},{"i_long":106.800298,"is_transit":true,"station_id":"CTA","line":2,"distance":0,"transit":true,"time":0,"station_name":"Citayam","i_lat":-6.448811},{"line":2,"station_id":"DP","station_name":"Depok","i_lat":-6.405256,"transit":false,"time":6,"i_long":106.816926,"distance":5084,"is_transit":false},{"i_long":106.819451,"station_name":"Depokbaru","distance":1584,"i_lat":-6.391065,"transit":false,"line":2,"is_transit":false,"station_id":"DPB","time":3},{"is_transit":false,"i_lat":-6.369073,"station_id":"POC","time":4,"distance":2727,"transit":false,"i_long":106.831114,"station_name":"Pondok Cina","line":2},{"is_transit":false,"time":2,"distance":1109,"i_long":106.831474,"transit":false,"line":2,"i_lat":-6.360749,"station_id":"UI","station_name":"Univ. Indonesia"},{"i_lat":-6.339291,"station_name":"Univ. Pancasila","is_transit":false,"distance":2264,"i_long":106.834175,"line":2,"transit":false,"station_id":"UP","time":3},{"transit":false,"i_lat":-6.330363,"line":2,"i_long":106.832616,"is_transit":false,"station_id":"LNA","distance":1029,"station_name":"Lenteng Agung","time":2},{"station_id":"TNT","is_transit":false,"i_long":106.838896,"i_lat":-6.3080680000000005,"line":2,"distance":2671,"transit":false,"station_name":"Tanjung Barat","time":3},{"distance":2820,"station_name":"Pasar Minggu","station_id":"PSM","i_long":106.843999,"transit":false,"i_lat":-6.2842400000000005,"line":2,"is_transit":false,"time":4},{"transit":false,"station_name":"Pasar Minggu Baru","i_long":106.851577,"distance":2380,"is_transit":false,"station_id":"PSMB","time":2,"i_lat":-6.263214,"line":2},{"station_name":"Duren Kalibata","time":2,"transit":false,"i_lat":-6.255332,"is_transit":false,"distance":824,"i_long":106.85449,"station_id":"DRN","line":2},{"time":3,"line":2,"station_name":"Cawang","distance":1546,"transit":false,"i_lat":-6.242512,"is_transit":false,"station_id":"CW","i_long":106.856607},{"station_id":"TEB","station_name":"Tebet","distance":1230,"i_lat":-6.226659,"time":2,"transit":false,"is_transit":false,"line":2,"i_long":106.857948},{"station_id":"MRI","transit":false,"station_name":"Manggarai","line":2,"is_transit":false,"time":4,"distance":2610,"i_lat":-6.209883,"i_long":106.84912},{"transit":false,"distance":1590,"time":4,"is_transit":false,"station_name":"Cikini","i_lat":-6.198556,"i_long":106.840169,"line":2,"station_id":"CKI"},{"station_name":"Gondangdia","station_id":"GDD","distance":1750,"i_long":106.832183,"is_transit":false,"time":3,"transit":false,"i_lat":-6.186295,"line":2},{"distance":2015,"line":2,"station_id":"JUA","i_lat":-6.166716,"i_long":106.828284,"transit":false,"time":4,"station_name":"Juanda","is_transit":false},{"station_id":"SW","distance":1149,"time":2,"station_name":"Sawah Besar","i_lat":-6.160725,"line":2,"transit":false,"is_transit":false,"i_long":106.827103},{"is_transit":false,"i_lat":-6.149769,"station_id":"MGB","distance":906,"transit":false,"station_name":"Manggabesar","line":2,"i_long":106.82482,"time":2},{"transit":false,"station_name":"Jayakarta","is_transit":false,"time":2,"station_id":"JAY","i_long":106.820901,"line":2,"distance":1080,"i_lat":-6.141205},{"distance":1264,"station_name":"Jakarta Kota","station_id":"JAKK","i_lat":-6.137569,"is_transit":true,"i_long":106.812439,"line":2,"time":4,"transit":true},{"i_lat":-6.132549,"station_id":"KPB","is_transit":true,"line":4,"distance":1364,"i_long":106.826365,"transit":true,"time":3,"station_name":"Kampung Bandan"},{"distance":1444,"station_id":"RJW","i_lat":-6.14505,"station_name":"Rajawali","line":11,"i_long":106.836569,"transit":false,"is_transit":false,"time":3},{"station_id":"KMO","transit":false,"distance":1901,"station_name":"Kemayoran","is_transit":false,"time":5,"i_long":106.839204,"i_lat":-6.161728,"line":11},{"is_transit":false,"line":11,"station_name":"Pasar Senen","time":4,"distance":1436,"station_id":"PSE","i_lat":-6.174784,"transit":false,"i_long":106.84368},{"is_transit":false,"station_id":"GST","station_name":"Gang Sentiong","distance":1567,"line":11,"i_lat":-6.185975,"time":8,"i_long":106.850107,"transit":false},{"time":1,"station_id":"KMT","is_transit":false,"i_lat":-6.193792,"distance":973,"i_long":106.855437,"transit":false,"line":11,"station_name":"Kramat"},{"i_lat":-6.209188,"station_id":"POK","distance":1829,"time":2,"line":11,"station_name":"Pondok Jati","is_transit":false,"transit":false,"i_long":106.861737},{"time":9,"i_long":106.86807400000001,"station_name":"Jatinegara","station_id":"JNG","transit":false,"is_transit":false,"distance":1236,"i_lat":-6.215091,"line":1}]]}