{"data":[[{"distance":0,"i_long":106.905196,"transit":false,"station_name":"Nambo","line":21,"is_transit":false,"i_lat":-6.466285,"time":0,"station_id":"NMO"},{"station_name":"Cibinong","is_transit":false,"i_long":106.851978,"transit":false,"i_lat":-6.46424,"station_id":"CBN","distance":6527,"line":21,"time":10},{"distance":0,"i_long":106.824374,"i_lat":-6.460735,"line":21,"station_id":"PDRG","time":0,"transit":false,"is_transit":false,"station_name":"Pondok Rajeg"},{"is_transit":true,"transit":true,"i_lat":-6.448811,"time":0,"line":2,"station_id":"CTA","distance":0,"station_name":"Citayam","i_long":106.800298},{"line":2,"distance":5084,"station_name":"Depok","time":6,"transit":false,"i_lat":-6.405256,"i_long":106.816926,"station_id":"DP","is_transit":false},{"distance":1584,"time":3,"station_name":"Depokbaru","i_lat":-6.391065,"i_long":106.819451,"station_id":"DPB","is_transit":false,"line":2,"transit":false},{"i_long":106.831114,"line":2,"i_lat":-6.369073,"distance":2727,"transit":false,"is_transit":false,"time":4,"station_name":"Pondok Cina","station_id":"POC"},{"time":2,"line":2,"distance":1109,"i_lat":-6.360749,"station_id":"UI","transit":false,"station_name":"Univ. Indonesia","is_transit":false,"i_long":106.831474},{"transit":false,"station_id":"UP","time":3,"i_long":106.834175,"is_transit":false,"station_name":"Univ. Pancasila","line":2,"distance":2264,"i_lat":-6.339291},{"station_id":"LNA","distance":1029,"i_long":106.832616,"line":2,"is_transit":false,"time":2,"transit":false,"i_lat":-6.330363,"station_name":"Lenteng Agung"},{"is_transit":false,"transit":false,"station_name":"Tanjung Barat","distance":2671,"station_id":"TNT","i_long":106.838896,"line":2,"i_lat":-6.3080680000000005,"time":3},{"station_name":"Pasar Minggu","i_lat":-6.2842400000000005,"transit":false,"is_transit":false,"line":2,"distance":2820,"i_long":106.843999,"time":4,"station_id":"PSM"},{"i_lat":-6.263214,"i_long":106.851577,"is_transit":false,"distance":2380,"time":2,"transit":false,"line":2,"station_id":"PSMB","station_name":"Pasar Minggu Baru"},{"is_transit":false,"station_name":"Duren Kalibata","i_lat":-6.255332,"line":2,"i_long":106.85449,"transit":false,"distance":824,"time":2,"station_id":"DRN"},{"line":2,"transit":false,"station_name":"Cawang","distance":1546,"i_lat":-6.242512,"is_transit":false,"time":3,"station_id":"CW","i_long":106.856607},{"time":2,"transit":false,"station_name":"Tebet","i_lat":-6.226659,"station_id":"TEB","i_long":106.857948,"is_transit":false,"line":2,"distance":1230},{"station_name":"Manggarai","i_lat":-6.209883,"line":2,"is_transit":false,"i_long":106.84912,"station_id":"MRI","distance":2610,"transit":false,"time":4},{"station_name":"Cikini","is_transit":false,"line":2,"time":4,"transit":false,"i_lat":-6.198556,"i_long":106.840169,"station_id":"CKI","distance":1590},{"station_id":"GDD","i_long":106.832183,"line":2,"i_lat":-6.186295,"time":3,"is_transit":false,"transit":false,"station_name":"Gondangdia","distance":1750},{"station_id":"JUA","is_transit":false,"i_lat":-6.166716,"time":4,"i_long":106.828284,"line":2,"transit":false,"station_name":"Juanda","distance":2015},{"i_lat":-6.160725,"station_name":"Sawah Besar","station_id":"SW","time":2,"distance":1149,"i_long":106.827103,"line":2,"transit":false,"is_transit":false},{"i_long":106.82482,"time":2,"station_name":"Manggabesar","is_transit":false,"distance":906,"i_lat":-6.149769,"transit":false,"line":2,"station_id":"MGB"}],[{"is_transit":false,"i_long":106.905196,"station_name":"Nambo","time":0,"i_lat":-6.466285,"distance":0,"transit":false,"station_id":"NMO","line":21},{"station_id":"CBN","i_lat":-6.46424,"station_name":"Cibinong","line":21,"distance":6527,"time":10,"is_transit":false,"transit":false,"i_long":106.851978},{"transit":false,"time":0,"line":21,"station_name":"Pondok Rajeg","is_transit":false,"station_id":"PDRG","distance":0,"i_long":106.824374,"i_lat":-6.460735},{"station_name":"Citayam","is_transit":true,"i_lat":-6.448811,"line":2,"i_long":106.800298,"time":0,"station_id":"CTA","distance":0,"transit":true},{"i_lat":-6.405256,"i_long":106.816926,"station_name":"Depok","line":2,"is_transit":false,"transit":false,"time":6,"station_id":"DP","distance":5084},{"station_id":"DPB","transit":false,"station_name":"Depokbaru","i_lat":-6.391065,"line":2,"i_long":106.819451,"time":3,"is_transit":false,"distance":1584},{"station_name":"Pondok Cina","station_id":"POC","i_long":106.831114,"transit":false,"is_transit":false,"line":2,"time":4,"distance":2727,"i_lat":-6.369073},{"i_lat":-6.360749,"i_long":106.831474,"distance":1109,"line":2,"is_transit":false,"station_name":"Univ. Indonesia","transit":false,"station_id":"UI","time":2},{"is_transit":false,"distance":2264,"i_long":106.834175,"line":2,"time":3,"i_lat":-6.339291,"station_name":"Univ. Pancasila","station_id":"UP","transit":false},{"i_lat":-6.330363,"transit":false,"line":2,"time":2,"distance":1029,"i_long":106.832616,"is_transit":false,"station_id":"LNA","station_name":"Lenteng Agung"},{"is_transit":false,"station_name":"Tanjung Barat","distance":2671,"line":2,"station_id":"TNT","transit":false,"i_long":106.838896,"i_lat":-6.3080680000000005,"time":3},{"station_id":"PSM","station_name":"Pasar Minggu","distance":2820,"i_long":106.843999,"i_lat":-6.2842400000000005,"line":2,"is_transit":false,"time":4,"transit":false},{"station_name":"Pasar Minggu Baru","i_lat":-6.263214,"time":2,"station_id":"PSMB","distance":2380,"i_long":106.851577,"is_transit":false,"line":2,"transit":false},{"time":2,"i_long":106.85449,"transit":false,"station_id":"DRN","line":2,"is_transit":false,"distance":824,"i_lat":-6.255332,"station_name":"Duren Kalibata"},{"time":3,"transit":false,"station_id":"CW","station_name":"Cawang","i_long":106.856607,"line":2,"distance":1546,"is_transit":false,"i_lat":-6.242512},{"station_id":"TEB","line":2,"distance":1230,"transit":false,"is_transit":false,"time":2,"i_long":106.857948,"i_lat":-6.226659,"station_name":"Tebet"},{"transit":true,"i_lat":-6.209883,"i_long":106.84912,"time":4,"line":2,"station_name":"Manggarai","station_id":"MRI","is_transit":true,"distance":2610},{"time":4,"distance":3186,"station_name":"Sudirman","transit":false,"is_transit":false,"station_id":"SUD","line":1,"i_lat":-6.202263,"i_long":106.822649},{"i_long":106.819881,"i_lat":-6.201433,"station_name":"Sudirman Baru","line":1,"time":1,"is_transit":false,"transit":false,"station_id":"SUDB","distance":280},{"station_name":"Karet","line":1,"transit":false,"is_transit":false,"i_long":106.816351,"distance":471,"station_id":"KAT","time":1,"i_lat":-6.20132},{"i_lat":-6.185545,"i_long":106.811091,"time":5,"station_id":"THB","transit":false,"distance":2029,"line":1,"station_name":"Tanah Abang","is_transit":false},{"i_long":106.800832,"is_transit":false,"time":8,"transit":false,"line":1,"station_id":"DU","i_lat":-6.155215,"distance":3632,"station_name":"Duri"},{"is_transit":false,"time":4,"line":1,"transit":false,"distance":1230,"i_lat":-6.144674,"i_long":106.79867,"station_name":"Angke","station_id":"AK"},{"transit":true,"is_transit":true,"i_lat":-6.132549,"distance":4102,"station_name":"Kampung Bandan","i_long":106.826365,"line":4,"time":9,"station_id":"KPB"},{"i_long":106.812439,"distance":1364,"station_name":"Jakarta Kota","line":2,"time":3,"station_id":"JAKK","is_transit":true,"transit":true,"i_lat":-6.137569},{"i_long":106.820901,"line":2,"transit":false,"station_name":"Jayakarta","is_transit":false,"time":4,"i_lat":-6.141205,"station_id":"JAY","distance":1264},{"station_name":"Manggabesar","transit":false,"time":2,"distance":1080,"line":2,"i_lat":-6.149769,"is_transit":false,"i_long":106.82482,"station_id":"MGB"}],[{"distance":0,"time":0,"i_lat":-6.466285,"station_name":"Nambo","i_long":106.905196,"transit":false,"line":21,"station_id":"NMO","is_transit":false},{"i_lat":-6.46424,"is_transit":false,"station_name":"Cibinong","station_id":"CBN","i_long":106.851978,"transit":false,"line":21,"time":10,"distance":6527},{"distance":0,"station_id":"PDRG","time":0,"i_lat":-6.460735,"is_transit":false,"i_long":106.824374,"station_name":"Pondok Rajeg","line":21,"transit":false},{"time":0,"station_id":"CTA","i_long":106.800298,"is_transit":true,"station_name":"Citayam","transit":true,"i_lat":-6.448811,"line":2,"distance":0},{"station_name":"Depok","time":6,"i_long":106.816926,"station_id":"DP","line":2,"is_transit":false,"distance":5084,"transit":false,"i_lat":-6.405256},{"is_transit":false,"i_long":106.819451,"i_lat":-6.391065,"line":2,"station_name":"Depokbaru","transit":false,"station_id":"DPB","time":3,"distance":1584},{"station_name":"Pondok Cina","line":2,"transit":false,"station_id":"POC","is_transit":false,"time":4,"i_long":106.831114,"distance":2727,"i_lat":-6.369073},{"i_long":106.831474,"station_id":"UI","station_name":"Univ. Indonesia","i_lat":-6.360749,"transit":false,"is_transit":false,"time":2,"distance":1109,"line":2},{"distance":2264,"station_name":"Univ. Pancasila","is_transit":false,"i_lat":-6.339291,"line":2,"time":3,"transit":false,"station_id":"UP","i_long":106.834175},{"station_name":"Lenteng Agung","transit":false,"i_lat":-6.330363,"is_transit":false,"line":2,"time":2,"distance":1029,"station_id":"LNA","i_long":106.832616},{"station_name":"Tanjung Barat","transit":false,"i_lat":-6.3080680000000005,"is_transit":false,"line":2,"time":3,"distance":2671,"i_long":106.838896,"station_id":"TNT"},{"i_long":106.843999,"station_id":"PSM","i_lat":-6.2842400000000005,"line":2,"is_transit":false,"transit":false,"station_name":"Pasar Minggu","distance":2820,"time":4},{"is_transit":false,"line":2,"i_lat":-6.263214,"transit":false,"station_name":"Pasar Minggu Baru","distance":2380,"station_id":"PSMB","time":2,"i_long":106.851577},{"time":2,"transit":false,"i_long":106.85449,"is_transit":false,"distance":824,"station_id":"DRN","line":2,"i_lat":-6.255332,"station_name":"Duren Kalibata"},{"i_long":106.856607,"i_lat":-6.242512,"transit":false,"station_id":"CW","time":3,"station_name":"Cawang","line":2,"is_transit":false,"distance":1546},{"i_lat":-6.226659,"line":2,"station_id":"TEB","distance":1230,"time":2,"is_transit":false,"i_long":106.857948,"transit":false,"station_name":"Tebet"},{"transit":true,"line":2,"is_transit":true,"i_long":106.84912,"distance":2610,"station_id":"MRI","station_name":"Manggarai","time":4,"i_lat":-6.209883},{"distance":1275,"station_id":"MTR","is_transit":false,"line":1,"transit":false,"time":2,"i_lat":-6.212485,"station_name":"Matraman","i_long":106.858896},{"distance":1377,"station_name":"Jatinegara","transit":true,"is_transit":true,"time":8,"station_id":"JNG","i_lat":-6.215091,"line":1,"i_long":106.86807400000001},{"station_id":"POK","line":11,"is_transit":false,"distance":1236,"transit":false,"i_lat":-6.209188,"i_long":106.861737,"time":2,"station_name":"Pondok Jati"},{"station_id":"KMT","transit":false,"line":11,"i_lat":-6.193792,"is_transit":false,"station_name":"Kramat","distance":1829,"i_long":106.855437,"time":2},{"station_name":"Gang Sentiong","is_transit":false,"i_long":106.850107,"station_id":"GST","distance":973,"i_lat":-6.185975,"time":1,"line":11,"transit":false},{"is_transit":false,"i_lat":-6.174784,"i_long":106.84368,"line":11,"transit":false,"station_name":"Pasar Senen","time":8,"distance":1567,"station_id":"PSE"},{"station_name":"Kemayoran","time":4,"i_long":106.839204,"is_transit":false,"line":11,"station_id":"KMO","i_lat":-6.161728,"transit":false,"distance":1436},{"station_name":"Rajawali","transit":false,"line":11,"i_long":106.836569,"time":5,"i_lat":-6.14505,"station_id":"RJW","distance":1901,"is_transit":false},{"i_lat":-6.132549,"i_long":106.826365,"station_name":"Kampung Bandan","station_id":"KPB","line":4,"is_transit":true,"transit":true,"time":3,"distance":1444},{"is_transit":true,"line":2,"i_long":106.812439,"transit":true,"distance":1364,"time":3,"station_name":"Jakarta Kota","station_id":"JAKK","i_lat":-6.137569},{"line":2,"i_long":106.820901,"station_name":"Jayakarta","is_transit":false,"i_lat":-6.141205,"time":4,"transit":false,"station_id":"JAY","distance":1264},{"distance":1080,"station_name":"Manggabesar","time":2,"i_lat":-6.149769,"line":2,"i_long":106.82482,"transit":false,"station_id":"MGB","is_transit":false}]]}