{"data":[[{"i_lat":-6.466285,"is_transit":false,"transit":false,"station_name":"Nambo","time":0,"i_long":106.905196,"line":21,"station_id":"NMO","distance":0},{"is_transit":false,"time":10,"transit":false,"station_name":"Cibinong","line":21,"station_id":"CBN","i_lat":-6.46424,"distance":6527,"i_long":106.851978},{"line":21,"time":0,"i_lat":-6.460735,"station_id":"PDRG","distance":0,"i_long":106.824374,"station_name":"Pondok Rajeg","transit":false,"is_transit":false},{"i_lat":-6.448811,"transit":true,"time":0,"i_long":106.800298,"line":2,"station_id":"CTA","is_transit":true,"station_name":"Citayam","distance":0},{"line":2,"station_name":"Depok","i_lat":-6.405256,"time":6,"transit":false,"i_long":106.816926,"is_transit":false,"distance":5084,"station_id":"DP"},{"i_long":106.819451,"is_transit":false,"distance":1584,"transit":false,"i_lat":-6.391065,"station_name":"Depokbaru","line":2,"station_id":"DPB","time":3},{"i_long":106.831114,"station_id":"POC","transit":false,"distance":2727,"station_name":"Pondok Cina","time":4,"is_transit":false,"i_lat":-6.369073,"line":2},{"is_transit":false,"line":2,"i_lat":-6.360749,"transit":false,"station_name":"Univ. Indonesia","station_id":"UI","time":2,"distance":1109,"i_long":106.831474},{"is_transit":false,"line":2,"i_lat":-6.339291,"distance":2264,"station_id":"UP","time":3,"transit":false,"i_long":106.834175,"station_name":"Univ. Pancasila"},{"distance":1029,"i_long":106.832616,"transit":false,"line":2,"i_lat":-6.330363,"time":2,"is_transit":false,"station_name":"Lenteng Agung","station_id":"LNA"}]]}