{"data":[[{"line":21,"is_transit":false,"transit":false,"i_long":106.905196,"station_id":"NMO","station_name":"Nambo","time":0,"distance":0,"i_lat":-6.466285},{"time":10,"is_transit":false,"distance":6527,"line":0,"i_long":106.851978,"station_id":"CBN","station_name":"Cibinong","i_lat":-6.46424,"transit":false},{"line":1,"is_transit":true,"i_lat":-6.448811,"station_name":"Citayam","station_id":"CTA","distance":6740,"transit":false,"i_long":106.800298,"time":10},{"transit":false,"i_long":106.816926,"time":6,"station_name":"Depok","is_transit":false,"i_lat":-6.405256,"line":0,"station_id":"DP","distance":5084},{"i_lat":-6.391065,"transit":false,"station_name":"Depokbaru","distance":1584,"station_id":"DPB","i_long":106.819451,"is_transit":false,"time":3,"line":0},{"time":4,"i_long":106.831114,"station_id":"POC","is_transit":false,"i_lat":-6.369073,"distance":2727,"station_name":"Pondok Cina","line":2,"transit":false},{"i_lat":-6.360749,"time":2,"distance":1109,"is_transit":false,"station_id":"UI","transit":false,"station_name":"Univ. Indonesia","line":2,"i_long":106.831474},{"station_id":"UP","transit":false,"station_name":"Univ. Pancasila","is_transit":false,"i_long":106.834175,"distance":2264,"i_lat":-6.339291,"line":2,"time":3},{"i_long":106.832616,"i_lat":-6.330363,"station_id":"LNA","distance":1029,"is_transit":false,"time":2,"line":2,"station_name":"Lenteng Agung","transit":false},{"time":3,"station_id":"TNT","station_name":"Tanjung Barat","distance":2671,"transit":false,"i_lat":-6.3080680000000005,"is_transit":false,"i_long":106.838896,"line":2},{"time":4,"distance":2820,"i_lat":-6.2842400000000005,"i_long":106.843999,"station_id":"PSM","is_transit":false,"station_name":"Pasar Minggu","transit":false,"line":2},{"distance":2380,"station_id":"PSMB","is_transit":false,"transit":false,"station_name":"Pasar Minggu Baru","line":2,"i_lat":-6.263214,"time":2,"i_long":106.851577},{"is_transit":false,"station_id":"DRN","distance":824,"i_long":106.85449,"station_name":"Duren Kalibata","transit":false,"i_lat":-6.255332,"line":0,"time":2},{"i_long":106.856607,"i_lat":-6.242512,"distance":1546,"time":3,"line":0,"station_id":"CW","is_transit":false,"transit":false,"station_name":"Cawang"},{"time":2,"distance":1230,"transit":false,"i_lat":-6.226659,"i_long":106.857948,"station_id":"TEB","line":2,"station_name":"Tebet","is_transit":false},{"i_lat":-6.209883,"i_long":106.84912,"station_name":"Manggarai","station_id":"MRI","distance":2610,"is_transit":true,"transit":true,"line":0,"time":4},{"transit":false,"distance":3186,"i_long":106.822649,"line":1,"station_id":"SUD","is_transit":false,"time":4,"i_lat":-6.202263,"station_name":"Sudirman"},{"i_long":106.819881,"i_lat":-6.201433,"station_name":"Sudirman Baru","is_transit":false,"distance":280,"line":1,"transit":false,"station_id":"SUDB","time":1},{"is_transit":false,"station_id":"KAT","i_lat":-6.20132,"transit":false,"line":1,"time":1,"i_long":106.816351,"station_name":"Karet","distance":471},{"station_id":"THB","transit":true,"i_lat":-6.185545,"is_transit":true,"distance":2029,"station_name":"Tanah Abang","time":5,"i_long":106.811091,"line":1},{"station_id":"PLM","station_name":"Palmerah","time":6,"distance":3191,"i_lat":-6.207404,"transit":false,"i_long":106.79689,"line":6,"is_transit":false},{"station_name":"Kebayoran","time":7,"transit":false,"station_id":"KBY","i_lat":-6.237242,"i_long":106.780334,"is_transit":false,"line":6,"distance":3737},{"time":8,"distance":6218,"i_long":106.74273,"station_id":"PDJ","i_lat":-6.276362,"line":6,"station_name":"Pondokranji","transit":false,"is_transit":false},{"i_lat":-6.288927,"i_long":106.728916,"distance":2179,"transit":false,"line":6,"station_id":"JMU","station_name":"Jurangmangu","is_transit":false,"time":3}],[{"time":0,"i_lat":-6.466285,"i_long":106.905196,"line":21,"is_transit":false,"station_id":"NMO","distance":0,"transit":false,"station_name":"Nambo"},{"i_lat":-6.46424,"transit":false,"is_transit":false,"station_id":"CBN","station_name":"Cibinong","time":10,"i_long":106.851978,"line":0,"distance":6527},{"station_id":"CTA","is_transit":true,"station_name":"Citayam","transit":false,"line":1,"time":10,"distance":6740,"i_lat":-6.448811,"i_long":106.800298},{"time":6,"station_id":"DP","i_lat":-6.405256,"line":0,"transit":false,"distance":5084,"i_long":106.816926,"station_name":"Depok","is_transit":false},{"is_transit":false,"line":0,"i_lat":-6.391065,"station_name":"Depokbaru","time":3,"station_id":"DPB","distance":1584,"i_long":106.819451,"transit":false},{"distance":2727,"i_lat":-6.369073,"station_id":"POC","time":4,"is_transit":false,"transit":false,"i_long":106.831114,"station_name":"Pondok Cina","line":2},{"i_long":106.831474,"station_id":"UI","time":2,"transit":false,"is_transit":false,"line":2,"i_lat":-6.360749,"station_name":"Univ. Indonesia","distance":1109},{"station_id":"UP","transit":false,"i_long":106.834175,"is_transit":false,"line":2,"time":3,"i_lat":-6.339291,"distance":2264,"station_name":"Univ. Pancasila"},{"station_name":"Lenteng Agung","line":2,"time":2,"transit":false,"is_transit":false,"i_long":106.832616,"i_lat":-6.330363,"distance":1029,"station_id":"LNA"},{"i_long":106.838896,"distance":2671,"station_name":"Tanjung Barat","is_transit":false,"time":3,"i_lat":-6.3080680000000005,"line":2,"transit":false,"station_id":"TNT"},{"distance":2820,"i_lat":-6.2842400000000005,"station_name":"Pasar Minggu","i_long":106.843999,"is_transit":false,"time":4,"station_id":"PSM","transit":false,"line":2},{"time":2,"station_name":"Pasar Minggu Baru","is_transit":false,"station_id":"PSMB","transit":false,"distance":2380,"i_long":106.851577,"line":2,"i_lat":-6.263214},{"time":2,"station_name":"Duren Kalibata","i_long":106.85449,"transit":false,"distance":824,"line":0,"station_id":"DRN","i_lat":-6.255332,"is_transit":false},{"station_id":"CW","i_long":106.856607,"distance":1546,"time":3,"station_name":"Cawang","is_transit":false,"i_lat":-6.242512,"line":0,"transit":false},{"station_name":"Tebet","is_transit":false,"transit":false,"time":2,"i_lat":-6.226659,"station_id":"TEB","distance":1230,"line":2,"i_long":106.857948},{"distance":2610,"i_long":106.84912,"line":0,"transit":true,"time":4,"station_name":"Manggarai","i_lat":-6.209883,"is_transit":true,"station_id":"MRI"},{"line":0,"transit":false,"i_lat":-6.198556,"distance":1590,"station_id":"CKI","is_transit":false,"time":4,"station_name":"Cikini","i_long":106.840169},{"i_lat":-6.186295,"transit":false,"station_name":"Gondangdia","time":3,"distance":1750,"line":2,"is_transit":false,"station_id":"GDD","i_long":106.832183},{"station_id":"JUA","time":4,"i_lat":-6.166716,"line":2,"distance":2015,"transit":false,"i_long":106.828284,"station_name":"Juanda","is_transit":false},{"i_lat":-6.160725,"time":2,"station_name":"Sawah Besar","is_transit":false,"transit":false,"i_long":106.827103,"distance":1149,"line":2,"station_id":"SW"},{"distance":906,"i_lat":-6.149769,"line":2,"station_name":"Manggabesar","station_id":"MGB","time":2,"is_transit":false,"transit":false,"i_long":106.82482},{"is_transit":false,"station_name":"Jayakarta","distance":1080,"station_id":"JAY","i_lat":-6.141205,"i_long":106.820901,"time":2,"transit":false,"line":7},{"time":4,"i_long":106.812439,"i_lat":-6.137569,"is_transit":true,"distance":1264,"station_id":"JAKK","line":0,"station_name":"Jakarta Kota","transit":true},{"transit":false,"station_name":"Kampung Bandan","time":3,"distance":1364,"i_long":106.826365,"line":0,"i_lat":-6.132549,"is_transit":true,"station_id":"KPB"},{"i_lat":-6.144674,"i_long":106.79867,"line":0,"station_name":"Angke","is_transit":false,"station_id":"AK","transit":false,"time":9,"distance":4102},{"station_id":"DU","transit":true,"distance":1230,"line":1,"time":4,"is_transit":true,"i_long":106.800832,"i_lat":-6.155215,"station_name":"Duri"},{"transit":true,"time":8,"station_id":"THB","station_name":"Tanah Abang","i_lat":-6.185545,"distance":3632,"is_transit":true,"i_long":106.811091,"line":1},{"distance":3191,"i_long":106.79689,"station_id":"PLM","line":6,"time":6,"is_transit":false,"i_lat":-6.207404,"station_name":"Palmerah","transit":false},{"time":7,"station_id":"KBY","transit":false,"station_name":"Kebayoran","distance":3737,"i_long":106.780334,"line":6,"is_transit":false,"i_lat":-6.237242},{"time":8,"i_lat":-6.276362,"distance":6218,"is_transit":false,"i_long":106.74273,"station_name":"Pondokranji","transit":false,"station_id":"PDJ","line":6},{"station_name":"Jurangmangu","distance":2179,"station_id":"JMU","line":6,"is_transit":false,"time":3,"transit":false,"i_lat":-6.288927,"i_long":106.728916}],[{"time":0,"line":21,"distance":0,"station_name":"Nambo","i_lat":-6.466285,"i_long":106.905196,"station_id":"NMO","is_transit":false,"transit":false},{"i_long":106.851978,"i_lat":-6.46424,"station_id":"CBN","station_name":"Cibinong","time":10,"transit":false,"line":0,"is_transit":false,"distance":6527},{"station_id":"CTA","is_transit":true,"time":10,"i_long":106.800298,"line":1,"transit":false,"i_lat":-6.448811,"distance":6740,"station_name":"Citayam"},{"is_transit":false,"station_id":"DP","transit":false,"i_long":106.816926,"station_name":"Depok","distance":5084,"i_lat":-6.405256,"line":0,"time":6},{"station_id":"DPB","is_transit":false,"i_long":106.819451,"transit":false,"line":0,"station_name":"Depokbaru","time":3,"distance":1584,"i_lat":-6.391065},{"line":2,"transit":false,"is_transit":false,"i_long":106.831114,"distance":2727,"time":4,"station_id":"POC","i_lat":-6.369073,"station_name":"Pondok Cina"},{"time":2,"transit":false,"i_long":106.831474,"station_id":"UI","is_transit":false,"station_name":"Univ. Indonesia","distance":1109,"line":2,"i_lat":-6.360749},{"transit":false,"i_lat":-6.339291,"is_transit":false,"distance":2264,"line":2,"time":3,"i_long":106.834175,"station_name":"Univ. Pancasila","station_id":"UP"},{"transit":false,"is_transit":false,"i_lat":-6.330363,"station_name":"Lenteng Agung","time":2,"station_id":"LNA","i_long":106.832616,"line":2,"distance":1029},{"time":3,"station_name":"Tanjung Barat","transit":false,"i_lat":-6.3080680000000005,"distance":2671,"line":2,"i_long":106.838896,"is_transit":false,"station_id":"TNT"},{"transit":false,"station_name":"Pasar Minggu","i_lat":-6.2842400000000005,"i_long":106.843999,"line":2,"is_transit":false,"time":4,"station_id":"PSM","distance":2820},{"i_long":106.851577,"station_id":"PSMB","time":2,"station_name":"Pasar Minggu Baru","distance":2380,"is_transit":false,"transit":false,"i_lat":-6.263214,"line":2},{"distance":824,"transit":false,"line":0,"station_id":"DRN","time":2,"is_transit":false,"station_name":"Duren Kalibata","i_lat":-6.255332,"i_long":106.85449},{"distance":1546,"i_long":106.856607,"station_id":"CW","transit":false,"line":0,"is_transit":false,"station_name":"Cawang","time":3,"i_lat":-6.242512},{"station_id":"TEB","line":2,"i_lat":-6.226659,"i_long":106.857948,"distance":1230,"is_transit":false,"time":2,"station_name":"Tebet","transit":false},{"station_name":"Manggarai","i_lat":-6.209883,"line":0,"i_long":106.84912,"distance":2610,"time":4,"is_transit":true,"transit":true,"station_id":"MRI"},{"i_long":106.858896,"distance":1275,"is_transit":false,"i_lat":-6.212485,"line":1,"station_id":"MTR","station_name":"Matraman","time":2,"transit":false},{"station_id":"JNG","time":8,"transit":true,"is_transit":true,"distance":1377,"station_name":"Jatinegara","i_long":106.86807400000001,"i_lat":-6.215091,"line":0},{"station_id":"POK","is_transit":false,"line":11,"i_lat":-6.209188,"time":2,"distance":1236,"station_name":"Pondok Jati","transit":false,"i_long":106.861737},{"transit":false,"line":11,"distance":1829,"i_long":106.855437,"station_name":"Kramat","i_lat":-6.193792,"time":2,"station_id":"KMT","is_transit":false},{"station_id":"GST","line":11,"station_name":"Gang Sentiong","time":1,"distance":973,"i_long":106.850107,"transit":false,"is_transit":false,"i_lat":-6.185975},{"time":8,"station_name":"Pasar Senen","is_transit":false,"i_lat":-6.174784,"line":11,"station_id":"PSE","transit":false,"i_long":106.84368,"distance":1567},{"time":4,"line":11,"i_long":106.839204,"distance":1436,"transit":false,"station_name":"Kemayoran","i_lat":-6.161728,"station_id":"KMO","is_transit":false},{"is_transit":false,"i_lat":-6.14505,"i_long":106.836569,"station_name":"Rajawali","distance":1901,"line":11,"station_id":"RJW","time":5,"transit":false},{"distance":1444,"line":0,"is_transit":true,"station_name":"Kampung Bandan","transit":true,"i_lat":-6.132549,"time":3,"station_id":"KPB","i_long":106.826365},{"i_long":106.79867,"station_name":"Angke","is_transit":false,"i_lat":-6.144674,"distance":4102,"line":0,"time":9,"transit":false,"station_id":"AK"},{"i_lat":-6.155215,"time":4,"distance":1230,"is_transit":true,"station_id":"DU","station_name":"Duri","transit":true,"i_long":106.800832,"line":1},{"station_id":"THB","transit":true,"time":8,"line":1,"i_lat":-6.185545,"is_transit":true,"station_name":"Tanah Abang","i_long":106.811091,"distance":3632},{"station_id":"PLM","i_lat":-6.207404,"distance":3191,"i_long":106.79689,"line":6,"station_name":"Palmerah","time":6,"transit":false,"is_transit":false},{"time":7,"is_transit":false,"distance":3737,"transit":false,"station_id":"KBY","i_lat":-6.237242,"station_name":"Kebayoran","line":6,"i_long":106.780334},{"i_lat":-6.276362,"time":8,"station_name":"Pondokranji","station_id":"PDJ","is_transit":false,"line":6,"i_long":106.74273,"distance":6218,"transit":false},{"is_transit":false,"i_long":106.728916,"transit":false,"i_lat":-6.288927,"distance":2179,"station_id":"JMU","time":3,"line":6,"station_name":"Jurangmangu"}]]}