{"data":[[{"i_lat":-6.466285,"distance":0,"station_id":"NMO","station_name":"Nambo","is_transit":false,"time":0,"line":21,"i_long":106.905196,"transit":false},{"station_name":"Cibinong","is_transit":false,"station_id":"CBN","transit":false,"line":21,"i_long":106.851978,"i_lat":-6.46424,"distance":6527,"time":10},{"line":21,"is_transit":false,"transit":false,"distance":0,"i_lat":-6.460735,"station_id":"PDRG","station_name":"Pondok Rajeg","time":0,"i_long":106.824374},{"is_transit":true,"distance":0,"station_id":"CTA","time":0,"i_lat":-6.448811,"i_long":106.800298,"line":2,"station_name":"Citayam","transit":true},{"transit":false,"time":6,"station_id":"DP","station_name":"Depok","i_lat":-6.405256,"i_long":106.816926,"is_transit":false,"distance":5084,"line":2},{"transit":false,"time":3,"i_long":106.819451,"station_name":"Depokbaru","i_lat":-6.391065,"distance":1584,"line":2,"station_id":"DPB","is_transit":false},{"time":4,"is_transit":false,"distance":2727,"i_lat":-6.369073,"transit":false,"station_id":"POC","line":2,"i_long":106.831114,"station_name":"Pondok Cina"},{"is_transit":false,"line":2,"station_id":"UI","i_long":106.831474,"i_lat":-6.360749,"transit":false,"station_name":"Univ. Indonesia","distance":1109,"time":2},{"station_name":"Univ. Pancasila","station_id":"UP","line":2,"distance":2264,"is_transit":false,"time":3,"transit":false,"i_lat":-6.339291,"i_long":106.834175},{"station_name":"Lenteng Agung","i_lat":-6.330363,"is_transit":false,"line":2,"transit":false,"distance":1029,"i_long":106.832616,"station_id":"LNA","time":2},{"station_name":"Tanjung Barat","station_id":"TNT","is_transit":false,"time":3,"i_long":106.838896,"line":2,"distance":2671,"transit":false,"i_lat":-6.3080680000000005},{"distance":2820,"is_transit":false,"station_id":"PSM","station_name":"Pasar Minggu","time":4,"i_lat":-6.2842400000000005,"transit":false,"i_long":106.843999,"line":2},{"time":2,"distance":2380,"line":2,"transit":false,"i_lat":-6.263214,"station_name":"Pasar Minggu Baru","station_id":"PSMB","is_transit":false,"i_long":106.851577},{"distance":824,"transit":false,"station_name":"Duren Kalibata","is_transit":false,"station_id":"DRN","i_lat":-6.255332,"i_long":106.85449,"line":2,"time":2},{"station_name":"Cawang","time":3,"i_lat":-6.242512,"line":2,"distance":1546,"station_id":"CW","is_transit":false,"i_long":106.856607,"transit":false},{"line":2,"is_transit":false,"distance":1230,"i_lat":-6.226659,"i_long":106.857948,"transit":false,"station_name":"Tebet","time":2,"station_id":"TEB"},{"is_transit":true,"time":4,"line":2,"distance":2610,"station_id":"MRI","station_name":"Manggarai","transit":true,"i_lat":-6.209883,"i_long":106.84912},{"transit":false,"station_name":"Sudirman","distance":3186,"is_transit":false,"line":1,"i_long":106.822649,"time":4,"i_lat":-6.202263,"station_id":"SUD"},{"transit":false,"i_long":106.819881,"station_name":"Sudirman Baru","is_transit":false,"station_id":"SUDB","time":1,"i_lat":-6.201433,"distance":280,"line":1},{"distance":471,"transit":false,"i_lat":-6.20132,"line":1,"station_id":"KAT","time":1,"i_long":106.816351,"station_name":"Karet","is_transit":false},{"i_long":106.811091,"station_id":"THB","station_name":"Tanah Abang","transit":false,"time":5,"i_lat":-6.185545,"distance":2029,"line":1,"is_transit":false},{"distance":3632,"time":8,"i_lat":-6.155215,"station_name":"Duri","line":1,"transit":false,"is_transit":false,"i_long":106.800832,"station_id":"DU"},{"time":4,"distance":1230,"i_lat":-6.144674,"i_long":106.79867,"is_transit":false,"line":1,"transit":false,"station_id":"AK","station_name":"Angke"},{"time":9,"station_name":"Kampung Bandan","is_transit":false,"station_id":"KPB","i_lat":-6.132549,"distance":4102,"transit":false,"i_long":106.826365,"line":4}],[{"i_long":106.905196,"station_name":"Nambo","distance":0,"station_id":"NMO","i_lat":-6.466285,"is_transit":false,"transit":false,"time":0,"line":21},{"time":10,"i_lat":-6.46424,"transit":false,"is_transit":false,"station_id":"CBN","line":21,"distance":6527,"station_name":"Cibinong","i_long":106.851978},{"station_name":"Pondok Rajeg","distance":0,"i_lat":-6.460735,"station_id":"PDRG","is_transit":false,"time":0,"i_long":106.824374,"line":21,"transit":false},{"line":2,"i_lat":-6.448811,"i_long":106.800298,"time":0,"station_id":"CTA","is_transit":true,"distance":0,"station_name":"Citayam","transit":true},{"i_long":106.816926,"is_transit":false,"distance":5084,"i_lat":-6.405256,"station_name":"Depok","station_id":"DP","transit":false,"line":2,"time":6},{"is_transit":false,"i_long":106.819451,"station_name":"Depokbaru","station_id":"DPB","transit":false,"time":3,"distance":1584,"i_lat":-6.391065,"line":2},{"line":2,"is_transit":false,"i_long":106.831114,"transit":false,"station_name":"Pondok Cina","distance":2727,"time":4,"station_id":"POC","i_lat":-6.369073},{"i_lat":-6.360749,"station_id":"UI","station_name":"Univ. Indonesia","transit":false,"time":2,"i_long":106.831474,"line":2,"is_transit":false,"distance":1109},{"station_id":"UP","i_long":106.834175,"station_name":"Univ. Pancasila","line":2,"distance":2264,"time":3,"i_lat":-6.339291,"transit":false,"is_transit":false},{"i_lat":-6.330363,"distance":1029,"line":2,"i_long":106.832616,"transit":false,"time":2,"is_transit":false,"station_id":"LNA","station_name":"Lenteng Agung"},{"time":3,"line":2,"is_transit":false,"station_name":"Tanjung Barat","station_id":"TNT","i_lat":-6.3080680000000005,"transit":false,"i_long":106.838896,"distance":2671},{"distance":2820,"transit":false,"i_lat":-6.2842400000000005,"station_name":"Pasar Minggu","station_id":"PSM","time":4,"i_long":106.843999,"line":2,"is_transit":false},{"station_id":"PSMB","i_long":106.851577,"line":2,"i_lat":-6.263214,"station_name":"Pasar Minggu Baru","distance":2380,"is_transit":false,"transit":false,"time":2},{"station_id":"DRN","distance":824,"i_lat":-6.255332,"i_long":106.85449,"station_name":"Duren Kalibata","transit":false,"is_transit":false,"time":2,"line":2},{"station_id":"CW","i_long":106.856607,"i_lat":-6.242512,"station_name":"Cawang","distance":1546,"line":2,"transit":false,"time":3,"is_transit":false},{"station_id":"TEB","time":2,"i_long":106.857948,"line":2,"i_lat":-6.226659,"station_name":"Tebet","is_transit":false,"transit":false,"distance":1230},{"line":2,"is_transit":false,"i_long":106.84912,"station_name":"Manggarai","distance":2610,"i_lat":-6.209883,"time":4,"transit":false,"station_id":"MRI"},{"distance":1590,"station_name":"Cikini","i_long":106.840169,"station_id":"CKI","i_lat":-6.198556,"is_transit":false,"transit":false,"time":4,"line":2},{"i_long":106.832183,"transit":false,"distance":1750,"is_transit":false,"time":3,"i_lat":-6.186295,"line":2,"station_name":"Gondangdia","station_id":"GDD"},{"line":2,"distance":2015,"station_name":"Juanda","transit":false,"time":4,"i_lat":-6.166716,"station_id":"JUA","is_transit":false,"i_long":106.828284},{"i_lat":-6.160725,"is_transit":false,"station_id":"SW","transit":false,"i_long":106.827103,"station_name":"Sawah Besar","time":2,"line":2,"distance":1149},{"i_lat":-6.149769,"station_name":"Manggabesar","line":2,"is_transit":false,"distance":906,"station_id":"MGB","i_long":106.82482,"transit":false,"time":2},{"transit":false,"i_long":106.820901,"is_transit":false,"line":2,"station_id":"JAY","distance":1080,"i_lat":-6.141205,"station_name":"Jayakarta","time":2},{"line":2,"i_lat":-6.137569,"station_name":"Jakarta Kota","is_transit":true,"distance":1264,"station_id":"JAKK","transit":true,"time":4,"i_long":106.812439},{"i_lat":-6.132549,"i_long":106.826365,"line":4,"is_transit":false,"station_id":"KPB","transit":false,"station_name":"Kampung Bandan","distance":1364,"time":3}],[{"line":21,"station_name":"Nambo","i_long":106.905196,"distance":0,"time":0,"i_lat":-6.466285,"is_transit":false,"station_id":"NMO","transit":false},{"transit":false,"is_transit":false,"line":21,"station_id":"CBN","time":10,"i_long":106.851978,"i_lat":-6.46424,"station_name":"Cibinong","distance":6527},{"i_long":106.824374,"station_name":"Pondok Rajeg","is_transit":false,"i_lat":-6.460735,"line":21,"time":0,"transit":false,"station_id":"PDRG","distance":0},{"station_id":"CTA","i_long":106.800298,"station_name":"Citayam","time":0,"transit":true,"i_lat":-6.448811,"line":2,"distance":0,"is_transit":true},{"time":6,"i_lat":-6.405256,"station_name":"Depok","transit":false,"distance":5084,"station_id":"DP","is_transit":false,"i_long":106.816926,"line":2},{"transit":false,"time":3,"station_name":"Depokbaru","distance":1584,"i_long":106.819451,"is_transit":false,"line":2,"station_id":"DPB","i_lat":-6.391065},{"is_transit":false,"i_long":106.831114,"line":2,"transit":false,"i_lat":-6.369073,"station_name":"Pondok Cina","distance":2727,"station_id":"POC","time":4},{"i_long":106.831474,"station_name":"Univ. Indonesia","line":2,"is_transit":false,"i_lat":-6.360749,"distance":1109,"transit":false,"time":2,"station_id":"UI"},{"i_long":106.834175,"is_transit":false,"line":2,"transit":false,"distance":2264,"i_lat":-6.339291,"station_id":"UP","station_name":"Univ. Pancasila","time":3},{"distance":1029,"i_long":106.832616,"station_id":"LNA","transit":false,"is_transit":false,"i_lat":-6.330363,"time":2,"line":2,"station_name":"Lenteng Agung"},{"is_transit":false,"time":3,"i_lat":-6.3080680000000005,"distance":2671,"station_name":"Tanjung Barat","station_id":"TNT","transit":false,"i_long":106.838896,"line":2},{"time":4,"line":2,"i_long":106.843999,"distance":2820,"i_lat":-6.2842400000000005,"station_name":"Pasar Minggu","transit":false,"station_id":"PSM","is_transit":false},{"i_lat":-6.263214,"station_name":"Pasar Minggu Baru","is_transit":false,"distance":2380,"time":2,"line":2,"i_long":106.851577,"station_id":"PSMB","transit":false},{"time":2,"i_lat":-6.255332,"line":2,"distance":824,"is_transit":false,"station_name":"Duren Kalibata","i_long":106.85449,"transit":false,"station_id":"DRN"},{"i_lat":-6.242512,"i_long":106.856607,"station_name":"Cawang","station_id":"CW","is_transit":false,"line":2,"distance":1546,"time":3,"transit":false},{"line":2,"transit":false,"station_name":"Tebet","i_long":106.857948,"distance":1230,"time":2,"station_id":"TEB","i_lat":-6.226659,"is_transit":false},{"time":4,"i_long":106.84912,"distance":2610,"i_lat":-6.209883,"line":2,"station_name":"Manggarai","is_transit":true,"transit":true,"station_id":"MRI"},{"station_name":"Matraman","line":1,"transit":false,"i_lat":-6.212485,"time":2,"station_id":"MTR","is_transit":false,"distance":1275,"i_long":106.858896},{"transit":true,"i_long":106.86807400000001,"line":1,"station_name":"Jatinegara","station_id":"JNG","is_transit":true,"time":8,"i_lat":-6.215091,"distance":1377},{"station_name":"Pondok Jati","i_lat":-6.209188,"line":11,"time":2,"station_id":"POK","distance":1236,"is_transit":false,"i_long":106.861737,"transit":false},{"transit":false,"line":11,"station_name":"Kramat","is_transit":false,"station_id":"KMT","distance":1829,"time":2,"i_lat":-6.193792,"i_long":106.855437},{"distance":973,"is_transit":false,"line":11,"i_lat":-6.185975,"time":1,"i_long":106.850107,"station_id":"GST","station_name":"Gang Sentiong","transit":false},{"time":8,"i_long":106.84368,"station_name":"Pasar Senen","is_transit":false,"station_id":"PSE","distance":1567,"line":11,"i_lat":-6.174784,"transit":false},{"distance":1436,"transit":false,"i_long":106.839204,"is_transit":false,"line":11,"station_id":"KMO","time":4,"i_lat":-6.161728,"station_name":"Kemayoran"},{"station_name":"Rajawali","is_transit":false,"time":5,"i_lat":-6.14505,"i_long":106.836569,"station_id":"RJW","line":11,"distance":1901,"transit":false},{"time":3,"distance":1444,"i_lat":-6.132549,"station_name":"Kampung Bandan","station_id":"KPB","transit":false,"line":4,"is_transit":false,"i_long":106.826365}]]}