{"data":[[{"transit":false,"i_long":106.905196,"is_transit":false,"i_lat":-6.466285,"line":21,"station_name":"Nambo","distance":0,"station_id":"NMO","time":0},{"station_id":"CBN","distance":6527,"is_transit":false,"i_long":106.851978,"time":10,"station_name":"Cibinong","i_lat":-6.46424,"transit":false,"line":0},{"station_id":"CTA","i_lat":-6.448811,"i_long":106.800298,"line":1,"time":10,"station_name":"Citayam","transit":false,"distance":6740,"is_transit":true},{"i_long":106.816926,"i_lat":-6.405256,"station_id":"DP","distance":5084,"station_name":"Depok","line":0,"time":6,"transit":false,"is_transit":false},{"time":3,"transit":false,"is_transit":false,"line":0,"station_id":"DPB","distance":1584,"station_name":"Depokbaru","i_long":106.819451,"i_lat":-6.391065},{"distance":2727,"station_id":"POC","station_name":"Pondok Cina","time":4,"is_transit":false,"i_lat":-6.369073,"i_long":106.831114,"line":2,"transit":false},{"transit":false,"station_name":"Univ. Indonesia","station_id":"UI","line":2,"time":2,"distance":1109,"i_lat":-6.360749,"is_transit":false,"i_long":106.831474},{"distance":2264,"station_id":"UP","time":3,"transit":false,"i_lat":-6.339291,"i_long":106.834175,"station_name":"Univ. Pancasila","line":2,"is_transit":false}]]}