{"data":[[{"station_name":"Nambo","transit":false,"i_lat":-6.466285,"i_long":106.905196,"station_id":"NMO","time":0,"distance":0,"is_transit":false,"line":21},{"distance":6527,"station_id":"CBN","transit":false,"i_lat":-6.46424,"line":21,"time":10,"is_transit":false,"i_long":106.851978,"station_name":"Cibinong"},{"line":21,"transit":false,"i_lat":-6.460735,"time":0,"distance":0,"i_long":106.824374,"station_id":"PDRG","is_transit":false,"station_name":"Pondok Rajeg"},{"station_name":"Citayam","i_long":106.800298,"time":0,"station_id":"CTA","is_transit":true,"transit":true,"i_lat":-6.448811,"line":2,"distance":0},{"station_id":"DP","time":6,"distance":5084,"transit":false,"station_name":"Depok","i_lat":-6.405256,"i_long":106.816926,"line":2,"is_transit":false},{"transit":false,"i_lat":-6.391065,"station_id":"DPB","station_name":"Depokbaru","time":3,"is_transit":false,"i_long":106.819451,"distance":1584,"line":2},{"line":2,"time":4,"is_transit":false,"distance":2727,"transit":false,"station_id":"POC","station_name":"Pondok Cina","i_lat":-6.369073,"i_long":106.831114},{"station_id":"UI","i_long":106.831474,"transit":false,"station_name":"Univ. Indonesia","is_transit":false,"distance":1109,"line":2,"i_lat":-6.360749,"time":2},{"line":2,"time":3,"station_name":"Univ. Pancasila","station_id":"UP","is_transit":false,"transit":false,"distance":2264,"i_lat":-6.339291,"i_long":106.834175},{"distance":1029,"station_name":"Lenteng Agung","i_lat":-6.330363,"station_id":"LNA","transit":false,"line":2,"is_transit":false,"time":2,"i_long":106.832616},{"transit":false,"i_long":106.838896,"time":3,"i_lat":-6.3080680000000005,"station_name":"Tanjung Barat","distance":2671,"line":2,"station_id":"TNT","is_transit":false},{"i_long":106.843999,"i_lat":-6.2842400000000005,"line":2,"distance":2820,"is_transit":false,"time":4,"station_id":"PSM","station_name":"Pasar Minggu","transit":false},{"time":2,"station_id":"PSMB","line":2,"i_lat":-6.263214,"is_transit":false,"i_long":106.851577,"station_name":"Pasar Minggu Baru","transit":false,"distance":2380},{"is_transit":false,"i_long":106.85449,"i_lat":-6.255332,"line":2,"time":2,"transit":false,"distance":824,"station_id":"DRN","station_name":"Duren Kalibata"},{"i_long":106.856607,"time":3,"distance":1546,"is_transit":false,"line":2,"i_lat":-6.242512,"station_name":"Cawang","station_id":"CW","transit":false},{"time":2,"transit":false,"station_name":"Tebet","distance":1230,"i_long":106.857948,"is_transit":false,"station_id":"TEB","i_lat":-6.226659,"line":2},{"transit":false,"distance":2610,"station_id":"MRI","station_name":"Manggarai","line":2,"time":4,"i_lat":-6.209883,"is_transit":false,"i_long":106.84912},{"transit":false,"station_name":"Cikini","distance":1590,"time":4,"is_transit":false,"i_lat":-6.198556,"station_id":"CKI","i_long":106.840169,"line":2},{"station_id":"GDD","distance":1750,"is_transit":false,"line":2,"i_long":106.832183,"time":3,"i_lat":-6.186295,"station_name":"Gondangdia","transit":false},{"i_lat":-6.166716,"station_name":"Juanda","time":4,"station_id":"JUA","is_transit":false,"line":2,"distance":2015,"transit":false,"i_long":106.828284},{"station_name":"Sawah Besar","i_long":106.827103,"line":2,"is_transit":false,"distance":1149,"transit":false,"time":2,"i_lat":-6.160725,"station_id":"SW"},{"i_lat":-6.149769,"distance":906,"station_name":"Manggabesar","time":2,"is_transit":false,"station_id":"MGB","i_long":106.82482,"transit":false,"line":2}],[{"transit":false,"station_name":"Nambo","time":0,"station_id":"NMO","i_long":106.905196,"is_transit":false,"distance":0,"i_lat":-6.466285,"line":21},{"is_transit":false,"station_id":"CBN","distance":6527,"i_lat":-6.46424,"transit":false,"time":10,"line":21,"i_long":106.851978,"station_name":"Cibinong"},{"time":0,"station_name":"Pondok Rajeg","i_lat":-6.460735,"transit":false,"distance":0,"station_id":"PDRG","i_long":106.824374,"is_transit":false,"line":21},{"transit":true,"is_transit":true,"i_lat":-6.448811,"time":0,"i_long":106.800298,"station_id":"CTA","distance":0,"station_name":"Citayam","line":2},{"transit":false,"i_lat":-6.405256,"time":6,"i_long":106.816926,"station_id":"DP","distance":5084,"station_name":"Depok","line":2,"is_transit":false},{"distance":1584,"station_name":"Depokbaru","transit":false,"i_lat":-6.391065,"station_id":"DPB","i_long":106.819451,"is_transit":false,"line":2,"time":3},{"line":2,"distance":2727,"station_id":"POC","i_lat":-6.369073,"i_long":106.831114,"is_transit":false,"transit":false,"time":4,"station_name":"Pondok Cina"},{"line":2,"station_name":"Univ. Indonesia","is_transit":false,"station_id":"UI","i_lat":-6.360749,"time":2,"distance":1109,"i_long":106.831474,"transit":false},{"station_name":"Univ. Pancasila","time":3,"i_long":106.834175,"line":2,"i_lat":-6.339291,"station_id":"UP","transit":false,"distance":2264,"is_transit":false},{"i_long":106.832616,"station_id":"LNA","i_lat":-6.330363,"line":2,"distance":1029,"transit":false,"time":2,"is_transit":false,"station_name":"Lenteng Agung"},{"is_transit":false,"station_id":"TNT","distance":2671,"i_long":106.838896,"time":3,"transit":false,"station_name":"Tanjung Barat","i_lat":-6.3080680000000005,"line":2},{"line":2,"i_lat":-6.2842400000000005,"is_transit":false,"station_id":"PSM","distance":2820,"time":4,"i_long":106.843999,"transit":false,"station_name":"Pasar Minggu"},{"station_name":"Pasar Minggu Baru","station_id":"PSMB","i_lat":-6.263214,"distance":2380,"transit":false,"time":2,"is_transit":false,"i_long":106.851577,"line":2},{"station_name":"Duren Kalibata","station_id":"DRN","distance":824,"is_transit":false,"i_long":106.85449,"transit":false,"line":2,"time":2,"i_lat":-6.255332},{"i_long":106.856607,"time":3,"is_transit":false,"i_lat":-6.242512,"transit":false,"station_name":"Cawang","line":2,"distance":1546,"station_id":"CW"},{"station_name":"Tebet","station_id":"TEB","distance":1230,"transit":false,"i_long":106.857948,"time":2,"is_transit":false,"i_lat":-6.226659,"line":2},{"is_transit":true,"line":2,"distance":2610,"time":4,"station_name":"Manggarai","i_lat":-6.209883,"i_long":106.84912,"transit":true,"station_id":"MRI"},{"station_name":"Sudirman","i_lat":-6.202263,"i_long":106.822649,"is_transit":false,"time":4,"line":1,"station_id":"SUD","distance":3186,"transit":false},{"i_lat":-6.201433,"line":1,"station_id":"SUDB","station_name":"Sudirman Baru","i_long":106.819881,"is_transit":false,"transit":false,"distance":280,"time":1},{"transit":false,"distance":471,"time":1,"station_id":"KAT","line":1,"i_long":106.816351,"station_name":"Karet","i_lat":-6.20132,"is_transit":false},{"line":1,"i_lat":-6.185545,"i_long":106.811091,"is_transit":false,"station_name":"Tanah Abang","time":5,"distance":2029,"transit":false,"station_id":"THB"},{"distance":3632,"station_id":"DU","i_long":106.800832,"line":1,"is_transit":false,"transit":false,"station_name":"Duri","i_lat":-6.155215,"time":8},{"station_id":"AK","transit":false,"i_lat":-6.144674,"i_long":106.79867,"line":1,"time":4,"station_name":"Angke","distance":1230,"is_transit":false},{"time":9,"i_long":106.826365,"distance":4102,"line":4,"is_transit":true,"station_name":"Kampung Bandan","transit":true,"station_id":"KPB","i_lat":-6.132549},{"station_name":"Jakarta Kota","distance":1364,"i_lat":-6.137569,"time":3,"i_long":106.812439,"line":2,"transit":true,"is_transit":true,"station_id":"JAKK"},{"is_transit":false,"station_id":"JAY","distance":1264,"i_lat":-6.141205,"i_long":106.820901,"transit":false,"time":4,"station_name":"Jayakarta","line":2},{"transit":false,"station_id":"MGB","i_long":106.82482,"time":2,"distance":1080,"i_lat":-6.149769,"is_transit":false,"station_name":"Manggabesar","line":2}],[{"line":21,"transit":false,"time":0,"distance":0,"i_long":106.905196,"station_id":"NMO","is_transit":false,"i_lat":-6.466285,"station_name":"Nambo"},{"station_name":"Cibinong","is_transit":false,"i_long":106.851978,"transit":false,"station_id":"CBN","time":10,"i_lat":-6.46424,"distance":6527,"line":21},{"time":0,"is_transit":false,"transit":false,"station_name":"Pondok Rajeg","i_long":106.824374,"distance":0,"station_id":"PDRG","i_lat":-6.460735,"line":21},{"time":0,"i_lat":-6.448811,"i_long":106.800298,"station_name":"Citayam","is_transit":true,"distance":0,"line":2,"transit":true,"station_id":"CTA"},{"distance":5084,"i_lat":-6.405256,"is_transit":false,"line":2,"i_long":106.816926,"transit":false,"station_id":"DP","time":6,"station_name":"Depok"},{"i_long":106.819451,"transit":false,"is_transit":false,"distance":1584,"line":2,"station_name":"Depokbaru","time":3,"station_id":"DPB","i_lat":-6.391065},{"is_transit":false,"time":4,"line":2,"i_lat":-6.369073,"station_name":"Pondok Cina","i_long":106.831114,"station_id":"POC","distance":2727,"transit":false},{"transit":false,"line":2,"distance":1109,"station_id":"UI","i_long":106.831474,"i_lat":-6.360749,"is_transit":false,"time":2,"station_name":"Univ. Indonesia"},{"line":2,"transit":false,"time":3,"distance":2264,"is_transit":false,"station_id":"UP","station_name":"Univ. Pancasila","i_lat":-6.339291,"i_long":106.834175},{"i_lat":-6.330363,"transit":false,"station_name":"Lenteng Agung","line":2,"i_long":106.832616,"is_transit":false,"station_id":"LNA","time":2,"distance":1029},{"i_long":106.838896,"distance":2671,"line":2,"transit":false,"is_transit":false,"station_name":"Tanjung Barat","station_id":"TNT","time":3,"i_lat":-6.3080680000000005},{"i_lat":-6.2842400000000005,"distance":2820,"time":4,"station_name":"Pasar Minggu","is_transit":false,"i_long":106.843999,"station_id":"PSM","line":2,"transit":false},{"line":2,"i_lat":-6.263214,"transit":false,"distance":2380,"is_transit":false,"station_id":"PSMB","time":2,"station_name":"Pasar Minggu Baru","i_long":106.851577},{"distance":824,"i_lat":-6.255332,"station_name":"Duren Kalibata","station_id":"DRN","time":2,"i_long":106.85449,"transit":false,"line":2,"is_transit":false},{"i_lat":-6.242512,"line":2,"i_long":106.856607,"is_transit":false,"station_id":"CW","time":3,"station_name":"Cawang","distance":1546,"transit":false},{"distance":1230,"station_id":"TEB","transit":false,"is_transit":false,"line":2,"time":2,"i_lat":-6.226659,"station_name":"Tebet","i_long":106.857948},{"line":2,"transit":true,"station_id":"MRI","station_name":"Manggarai","i_long":106.84912,"is_transit":true,"time":4,"distance":2610,"i_lat":-6.209883},{"transit":false,"station_id":"MTR","time":2,"is_transit":false,"distance":1275,"i_lat":-6.212485,"i_long":106.858896,"line":1,"station_name":"Matraman"},{"distance":1377,"i_long":106.86807400000001,"i_lat":-6.215091,"line":1,"station_name":"Jatinegara","transit":true,"time":8,"is_transit":true,"station_id":"JNG"},{"i_long":106.861737,"station_id":"POK","time":2,"station_name":"Pondok Jati","line":11,"is_transit":false,"i_lat":-6.209188,"transit":false,"distance":1236},{"is_transit":false,"transit":false,"distance":1829,"i_lat":-6.193792,"time":2,"station_name":"Kramat","station_id":"KMT","line":11,"i_long":106.855437},{"i_lat":-6.185975,"time":1,"transit":false,"distance":973,"line":11,"is_transit":false,"station_name":"Gang Sentiong","i_long":106.850107,"station_id":"GST"},{"time":8,"transit":false,"distance":1567,"line":11,"i_lat":-6.174784,"i_long":106.84368,"station_name":"Pasar Senen","station_id":"PSE","is_transit":false},{"time":4,"station_id":"KMO","station_name":"Kemayoran","line":11,"distance":1436,"transit":false,"i_lat":-6.161728,"i_long":106.839204,"is_transit":false},{"distance":1901,"is_transit":false,"station_id":"RJW","i_lat":-6.14505,"i_long":106.836569,"transit":false,"station_name":"Rajawali","time":5,"line":11},{"distance":1444,"i_long":106.826365,"is_transit":true,"station_name":"Kampung Bandan","i_lat":-6.132549,"transit":true,"line":4,"station_id":"KPB","time":3},{"distance":1364,"transit":true,"time":3,"station_id":"JAKK","i_lat":-6.137569,"i_long":106.812439,"station_name":"Jakarta Kota","line":2,"is_transit":true},{"i_lat":-6.141205,"i_long":106.820901,"time":4,"station_name":"Jayakarta","distance":1264,"transit":false,"line":2,"is_transit":false,"station_id":"JAY"},{"station_name":"Manggabesar","time":2,"i_long":106.82482,"transit":false,"station_id":"MGB","distance":1080,"i_lat":-6.149769,"is_transit":false,"line":2}]]}