{"data":[[{"i_lat":-6.466285,"station_name":"Nambo","i_long":106.905196,"is_transit":false,"station_id":"NMO","time":0,"line":21,"distance":0,"transit":false},{"i_lat":-6.46424,"station_id":"CBN","transit":false,"distance":6527,"station_name":"Cibinong","is_transit":false,"time":10,"line":0,"i_long":106.851978},{"is_transit":true,"time":10,"station_name":"Citayam","station_id":"CTA","distance":6740,"i_lat":-6.448811,"transit":false,"i_long":106.800298,"line":1},{"distance":5084,"station_name":"Depok","station_id":"DP","line":0,"transit":false,"is_transit":false,"time":6,"i_lat":-6.405256,"i_long":106.816926},{"distance":1584,"station_id":"DPB","i_lat":-6.391065,"time":3,"transit":false,"line":0,"is_transit":false,"station_name":"Depokbaru","i_long":106.819451},{"i_lat":-6.369073,"time":4,"station_name":"Pondok Cina","is_transit":false,"line":2,"transit":false,"distance":2727,"station_id":"POC","i_long":106.831114},{"i_long":106.831474,"line":2,"transit":false,"is_transit":false,"time":2,"distance":1109,"station_name":"Univ. Indonesia","station_id":"UI","i_lat":-6.360749},{"i_long":106.834175,"is_transit":false,"station_id":"UP","line":2,"transit":false,"time":3,"station_name":"Univ. Pancasila","i_lat":-6.339291,"distance":2264},{"station_name":"Lenteng Agung","is_transit":false,"i_lat":-6.330363,"time":2,"distance":1029,"transit":false,"i_long":106.832616,"station_id":"LNA","line":2},{"i_lat":-6.3080680000000005,"line":2,"distance":2671,"station_id":"TNT","station_name":"Tanjung Barat","is_transit":false,"i_long":106.838896,"time":3,"transit":false},{"line":2,"i_long":106.843999,"station_name":"Pasar Minggu","station_id":"PSM","is_transit":false,"i_lat":-6.2842400000000005,"distance":2820,"transit":false,"time":4},{"time":2,"station_id":"PSMB","i_long":106.851577,"station_name":"Pasar Minggu Baru","is_transit":false,"transit":false,"distance":2380,"line":2,"i_lat":-6.263214},{"line":0,"transit":false,"is_transit":false,"station_name":"Duren Kalibata","distance":824,"station_id":"DRN","i_lat":-6.255332,"i_long":106.85449,"time":2},{"transit":false,"is_transit":false,"time":3,"station_name":"Cawang","i_lat":-6.242512,"i_long":106.856607,"distance":1546,"line":0,"station_id":"CW"},{"transit":false,"i_lat":-6.226659,"distance":1230,"station_name":"Tebet","time":2,"i_long":106.857948,"line":2,"is_transit":false,"station_id":"TEB"},{"station_id":"MRI","i_lat":-6.209883,"i_long":106.84912,"line":0,"distance":2610,"transit":true,"station_name":"Manggarai","time":4,"is_transit":true},{"transit":false,"is_transit":false,"distance":1590,"i_long":106.840169,"station_name":"Cikini","line":0,"i_lat":-6.198556,"station_id":"CKI","time":4},{"distance":1750,"station_name":"Gondangdia","line":2,"time":3,"station_id":"GDD","transit":false,"i_long":106.832183,"is_transit":false,"i_lat":-6.186295},{"line":2,"time":4,"transit":false,"distance":2015,"station_id":"JUA","i_lat":-6.166716,"station_name":"Juanda","i_long":106.828284,"is_transit":false},{"distance":1149,"is_transit":false,"station_name":"Sawah Besar","station_id":"SW","transit":false,"i_lat":-6.160725,"time":2,"i_long":106.827103,"line":2},{"is_transit":false,"station_id":"MGB","transit":false,"time":2,"i_lat":-6.149769,"distance":906,"station_name":"Manggabesar","i_long":106.82482,"line":2}],[{"i_lat":-6.466285,"is_transit":false,"transit":false,"time":0,"station_name":"Nambo","i_long":106.905196,"line":21,"station_id":"NMO","distance":0},{"transit":false,"time":10,"is_transit":false,"i_long":106.851978,"station_name":"Cibinong","distance":6527,"line":0,"i_lat":-6.46424,"station_id":"CBN"},{"time":10,"transit":false,"is_transit":true,"station_id":"CTA","i_long":106.800298,"line":1,"i_lat":-6.448811,"station_name":"Citayam","distance":6740},{"transit":false,"is_transit":false,"station_id":"DP","distance":5084,"line":0,"station_name":"Depok","time":6,"i_lat":-6.405256,"i_long":106.816926},{"transit":false,"time":3,"i_long":106.819451,"is_transit":false,"distance":1584,"station_name":"Depokbaru","station_id":"DPB","i_lat":-6.391065,"line":0},{"station_id":"POC","station_name":"Pondok Cina","i_lat":-6.369073,"time":4,"distance":2727,"i_long":106.831114,"transit":false,"is_transit":false,"line":2},{"line":2,"time":2,"transit":false,"distance":1109,"i_lat":-6.360749,"station_id":"UI","i_long":106.831474,"station_name":"Univ. Indonesia","is_transit":false},{"is_transit":false,"i_lat":-6.339291,"i_long":106.834175,"station_name":"Univ. Pancasila","line":2,"transit":false,"station_id":"UP","time":3,"distance":2264},{"distance":1029,"transit":false,"i_long":106.832616,"station_name":"Lenteng Agung","i_lat":-6.330363,"line":2,"station_id":"LNA","is_transit":false,"time":2},{"transit":false,"is_transit":false,"distance":2671,"station_id":"TNT","i_lat":-6.3080680000000005,"i_long":106.838896,"line":2,"station_name":"Tanjung Barat","time":3},{"line":2,"i_lat":-6.2842400000000005,"station_name":"Pasar Minggu","time":4,"station_id":"PSM","is_transit":false,"transit":false,"distance":2820,"i_long":106.843999},{"distance":2380,"time":2,"i_lat":-6.263214,"station_name":"Pasar Minggu Baru","line":2,"i_long":106.851577,"transit":false,"station_id":"PSMB","is_transit":false},{"time":2,"distance":824,"line":0,"station_name":"Duren Kalibata","is_transit":false,"i_lat":-6.255332,"transit":false,"i_long":106.85449,"station_id":"DRN"},{"line":0,"is_transit":false,"transit":false,"station_name":"Cawang","i_lat":-6.242512,"time":3,"station_id":"CW","i_long":106.856607,"distance":1546},{"distance":1230,"station_id":"TEB","time":2,"station_name":"Tebet","transit":false,"is_transit":false,"i_lat":-6.226659,"i_long":106.857948,"line":2},{"line":0,"time":4,"station_id":"MRI","i_long":106.84912,"distance":2610,"transit":true,"i_lat":-6.209883,"is_transit":true,"station_name":"Manggarai"},{"is_transit":false,"station_name":"Sudirman","line":1,"transit":false,"time":4,"i_long":106.822649,"distance":3186,"i_lat":-6.202263,"station_id":"SUD"},{"transit":false,"distance":280,"station_id":"SUDB","line":1,"time":1,"is_transit":false,"station_name":"Sudirman Baru","i_lat":-6.201433,"i_long":106.819881},{"i_lat":-6.20132,"transit":false,"is_transit":false,"station_name":"Karet","station_id":"KAT","line":1,"i_long":106.816351,"time":1,"distance":471},{"i_lat":-6.185545,"line":1,"station_name":"Tanah Abang","is_transit":true,"i_long":106.811091,"distance":2029,"transit":false,"time":5,"station_id":"THB"},{"distance":3632,"is_transit":true,"station_id":"DU","time":8,"line":1,"transit":true,"i_lat":-6.155215,"station_name":"Duri","i_long":106.800832},{"i_lat":-6.144674,"line":0,"station_name":"Angke","transit":false,"i_long":106.79867,"time":4,"distance":1230,"station_id":"AK","is_transit":false},{"station_name":"Kampung Bandan","i_long":106.826365,"transit":false,"distance":4102,"line":0,"is_transit":true,"station_id":"KPB","i_lat":-6.132549,"time":9},{"transit":true,"i_long":106.812439,"distance":1364,"station_name":"Jakarta Kota","i_lat":-6.137569,"time":3,"is_transit":true,"station_id":"JAKK","line":0},{"i_lat":-6.141205,"i_long":106.820901,"distance":1264,"transit":false,"line":7,"station_name":"Jayakarta","station_id":"JAY","is_transit":false,"time":4},{"line":2,"time":2,"i_long":106.82482,"station_name":"Manggabesar","i_lat":-6.149769,"distance":1080,"is_transit":false,"station_id":"MGB","transit":false}],[{"transit":false,"time":0,"station_id":"NMO","station_name":"Nambo","i_lat":-6.466285,"is_transit":false,"distance":0,"i_long":106.905196,"line":21},{"i_long":106.851978,"transit":false,"station_id":"CBN","i_lat":-6.46424,"station_name":"Cibinong","line":0,"time":10,"is_transit":false,"distance":6527},{"station_name":"Citayam","distance":6740,"transit":false,"time":10,"station_id":"CTA","i_lat":-6.448811,"i_long":106.800298,"line":1,"is_transit":true},{"i_lat":-6.405256,"is_transit":false,"distance":5084,"time":6,"transit":false,"station_id":"DP","i_long":106.816926,"station_name":"Depok","line":0},{"distance":1584,"station_name":"Depokbaru","i_long":106.819451,"time":3,"is_transit":false,"i_lat":-6.391065,"line":0,"station_id":"DPB","transit":false},{"i_lat":-6.369073,"station_id":"POC","line":2,"transit":false,"time":4,"distance":2727,"station_name":"Pondok Cina","is_transit":false,"i_long":106.831114},{"is_transit":false,"time":2,"i_lat":-6.360749,"i_long":106.831474,"transit":false,"line":2,"distance":1109,"station_name":"Univ. Indonesia","station_id":"UI"},{"i_lat":-6.339291,"is_transit":false,"transit":false,"station_name":"Univ. Pancasila","time":3,"distance":2264,"station_id":"UP","i_long":106.834175,"line":2},{"distance":1029,"time":2,"is_transit":false,"station_name":"Lenteng Agung","i_lat":-6.330363,"i_long":106.832616,"line":2,"station_id":"LNA","transit":false},{"i_lat":-6.3080680000000005,"station_name":"Tanjung Barat","distance":2671,"is_transit":false,"transit":false,"i_long":106.838896,"line":2,"time":3,"station_id":"TNT"},{"line":2,"station_id":"PSM","i_long":106.843999,"is_transit":false,"transit":false,"distance":2820,"station_name":"Pasar Minggu","time":4,"i_lat":-6.2842400000000005},{"is_transit":false,"time":2,"distance":2380,"i_lat":-6.263214,"station_name":"Pasar Minggu Baru","transit":false,"station_id":"PSMB","i_long":106.851577,"line":2},{"i_lat":-6.255332,"station_id":"DRN","line":0,"transit":false,"time":2,"i_long":106.85449,"distance":824,"is_transit":false,"station_name":"Duren Kalibata"},{"time":3,"transit":false,"station_name":"Cawang","i_lat":-6.242512,"station_id":"CW","i_long":106.856607,"distance":1546,"line":0,"is_transit":false},{"i_lat":-6.226659,"line":2,"transit":false,"time":2,"station_name":"Tebet","distance":1230,"i_long":106.857948,"is_transit":false,"station_id":"TEB"},{"distance":2610,"line":0,"transit":true,"time":4,"station_name":"Manggarai","i_lat":-6.209883,"i_long":106.84912,"is_transit":true,"station_id":"MRI"},{"i_lat":-6.212485,"line":1,"time":2,"i_long":106.858896,"distance":1275,"transit":false,"station_name":"Matraman","is_transit":false,"station_id":"MTR"},{"is_transit":true,"transit":true,"time":8,"station_name":"Jatinegara","station_id":"JNG","i_lat":-6.215091,"i_long":106.86807400000001,"distance":1377,"line":0},{"station_name":"Pondok Jati","transit":false,"distance":1236,"i_lat":-6.209188,"time":2,"station_id":"POK","i_long":106.861737,"is_transit":false,"line":11},{"line":11,"is_transit":false,"distance":1829,"transit":false,"station_name":"Kramat","time":2,"i_lat":-6.193792,"i_long":106.855437,"station_id":"KMT"},{"station_name":"Gang Sentiong","station_id":"GST","distance":973,"i_long":106.850107,"is_transit":false,"transit":false,"time":1,"line":11,"i_lat":-6.185975},{"is_transit":false,"line":11,"transit":false,"time":8,"station_name":"Pasar Senen","distance":1567,"station_id":"PSE","i_lat":-6.174784,"i_long":106.84368},{"time":4,"line":11,"is_transit":false,"transit":false,"station_id":"KMO","station_name":"Kemayoran","i_long":106.839204,"distance":1436,"i_lat":-6.161728},{"time":5,"i_long":106.836569,"line":11,"is_transit":false,"station_id":"RJW","distance":1901,"station_name":"Rajawali","i_lat":-6.14505,"transit":false},{"is_transit":true,"i_long":106.826365,"time":3,"i_lat":-6.132549,"transit":true,"distance":1444,"line":0,"station_name":"Kampung Bandan","station_id":"KPB"},{"i_lat":-6.137569,"station_id":"JAKK","distance":1364,"station_name":"Jakarta Kota","transit":true,"i_long":106.812439,"is_transit":true,"line":0,"time":3},{"station_id":"JAY","distance":1264,"line":7,"time":4,"is_transit":false,"i_lat":-6.141205,"transit":false,"station_name":"Jayakarta","i_long":106.820901},{"distance":1080,"i_long":106.82482,"transit":false,"is_transit":false,"i_lat":-6.149769,"station_id":"MGB","station_name":"Manggabesar","time":2,"line":2}]]}