{"data":[[{"time":0,"transit":false,"i_lat":-6.466285,"is_transit":false,"station_id":"NMO","distance":0,"i_long":106.905196,"station_name":"Nambo","line":21},{"i_long":106.851978,"station_id":"CBN","i_lat":-6.46424,"time":10,"station_name":"Cibinong","line":21,"transit":false,"distance":6527,"is_transit":false},{"i_lat":-6.460735,"line":21,"time":0,"station_name":"Pondok Rajeg","distance":0,"station_id":"PDRG","transit":false,"is_transit":false,"i_long":106.824374},{"i_long":106.800298,"is_transit":true,"station_id":"CTA","station_name":"Citayam","i_lat":-6.448811,"line":2,"time":0,"transit":true,"distance":0},{"i_lat":-6.405256,"i_long":106.816926,"line":2,"is_transit":false,"transit":false,"time":6,"station_id":"DP","station_name":"Depok","distance":5084},{"transit":false,"distance":1584,"station_name":"Depokbaru","i_long":106.819451,"i_lat":-6.391065,"time":3,"line":2,"station_id":"DPB","is_transit":false},{"station_name":"Pondok Cina","station_id":"POC","i_lat":-6.369073,"line":2,"distance":2727,"is_transit":false,"i_long":106.831114,"time":4,"transit":false},{"distance":1109,"time":2,"transit":false,"station_name":"Univ. Indonesia","is_transit":false,"i_lat":-6.360749,"station_id":"UI","i_long":106.831474,"line":2},{"i_long":106.834175,"is_transit":false,"i_lat":-6.339291,"transit":false,"time":3,"line":2,"station_id":"UP","station_name":"Univ. Pancasila","distance":2264},{"distance":1029,"i_lat":-6.330363,"time":2,"station_name":"Lenteng Agung","is_transit":false,"i_long":106.832616,"line":2,"station_id":"LNA","transit":false},{"distance":2671,"transit":false,"time":3,"i_lat":-6.3080680000000005,"is_transit":false,"line":2,"station_id":"TNT","i_long":106.838896,"station_name":"Tanjung Barat"},{"is_transit":false,"station_id":"PSM","transit":false,"i_lat":-6.2842400000000005,"station_name":"Pasar Minggu","time":4,"distance":2820,"i_long":106.843999,"line":2},{"line":2,"is_transit":false,"distance":2380,"transit":false,"station_id":"PSMB","station_name":"Pasar Minggu Baru","i_long":106.851577,"i_lat":-6.263214,"time":2},{"transit":false,"time":2,"i_lat":-6.255332,"line":2,"is_transit":false,"station_id":"DRN","station_name":"Duren Kalibata","i_long":106.85449,"distance":824},{"line":2,"distance":1546,"station_id":"CW","time":3,"station_name":"Cawang","i_lat":-6.242512,"i_long":106.856607,"transit":false,"is_transit":false},{"is_transit":false,"distance":1230,"i_long":106.857948,"line":2,"time":2,"i_lat":-6.226659,"transit":false,"station_name":"Tebet","station_id":"TEB"},{"station_id":"MRI","is_transit":true,"distance":2610,"line":2,"i_lat":-6.209883,"station_name":"Manggarai","time":4,"transit":true,"i_long":106.84912},{"station_id":"SUD","time":4,"line":1,"station_name":"Sudirman","is_transit":false,"i_lat":-6.202263,"transit":false,"distance":3186,"i_long":106.822649},{"station_name":"Sudirman Baru","station_id":"SUDB","distance":280,"i_long":106.819881,"line":1,"time":1,"is_transit":false,"transit":false,"i_lat":-6.201433},{"is_transit":false,"time":1,"i_lat":-6.20132,"distance":471,"station_id":"KAT","transit":false,"i_long":106.816351,"line":1,"station_name":"Karet"},{"station_name":"Tanah Abang","line":1,"i_long":106.811091,"transit":false,"distance":2029,"time":5,"i_lat":-6.185545,"is_transit":false,"station_id":"THB"},{"distance":3632,"i_long":106.800832,"is_transit":false,"i_lat":-6.155215,"station_id":"DU","station_name":"Duri","transit":false,"time":8,"line":1},{"is_transit":false,"distance":1230,"transit":false,"time":4,"i_long":106.79867,"i_lat":-6.144674,"line":1,"station_id":"AK","station_name":"Angke"}],[{"station_name":"Nambo","i_long":106.905196,"station_id":"NMO","is_transit":false,"transit":false,"time":0,"i_lat":-6.466285,"distance":0,"line":21},{"distance":6527,"transit":false,"i_long":106.851978,"time":10,"i_lat":-6.46424,"line":21,"station_name":"Cibinong","is_transit":false,"station_id":"CBN"},{"time":0,"transit":false,"station_id":"PDRG","is_transit":false,"distance":0,"i_long":106.824374,"line":21,"station_name":"Pondok Rajeg","i_lat":-6.460735},{"transit":true,"station_name":"Citayam","is_transit":true,"distance":0,"i_lat":-6.448811,"line":2,"time":0,"i_long":106.800298,"station_id":"CTA"},{"i_lat":-6.405256,"transit":false,"i_long":106.816926,"line":2,"station_name":"Depok","is_transit":false,"station_id":"DP","distance":5084,"time":6},{"i_long":106.819451,"i_lat":-6.391065,"station_name":"Depokbaru","distance":1584,"line":2,"station_id":"DPB","transit":false,"is_transit":false,"time":3},{"transit":false,"i_long":106.831114,"i_lat":-6.369073,"station_id":"POC","station_name":"Pondok Cina","is_transit":false,"line":2,"time":4,"distance":2727},{"time":2,"i_long":106.831474,"station_name":"Univ. Indonesia","is_transit":false,"station_id":"UI","i_lat":-6.360749,"distance":1109,"transit":false,"line":2},{"i_lat":-6.339291,"i_long":106.834175,"station_name":"Univ. Pancasila","distance":2264,"station_id":"UP","line":2,"transit":false,"time":3,"is_transit":false},{"station_id":"LNA","is_transit":false,"time":2,"i_lat":-6.330363,"i_long":106.832616,"line":2,"transit":false,"station_name":"Lenteng Agung","distance":1029},{"time":3,"station_name":"Tanjung Barat","i_long":106.838896,"transit":false,"i_lat":-6.3080680000000005,"station_id":"TNT","distance":2671,"line":2,"is_transit":false},{"i_long":106.843999,"transit":false,"distance":2820,"station_id":"PSM","i_lat":-6.2842400000000005,"line":2,"time":4,"is_transit":false,"station_name":"Pasar Minggu"},{"i_lat":-6.263214,"i_long":106.851577,"line":2,"station_name":"Pasar Minggu Baru","station_id":"PSMB","distance":2380,"time":2,"transit":false,"is_transit":false},{"time":2,"line":2,"distance":824,"station_name":"Duren Kalibata","i_lat":-6.255332,"transit":false,"station_id":"DRN","is_transit":false,"i_long":106.85449},{"station_id":"CW","line":2,"i_long":106.856607,"distance":1546,"is_transit":false,"time":3,"transit":false,"i_lat":-6.242512,"station_name":"Cawang"},{"is_transit":false,"station_name":"Tebet","i_long":106.857948,"station_id":"TEB","i_lat":-6.226659,"line":2,"time":2,"transit":false,"distance":1230},{"line":2,"station_id":"MRI","i_lat":-6.209883,"i_long":106.84912,"station_name":"Manggarai","transit":false,"time":4,"distance":2610,"is_transit":false},{"station_id":"CKI","transit":false,"i_long":106.840169,"is_transit":false,"distance":1590,"time":4,"i_lat":-6.198556,"line":2,"station_name":"Cikini"},{"line":2,"station_id":"GDD","is_transit":false,"distance":1750,"station_name":"Gondangdia","transit":false,"i_lat":-6.186295,"i_long":106.832183,"time":3},{"transit":false,"time":4,"is_transit":false,"i_long":106.828284,"i_lat":-6.166716,"station_name":"Juanda","line":2,"distance":2015,"station_id":"JUA"},{"station_id":"SW","distance":1149,"is_transit":false,"station_name":"Sawah Besar","transit":false,"line":2,"i_long":106.827103,"time":2,"i_lat":-6.160725},{"station_name":"Manggabesar","transit":false,"i_lat":-6.149769,"i_long":106.82482,"line":2,"is_transit":false,"time":2,"distance":906,"station_id":"MGB"},{"distance":1080,"time":2,"i_long":106.820901,"transit":false,"i_lat":-6.141205,"line":2,"station_id":"JAY","station_name":"Jayakarta","is_transit":false},{"distance":1264,"station_name":"Jakarta Kota","is_transit":true,"transit":true,"station_id":"JAKK","i_lat":-6.137569,"i_long":106.812439,"line":2,"time":4},{"station_name":"Kampung Bandan","i_lat":-6.132549,"i_long":106.826365,"line":4,"is_transit":true,"distance":1364,"time":3,"station_id":"KPB","transit":true},{"distance":4102,"time":9,"is_transit":false,"line":1,"station_name":"Angke","transit":false,"i_lat":-6.144674,"station_id":"AK","i_long":106.79867}],[{"station_id":"NMO","is_transit":false,"station_name":"Nambo","i_lat":-6.466285,"transit":false,"distance":0,"line":21,"i_long":106.905196,"time":0},{"time":10,"distance":6527,"line":21,"transit":false,"station_id":"CBN","is_transit":false,"i_lat":-6.46424,"i_long":106.851978,"station_name":"Cibinong"},{"station_id":"PDRG","distance":0,"station_name":"Pondok Rajeg","time":0,"i_long":106.824374,"i_lat":-6.460735,"line":21,"transit":false,"is_transit":false},{"is_transit":true,"line":2,"transit":true,"i_lat":-6.448811,"time":0,"station_name":"Citayam","station_id":"CTA","distance":0,"i_long":106.800298},{"transit":false,"is_transit":false,"station_name":"Depok","time":6,"distance":5084,"i_lat":-6.405256,"line":2,"i_long":106.816926,"station_id":"DP"},{"transit":false,"line":2,"station_id":"DPB","time":3,"is_transit":false,"i_lat":-6.391065,"i_long":106.819451,"station_name":"Depokbaru","distance":1584},{"transit":false,"line":2,"time":4,"is_transit":false,"station_id":"POC","distance":2727,"i_lat":-6.369073,"station_name":"Pondok Cina","i_long":106.831114},{"distance":1109,"station_id":"UI","transit":false,"i_long":106.831474,"station_name":"Univ. Indonesia","time":2,"i_lat":-6.360749,"is_transit":false,"line":2},{"station_id":"UP","distance":2264,"i_lat":-6.339291,"i_long":106.834175,"time":3,"transit":false,"station_name":"Univ. Pancasila","is_transit":false,"line":2},{"distance":1029,"station_id":"LNA","is_transit":false,"transit":false,"line":2,"station_name":"Lenteng Agung","time":2,"i_lat":-6.330363,"i_long":106.832616},{"line":2,"station_id":"TNT","station_name":"Tanjung Barat","time":3,"transit":false,"is_transit":false,"distance":2671,"i_long":106.838896,"i_lat":-6.3080680000000005},{"line":2,"i_lat":-6.2842400000000005,"transit":false,"is_transit":false,"station_id":"PSM","distance":2820,"time":4,"station_name":"Pasar Minggu","i_long":106.843999},{"time":2,"transit":false,"line":2,"distance":2380,"station_id":"PSMB","i_long":106.851577,"station_name":"Pasar Minggu Baru","is_transit":false,"i_lat":-6.263214},{"i_lat":-6.255332,"is_transit":false,"station_name":"Duren Kalibata","time":2,"i_long":106.85449,"line":2,"transit":false,"station_id":"DRN","distance":824},{"distance":1546,"station_name":"Cawang","line":2,"is_transit":false,"transit":false,"time":3,"station_id":"CW","i_long":106.856607,"i_lat":-6.242512},{"line":2,"time":2,"station_name":"Tebet","station_id":"TEB","is_transit":false,"transit":false,"i_long":106.857948,"distance":1230,"i_lat":-6.226659},{"station_id":"MRI","i_long":106.84912,"transit":true,"distance":2610,"is_transit":true,"station_name":"Manggarai","time":4,"line":2,"i_lat":-6.209883},{"i_long":106.858896,"i_lat":-6.212485,"station_id":"MTR","station_name":"Matraman","line":1,"transit":false,"time":2,"is_transit":false,"distance":1275},{"distance":1377,"station_name":"Jatinegara","i_lat":-6.215091,"i_long":106.86807400000001,"time":8,"transit":true,"is_transit":true,"line":1,"station_id":"JNG"},{"i_lat":-6.209188,"station_id":"POK","station_name":"Pondok Jati","distance":1236,"time":2,"is_transit":false,"i_long":106.861737,"transit":false,"line":11},{"line":11,"transit":false,"distance":1829,"i_lat":-6.193792,"i_long":106.855437,"is_transit":false,"station_name":"Kramat","time":2,"station_id":"KMT"},{"i_long":106.850107,"is_transit":false,"distance":973,"i_lat":-6.185975,"station_id":"GST","transit":false,"time":1,"station_name":"Gang Sentiong","line":11},{"distance":1567,"transit":false,"line":11,"i_long":106.84368,"is_transit":false,"station_id":"PSE","i_lat":-6.174784,"station_name":"Pasar Senen","time":8},{"is_transit":false,"distance":1436,"time":4,"i_lat":-6.161728,"line":11,"station_id":"KMO","transit":false,"i_long":106.839204,"station_name":"Kemayoran"},{"time":5,"i_long":106.836569,"i_lat":-6.14505,"transit":false,"is_transit":false,"station_name":"Rajawali","line":11,"distance":1901,"station_id":"RJW"},{"transit":true,"station_id":"KPB","i_long":106.826365,"station_name":"Kampung Bandan","distance":1444,"line":4,"time":3,"i_lat":-6.132549,"is_transit":true},{"station_name":"Angke","time":9,"distance":4102,"i_lat":-6.144674,"line":1,"is_transit":false,"transit":false,"i_long":106.79867,"station_id":"AK"}]]}