{"data":[[{"distance":0,"station_name":"Nambo","i_lat":-6.466285,"time":0,"station_id":"NMO","is_transit":false,"i_long":106.905196,"transit":false,"line":21},{"distance":6527,"station_id":"CBN","time":10,"station_name":"Cibinong","is_transit":false,"i_lat":-6.46424,"i_long":106.851978,"line":21,"transit":false},{"station_id":"PDRG","is_transit":false,"i_long":106.824374,"line":21,"time":0,"station_name":"Pondok Rajeg","transit":false,"i_lat":-6.460735,"distance":0},{"station_name":"Citayam","time":0,"line":2,"distance":0,"station_id":"CTA","i_lat":-6.448811,"transit":true,"is_transit":true,"i_long":106.800298},{"is_transit":false,"transit":false,"distance":5084,"station_id":"DP","line":2,"time":6,"i_lat":-6.405256,"i_long":106.816926,"station_name":"Depok"},{"station_name":"Depokbaru","time":3,"station_id":"DPB","i_lat":-6.391065,"i_long":106.819451,"line":2,"distance":1584,"is_transit":false,"transit":false},{"i_lat":-6.369073,"i_long":106.831114,"station_id":"POC","is_transit":false,"line":2,"time":4,"transit":false,"distance":2727,"station_name":"Pondok Cina"},{"station_name":"Univ. Indonesia","is_transit":false,"distance":1109,"i_lat":-6.360749,"i_long":106.831474,"line":2,"transit":false,"station_id":"UI","time":2},{"time":3,"is_transit":false,"transit":false,"i_long":106.834175,"i_lat":-6.339291,"line":2,"station_name":"Univ. Pancasila","distance":2264,"station_id":"UP"},{"time":2,"station_name":"Lenteng Agung","is_transit":false,"distance":1029,"i_lat":-6.330363,"i_long":106.832616,"line":2,"transit":false,"station_id":"LNA"},{"is_transit":false,"time":3,"i_lat":-6.3080680000000005,"line":2,"distance":2671,"station_name":"Tanjung Barat","transit":false,"i_long":106.838896,"station_id":"TNT"},{"station_id":"PSM","line":2,"i_lat":-6.2842400000000005,"station_name":"Pasar Minggu","time":4,"is_transit":false,"i_long":106.843999,"transit":false,"distance":2820},{"is_transit":false,"i_lat":-6.263214,"time":2,"transit":false,"distance":2380,"station_id":"PSMB","i_long":106.851577,"line":2,"station_name":"Pasar Minggu Baru"},{"i_long":106.85449,"i_lat":-6.255332,"line":2,"distance":824,"time":2,"transit":false,"station_id":"DRN","station_name":"Duren Kalibata","is_transit":false},{"line":2,"transit":false,"i_long":106.856607,"distance":1546,"time":3,"station_name":"Cawang","is_transit":false,"station_id":"CW","i_lat":-6.242512},{"distance":1230,"is_transit":false,"line":2,"transit":false,"station_id":"TEB","i_long":106.857948,"station_name":"Tebet","i_lat":-6.226659,"time":2},{"i_long":106.84912,"time":4,"station_id":"MRI","station_name":"Manggarai","distance":2610,"is_transit":true,"transit":true,"i_lat":-6.209883,"line":2},{"transit":false,"distance":1275,"station_name":"Matraman","i_lat":-6.212485,"time":2,"i_long":106.858896,"line":1,"is_transit":false,"station_id":"MTR"},{"is_transit":true,"transit":true,"i_lat":-6.215091,"station_name":"Jatinegara","station_id":"JNG","i_long":106.86807400000001,"time":8,"line":1,"distance":1377},{"line":11,"station_id":"POK","transit":false,"i_lat":-6.209188,"is_transit":false,"time":2,"station_name":"Pondok Jati","distance":1236,"i_long":106.861737}],[{"transit":false,"line":21,"is_transit":false,"time":0,"i_long":106.905196,"station_name":"Nambo","distance":0,"i_lat":-6.466285,"station_id":"NMO"},{"distance":6527,"line":21,"station_name":"Cibinong","is_transit":false,"station_id":"CBN","time":10,"transit":false,"i_lat":-6.46424,"i_long":106.851978},{"i_long":106.824374,"is_transit":false,"time":0,"i_lat":-6.460735,"transit":false,"station_name":"Pondok Rajeg","line":21,"station_id":"PDRG","distance":0},{"distance":0,"transit":true,"is_transit":true,"station_name":"Citayam","line":2,"time":0,"i_long":106.800298,"i_lat":-6.448811,"station_id":"CTA"},{"station_name":"Depok","time":6,"i_lat":-6.405256,"transit":false,"is_transit":false,"i_long":106.816926,"station_id":"DP","distance":5084,"line":2},{"is_transit":false,"line":2,"transit":false,"i_long":106.819451,"time":3,"station_name":"Depokbaru","i_lat":-6.391065,"distance":1584,"station_id":"DPB"},{"station_name":"Pondok Cina","time":4,"is_transit":false,"station_id":"POC","distance":2727,"i_lat":-6.369073,"transit":false,"line":2,"i_long":106.831114},{"time":2,"i_lat":-6.360749,"station_id":"UI","line":2,"i_long":106.831474,"transit":false,"is_transit":false,"distance":1109,"station_name":"Univ. Indonesia"},{"time":3,"i_long":106.834175,"transit":false,"station_name":"Univ. Pancasila","station_id":"UP","distance":2264,"i_lat":-6.339291,"line":2,"is_transit":false},{"station_name":"Lenteng Agung","is_transit":false,"station_id":"LNA","distance":1029,"i_long":106.832616,"transit":false,"i_lat":-6.330363,"time":2,"line":2},{"i_long":106.838896,"is_transit":false,"station_id":"TNT","line":2,"distance":2671,"station_name":"Tanjung Barat","transit":false,"i_lat":-6.3080680000000005,"time":3},{"i_long":106.843999,"is_transit":false,"time":4,"line":2,"distance":2820,"transit":false,"station_name":"Pasar Minggu","station_id":"PSM","i_lat":-6.2842400000000005},{"station_id":"PSMB","i_lat":-6.263214,"transit":false,"i_long":106.851577,"station_name":"Pasar Minggu Baru","distance":2380,"time":2,"is_transit":false,"line":2},{"i_long":106.85449,"is_transit":false,"station_id":"DRN","distance":824,"line":2,"station_name":"Duren Kalibata","time":2,"i_lat":-6.255332,"transit":false},{"i_lat":-6.242512,"station_id":"CW","time":3,"line":2,"transit":false,"i_long":106.856607,"station_name":"Cawang","is_transit":false,"distance":1546},{"station_name":"Tebet","is_transit":false,"time":2,"line":2,"i_long":106.857948,"distance":1230,"i_lat":-6.226659,"transit":false,"station_id":"TEB"},{"transit":true,"is_transit":true,"i_lat":-6.209883,"time":4,"i_long":106.84912,"distance":2610,"station_name":"Manggarai","station_id":"MRI","line":2},{"time":4,"station_name":"Sudirman","transit":false,"distance":3186,"i_lat":-6.202263,"is_transit":false,"station_id":"SUD","i_long":106.822649,"line":1},{"distance":280,"line":1,"station_name":"Sudirman Baru","i_long":106.819881,"transit":false,"station_id":"SUDB","time":1,"i_lat":-6.201433,"is_transit":false},{"i_lat":-6.20132,"line":1,"transit":false,"i_long":106.816351,"station_name":"Karet","station_id":"KAT","time":1,"distance":471,"is_transit":false},{"time":5,"line":1,"transit":false,"i_long":106.811091,"distance":2029,"station_name":"Tanah Abang","is_transit":false,"station_id":"THB","i_lat":-6.185545},{"transit":false,"is_transit":false,"station_name":"Duri","i_long":106.800832,"i_lat":-6.155215,"line":1,"distance":3632,"time":8,"station_id":"DU"},{"line":1,"transit":false,"distance":1230,"station_name":"Angke","time":4,"i_lat":-6.144674,"station_id":"AK","is_transit":false,"i_long":106.79867},{"station_name":"Kampung Bandan","transit":true,"distance":4102,"is_transit":true,"i_long":106.826365,"station_id":"KPB","line":4,"time":9,"i_lat":-6.132549},{"i_lat":-6.14505,"line":11,"station_name":"Rajawali","is_transit":false,"transit":false,"i_long":106.836569,"distance":1444,"time":3,"station_id":"RJW"},{"transit":false,"station_id":"KMO","time":5,"is_transit":false,"distance":1901,"station_name":"Kemayoran","i_lat":-6.161728,"i_long":106.839204,"line":11},{"station_id":"PSE","time":4,"transit":false,"i_long":106.84368,"line":11,"distance":1436,"is_transit":false,"station_name":"Pasar Senen","i_lat":-6.174784},{"i_lat":-6.185975,"line":11,"distance":1567,"transit":false,"is_transit":false,"time":8,"station_name":"Gang Sentiong","station_id":"GST","i_long":106.850107},{"i_long":106.855437,"distance":973,"time":1,"i_lat":-6.193792,"station_id":"KMT","line":11,"is_transit":false,"station_name":"Kramat","transit":false},{"is_transit":false,"station_id":"POK","line":11,"i_long":106.861737,"station_name":"Pondok Jati","transit":false,"distance":1829,"i_lat":-6.209188,"time":2}],[{"distance":0,"is_transit":false,"line":21,"transit":false,"station_name":"Nambo","station_id":"NMO","i_lat":-6.466285,"time":0,"i_long":106.905196},{"station_id":"CBN","station_name":"Cibinong","is_transit":false,"transit":false,"i_lat":-6.46424,"line":21,"distance":6527,"i_long":106.851978,"time":10},{"station_id":"PDRG","station_name":"Pondok Rajeg","transit":false,"line":21,"distance":0,"i_long":106.824374,"i_lat":-6.460735,"is_transit":false,"time":0},{"station_id":"CTA","time":0,"i_lat":-6.448811,"transit":true,"is_transit":true,"station_name":"Citayam","line":2,"i_long":106.800298,"distance":0},{"station_id":"DP","transit":false,"i_lat":-6.405256,"distance":5084,"line":2,"time":6,"i_long":106.816926,"is_transit":false,"station_name":"Depok"},{"line":2,"i_long":106.819451,"station_id":"DPB","distance":1584,"time":3,"transit":false,"is_transit":false,"station_name":"Depokbaru","i_lat":-6.391065},{"i_long":106.831114,"station_name":"Pondok Cina","is_transit":false,"station_id":"POC","i_lat":-6.369073,"time":4,"distance":2727,"transit":false,"line":2},{"station_name":"Univ. Indonesia","i_long":106.831474,"station_id":"UI","transit":false,"is_transit":false,"line":2,"distance":1109,"i_lat":-6.360749,"time":2},{"transit":false,"distance":2264,"time":3,"station_id":"UP","i_lat":-6.339291,"station_name":"Univ. Pancasila","is_transit":false,"i_long":106.834175,"line":2},{"i_long":106.832616,"transit":false,"is_transit":false,"station_id":"LNA","line":2,"time":2,"i_lat":-6.330363,"station_name":"Lenteng Agung","distance":1029},{"station_id":"TNT","time":3,"distance":2671,"transit":false,"station_name":"Tanjung Barat","is_transit":false,"i_lat":-6.3080680000000005,"i_long":106.838896,"line":2},{"transit":false,"distance":2820,"i_lat":-6.2842400000000005,"i_long":106.843999,"station_name":"Pasar Minggu","is_transit":false,"station_id":"PSM","line":2,"time":4},{"line":2,"is_transit":false,"i_long":106.851577,"transit":false,"distance":2380,"i_lat":-6.263214,"time":2,"station_name":"Pasar Minggu Baru","station_id":"PSMB"},{"station_id":"DRN","i_lat":-6.255332,"transit":false,"station_name":"Duren Kalibata","line":2,"i_long":106.85449,"distance":824,"time":2,"is_transit":false},{"is_transit":false,"time":3,"station_name":"Cawang","transit":false,"i_long":106.856607,"i_lat":-6.242512,"station_id":"CW","line":2,"distance":1546},{"i_lat":-6.226659,"i_long":106.857948,"line":2,"is_transit":false,"station_id":"TEB","transit":false,"station_name":"Tebet","distance":1230,"time":2},{"station_name":"Manggarai","transit":false,"is_transit":false,"station_id":"MRI","distance":2610,"i_long":106.84912,"time":4,"line":2,"i_lat":-6.209883},{"station_id":"CKI","line":2,"time":4,"i_long":106.840169,"transit":false,"station_name":"Cikini","is_transit":false,"distance":1590,"i_lat":-6.198556},{"time":3,"is_transit":false,"line":2,"station_id":"GDD","transit":false,"station_name":"Gondangdia","i_lat":-6.186295,"i_long":106.832183,"distance":1750},{"transit":false,"time":4,"is_transit":false,"line":2,"i_long":106.828284,"i_lat":-6.166716,"distance":2015,"station_name":"Juanda","station_id":"JUA"},{"distance":1149,"i_lat":-6.160725,"i_long":106.827103,"station_name":"Sawah Besar","time":2,"transit":false,"line":2,"is_transit":false,"station_id":"SW"},{"distance":906,"line":2,"station_name":"Manggabesar","i_long":106.82482,"i_lat":-6.149769,"time":2,"transit":false,"is_transit":false,"station_id":"MGB"},{"line":2,"is_transit":false,"station_name":"Jayakarta","distance":1080,"i_long":106.820901,"time":2,"i_lat":-6.141205,"transit":false,"station_id":"JAY"},{"i_lat":-6.137569,"station_id":"JAKK","line":2,"station_name":"Jakarta Kota","is_transit":true,"time":4,"transit":true,"distance":1264,"i_long":106.812439},{"is_transit":true,"distance":1364,"line":4,"station_name":"Kampung Bandan","i_lat":-6.132549,"time":3,"i_long":106.826365,"transit":true,"station_id":"KPB"},{"i_long":106.836569,"station_id":"RJW","station_name":"Rajawali","i_lat":-6.14505,"line":11,"transit":false,"is_transit":false,"time":3,"distance":1444},{"time":5,"is_transit":false,"line":11,"station_name":"Kemayoran","station_id":"KMO","distance":1901,"i_long":106.839204,"i_lat":-6.161728,"transit":false},{"i_lat":-6.174784,"i_long":106.84368,"is_transit":false,"station_name":"Pasar Senen","station_id":"PSE","line":11,"distance":1436,"time":4,"transit":false},{"time":8,"i_lat":-6.185975,"distance":1567,"station_name":"Gang Sentiong","i_long":106.850107,"transit":false,"station_id":"GST","line":11,"is_transit":false},{"line":11,"is_transit":false,"time":1,"transit":false,"i_lat":-6.193792,"station_id":"KMT","distance":973,"i_long":106.855437,"station_name":"Kramat"},{"line":11,"transit":false,"station_id":"POK","distance":1829,"i_long":106.861737,"station_name":"Pondok Jati","time":2,"i_lat":-6.209188,"is_transit":false}]]}