{
  "data": [
    [
      {
        "distance": 0,
        "i_lat": -6.466285,
        "i_long": 106.905196,
        "is_transit": false,
        "line": 21,
        "station_id": "NMO",
        "station_name": "Nambo",
        "time": 0,
        "transit": false
      },
      {
        "distance": 6527,
        "i_lat": -6.46424,
        "i_long": 106.851978,
        "is_transit": false,
        "line": 21,
        "station_id": "CBN",
        "station_name": "Cibinong",
        "time": 10,
        "transit": false
      },
      {
        "distance": 0,
        "i_lat": -6.460735,
        "i_long": 106.824374,
        "is_transit": false,
        "line": 21,
        "station_id": "PDRG",
        "station_name": "Pondok Rajeg",
        "time": 0,
        "transit": false
      },
      {
        "distance": 0,
        "i_lat": -6.448811,
        "i_long": 106.800298,
        "is_transit": true,
        "line": 2,
        "station_id": "CTA",
        "station_name": "Citayam",
        "time": 0,
        "transit": true
      },
      {
        "distance": 5084,
        "i_lat": -6.405256,
        "i_long": 106.816926,
        "is_transit": false,
        "line": 2,
        "station_id": "DP",
        "station_name": "Depok",
        "time": 6,
        "transit": false
      },
      {
        "distance": 1584,
        "i_lat": -6.391065,
        "i_long": 106.819451,
        "is_transit": false,
        "line": 2,
        "station_id": "DPB",
        "station_name": "Depokbaru",
        "time": 3,
        "transit": false
      },
      {
        "distance": 2727,
        "i_lat": -6.369073,
        "i_long": 106.831114,
        "is_transit": false,
        "line": 2,
        "station_id": "POC",
        "station_name": "Pondok Cina",
        "time": 4,
        "transit": false
      },
      {
        "distance": 1109,
        "i_lat": -6.360749,
        "i_long": 106.831474,
        "is_transit": false,
        "line": 2,
        "station_id": "UI",
        "station_name": "Univ. Indonesia",
        "time": 2,
        "transit": false
      },
      {
        "distance": 2264,
        "i_lat": -6.339291,
        "i_long": 106.834175,
        "is_transit": false,
        "line": 2,
        "station_id": "UP",
        "station_name": "Univ. Pancasila",
        "time": 3,
        "transit": false
      },
      {
        "distance": 1029,
        "i_lat": -6.330363,
        "i_long": 106.832616,
        "is_transit": false,
        "line": 2,
        "station_id": "LNA",
        "station_name": "Lenteng Agung",
        "time": 2,
        "transit": false
      }
    ]
  ]
}
