{"data":[[{"transit":false,"station_name":"Nambo","is_transit":false,"station_id":"NMO","distance":0,"i_lat":-6.466285,"line":21,"time":0,"i_long":106.905196},{"station_id":"CBN","i_long":106.851978,"transit":false,"station_name":"Cibinong","line":21,"distance":6527,"time":10,"i_lat":-6.46424,"is_transit":false},{"transit":false,"is_transit":false,"time":0,"station_name":"Pondok Rajeg","i_lat":-6.460735,"i_long":106.824374,"line":21,"distance":0,"station_id":"PDRG"},{"time":0,"distance":0,"station_name":"Citayam","transit":true,"is_transit":true,"station_id":"CTA","line":2,"i_lat":-6.448811,"i_long":106.800298},{"i_long":106.816926,"i_lat":-6.405256,"station_name":"Depok","line":2,"time":6,"is_transit":false,"transit":false,"station_id":"DP","distance":5084},{"station_name":"Depokbaru","line":2,"transit":false,"is_transit":false,"i_long":106.819451,"distance":1584,"station_id":"DPB","time":3,"i_lat":-6.391065},{"i_lat":-6.369073,"i_long":106.831114,"time":4,"station_id":"POC","transit":false,"distance":2727,"line":2,"station_name":"Pondok Cina","is_transit":false},{"i_long":106.831474,"is_transit":false,"time":2,"transit":false,"line":2,"station_id":"UI","i_lat":-6.360749,"distance":1109,"station_name":"Univ. Indonesia"},{"is_transit":false,"time":3,"line":2,"transit":false,"distance":2264,"i_lat":-6.339291,"i_long":106.834175,"station_name":"Univ. Pancasila","station_id":"UP"},{"transit":false,"is_transit":false,"i_lat":-6.330363,"distance":1029,"station_name":"Lenteng Agung","i_long":106.832616,"line":2,"time":2,"station_id":"LNA"},{"i_long":106.838896,"distance":2671,"station_name":"Tanjung Barat","line":2,"time":3,"station_id":"TNT","is_transit":false,"transit":false,"i_lat":-6.3080680000000005},{"i_long":106.843999,"line":2,"transit":false,"station_name":"Pasar Minggu","is_transit":false,"time":4,"i_lat":-6.2842400000000005,"station_id":"PSM","distance":2820},{"station_name":"Pasar Minggu Baru","transit":false,"time":2,"distance":2380,"line":2,"i_lat":-6.263214,"is_transit":false,"i_long":106.851577,"station_id":"PSMB"},{"distance":824,"time":2,"i_lat":-6.255332,"station_name":"Duren Kalibata","i_long":106.85449,"transit":false,"line":2,"station_id":"DRN","is_transit":false},{"i_lat":-6.242512,"is_transit":false,"station_name":"Cawang","station_id":"CW","i_long":106.856607,"transit":false,"line":2,"time":3,"distance":1546},{"distance":1230,"station_id":"TEB","time":2,"i_lat":-6.226659,"is_transit":false,"i_long":106.857948,"station_name":"Tebet","line":2,"transit":false},{"time":4,"station_id":"MRI","i_long":106.84912,"is_transit":true,"station_name":"Manggarai","transit":true,"i_lat":-6.209883,"line":2,"distance":2610},{"transit":false,"time":4,"line":1,"distance":3186,"station_name":"Sudirman","station_id":"SUD","is_transit":false,"i_long":106.822649,"i_lat":-6.202263},{"station_name":"Sudirman Baru","i_lat":-6.201433,"distance":280,"transit":false,"time":1,"i_long":106.819881,"station_id":"SUDB","line":1,"is_transit":false},{"i_lat":-6.20132,"station_id":"KAT","line":1,"distance":471,"is_transit":false,"station_name":"Karet","transit":false,"i_long":106.816351,"time":1},{"i_lat":-6.185545,"i_long":106.811091,"line":1,"station_name":"Tanah Abang","transit":false,"station_id":"THB","is_transit":false,"distance":2029,"time":5}],[{"station_id":"NMO","i_lat":-6.466285,"station_name":"Nambo","line":21,"is_transit":false,"transit":false,"distance":0,"i_long":106.905196,"time":0},{"i_lat":-6.46424,"line":21,"station_name":"Cibinong","i_long":106.851978,"time":10,"station_id":"CBN","transit":false,"is_transit":false,"distance":6527},{"is_transit":false,"distance":0,"i_lat":-6.460735,"station_name":"Pondok Rajeg","i_long":106.824374,"line":21,"station_id":"PDRG","transit":false,"time":0},{"i_long":106.800298,"distance":0,"is_transit":true,"line":2,"time":0,"transit":true,"station_id":"CTA","station_name":"Citayam","i_lat":-6.448811},{"i_long":106.816926,"is_transit":false,"time":6,"line":2,"distance":5084,"station_name":"Depok","i_lat":-6.405256,"station_id":"DP","transit":false},{"i_lat":-6.391065,"station_name":"Depokbaru","is_transit":false,"distance":1584,"transit":false,"station_id":"DPB","line":2,"i_long":106.819451,"time":3},{"line":2,"station_name":"Pondok Cina","is_transit":false,"time":4,"i_long":106.831114,"i_lat":-6.369073,"transit":false,"station_id":"POC","distance":2727},{"time":2,"station_id":"UI","station_name":"Univ. Indonesia","transit":false,"is_transit":false,"i_long":106.831474,"distance":1109,"i_lat":-6.360749,"line":2},{"transit":false,"station_name":"Univ. Pancasila","is_transit":false,"distance":2264,"line":2,"time":3,"i_long":106.834175,"station_id":"UP","i_lat":-6.339291},{"distance":1029,"station_id":"LNA","is_transit":false,"line":2,"transit":false,"time":2,"i_lat":-6.330363,"station_name":"Lenteng Agung","i_long":106.832616},{"distance":2671,"station_name":"Tanjung Barat","transit":false,"is_transit":false,"time":3,"station_id":"TNT","i_lat":-6.3080680000000005,"line":2,"i_long":106.838896},{"station_id":"PSM","line":2,"is_transit":false,"distance":2820,"transit":false,"i_lat":-6.2842400000000005,"i_long":106.843999,"time":4,"station_name":"Pasar Minggu"},{"station_id":"PSMB","transit":false,"line":2,"i_lat":-6.263214,"is_transit":false,"station_name":"Pasar Minggu Baru","distance":2380,"i_long":106.851577,"time":2},{"station_name":"Duren Kalibata","is_transit":false,"i_long":106.85449,"station_id":"DRN","distance":824,"i_lat":-6.255332,"time":2,"line":2,"transit":false},{"is_transit":false,"i_lat":-6.242512,"i_long":106.856607,"line":2,"transit":false,"station_name":"Cawang","time":3,"distance":1546,"station_id":"CW"},{"station_name":"Tebet","time":2,"i_long":106.857948,"is_transit":false,"line":2,"station_id":"TEB","i_lat":-6.226659,"transit":false,"distance":1230},{"station_name":"Manggarai","transit":false,"line":2,"i_long":106.84912,"time":4,"i_lat":-6.209883,"station_id":"MRI","distance":2610,"is_transit":false},{"station_id":"CKI","i_long":106.840169,"i_lat":-6.198556,"line":2,"transit":false,"is_transit":false,"distance":1590,"time":4,"station_name":"Cikini"},{"i_long":106.832183,"distance":1750,"is_transit":false,"time":3,"transit":false,"station_id":"GDD","station_name":"Gondangdia","i_lat":-6.186295,"line":2},{"station_id":"JUA","i_lat":-6.166716,"time":4,"station_name":"Juanda","i_long":106.828284,"line":2,"transit":false,"is_transit":false,"distance":2015},{"transit":false,"distance":1149,"i_lat":-6.160725,"line":2,"is_transit":false,"station_name":"Sawah Besar","time":2,"station_id":"SW","i_long":106.827103},{"i_lat":-6.149769,"distance":906,"station_name":"Manggabesar","station_id":"MGB","transit":false,"time":2,"line":2,"is_transit":false,"i_long":106.82482},{"distance":1080,"station_id":"JAY","time":2,"line":2,"transit":false,"station_name":"Jayakarta","i_long":106.820901,"is_transit":false,"i_lat":-6.141205},{"is_transit":true,"i_long":106.812439,"distance":1264,"station_id":"JAKK","i_lat":-6.137569,"transit":true,"station_name":"Jakarta Kota","time":4,"line":2},{"i_lat":-6.132549,"station_id":"KPB","i_long":106.826365,"line":4,"distance":1364,"station_name":"Kampung Bandan","is_transit":true,"transit":true,"time":3},{"station_id":"AK","is_transit":false,"i_long":106.79867,"transit":false,"i_lat":-6.144674,"line":1,"station_name":"Angke","distance":4102,"time":9},{"transit":false,"is_transit":false,"time":4,"distance":1230,"station_name":"Duri","line":1,"i_long":106.800832,"station_id":"DU","i_lat":-6.155215},{"station_name":"Tanah Abang","station_id":"THB","distance":3632,"transit":false,"i_lat":-6.185545,"i_long":106.811091,"line":1,"time":8,"is_transit":false}],[{"i_lat":-6.466285,"transit":false,"station_name":"Nambo","time":0,"station_id":"NMO","distance":0,"line":21,"i_long":106.905196,"is_transit":false},{"line":21,"station_name":"Cibinong","station_id":"CBN","transit":false,"time":10,"i_lat":-6.46424,"i_long":106.851978,"is_transit":false,"distance":6527},{"time":0,"distance":0,"transit":false,"station_id":"PDRG","i_lat":-6.460735,"line":21,"i_long":106.824374,"is_transit":false,"station_name":"Pondok Rajeg"},{"time":0,"i_long":106.800298,"is_transit":true,"line":2,"transit":true,"station_name":"Citayam","station_id":"CTA","distance":0,"i_lat":-6.448811},{"station_name":"Depok","distance":5084,"time":6,"transit":false,"i_lat":-6.405256,"i_long":106.816926,"line":2,"is_transit":false,"station_id":"DP"},{"time":3,"transit":false,"station_id":"DPB","is_transit":false,"i_lat":-6.391065,"i_long":106.819451,"distance":1584,"station_name":"Depokbaru","line":2},{"station_name":"Pondok Cina","station_id":"POC","distance":2727,"time":4,"i_long":106.831114,"i_lat":-6.369073,"is_transit":false,"line":2,"transit":false},{"distance":1109,"i_long":106.831474,"is_transit":false,"line":2,"i_lat":-6.360749,"transit":false,"station_name":"Univ. Indonesia","time":2,"station_id":"UI"},{"station_name":"Univ. Pancasila","time":3,"i_lat":-6.339291,"distance":2264,"station_id":"UP","i_long":106.834175,"line":2,"is_transit":false,"transit":false},{"station_id":"LNA","station_name":"Lenteng Agung","is_transit":false,"line":2,"i_lat":-6.330363,"i_long":106.832616,"time":2,"distance":1029,"transit":false},{"time":3,"i_long":106.838896,"transit":false,"distance":2671,"station_name":"Tanjung Barat","station_id":"TNT","is_transit":false,"line":2,"i_lat":-6.3080680000000005},{"line":2,"transit":false,"station_id":"PSM","station_name":"Pasar Minggu","time":4,"is_transit":false,"distance":2820,"i_lat":-6.2842400000000005,"i_long":106.843999},{"i_lat":-6.263214,"i_long":106.851577,"station_name":"Pasar Minggu Baru","distance":2380,"station_id":"PSMB","line":2,"transit":false,"is_transit":false,"time":2},{"i_lat":-6.255332,"i_long":106.85449,"line":2,"transit":false,"time":2,"station_name":"Duren Kalibata","station_id":"DRN","is_transit":false,"distance":824},{"line":2,"i_lat":-6.242512,"transit":false,"station_id":"CW","is_transit":false,"time":3,"distance":1546,"i_long":106.856607,"station_name":"Cawang"},{"line":2,"station_name":"Tebet","station_id":"TEB","i_long":106.857948,"transit":false,"is_transit":false,"time":2,"distance":1230,"i_lat":-6.226659},{"station_name":"Manggarai","i_lat":-6.209883,"time":4,"transit":true,"station_id":"MRI","is_transit":true,"line":2,"i_long":106.84912,"distance":2610},{"station_name":"Matraman","time":2,"station_id":"MTR","distance":1275,"i_long":106.858896,"is_transit":false,"i_lat":-6.212485,"transit":false,"line":1},{"i_lat":-6.215091,"is_transit":true,"transit":true,"station_id":"JNG","station_name":"Jatinegara","time":8,"distance":1377,"i_long":106.86807400000001,"line":1},{"is_transit":false,"distance":1236,"transit":false,"time":2,"station_id":"POK","line":11,"station_name":"Pondok Jati","i_lat":-6.209188,"i_long":106.861737},{"i_long":106.855437,"distance":1829,"i_lat":-6.193792,"line":11,"station_id":"KMT","transit":false,"time":2,"is_transit":false,"station_name":"Kramat"},{"distance":973,"i_long":106.850107,"transit":false,"station_id":"GST","time":1,"line":11,"station_name":"Gang Sentiong","is_transit":false,"i_lat":-6.185975},{"station_name":"Pasar Senen","i_long":106.84368,"distance":1567,"line":11,"transit":false,"station_id":"PSE","is_transit":false,"time":8,"i_lat":-6.174784},{"transit":false,"distance":1436,"station_name":"Kemayoran","time":4,"i_long":106.839204,"is_transit":false,"i_lat":-6.161728,"line":11,"station_id":"KMO"},{"is_transit":false,"i_lat":-6.14505,"station_name":"Rajawali","line":11,"distance":1901,"transit":false,"time":5,"i_long":106.836569,"station_id":"RJW"},{"distance":1444,"i_long":106.826365,"i_lat":-6.132549,"transit":true,"station_name":"Kampung Bandan","station_id":"KPB","time":3,"line":4,"is_transit":true},{"i_long":106.79867,"station_id":"AK","i_lat":-6.144674,"transit":false,"is_transit":false,"time":9,"distance":4102,"station_name":"Angke","line":1},{"station_name":"Duri","station_id":"DU","i_lat":-6.155215,"distance":1230,"line":1,"time":4,"i_long":106.800832,"transit":false,"is_transit":false},{"line":1,"station_id":"THB","station_name":"Tanah Abang","i_lat":-6.185545,"i_long":106.811091,"distance":3632,"transit":false,"is_transit":false,"time":8}]]}