{"data":[[{"distance":0,"station_name":"Nambo","i_lat":-6.466285,"i_long":106.905196,"station_id":"NMO","transit":false,"line":21,"time":0,"is_transit":false},{"transit":false,"station_id":"CBN","station_name":"Cibinong","is_transit":false,"time":10,"distance":6527,"i_long":106.851978,"i_lat":-6.46424,"line":21},{"time":0,"i_lat":-6.460735,"distance":0,"is_transit":false,"station_id":"PDRG","i_long":106.824374,"line":21,"transit":false,"station_name":"Pondok Rajeg"},{"station_id":"CTA","line":2,"is_transit":true,"time":0,"transit":true,"station_name":"Citayam","distance":0,"i_lat":-6.448811,"i_long":106.800298},{"station_name":"Depok","time":6,"is_transit":false,"i_long":106.816926,"line":2,"transit":false,"distance":5084,"station_id":"DP","i_lat":-6.405256},{"i_lat":-6.391065,"line":2,"station_name":"Depokbaru","i_long":106.819451,"is_transit":false,"station_id":"DPB","time":3,"distance":1584,"transit":false},{"transit":false,"distance":2727,"i_lat":-6.369073,"i_long":106.831114,"line":2,"time":4,"station_name":"Pondok Cina","is_transit":false,"station_id":"POC"}]]}