{"data":[[{"line":21,"station_name":"Nambo","i_long":106.905196,"station_id":"NMO","is_transit":false,"i_lat":-6.466285,"time":0,"distance":0,"transit":false},{"i_lat":-6.46424,"is_transit":false,"distance":6527,"time":10,"station_id":"CBN","station_name":"Cibinong","transit":false,"i_long":106.851978,"line":0},{"distance":6740,"transit":false,"time":10,"station_name":"Citayam","is_transit":true,"i_lat":-6.448811,"i_long":106.800298,"station_id":"CTA","line":1},{"distance":5084,"time":6,"station_name":"Depok","i_lat":-6.405256,"i_long":106.816926,"transit":false,"station_id":"DP","line":0,"is_transit":false},{"station_name":"Depokbaru","distance":1584,"time":3,"i_long":106.819451,"line":0,"transit":false,"is_transit":false,"station_id":"DPB","i_lat":-6.391065},{"i_lat":-6.369073,"time":4,"i_long":106.831114,"line":2,"transit":false,"station_id":"POC","is_transit":false,"station_name":"Pondok Cina","distance":2727},{"i_lat":-6.360749,"i_long":106.831474,"station_id":"UI","distance":1109,"line":2,"station_name":"Univ. Indonesia","is_transit":false,"transit":false,"time":2},{"is_transit":false,"time":3,"station_id":"UP","station_name":"Univ. Pancasila","distance":2264,"i_long":106.834175,"line":2,"i_lat":-6.339291,"transit":false},{"station_id":"LNA","i_long":106.832616,"transit":false,"station_name":"Lenteng Agung","distance":1029,"time":2,"is_transit":false,"i_lat":-6.330363,"line":2},{"transit":false,"i_lat":-6.3080680000000005,"is_transit":false,"station_name":"Tanjung Barat","station_id":"TNT","distance":2671,"time":3,"line":2,"i_long":106.838896},{"line":2,"is_transit":false,"i_lat":-6.2842400000000005,"time":4,"transit":false,"distance":2820,"i_long":106.843999,"station_id":"PSM","station_name":"Pasar Minggu"},{"line":2,"is_transit":false,"distance":2380,"station_name":"Pasar Minggu Baru","i_long":106.851577,"time":2,"transit":false,"station_id":"PSMB","i_lat":-6.263214},{"is_transit":false,"transit":false,"i_lat":-6.255332,"station_name":"Duren Kalibata","i_long":106.85449,"distance":824,"station_id":"DRN","time":2,"line":0},{"i_long":106.856607,"station_name":"Cawang","line":0,"is_transit":false,"time":3,"i_lat":-6.242512,"distance":1546,"station_id":"CW","transit":false},{"i_lat":-6.226659,"station_id":"TEB","i_long":106.857948,"distance":1230,"is_transit":false,"line":2,"station_name":"Tebet","time":2,"transit":false},{"line":0,"transit":true,"distance":2610,"is_transit":true,"time":4,"station_name":"Manggarai","i_lat":-6.209883,"i_long":106.84912,"station_id":"MRI"},{"distance":1275,"station_id":"MTR","time":2,"station_name":"Matraman","i_lat":-6.212485,"i_long":106.858896,"line":1,"is_transit":false,"transit":false},{"station_name":"Jatinegara","is_transit":true,"i_lat":-6.215091,"transit":true,"station_id":"JNG","i_long":106.86807400000001,"distance":1377,"time":8,"line":0},{"station_id":"POK","station_name":"Pondok Jati","time":2,"i_long":106.861737,"is_transit":false,"distance":1236,"i_lat":-6.209188,"transit":false,"line":11},{"station_id":"KMT","time":2,"distance":1829,"station_name":"Kramat","is_transit":false,"transit":false,"i_lat":-6.193792,"line":11,"i_long":106.855437},{"line":11,"station_name":"Gang Sentiong","i_long":106.850107,"time":1,"station_id":"GST","transit":false,"is_transit":false,"distance":973,"i_lat":-6.185975}],[{"is_transit":false,"station_name":"Nambo","transit":false,"time":0,"station_id":"NMO","distance":0,"i_lat":-6.466285,"i_long":106.905196,"line":21},{"transit":false,"time":10,"line":0,"is_transit":false,"distance":6527,"i_lat":-6.46424,"i_long":106.851978,"station_name":"Cibinong","station_id":"CBN"},{"transit":false,"i_lat":-6.448811,"line":1,"i_long":106.800298,"time":10,"station_id":"CTA","is_transit":true,"station_name":"Citayam","distance":6740},{"station_id":"DP","i_lat":-6.405256,"time":6,"is_transit":false,"line":0,"station_name":"Depok","i_long":106.816926,"transit":false,"distance":5084},{"i_lat":-6.391065,"line":0,"distance":1584,"time":3,"is_transit":false,"station_id":"DPB","station_name":"Depokbaru","transit":false,"i_long":106.819451},{"i_long":106.831114,"i_lat":-6.369073,"station_name":"Pondok Cina","time":4,"is_transit":false,"line":2,"transit":false,"distance":2727,"station_id":"POC"},{"time":2,"transit":false,"distance":1109,"line":2,"is_transit":false,"station_name":"Univ. Indonesia","station_id":"UI","i_long":106.831474,"i_lat":-6.360749},{"distance":2264,"i_lat":-6.339291,"i_long":106.834175,"station_name":"Univ. Pancasila","station_id":"UP","transit":false,"is_transit":false,"time":3,"line":2},{"station_name":"Lenteng Agung","station_id":"LNA","distance":1029,"i_long":106.832616,"is_transit":false,"time":2,"transit":false,"line":2,"i_lat":-6.330363},{"i_lat":-6.3080680000000005,"station_id":"TNT","distance":2671,"i_long":106.838896,"transit":false,"time":3,"station_name":"Tanjung Barat","is_transit":false,"line":2},{"is_transit":false,"i_long":106.843999,"line":2,"station_name":"Pasar Minggu","distance":2820,"transit":false,"i_lat":-6.2842400000000005,"station_id":"PSM","time":4},{"time":2,"is_transit":false,"station_id":"PSMB","distance":2380,"i_lat":-6.263214,"transit":false,"station_name":"Pasar Minggu Baru","i_long":106.851577,"line":2},{"is_transit":false,"transit":false,"i_long":106.85449,"line":0,"station_id":"DRN","i_lat":-6.255332,"distance":824,"station_name":"Duren Kalibata","time":2},{"station_name":"Cawang","distance":1546,"i_long":106.856607,"transit":false,"station_id":"CW","line":0,"i_lat":-6.242512,"time":3,"is_transit":false},{"distance":1230,"i_lat":-6.226659,"line":2,"station_id":"TEB","i_long":106.857948,"is_transit":false,"transit":false,"time":2,"station_name":"Tebet"},{"i_long":106.84912,"is_transit":true,"i_lat":-6.209883,"station_id":"MRI","distance":2610,"station_name":"Manggarai","time":4,"transit":true,"line":0},{"station_id":"SUD","station_name":"Sudirman","distance":3186,"is_transit":false,"time":4,"line":1,"i_lat":-6.202263,"transit":false,"i_long":106.822649},{"line":1,"station_id":"SUDB","station_name":"Sudirman Baru","is_transit":false,"i_long":106.819881,"time":1,"transit":false,"distance":280,"i_lat":-6.201433},{"i_long":106.816351,"line":1,"i_lat":-6.20132,"distance":471,"transit":false,"time":1,"station_name":"Karet","is_transit":false,"station_id":"KAT"},{"time":5,"i_lat":-6.185545,"is_transit":true,"distance":2029,"station_id":"THB","station_name":"Tanah Abang","transit":false,"i_long":106.811091,"line":1},{"i_lat":-6.155215,"station_name":"Duri","distance":3632,"i_long":106.800832,"time":8,"transit":true,"is_transit":true,"line":1,"station_id":"DU"},{"i_long":106.79867,"station_name":"Angke","transit":false,"distance":1230,"time":4,"line":0,"is_transit":false,"i_lat":-6.144674,"station_id":"AK"},{"station_id":"KPB","line":0,"is_transit":true,"time":9,"transit":true,"distance":4102,"i_lat":-6.132549,"station_name":"Kampung Bandan","i_long":106.826365},{"transit":false,"i_lat":-6.14505,"distance":1444,"is_transit":false,"i_long":106.836569,"time":3,"station_name":"Rajawali","station_id":"RJW","line":11},{"i_lat":-6.161728,"i_long":106.839204,"line":11,"transit":false,"station_name":"Kemayoran","is_transit":false,"station_id":"KMO","time":5,"distance":1901},{"line":11,"time":4,"station_name":"Pasar Senen","is_transit":false,"distance":1436,"i_long":106.84368,"transit":false,"station_id":"PSE","i_lat":-6.174784},{"time":8,"i_long":106.850107,"is_transit":false,"distance":1567,"line":11,"station_name":"Gang Sentiong","station_id":"GST","transit":false,"i_lat":-6.185975}],[{"station_id":"NMO","transit":false,"time":0,"i_lat":-6.466285,"distance":0,"i_long":106.905196,"station_name":"Nambo","is_transit":false,"line":21},{"is_transit":false,"transit":false,"station_name":"Cibinong","station_id":"CBN","i_long":106.851978,"distance":6527,"line":0,"time":10,"i_lat":-6.46424},{"station_name":"Citayam","line":1,"i_long":106.800298,"time":10,"transit":false,"is_transit":true,"station_id":"CTA","i_lat":-6.448811,"distance":6740},{"station_name":"Depok","station_id":"DP","time":6,"i_lat":-6.405256,"distance":5084,"line":0,"i_long":106.816926,"transit":false,"is_transit":false},{"time":3,"distance":1584,"i_lat":-6.391065,"station_name":"Depokbaru","is_transit":false,"station_id":"DPB","i_long":106.819451,"transit":false,"line":0},{"distance":2727,"transit":false,"is_transit":false,"station_name":"Pondok Cina","time":4,"i_lat":-6.369073,"line":2,"i_long":106.831114,"station_id":"POC"},{"is_transit":false,"distance":1109,"station_id":"UI","time":2,"i_lat":-6.360749,"station_name":"Univ. Indonesia","transit":false,"i_long":106.831474,"line":2},{"i_lat":-6.339291,"line":2,"i_long":106.834175,"station_id":"UP","transit":false,"station_name":"Univ. Pancasila","distance":2264,"time":3,"is_transit":false},{"distance":1029,"is_transit":false,"line":2,"station_name":"Lenteng Agung","station_id":"LNA","i_lat":-6.330363,"i_long":106.832616,"transit":false,"time":2},{"i_long":106.838896,"time":3,"i_lat":-6.3080680000000005,"distance":2671,"line":2,"is_transit":false,"station_name":"Tanjung Barat","station_id":"TNT","transit":false},{"i_long":106.843999,"station_name":"Pasar Minggu","time":4,"transit":false,"station_id":"PSM","distance":2820,"is_transit":false,"line":2,"i_lat":-6.2842400000000005},{"i_long":106.851577,"line":2,"is_transit":false,"distance":2380,"transit":false,"station_name":"Pasar Minggu Baru","time":2,"station_id":"PSMB","i_lat":-6.263214},{"distance":824,"i_long":106.85449,"is_transit":false,"station_id":"DRN","transit":false,"time":2,"i_lat":-6.255332,"line":0,"station_name":"Duren Kalibata"},{"time":3,"i_long":106.856607,"line":0,"distance":1546,"i_lat":-6.242512,"station_name":"Cawang","transit":false,"station_id":"CW","is_transit":false},{"transit":false,"time":2,"station_name":"Tebet","is_transit":false,"station_id":"TEB","line":2,"i_long":106.857948,"i_lat":-6.226659,"distance":1230},{"i_lat":-6.209883,"i_long":106.84912,"station_id":"MRI","transit":true,"line":0,"time":4,"distance":2610,"is_transit":true,"station_name":"Manggarai"},{"time":4,"line":0,"i_lat":-6.198556,"i_long":106.840169,"distance":1590,"transit":false,"is_transit":false,"station_name":"Cikini","station_id":"CKI"},{"distance":1750,"i_lat":-6.186295,"line":2,"station_id":"GDD","transit":false,"is_transit":false,"i_long":106.832183,"time":3,"station_name":"Gondangdia"},{"i_long":106.828284,"station_name":"Juanda","line":2,"distance":2015,"transit":false,"is_transit":false,"time":4,"station_id":"JUA","i_lat":-6.166716},{"distance":1149,"is_transit":false,"time":2,"line":2,"station_name":"Sawah Besar","i_lat":-6.160725,"i_long":106.827103,"station_id":"SW","transit":false},{"is_transit":false,"time":2,"distance":906,"i_lat":-6.149769,"station_id":"MGB","i_long":106.82482,"station_name":"Manggabesar","line":2,"transit":false},{"station_name":"Jayakarta","distance":1080,"is_transit":false,"i_lat":-6.141205,"i_long":106.820901,"line":7,"station_id":"JAY","transit":false,"time":2},{"time":4,"i_lat":-6.137569,"line":0,"is_transit":true,"station_name":"Jakarta Kota","station_id":"JAKK","i_long":106.812439,"distance":1264,"transit":true},{"station_id":"KPB","is_transit":true,"line":0,"transit":true,"time":3,"station_name":"Kampung Bandan","distance":1364,"i_lat":-6.132549,"i_long":106.826365},{"is_transit":false,"station_id":"RJW","transit":false,"station_name":"Rajawali","time":3,"i_lat":-6.14505,"line":11,"distance":1444,"i_long":106.836569},{"time":5,"i_lat":-6.161728,"is_transit":false,"i_long":106.839204,"distance":1901,"transit":false,"line":11,"station_name":"Kemayoran","station_id":"KMO"},{"time":4,"i_lat":-6.174784,"i_long":106.84368,"line":11,"station_name":"Pasar Senen","transit":false,"is_transit":false,"distance":1436,"station_id":"PSE"},{"distance":1567,"time":8,"station_name":"Gang Sentiong","transit":false,"i_long":106.850107,"line":11,"station_id":"GST","i_lat":-6.185975,"is_transit":false}]]}