{"data":[[{"distance":0,"transit":false,"station_name":"Nambo","is_transit":false,"station_id":"NMO","time":0,"i_lat":-6.466285,"i_long":106.905196,"line":21},{"i_long":106.851978,"transit":false,"distance":6527,"station_name":"Cibinong","station_id":"CBN","time":10,"is_transit":false,"i_lat":-6.46424,"line":21},{"transit":false,"station_id":"PDRG","is_transit":false,"line":21,"time":0,"i_long":106.824374,"i_lat":-6.460735,"distance":0,"station_name":"Pondok Rajeg"},{"distance":0,"line":2,"i_lat":-6.448811,"station_name":"Citayam","transit":true,"is_transit":true,"station_id":"CTA","time":0,"i_long":106.800298},{"time":6,"station_id":"DP","is_transit":false,"i_lat":-6.405256,"transit":false,"distance":5084,"line":2,"station_name":"Depok","i_long":106.816926},{"station_name":"Depokbaru","station_id":"DPB","transit":false,"is_transit":false,"distance":1584,"line":2,"i_long":106.819451,"time":3,"i_lat":-6.391065},{"station_id":"POC","i_long":106.831114,"transit":false,"is_transit":false,"distance":2727,"time":4,"i_lat":-6.369073,"line":2,"station_name":"Pondok Cina"},{"station_id":"UI","transit":false,"is_transit":false,"time":2,"station_name":"Univ. Indonesia","i_long":106.831474,"line":2,"distance":1109,"i_lat":-6.360749},{"line":2,"transit":false,"is_transit":false,"distance":2264,"i_lat":-6.339291,"station_id":"UP","i_long":106.834175,"station_name":"Univ. Pancasila","time":3},{"time":2,"i_lat":-6.330363,"transit":false,"station_id":"LNA","station_name":"Lenteng Agung","i_long":106.832616,"line":2,"is_transit":false,"distance":1029},{"i_long":106.838896,"line":2,"is_transit":false,"time":3,"station_name":"Tanjung Barat","distance":2671,"transit":false,"i_lat":-6.3080680000000005,"station_id":"TNT"},{"line":2,"transit":false,"distance":2820,"station_id":"PSM","station_name":"Pasar Minggu","is_transit":false,"time":4,"i_long":106.843999,"i_lat":-6.2842400000000005},{"i_long":106.851577,"transit":false,"is_transit":false,"line":2,"time":2,"station_name":"Pasar Minggu Baru","i_lat":-6.263214,"distance":2380,"station_id":"PSMB"},{"time":2,"i_long":106.85449,"i_lat":-6.255332,"distance":824,"line":2,"station_name":"Duren Kalibata","transit":false,"station_id":"DRN","is_transit":false},{"station_id":"CW","station_name":"Cawang","i_long":106.856607,"is_transit":false,"distance":1546,"transit":false,"line":2,"i_lat":-6.242512,"time":3}]]}