{"data":[[{"is_transit":false,"i_long":106.905196,"transit":false,"time":0,"station_name":"Nambo","i_lat":-6.466285,"line":21,"station_id":"NMO","distance":0},{"i_long":106.851978,"i_lat":-6.46424,"line":21,"transit":false,"station_name":"Cibinong","is_transit":false,"time":10,"distance":6527,"station_id":"CBN"},{"time":0,"is_transit":false,"station_id":"PDRG","distance":0,"i_lat":-6.460735,"i_long":106.824374,"transit":false,"line":21,"station_name":"Pondok Rajeg"},{"i_long":106.800298,"station_name":"Citayam","distance":0,"i_lat":-6.448811,"time":0,"station_id":"CTA","transit":true,"line":2,"is_transit":true},{"i_lat":-6.405256,"i_long":106.816926,"is_transit":false,"station_name":"Depok","station_id":"DP","line":2,"transit":false,"time":6,"distance":5084},{"is_transit":false,"i_long":106.819451,"station_id":"DPB","time":3,"transit":false,"station_name":"Depokbaru","i_lat":-6.391065,"distance":1584,"line":2},{"i_lat":-6.369073,"station_id":"POC","station_name":"Pondok Cina","is_transit":false,"i_long":106.831114,"line":2,"transit":false,"time":4,"distance":2727},{"distance":1109,"i_lat":-6.360749,"time":2,"line":2,"transit":false,"i_long":106.831474,"station_name":"Univ. Indonesia","station_id":"UI","is_transit":false},{"distance":2264,"station_name":"Univ. Pancasila","time":3,"i_lat":-6.339291,"transit":false,"station_id":"UP","i_long":106.834175,"is_transit":false,"line":2},{"station_name":"Lenteng Agung","is_transit":false,"transit":false,"station_id":"LNA","line":2,"i_lat":-6.330363,"time":2,"distance":1029,"i_long":106.832616},{"station_id":"TNT","i_lat":-6.3080680000000005,"i_long":106.838896,"station_name":"Tanjung Barat","transit":false,"is_transit":false,"time":3,"distance":2671,"line":2},{"transit":false,"time":4,"station_name":"Pasar Minggu","distance":2820,"i_lat":-6.2842400000000005,"station_id":"PSM","is_transit":false,"i_long":106.843999,"line":2},{"station_name":"Pasar Minggu Baru","station_id":"PSMB","is_transit":false,"i_long":106.851577,"transit":false,"distance":2380,"time":2,"i_lat":-6.263214,"line":2},{"line":2,"is_transit":false,"time":2,"i_long":106.85449,"station_id":"DRN","station_name":"Duren Kalibata","distance":824,"i_lat":-6.255332,"transit":false},{"line":2,"station_id":"CW","is_transit":false,"i_lat":-6.242512,"distance":1546,"time":3,"i_long":106.856607,"station_name":"Cawang","transit":false},{"distance":1230,"i_lat":-6.226659,"line":2,"is_transit":false,"i_long":106.857948,"transit":false,"station_id":"TEB","station_name":"Tebet","time":2},{"transit":true,"station_id":"MRI","is_transit":true,"station_name":"Manggarai","i_long":106.84912,"line":2,"time":4,"distance":2610,"i_lat":-6.209883},{"station_name":"Matraman","distance":1275,"i_lat":-6.212485,"i_long":106.858896,"line":1,"is_transit":false,"station_id":"MTR","time":2,"transit":false},{"line":1,"distance":1377,"i_lat":-6.215091,"time":8,"transit":false,"i_long":106.86807400000001,"station_id":"JNG","station_name":"Jatinegara","is_transit":false}],[{"station_id":"NMO","transit":false,"station_name":"Nambo","line":21,"distance":0,"is_transit":false,"i_long":106.905196,"i_lat":-6.466285,"time":0},{"i_long":106.851978,"station_name":"Cibinong","is_transit":false,"station_id":"CBN","distance":6527,"i_lat":-6.46424,"line":21,"transit":false,"time":10},{"is_transit":false,"transit":false,"i_lat":-6.460735,"i_long":106.824374,"line":21,"time":0,"station_name":"Pondok Rajeg","station_id":"PDRG","distance":0},{"distance":0,"station_id":"CTA","line":2,"station_name":"Citayam","transit":true,"i_lat":-6.448811,"i_long":106.800298,"time":0,"is_transit":true},{"i_lat":-6.405256,"i_long":106.816926,"time":6,"is_transit":false,"station_id":"DP","distance":5084,"transit":false,"line":2,"station_name":"Depok"},{"station_name":"Depokbaru","i_long":106.819451,"time":3,"distance":1584,"i_lat":-6.391065,"line":2,"transit":false,"station_id":"DPB","is_transit":false},{"distance":2727,"station_name":"Pondok Cina","time":4,"is_transit":false,"i_lat":-6.369073,"station_id":"POC","i_long":106.831114,"line":2,"transit":false},{"station_name":"Univ. Indonesia","is_transit":false,"i_long":106.831474,"i_lat":-6.360749,"transit":false,"time":2,"station_id":"UI","line":2,"distance":1109},{"station_id":"UP","i_lat":-6.339291,"i_long":106.834175,"line":2,"distance":2264,"is_transit":false,"time":3,"transit":false,"station_name":"Univ. Pancasila"},{"station_id":"LNA","i_lat":-6.330363,"i_long":106.832616,"is_transit":false,"distance":1029,"line":2,"time":2,"station_name":"Lenteng Agung","transit":false},{"time":3,"transit":false,"station_name":"Tanjung Barat","distance":2671,"i_lat":-6.3080680000000005,"station_id":"TNT","i_long":106.838896,"line":2,"is_transit":false},{"i_long":106.843999,"station_id":"PSM","is_transit":false,"time":4,"i_lat":-6.2842400000000005,"line":2,"transit":false,"distance":2820,"station_name":"Pasar Minggu"},{"time":2,"i_lat":-6.263214,"station_name":"Pasar Minggu Baru","station_id":"PSMB","transit":false,"distance":2380,"is_transit":false,"line":2,"i_long":106.851577},{"i_long":106.85449,"line":2,"station_name":"Duren Kalibata","station_id":"DRN","i_lat":-6.255332,"transit":false,"is_transit":false,"time":2,"distance":824},{"transit":false,"is_transit":false,"station_id":"CW","i_long":106.856607,"distance":1546,"time":3,"i_lat":-6.242512,"line":2,"station_name":"Cawang"},{"line":2,"is_transit":false,"station_name":"Tebet","distance":1230,"i_long":106.857948,"i_lat":-6.226659,"time":2,"transit":false,"station_id":"TEB"},{"station_name":"Manggarai","time":4,"station_id":"MRI","distance":2610,"line":2,"transit":true,"i_lat":-6.209883,"i_long":106.84912,"is_transit":true},{"station_id":"SUD","is_transit":false,"time":4,"i_lat":-6.202263,"line":1,"transit":false,"station_name":"Sudirman","distance":3186,"i_long":106.822649},{"station_name":"Sudirman Baru","is_transit":false,"time":1,"line":1,"distance":280,"station_id":"SUDB","i_long":106.819881,"transit":false,"i_lat":-6.201433},{"is_transit":false,"station_id":"KAT","i_lat":-6.20132,"distance":471,"i_long":106.816351,"station_name":"Karet","time":1,"transit":false,"line":1},{"i_long":106.811091,"i_lat":-6.185545,"station_name":"Tanah Abang","station_id":"THB","line":1,"transit":false,"is_transit":false,"time":5,"distance":2029},{"i_long":106.800832,"is_transit":false,"distance":3632,"line":1,"station_id":"DU","transit":false,"i_lat":-6.155215,"station_name":"Duri","time":8},{"line":1,"distance":1230,"station_id":"AK","station_name":"Angke","transit":false,"time":4,"i_lat":-6.144674,"i_long":106.79867,"is_transit":false},{"station_id":"KPB","line":4,"time":9,"transit":true,"distance":4102,"i_long":106.826365,"i_lat":-6.132549,"station_name":"Kampung Bandan","is_transit":true},{"line":11,"i_lat":-6.14505,"transit":false,"distance":1444,"station_id":"RJW","i_long":106.836569,"is_transit":false,"station_name":"Rajawali","time":3},{"transit":false,"station_id":"KMO","i_long":106.839204,"is_transit":false,"time":5,"line":11,"station_name":"Kemayoran","i_lat":-6.161728,"distance":1901},{"is_transit":false,"i_lat":-6.174784,"transit":false,"station_name":"Pasar Senen","time":4,"line":11,"i_long":106.84368,"station_id":"PSE","distance":1436},{"i_long":106.850107,"is_transit":false,"distance":1567,"line":11,"i_lat":-6.185975,"time":8,"transit":false,"station_name":"Gang Sentiong","station_id":"GST"},{"time":1,"distance":973,"line":11,"station_id":"KMT","i_lat":-6.193792,"transit":false,"station_name":"Kramat","is_transit":false,"i_long":106.855437},{"line":11,"distance":1829,"transit":false,"station_name":"Pondok Jati","is_transit":false,"i_long":106.861737,"i_lat":-6.209188,"station_id":"POK","time":2},{"station_name":"Jatinegara","station_id":"JNG","is_transit":false,"time":9,"i_long":106.86807400000001,"distance":1236,"line":1,"i_lat":-6.215091,"transit":false}],[{"station_id":"NMO","transit":false,"station_name":"Nambo","is_transit":false,"distance":0,"time":0,"i_long":106.905196,"line":21,"i_lat":-6.466285},{"is_transit":false,"time":10,"distance":6527,"i_lat":-6.46424,"i_long":106.851978,"station_id":"CBN","line":21,"transit":false,"station_name":"Cibinong"},{"station_name":"Pondok Rajeg","i_long":106.824374,"transit":false,"station_id":"PDRG","time":0,"is_transit":false,"line":21,"distance":0,"i_lat":-6.460735},{"transit":true,"i_long":106.800298,"line":2,"distance":0,"station_id":"CTA","time":0,"is_transit":true,"i_lat":-6.448811,"station_name":"Citayam"},{"i_long":106.816926,"is_transit":false,"line":2,"station_id":"DP","i_lat":-6.405256,"transit":false,"time":6,"distance":5084,"station_name":"Depok"},{"station_id":"DPB","time":3,"transit":false,"is_transit":false,"i_long":106.819451,"i_lat":-6.391065,"line":2,"station_name":"Depokbaru","distance":1584},{"i_lat":-6.369073,"time":4,"is_transit":false,"distance":2727,"line":2,"transit":false,"i_long":106.831114,"station_name":"Pondok Cina","station_id":"POC"},{"is_transit":false,"station_name":"Univ. Indonesia","station_id":"UI","transit":false,"distance":1109,"i_long":106.831474,"time":2,"i_lat":-6.360749,"line":2},{"station_id":"UP","transit":false,"is_transit":false,"time":3,"i_lat":-6.339291,"station_name":"Univ. Pancasila","distance":2264,"i_long":106.834175,"line":2},{"station_name":"Lenteng Agung","is_transit":false,"distance":1029,"station_id":"LNA","i_lat":-6.330363,"time":2,"i_long":106.832616,"transit":false,"line":2},{"i_lat":-6.3080680000000005,"i_long":106.838896,"distance":2671,"is_transit":false,"line":2,"time":3,"transit":false,"station_name":"Tanjung Barat","station_id":"TNT"},{"station_name":"Pasar Minggu","time":4,"i_lat":-6.2842400000000005,"station_id":"PSM","is_transit":false,"transit":false,"line":2,"distance":2820,"i_long":106.843999},{"transit":false,"station_id":"PSMB","is_transit":false,"i_long":106.851577,"time":2,"line":2,"distance":2380,"i_lat":-6.263214,"station_name":"Pasar Minggu Baru"},{"is_transit":false,"i_long":106.85449,"time":2,"transit":false,"i_lat":-6.255332,"line":2,"station_name":"Duren Kalibata","station_id":"DRN","distance":824},{"transit":false,"distance":1546,"i_lat":-6.242512,"line":2,"i_long":106.856607,"is_transit":false,"station_id":"CW","station_name":"Cawang","time":3},{"distance":1230,"i_lat":-6.226659,"station_id":"TEB","line":2,"transit":false,"station_name":"Tebet","time":2,"is_transit":false,"i_long":106.857948},{"i_long":106.84912,"i_lat":-6.209883,"transit":false,"station_id":"MRI","is_transit":false,"line":2,"distance":2610,"station_name":"Manggarai","time":4},{"line":2,"i_long":106.840169,"distance":1590,"is_transit":false,"station_name":"Cikini","transit":false,"time":4,"i_lat":-6.198556,"station_id":"CKI"},{"distance":1750,"station_id":"GDD","transit":false,"i_long":106.832183,"time":3,"i_lat":-6.186295,"line":2,"station_name":"Gondangdia","is_transit":false},{"i_long":106.828284,"station_id":"JUA","transit":false,"station_name":"Juanda","time":4,"distance":2015,"i_lat":-6.166716,"is_transit":false,"line":2},{"is_transit":false,"station_id":"SW","distance":1149,"i_long":106.827103,"time":2,"line":2,"i_lat":-6.160725,"transit":false,"station_name":"Sawah Besar"},{"line":2,"time":2,"transit":false,"distance":906,"is_transit":false,"station_id":"MGB","i_lat":-6.149769,"i_long":106.82482,"station_name":"Manggabesar"},{"station_name":"Jayakarta","station_id":"JAY","line":2,"is_transit":false,"i_lat":-6.141205,"distance":1080,"transit":false,"time":2,"i_long":106.820901},{"is_transit":true,"time":4,"distance":1264,"i_lat":-6.137569,"line":2,"station_id":"JAKK","transit":true,"i_long":106.812439,"station_name":"Jakarta Kota"},{"distance":1364,"i_lat":-6.132549,"line":4,"i_long":106.826365,"is_transit":true,"transit":true,"station_id":"KPB","station_name":"Kampung Bandan","time":3},{"i_lat":-6.14505,"line":11,"station_name":"Rajawali","is_transit":false,"time":3,"transit":false,"station_id":"RJW","distance":1444,"i_long":106.836569},{"line":11,"station_name":"Kemayoran","is_transit":false,"transit":false,"i_lat":-6.161728,"i_long":106.839204,"time":5,"distance":1901,"station_id":"KMO"},{"transit":false,"i_lat":-6.174784,"time":4,"is_transit":false,"station_name":"Pasar Senen","station_id":"PSE","i_long":106.84368,"distance":1436,"line":11},{"distance":1567,"transit":false,"station_id":"GST","is_transit":false,"line":11,"station_name":"Gang Sentiong","i_long":106.850107,"i_lat":-6.185975,"time":8},{"station_name":"Kramat","distance":973,"i_long":106.855437,"station_id":"KMT","i_lat":-6.193792,"is_transit":false,"line":11,"time":1,"transit":false},{"transit":false,"station_id":"POK","time":2,"line":11,"i_lat":-6.209188,"is_transit":false,"distance":1829,"i_long":106.861737,"station_name":"Pondok Jati"},{"transit":false,"station_name":"Jatinegara","time":9,"distance":1236,"line":1,"is_transit":false,"station_id":"JNG","i_long":106.86807400000001,"i_lat":-6.215091}]]}