{"data":[[{"transit":false,"i_long":106.905196,"is_transit":false,"line":21,"station_name":"Nambo","station_id":"NMO","time":0,"distance":0,"i_lat":-6.466285},{"station_name":"Cibinong","i_long":106.851978,"time":10,"distance":6527,"is_transit":false,"i_lat":-6.46424,"line":0,"station_id":"CBN","transit":false},{"time":10,"distance":6740,"transit":false,"station_name":"Citayam","station_id":"CTA","is_transit":true,"i_lat":-6.448811,"line":1,"i_long":106.800298},{"i_lat":-6.405256,"station_name":"Depok","time":6,"station_id":"DP","line":0,"transit":false,"i_long":106.816926,"distance":5084,"is_transit":false},{"station_name":"Depokbaru","line":0,"station_id":"DPB","distance":1584,"time":3,"i_long":106.819451,"transit":false,"is_transit":false,"i_lat":-6.391065},{"i_long":106.831114,"line":2,"time":4,"distance":2727,"transit":false,"station_name":"Pondok Cina","station_id":"POC","i_lat":-6.369073,"is_transit":false},{"station_id":"UI","is_transit":false,"station_name":"Univ. Indonesia","transit":false,"i_lat":-6.360749,"i_long":106.831474,"time":2,"line":2,"distance":1109},{"transit":false,"is_transit":false,"station_id":"UP","time":3,"distance":2264,"i_long":106.834175,"line":2,"i_lat":-6.339291,"station_name":"Univ. Pancasila"},{"i_lat":-6.330363,"time":2,"station_id":"LNA","transit":false,"is_transit":false,"i_long":106.832616,"distance":1029,"line":2,"station_name":"Lenteng Agung"},{"is_transit":false,"i_lat":-6.3080680000000005,"line":2,"station_name":"Tanjung Barat","time":3,"station_id":"TNT","transit":false,"i_long":106.838896,"distance":2671},{"time":4,"line":2,"i_long":106.843999,"station_id":"PSM","distance":2820,"is_transit":false,"i_lat":-6.2842400000000005,"station_name":"Pasar Minggu","transit":false},{"station_name":"Pasar Minggu Baru","time":2,"i_lat":-6.263214,"is_transit":false,"i_long":106.851577,"distance":2380,"transit":false,"station_id":"PSMB","line":2},{"station_name":"Duren Kalibata","station_id":"DRN","time":2,"distance":824,"is_transit":false,"transit":false,"i_lat":-6.255332,"line":0,"i_long":106.85449},{"transit":false,"station_name":"Cawang","is_transit":false,"time":3,"distance":1546,"i_lat":-6.242512,"i_long":106.856607,"line":0,"station_id":"CW"},{"is_transit":false,"i_long":106.857948,"station_id":"TEB","i_lat":-6.226659,"line":2,"station_name":"Tebet","transit":false,"time":2,"distance":1230},{"distance":2610,"station_name":"Manggarai","is_transit":true,"i_long":106.84912,"station_id":"MRI","line":0,"i_lat":-6.209883,"time":4,"transit":true},{"station_id":"MTR","time":2,"distance":1275,"i_long":106.858896,"i_lat":-6.212485,"station_name":"Matraman","transit":false,"is_transit":false,"line":1},{"station_name":"Jatinegara","i_long":106.86807400000001,"line":0,"distance":1377,"transit":false,"is_transit":true,"i_lat":-6.215091,"time":8,"station_id":"JNG"}],[{"is_transit":false,"i_lat":-6.466285,"line":21,"transit":false,"station_name":"Nambo","i_long":106.905196,"time":0,"distance":0,"station_id":"NMO"},{"i_lat":-6.46424,"time":10,"station_name":"Cibinong","station_id":"CBN","is_transit":false,"distance":6527,"line":0,"transit":false,"i_long":106.851978},{"i_long":106.800298,"station_id":"CTA","is_transit":true,"line":1,"transit":false,"i_lat":-6.448811,"station_name":"Citayam","distance":6740,"time":10},{"time":6,"transit":false,"station_name":"Depok","distance":5084,"is_transit":false,"i_long":106.816926,"line":0,"i_lat":-6.405256,"station_id":"DP"},{"distance":1584,"is_transit":false,"i_lat":-6.391065,"i_long":106.819451,"station_name":"Depokbaru","time":3,"station_id":"DPB","transit":false,"line":0},{"station_id":"POC","i_long":106.831114,"time":4,"transit":false,"i_lat":-6.369073,"station_name":"Pondok Cina","is_transit":false,"distance":2727,"line":2},{"i_lat":-6.360749,"transit":false,"time":2,"station_id":"UI","line":2,"is_transit":false,"distance":1109,"station_name":"Univ. Indonesia","i_long":106.831474},{"is_transit":false,"time":3,"i_lat":-6.339291,"distance":2264,"station_name":"Univ. Pancasila","station_id":"UP","i_long":106.834175,"transit":false,"line":2},{"i_long":106.832616,"i_lat":-6.330363,"station_id":"LNA","time":2,"station_name":"Lenteng Agung","is_transit":false,"distance":1029,"line":2,"transit":false},{"i_lat":-6.3080680000000005,"distance":2671,"station_id":"TNT","time":3,"is_transit":false,"i_long":106.838896,"station_name":"Tanjung Barat","transit":false,"line":2},{"transit":false,"station_id":"PSM","line":2,"station_name":"Pasar Minggu","time":4,"is_transit":false,"i_lat":-6.2842400000000005,"distance":2820,"i_long":106.843999},{"station_name":"Pasar Minggu Baru","station_id":"PSMB","i_lat":-6.263214,"distance":2380,"i_long":106.851577,"transit":false,"time":2,"is_transit":false,"line":2},{"time":2,"i_lat":-6.255332,"i_long":106.85449,"distance":824,"station_name":"Duren Kalibata","line":0,"transit":false,"station_id":"DRN","is_transit":false},{"line":0,"time":3,"station_name":"Cawang","i_long":106.856607,"station_id":"CW","i_lat":-6.242512,"is_transit":false,"transit":false,"distance":1546},{"i_long":106.857948,"time":2,"station_id":"TEB","i_lat":-6.226659,"is_transit":false,"distance":1230,"station_name":"Tebet","line":2,"transit":false},{"is_transit":true,"transit":true,"line":0,"time":4,"station_id":"MRI","distance":2610,"i_lat":-6.209883,"i_long":106.84912,"station_name":"Manggarai"},{"is_transit":false,"i_long":106.822649,"i_lat":-6.202263,"station_name":"Sudirman","distance":3186,"transit":false,"line":1,"time":4,"station_id":"SUD"},{"time":1,"is_transit":false,"i_long":106.819881,"i_lat":-6.201433,"distance":280,"station_name":"Sudirman Baru","transit":false,"station_id":"SUDB","line":1},{"is_transit":false,"line":1,"i_lat":-6.20132,"distance":471,"i_long":106.816351,"station_id":"KAT","time":1,"transit":false,"station_name":"Karet"},{"i_lat":-6.185545,"station_id":"THB","i_long":106.811091,"transit":false,"time":5,"line":1,"distance":2029,"is_transit":true,"station_name":"Tanah Abang"},{"station_id":"DU","is_transit":true,"i_lat":-6.155215,"station_name":"Duri","transit":true,"i_long":106.800832,"distance":3632,"line":1,"time":8},{"station_id":"AK","is_transit":false,"time":4,"distance":1230,"transit":false,"i_long":106.79867,"line":0,"i_lat":-6.144674,"station_name":"Angke"},{"i_lat":-6.132549,"station_name":"Kampung Bandan","distance":4102,"i_long":106.826365,"line":0,"station_id":"KPB","time":9,"transit":true,"is_transit":true},{"station_name":"Rajawali","i_long":106.836569,"is_transit":false,"i_lat":-6.14505,"line":11,"distance":1444,"time":3,"transit":false,"station_id":"RJW"},{"station_id":"KMO","distance":1901,"i_lat":-6.161728,"station_name":"Kemayoran","line":11,"transit":false,"i_long":106.839204,"time":5,"is_transit":false},{"line":11,"i_lat":-6.174784,"i_long":106.84368,"is_transit":false,"time":4,"station_id":"PSE","station_name":"Pasar Senen","transit":false,"distance":1436},{"i_lat":-6.185975,"i_long":106.850107,"is_transit":false,"station_id":"GST","transit":false,"time":8,"line":11,"distance":1567,"station_name":"Gang Sentiong"},{"time":1,"station_id":"KMT","transit":false,"line":11,"station_name":"Kramat","is_transit":false,"i_lat":-6.193792,"distance":973,"i_long":106.855437},{"transit":false,"i_lat":-6.209188,"i_long":106.861737,"time":2,"line":11,"distance":1829,"is_transit":false,"station_name":"Pondok Jati","station_id":"POK"},{"is_transit":true,"distance":1236,"station_id":"JNG","i_long":106.86807400000001,"station_name":"Jatinegara","i_lat":-6.215091,"line":0,"time":9,"transit":false}],[{"line":21,"time":0,"is_transit":false,"i_long":106.905196,"transit":false,"station_name":"Nambo","station_id":"NMO","distance":0,"i_lat":-6.466285},{"i_long":106.851978,"transit":false,"station_name":"Cibinong","time":10,"distance":6527,"line":0,"i_lat":-6.46424,"is_transit":false,"station_id":"CBN"},{"distance":6740,"station_id":"CTA","time":10,"i_lat":-6.448811,"i_long":106.800298,"is_transit":true,"station_name":"Citayam","transit":false,"line":1},{"is_transit":false,"i_lat":-6.405256,"station_name":"Depok","line":0,"i_long":106.816926,"distance":5084,"station_id":"DP","transit":false,"time":6},{"line":0,"i_lat":-6.391065,"is_transit":false,"station_name":"Depokbaru","station_id":"DPB","distance":1584,"i_long":106.819451,"time":3,"transit":false},{"station_name":"Pondok Cina","transit":false,"station_id":"POC","i_long":106.831114,"is_transit":false,"distance":2727,"time":4,"i_lat":-6.369073,"line":2},{"i_long":106.831474,"is_transit":false,"transit":false,"line":2,"time":2,"distance":1109,"station_id":"UI","station_name":"Univ. Indonesia","i_lat":-6.360749},{"transit":false,"i_lat":-6.339291,"distance":2264,"i_long":106.834175,"line":2,"station_id":"UP","is_transit":false,"time":3,"station_name":"Univ. Pancasila"},{"transit":false,"line":2,"i_long":106.832616,"distance":1029,"time":2,"station_name":"Lenteng Agung","i_lat":-6.330363,"is_transit":false,"station_id":"LNA"},{"line":2,"time":3,"station_id":"TNT","is_transit":false,"station_name":"Tanjung Barat","transit":false,"i_lat":-6.3080680000000005,"distance":2671,"i_long":106.838896},{"line":2,"time":4,"distance":2820,"station_id":"PSM","is_transit":false,"i_long":106.843999,"station_name":"Pasar Minggu","transit":false,"i_lat":-6.2842400000000005},{"station_name":"Pasar Minggu Baru","transit":false,"time":2,"station_id":"PSMB","i_long":106.851577,"distance":2380,"is_transit":false,"i_lat":-6.263214,"line":2},{"transit":false,"i_long":106.85449,"station_name":"Duren Kalibata","station_id":"DRN","is_transit":false,"line":0,"i_lat":-6.255332,"time":2,"distance":824},{"station_name":"Cawang","line":0,"distance":1546,"station_id":"CW","is_transit":false,"time":3,"transit":false,"i_lat":-6.242512,"i_long":106.856607},{"station_name":"Tebet","line":2,"distance":1230,"i_long":106.857948,"station_id":"TEB","i_lat":-6.226659,"transit":false,"is_transit":false,"time":2},{"station_name":"Manggarai","is_transit":true,"line":0,"station_id":"MRI","i_lat":-6.209883,"i_long":106.84912,"time":4,"transit":true,"distance":2610},{"station_name":"Cikini","transit":false,"time":4,"i_long":106.840169,"line":0,"is_transit":false,"i_lat":-6.198556,"distance":1590,"station_id":"CKI"},{"is_transit":false,"i_lat":-6.186295,"station_name":"Gondangdia","station_id":"GDD","i_long":106.832183,"distance":1750,"transit":false,"time":3,"line":2},{"station_id":"JUA","time":4,"transit":false,"i_lat":-6.166716,"distance":2015,"line":2,"is_transit":false,"i_long":106.828284,"station_name":"Juanda"},{"is_transit":false,"time":2,"i_lat":-6.160725,"transit":false,"distance":1149,"station_id":"SW","i_long":106.827103,"station_name":"Sawah Besar","line":2},{"distance":906,"i_lat":-6.149769,"line":2,"is_transit":false,"i_long":106.82482,"station_id":"MGB","time":2,"station_name":"Manggabesar","transit":false},{"is_transit":false,"transit":false,"station_name":"Jayakarta","i_long":106.820901,"distance":1080,"time":2,"station_id":"JAY","i_lat":-6.141205,"line":7},{"station_name":"Jakarta Kota","transit":true,"line":0,"distance":1264,"time":4,"i_lat":-6.137569,"station_id":"JAKK","is_transit":true,"i_long":106.812439},{"line":0,"transit":true,"distance":1364,"is_transit":true,"time":3,"station_name":"Kampung Bandan","i_lat":-6.132549,"i_long":106.826365,"station_id":"KPB"},{"station_name":"Rajawali","i_lat":-6.14505,"i_long":106.836569,"distance":1444,"time":3,"is_transit":false,"station_id":"RJW","transit":false,"line":11},{"transit":false,"is_transit":false,"i_lat":-6.161728,"time":5,"line":11,"station_id":"KMO","station_name":"Kemayoran","i_long":106.839204,"distance":1901},{"i_long":106.84368,"i_lat":-6.174784,"line":11,"station_id":"PSE","distance":1436,"transit":false,"station_name":"Pasar Senen","time":4,"is_transit":false},{"i_long":106.850107,"time":8,"station_name":"Gang Sentiong","distance":1567,"i_lat":-6.185975,"station_id":"GST","transit":false,"line":11,"is_transit":false},{"distance":973,"time":1,"station_name":"Kramat","transit":false,"i_long":106.855437,"station_id":"KMT","is_transit":false,"i_lat":-6.193792,"line":11},{"station_name":"Pondok Jati","time":2,"is_transit":false,"i_lat":-6.209188,"distance":1829,"i_long":106.861737,"line":11,"transit":false,"station_id":"POK"},{"i_lat":-6.215091,"station_id":"JNG","transit":false,"distance":1236,"station_name":"Jatinegara","is_transit":true,"i_long":106.86807400000001,"line":0,"time":9}]]}