{"data":[[{"transit":false,"station_id":"NMO","i_long":106.905196,"time":0,"distance":0,"station_name":"Nambo","i_lat":-6.466285,"line":21,"is_transit":false},{"line":21,"is_transit":false,"i_lat":-6.46424,"station_id":"CBN","station_name":"Cibinong","i_long":106.851978,"distance":6527,"time":10,"transit":false},{"station_name":"Pondok Rajeg","transit":false,"distance":0,"i_lat":-6.460735,"station_id":"PDRG","time":0,"line":21,"is_transit":false,"i_long":106.824374},{"line":2,"i_lat":-6.448811,"station_name":"Citayam","transit":true,"i_long":106.800298,"station_id":"CTA","time":0,"is_transit":true,"distance":0},{"station_id":"DP","time":6,"station_name":"Depok","distance":5084,"line":2,"i_long":106.816926,"is_transit":false,"transit":false,"i_lat":-6.405256},{"line":2,"station_id":"DPB","distance":1584,"transit":false,"time":3,"station_name":"Depokbaru","is_transit":false,"i_long":106.819451,"i_lat":-6.391065},{"station_id":"POC","time":4,"distance":2727,"is_transit":false,"station_name":"Pondok Cina","i_lat":-6.369073,"line":2,"transit":false,"i_long":106.831114},{"line":2,"transit":false,"distance":1109,"i_long":106.831474,"is_transit":false,"station_name":"Univ. Indonesia","station_id":"UI","time":2,"i_lat":-6.360749},{"transit":false,"i_long":106.834175,"station_name":"Univ. Pancasila","is_transit":false,"distance":2264,"i_lat":-6.339291,"station_id":"UP","line":2,"time":3},{"distance":1029,"time":2,"transit":false,"station_name":"Lenteng Agung","is_transit":false,"station_id":"LNA","i_lat":-6.330363,"i_long":106.832616,"line":2},{"line":2,"station_name":"Tanjung Barat","time":3,"station_id":"TNT","distance":2671,"transit":false,"i_long":106.838896,"is_transit":false,"i_lat":-6.3080680000000005},{"i_long":106.843999,"time":4,"station_name":"Pasar Minggu","distance":2820,"is_transit":false,"line":2,"transit":false,"i_lat":-6.2842400000000005,"station_id":"PSM"},{"line":2,"station_id":"PSMB","distance":2380,"station_name":"Pasar Minggu Baru","is_transit":false,"transit":false,"i_long":106.851577,"i_lat":-6.263214,"time":2},{"i_long":106.85449,"station_name":"Duren Kalibata","line":2,"time":2,"distance":824,"transit":false,"i_lat":-6.255332,"station_id":"DRN","is_transit":false},{"station_id":"CW","distance":1546,"line":2,"is_transit":false,"transit":false,"station_name":"Cawang","i_lat":-6.242512,"time":3,"i_long":106.856607},{"transit":false,"station_id":"TEB","is_transit":false,"i_lat":-6.226659,"distance":1230,"i_long":106.857948,"time":2,"line":2,"station_name":"Tebet"},{"distance":2610,"line":2,"station_id":"MRI","is_transit":false,"station_name":"Manggarai","time":4,"i_lat":-6.209883,"i_long":106.84912,"transit":false},{"distance":1590,"is_transit":false,"line":2,"i_long":106.840169,"transit":false,"i_lat":-6.198556,"station_id":"CKI","station_name":"Cikini","time":4},{"i_long":106.832183,"distance":1750,"transit":false,"is_transit":false,"station_id":"GDD","time":3,"line":2,"station_name":"Gondangdia","i_lat":-6.186295}],[{"station_name":"Nambo","i_lat":-6.466285,"distance":0,"station_id":"NMO","is_transit":false,"time":0,"i_long":106.905196,"transit":false,"line":21},{"transit":false,"distance":6527,"station_name":"Cibinong","i_long":106.851978,"station_id":"CBN","is_transit":false,"time":10,"line":21,"i_lat":-6.46424},{"time":0,"station_name":"Pondok Rajeg","distance":0,"line":21,"station_id":"PDRG","transit":false,"i_long":106.824374,"i_lat":-6.460735,"is_transit":false},{"line":2,"transit":true,"is_transit":true,"time":0,"station_id":"CTA","i_lat":-6.448811,"distance":0,"i_long":106.800298,"station_name":"Citayam"},{"station_name":"Depok","line":2,"i_lat":-6.405256,"distance":5084,"is_transit":false,"transit":false,"station_id":"DP","time":6,"i_long":106.816926},{"transit":false,"i_lat":-6.391065,"station_name":"Depokbaru","distance":1584,"is_transit":false,"station_id":"DPB","time":3,"line":2,"i_long":106.819451},{"i_lat":-6.369073,"is_transit":false,"transit":false,"time":4,"line":2,"i_long":106.831114,"station_id":"POC","distance":2727,"station_name":"Pondok Cina"},{"transit":false,"distance":1109,"i_long":106.831474,"is_transit":false,"line":2,"station_id":"UI","time":2,"station_name":"Univ. Indonesia","i_lat":-6.360749},{"i_lat":-6.339291,"i_long":106.834175,"station_id":"UP","transit":false,"station_name":"Univ. Pancasila","time":3,"distance":2264,"line":2,"is_transit":false},{"transit":false,"station_name":"Lenteng Agung","is_transit":false,"i_lat":-6.330363,"station_id":"LNA","distance":1029,"line":2,"i_long":106.832616,"time":2},{"station_id":"TNT","station_name":"Tanjung Barat","distance":2671,"time":3,"i_lat":-6.3080680000000005,"i_long":106.838896,"line":2,"transit":false,"is_transit":false},{"station_id":"PSM","transit":false,"time":4,"station_name":"Pasar Minggu","i_lat":-6.2842400000000005,"is_transit":false,"line":2,"distance":2820,"i_long":106.843999},{"i_lat":-6.263214,"is_transit":false,"distance":2380,"line":2,"station_id":"PSMB","i_long":106.851577,"station_name":"Pasar Minggu Baru","transit":false,"time":2},{"time":2,"line":2,"station_id":"DRN","i_lat":-6.255332,"i_long":106.85449,"station_name":"Duren Kalibata","distance":824,"transit":false,"is_transit":false},{"time":3,"transit":false,"is_transit":false,"line":2,"station_name":"Cawang","distance":1546,"station_id":"CW","i_lat":-6.242512,"i_long":106.856607},{"distance":1230,"i_long":106.857948,"i_lat":-6.226659,"time":2,"is_transit":false,"line":2,"transit":false,"station_id":"TEB","station_name":"Tebet"},{"i_lat":-6.209883,"i_long":106.84912,"time":4,"is_transit":true,"station_id":"MRI","distance":2610,"station_name":"Manggarai","transit":true,"line":2},{"transit":false,"station_id":"SUD","is_transit":false,"station_name":"Sudirman","time":4,"i_lat":-6.202263,"distance":3186,"i_long":106.822649,"line":1},{"time":1,"transit":false,"i_lat":-6.201433,"station_id":"SUDB","station_name":"Sudirman Baru","is_transit":false,"distance":280,"i_long":106.819881,"line":1},{"i_long":106.816351,"i_lat":-6.20132,"station_name":"Karet","line":1,"is_transit":false,"transit":false,"time":1,"station_id":"KAT","distance":471},{"station_id":"THB","line":1,"i_long":106.811091,"is_transit":false,"station_name":"Tanah Abang","time":5,"transit":false,"distance":2029,"i_lat":-6.185545},{"time":8,"i_long":106.800832,"is_transit":false,"station_name":"Duri","station_id":"DU","transit":false,"distance":3632,"line":1,"i_lat":-6.155215},{"station_name":"Angke","time":4,"distance":1230,"i_lat":-6.144674,"i_long":106.79867,"station_id":"AK","transit":false,"line":1,"is_transit":false},{"distance":4102,"is_transit":true,"time":9,"i_lat":-6.132549,"line":4,"station_id":"KPB","i_long":106.826365,"station_name":"Kampung Bandan","transit":true},{"line":2,"station_name":"Jakarta Kota","station_id":"JAKK","transit":true,"i_long":106.812439,"i_lat":-6.137569,"time":3,"is_transit":true,"distance":1364},{"line":2,"station_name":"Jayakarta","time":4,"distance":1264,"station_id":"JAY","is_transit":false,"i_long":106.820901,"transit":false,"i_lat":-6.141205},{"distance":1080,"i_lat":-6.149769,"i_long":106.82482,"time":2,"line":2,"transit":false,"is_transit":false,"station_id":"MGB","station_name":"Manggabesar"},{"i_lat":-6.160725,"is_transit":false,"line":2,"distance":906,"station_id":"SW","station_name":"Sawah Besar","transit":false,"time":2,"i_long":106.827103},{"i_lat":-6.166716,"line":2,"transit":false,"station_name":"Juanda","distance":1149,"is_transit":false,"station_id":"JUA","time":2,"i_long":106.828284},{"time":4,"i_long":106.832183,"line":2,"station_name":"Gondangdia","station_id":"GDD","transit":false,"distance":2015,"i_lat":-6.186295,"is_transit":false}],[{"transit":false,"is_transit":false,"time":0,"distance":0,"i_lat":-6.466285,"i_long":106.905196,"station_name":"Nambo","line":21,"station_id":"NMO"},{"station_name":"Cibinong","station_id":"CBN","i_long":106.851978,"distance":6527,"transit":false,"is_transit":false,"line":21,"i_lat":-6.46424,"time":10},{"transit":false,"station_id":"PDRG","i_long":106.824374,"line":21,"time":0,"i_lat":-6.460735,"station_name":"Pondok Rajeg","distance":0,"is_transit":false},{"station_id":"CTA","i_long":106.800298,"line":2,"transit":true,"is_transit":true,"distance":0,"i_lat":-6.448811,"station_name":"Citayam","time":0},{"station_name":"Depok","is_transit":false,"distance":5084,"line":2,"i_lat":-6.405256,"i_long":106.816926,"station_id":"DP","transit":false,"time":6},{"is_transit":false,"transit":false,"time":3,"i_lat":-6.391065,"station_name":"Depokbaru","i_long":106.819451,"station_id":"DPB","distance":1584,"line":2},{"distance":2727,"transit":false,"station_name":"Pondok Cina","station_id":"POC","i_lat":-6.369073,"i_long":106.831114,"time":4,"is_transit":false,"line":2},{"line":2,"station_id":"UI","distance":1109,"time":2,"transit":false,"i_lat":-6.360749,"i_long":106.831474,"is_transit":false,"station_name":"Univ. Indonesia"},{"is_transit":false,"i_long":106.834175,"line":2,"station_id":"UP","station_name":"Univ. Pancasila","time":3,"i_lat":-6.339291,"distance":2264,"transit":false},{"i_long":106.832616,"station_id":"LNA","station_name":"Lenteng Agung","is_transit":false,"transit":false,"time":2,"distance":1029,"i_lat":-6.330363,"line":2},{"i_long":106.838896,"line":2,"i_lat":-6.3080680000000005,"is_transit":false,"station_name":"Tanjung Barat","distance":2671,"transit":false,"station_id":"TNT","time":3},{"station_id":"PSM","distance":2820,"is_transit":false,"station_name":"Pasar Minggu","transit":false,"time":4,"i_lat":-6.2842400000000005,"i_long":106.843999,"line":2},{"distance":2380,"i_lat":-6.263214,"line":2,"transit":false,"station_id":"PSMB","time":2,"i_long":106.851577,"is_transit":false,"station_name":"Pasar Minggu Baru"},{"time":2,"is_transit":false,"station_id":"DRN","distance":824,"i_long":106.85449,"transit":false,"i_lat":-6.255332,"station_name":"Duren Kalibata","line":2},{"distance":1546,"station_name":"Cawang","is_transit":false,"time":3,"i_lat":-6.242512,"i_long":106.856607,"line":2,"station_id":"CW","transit":false},{"time":2,"distance":1230,"i_long":106.857948,"station_id":"TEB","transit":false,"line":2,"i_lat":-6.226659,"is_transit":false,"station_name":"Tebet"},{"station_name":"Manggarai","line":2,"transit":true,"i_long":106.84912,"i_lat":-6.209883,"is_transit":true,"distance":2610,"time":4,"station_id":"MRI"},{"is_transit":false,"transit":false,"distance":1275,"time":2,"station_name":"Matraman","i_long":106.858896,"station_id":"MTR","i_lat":-6.212485,"line":1},{"station_name":"Jatinegara","i_lat":-6.215091,"i_long":106.86807400000001,"line":1,"station_id":"JNG","transit":true,"distance":1377,"is_transit":true,"time":8},{"distance":1236,"i_lat":-6.209188,"i_long":106.861737,"station_name":"Pondok Jati","time":2,"transit":false,"is_transit":false,"station_id":"POK","line":11},{"station_id":"KMT","transit":false,"station_name":"Kramat","time":2,"i_lat":-6.193792,"line":11,"i_long":106.855437,"distance":1829,"is_transit":false},{"is_transit":false,"i_long":106.850107,"i_lat":-6.185975,"station_name":"Gang Sentiong","transit":false,"time":1,"distance":973,"station_id":"GST","line":11},{"i_lat":-6.174784,"is_transit":false,"station_name":"Pasar Senen","station_id":"PSE","i_long":106.84368,"line":11,"time":8,"distance":1567,"transit":false},{"station_name":"Kemayoran","i_lat":-6.161728,"is_transit":false,"i_long":106.839204,"transit":false,"time":4,"line":11,"distance":1436,"station_id":"KMO"},{"i_lat":-6.14505,"i_long":106.836569,"station_id":"RJW","distance":1901,"line":11,"station_name":"Rajawali","time":5,"is_transit":false,"transit":false},{"time":3,"distance":1444,"i_lat":-6.132549,"is_transit":true,"station_name":"Kampung Bandan","i_long":106.826365,"line":4,"transit":true,"station_id":"KPB"},{"i_long":106.812439,"is_transit":true,"time":3,"distance":1364,"i_lat":-6.137569,"station_name":"Jakarta Kota","transit":true,"line":2,"station_id":"JAKK"},{"time":4,"is_transit":false,"distance":1264,"i_lat":-6.141205,"station_name":"Jayakarta","i_long":106.820901,"station_id":"JAY","line":2,"transit":false},{"station_name":"Manggabesar","station_id":"MGB","is_transit":false,"distance":1080,"transit":false,"time":2,"i_lat":-6.149769,"i_long":106.82482,"line":2},{"station_id":"SW","is_transit":false,"i_long":106.827103,"line":2,"i_lat":-6.160725,"transit":false,"time":2,"station_name":"Sawah Besar","distance":906},{"distance":1149,"line":2,"station_name":"Juanda","transit":false,"is_transit":false,"station_id":"JUA","time":2,"i_long":106.828284,"i_lat":-6.166716},{"station_name":"Gondangdia","station_id":"GDD","transit":false,"is_transit":false,"i_lat":-6.186295,"i_long":106.832183,"distance":2015,"line":2,"time":4}]]}