{"data":[[{"line":21,"i_long":106.905196,"transit":false,"distance":0,"time":0,"station_name":"Nambo","i_lat":-6.466285,"station_id":"NMO","is_transit":false},{"line":21,"transit":false,"distance":6527,"station_id":"CBN","i_lat":-6.46424,"is_transit":false,"time":10,"i_long":106.851978,"station_name":"Cibinong"},{"is_transit":false,"station_id":"PDRG","i_lat":-6.460735,"i_long":106.824374,"line":21,"transit":false,"station_name":"Pondok Rajeg","time":0,"distance":0},{"time":0,"station_name":"Citayam","station_id":"CTA","i_lat":-6.448811,"distance":0,"transit":true,"line":2,"i_long":106.800298,"is_transit":true},{"time":6,"i_lat":-6.405256,"transit":false,"station_id":"DP","i_long":106.816926,"distance":5084,"line":2,"station_name":"Depok","is_transit":false},{"distance":1584,"line":2,"time":3,"i_long":106.819451,"is_transit":false,"i_lat":-6.391065,"station_name":"Depokbaru","transit":false,"station_id":"DPB"},{"line":2,"i_lat":-6.369073,"time":4,"distance":2727,"station_id":"POC","station_name":"Pondok Cina","transit":false,"i_long":106.831114,"is_transit":false},{"line":2,"i_lat":-6.360749,"is_transit":false,"transit":false,"time":2,"station_name":"Univ. Indonesia","station_id":"UI","distance":1109,"i_long":106.831474},{"line":2,"i_lat":-6.339291,"i_long":106.834175,"distance":2264,"station_id":"UP","station_name":"Univ. Pancasila","is_transit":false,"transit":false,"time":3}]]}