{"data":[[{"transit":false,"distance":0,"line":21,"i_long":106.905196,"is_transit":false,"station_id":"NMO","i_lat":-6.466285,"time":0,"station_name":"Nambo"},{"transit":false,"distance":6527,"station_name":"Cibinong","i_long":106.851978,"station_id":"CBN","i_lat":-6.46424,"line":0,"time":10,"is_transit":false},{"i_lat":-6.448811,"station_id":"CTA","distance":6740,"station_name":"Citayam","time":10,"i_long":106.800298,"line":1,"transit":false,"is_transit":true},{"transit":false,"is_transit":false,"line":0,"station_name":"Depok","distance":5084,"time":6,"i_lat":-6.405256,"station_id":"DP","i_long":106.816926},{"transit":false,"time":3,"station_name":"Depokbaru","station_id":"DPB","distance":1584,"i_lat":-6.391065,"i_long":106.819451,"is_transit":false,"line":0},{"line":2,"i_long":106.831114,"is_transit":false,"i_lat":-6.369073,"station_id":"POC","station_name":"Pondok Cina","time":4,"distance":2727,"transit":false},{"transit":false,"station_id":"UI","is_transit":false,"i_long":106.831474,"i_lat":-6.360749,"distance":1109,"station_name":"Univ. Indonesia","line":2,"time":2},{"distance":2264,"station_id":"UP","station_name":"Univ. Pancasila","is_transit":false,"line":2,"i_lat":-6.339291,"i_long":106.834175,"transit":false,"time":3},{"station_name":"Lenteng Agung","distance":1029,"is_transit":false,"line":2,"i_lat":-6.330363,"transit":false,"time":2,"station_id":"LNA","i_long":106.832616},{"is_transit":false,"i_lat":-6.3080680000000005,"transit":false,"i_long":106.838896,"time":3,"station_id":"TNT","distance":2671,"station_name":"Tanjung Barat","line":2},{"distance":2820,"time":4,"transit":false,"i_long":106.843999,"line":2,"station_name":"Pasar Minggu","station_id":"PSM","i_lat":-6.2842400000000005,"is_transit":false},{"is_transit":false,"station_id":"PSMB","line":2,"i_lat":-6.263214,"transit":false,"i_long":106.851577,"station_name":"Pasar Minggu Baru","time":2,"distance":2380},{"time":2,"i_lat":-6.255332,"transit":false,"station_id":"DRN","line":0,"is_transit":false,"distance":824,"station_name":"Duren Kalibata","i_long":106.85449},{"is_transit":false,"i_long":106.856607,"transit":false,"distance":1546,"station_id":"CW","station_name":"Cawang","i_lat":-6.242512,"line":0,"time":3},{"line":2,"i_long":106.857948,"station_name":"Tebet","is_transit":false,"i_lat":-6.226659,"transit":false,"distance":1230,"time":2,"station_id":"TEB"},{"i_lat":-6.209883,"time":4,"is_transit":true,"station_name":"Manggarai","i_long":106.84912,"station_id":"MRI","distance":2610,"line":0,"transit":true},{"is_transit":false,"i_long":106.822649,"time":4,"station_id":"SUD","station_name":"Sudirman","i_lat":-6.202263,"line":1,"transit":false,"distance":3186},{"i_lat":-6.201433,"transit":false,"i_long":106.819881,"is_transit":false,"distance":280,"station_name":"Sudirman Baru","line":1,"station_id":"SUDB","time":1},{"line":1,"time":1,"station_id":"KAT","transit":false,"is_transit":false,"distance":471,"station_name":"Karet","i_lat":-6.20132,"i_long":106.816351},{"i_long":106.811091,"is_transit":true,"station_id":"THB","station_name":"Tanah Abang","time":5,"i_lat":-6.185545,"transit":true,"distance":2029,"line":1},{"station_name":"Palmerah","line":6,"transit":false,"i_long":106.79689,"is_transit":false,"distance":3191,"station_id":"PLM","i_lat":-6.207404,"time":6},{"distance":3737,"i_lat":-6.237242,"transit":false,"station_id":"KBY","is_transit":false,"line":6,"station_name":"Kebayoran","i_long":106.780334,"time":7},{"is_transit":false,"time":8,"station_id":"PDJ","i_lat":-6.276362,"station_name":"Pondokranji","i_long":106.74273,"distance":6218,"line":6,"transit":false},{"line":6,"is_transit":false,"i_long":106.728916,"i_lat":-6.288927,"distance":2179,"station_id":"JMU","station_name":"Jurangmangu","transit":false,"time":3},{"is_transit":false,"line":6,"i_lat":-6.296963,"i_long":106.712277,"distance":1994,"station_id":"SDM","station_name":"Sudimara","time":4,"transit":false},{"station_id":"RU","is_transit":false,"time":6,"line":6,"distance":4566,"station_name":"Rawa Buntu","i_lat":-6.314823,"i_long":106.675475,"transit":false},{"station_id":"SRP","station_name":"Serpong","i_lat":-6.319871,"i_long":106.66566,"time":4,"distance":2413,"is_transit":false,"line":6,"transit":false},{"distance":1784,"station_name":"Cisauk","transit":false,"i_long":106.640411,"time":4,"is_transit":false,"station_id":"CSK","i_lat":-6.32484,"line":0}],[{"distance":0,"transit":false,"i_lat":-6.466285,"line":21,"i_long":106.905196,"station_id":"NMO","time":0,"station_name":"Nambo","is_transit":false},{"i_long":106.851978,"distance":6527,"station_name":"Cibinong","line":0,"is_transit":false,"time":10,"transit":false,"station_id":"CBN","i_lat":-6.46424},{"station_id":"CTA","station_name":"Citayam","transit":false,"time":10,"i_long":106.800298,"distance":6740,"line":1,"is_transit":true,"i_lat":-6.448811},{"line":0,"distance":5084,"time":6,"i_lat":-6.405256,"station_id":"DP","station_name":"Depok","i_long":106.816926,"transit":false,"is_transit":false},{"line":0,"is_transit":false,"i_long":106.819451,"distance":1584,"station_name":"Depokbaru","transit":false,"i_lat":-6.391065,"time":3,"station_id":"DPB"},{"i_long":106.831114,"is_transit":false,"distance":2727,"station_id":"POC","transit":false,"i_lat":-6.369073,"line":2,"time":4,"station_name":"Pondok Cina"},{"station_id":"UI","transit":false,"station_name":"Univ. Indonesia","i_lat":-6.360749,"line":2,"distance":1109,"time":2,"is_transit":false,"i_long":106.831474},{"i_long":106.834175,"is_transit":false,"i_lat":-6.339291,"station_id":"UP","line":2,"station_name":"Univ. Pancasila","time":3,"distance":2264,"transit":false},{"station_id":"LNA","station_name":"Lenteng Agung","distance":1029,"is_transit":false,"transit":false,"i_lat":-6.330363,"line":2,"time":2,"i_long":106.832616},{"i_long":106.838896,"distance":2671,"station_name":"Tanjung Barat","transit":false,"station_id":"TNT","is_transit":false,"line":2,"time":3,"i_lat":-6.3080680000000005},{"transit":false,"station_name":"Pasar Minggu","line":2,"i_long":106.843999,"time":4,"distance":2820,"station_id":"PSM","is_transit":false,"i_lat":-6.2842400000000005},{"time":2,"is_transit":false,"station_name":"Pasar Minggu Baru","i_lat":-6.263214,"i_long":106.851577,"station_id":"PSMB","line":2,"distance":2380,"transit":false},{"station_id":"DRN","line":0,"station_name":"Duren Kalibata","time":2,"is_transit":false,"i_lat":-6.255332,"transit":false,"i_long":106.85449,"distance":824},{"station_id":"CW","time":3,"station_name":"Cawang","is_transit":false,"i_lat":-6.242512,"line":0,"transit":false,"distance":1546,"i_long":106.856607},{"transit":false,"time":2,"station_name":"Tebet","line":2,"i_long":106.857948,"station_id":"TEB","i_lat":-6.226659,"distance":1230,"is_transit":false},{"is_transit":true,"i_lat":-6.209883,"transit":true,"line":0,"station_id":"MRI","time":4,"i_long":106.84912,"station_name":"Manggarai","distance":2610},{"time":4,"station_id":"CKI","station_name":"Cikini","is_transit":false,"line":0,"distance":1590,"i_lat":-6.198556,"i_long":106.840169,"transit":false},{"i_lat":-6.186295,"transit":false,"i_long":106.832183,"time":3,"line":2,"is_transit":false,"station_id":"GDD","station_name":"Gondangdia","distance":1750},{"distance":2015,"transit":false,"line":2,"time":4,"station_id":"JUA","station_name":"Juanda","i_long":106.828284,"is_transit":false,"i_lat":-6.166716},{"time":2,"station_name":"Sawah Besar","distance":1149,"line":2,"station_id":"SW","is_transit":false,"transit":false,"i_lat":-6.160725,"i_long":106.827103},{"station_id":"MGB","line":2,"station_name":"Manggabesar","is_transit":false,"transit":false,"time":2,"i_lat":-6.149769,"i_long":106.82482,"distance":906},{"is_transit":false,"distance":1080,"station_name":"Jayakarta","transit":false,"line":7,"station_id":"JAY","i_long":106.820901,"i_lat":-6.141205,"time":2},{"time":4,"station_id":"JAKK","i_long":106.812439,"i_lat":-6.137569,"transit":true,"is_transit":true,"line":0,"station_name":"Jakarta Kota","distance":1264},{"i_long":106.826365,"distance":1364,"time":3,"i_lat":-6.132549,"station_id":"KPB","station_name":"Kampung Bandan","is_transit":true,"line":0,"transit":false},{"distance":4102,"is_transit":false,"i_long":106.79867,"station_name":"Angke","i_lat":-6.144674,"station_id":"AK","transit":false,"line":0,"time":9},{"transit":true,"i_long":106.800832,"is_transit":true,"time":4,"i_lat":-6.155215,"distance":1230,"station_name":"Duri","line":1,"station_id":"DU"},{"i_lat":-6.185545,"time":8,"station_id":"THB","transit":true,"station_name":"Tanah Abang","i_long":106.811091,"line":1,"distance":3632,"is_transit":true},{"time":6,"transit":false,"station_id":"PLM","i_lat":-6.207404,"station_name":"Palmerah","is_transit":false,"i_long":106.79689,"line":6,"distance":3191},{"station_name":"Kebayoran","is_transit":false,"distance":3737,"station_id":"KBY","i_lat":-6.237242,"i_long":106.780334,"line":6,"transit":false,"time":7},{"line":6,"station_name":"Pondokranji","distance":6218,"station_id":"PDJ","is_transit":false,"i_lat":-6.276362,"transit":false,"time":8,"i_long":106.74273},{"distance":2179,"station_id":"JMU","station_name":"Jurangmangu","transit":false,"i_long":106.728916,"time":3,"i_lat":-6.288927,"line":6,"is_transit":false},{"distance":1994,"i_lat":-6.296963,"i_long":106.712277,"station_id":"SDM","station_name":"Sudimara","transit":false,"time":4,"is_transit":false,"line":6},{"station_id":"RU","distance":4566,"transit":false,"station_name":"Rawa Buntu","is_transit":false,"i_long":106.675475,"time":6,"line":6,"i_lat":-6.314823},{"station_id":"SRP","distance":2413,"i_lat":-6.319871,"station_name":"Serpong","line":6,"transit":false,"i_long":106.66566,"time":4,"is_transit":false},{"line":0,"i_lat":-6.32484,"i_long":106.640411,"is_transit":false,"time":4,"station_id":"CSK","station_name":"Cisauk","transit":false,"distance":1784}],[{"i_lat":-6.466285,"i_long":106.905196,"is_transit":false,"transit":false,"station_id":"NMO","time":0,"line":21,"distance":0,"station_name":"Nambo"},{"time":10,"station_id":"CBN","transit":false,"line":0,"station_name":"Cibinong","is_transit":false,"i_lat":-6.46424,"distance":6527,"i_long":106.851978},{"transit":false,"i_lat":-6.448811,"i_long":106.800298,"time":10,"line":1,"distance":6740,"is_transit":true,"station_name":"Citayam","station_id":"CTA"},{"is_transit":false,"distance":5084,"station_id":"DP","i_long":106.816926,"station_name":"Depok","i_lat":-6.405256,"line":0,"time":6,"transit":false},{"line":0,"time":3,"is_transit":false,"i_long":106.819451,"transit":false,"station_name":"Depokbaru","station_id":"DPB","distance":1584,"i_lat":-6.391065},{"i_long":106.831114,"transit":false,"station_name":"Pondok Cina","time":4,"distance":2727,"line":2,"i_lat":-6.369073,"is_transit":false,"station_id":"POC"},{"distance":1109,"station_id":"UI","time":2,"i_lat":-6.360749,"i_long":106.831474,"is_transit":false,"station_name":"Univ. Indonesia","transit":false,"line":2},{"is_transit":false,"i_lat":-6.339291,"station_name":"Univ. Pancasila","line":2,"i_long":106.834175,"distance":2264,"station_id":"UP","transit":false,"time":3},{"line":2,"i_lat":-6.330363,"is_transit":false,"station_name":"Lenteng Agung","station_id":"LNA","distance":1029,"i_long":106.832616,"time":2,"transit":false},{"station_name":"Tanjung Barat","transit":false,"station_id":"TNT","i_long":106.838896,"is_transit":false,"distance":2671,"time":3,"i_lat":-6.3080680000000005,"line":2},{"i_long":106.843999,"is_transit":false,"transit":false,"line":2,"time":4,"distance":2820,"station_id":"PSM","station_name":"Pasar Minggu","i_lat":-6.2842400000000005},{"transit":false,"i_lat":-6.263214,"distance":2380,"i_long":106.851577,"line":2,"station_id":"PSMB","is_transit":false,"time":2,"station_name":"Pasar Minggu Baru"},{"transit":false,"line":0,"i_long":106.85449,"distance":824,"time":2,"station_name":"Duren Kalibata","i_lat":-6.255332,"is_transit":false,"station_id":"DRN"},{"line":0,"time":3,"station_id":"CW","is_transit":false,"station_name":"Cawang","transit":false,"i_lat":-6.242512,"distance":1546,"i_long":106.856607},{"line":2,"time":2,"distance":1230,"station_id":"TEB","is_transit":false,"i_long":106.857948,"station_name":"Tebet","transit":false,"i_lat":-6.226659},{"station_name":"Manggarai","transit":true,"time":4,"station_id":"MRI","i_long":106.84912,"distance":2610,"is_transit":true,"i_lat":-6.209883,"line":0},{"transit":false,"i_long":106.858896,"station_name":"Matraman","station_id":"MTR","is_transit":false,"line":1,"i_lat":-6.212485,"time":2,"distance":1275},{"station_name":"Jatinegara","line":0,"distance":1377,"station_id":"JNG","is_transit":true,"time":8,"transit":true,"i_lat":-6.215091,"i_long":106.86807400000001},{"station_name":"Pondok Jati","line":11,"distance":1236,"i_long":106.861737,"station_id":"POK","i_lat":-6.209188,"transit":false,"is_transit":false,"time":2},{"station_name":"Kramat","is_transit":false,"line":11,"station_id":"KMT","i_lat":-6.193792,"i_long":106.855437,"time":2,"transit":false,"distance":1829},{"transit":false,"station_name":"Gang Sentiong","time":1,"i_long":106.850107,"line":11,"is_transit":false,"i_lat":-6.185975,"distance":973,"station_id":"GST"},{"distance":1567,"is_transit":false,"i_lat":-6.174784,"station_id":"PSE","line":11,"time":8,"i_long":106.84368,"transit":false,"station_name":"Pasar Senen"},{"transit":false,"station_name":"Kemayoran","distance":1436,"time":4,"line":11,"is_transit":false,"station_id":"KMO","i_lat":-6.161728,"i_long":106.839204},{"transit":false,"station_name":"Rajawali","station_id":"RJW","i_long":106.836569,"time":5,"line":11,"i_lat":-6.14505,"distance":1901,"is_transit":false},{"is_transit":true,"line":0,"i_long":106.826365,"i_lat":-6.132549,"station_id":"KPB","distance":1444,"transit":true,"station_name":"Kampung Bandan","time":3},{"line":0,"i_lat":-6.144674,"distance":4102,"station_name":"Angke","transit":false,"is_transit":false,"i_long":106.79867,"time":9,"station_id":"AK"},{"i_lat":-6.155215,"line":1,"station_name":"Duri","is_transit":true,"station_id":"DU","distance":1230,"transit":true,"i_long":106.800832,"time":4},{"line":1,"i_lat":-6.185545,"is_transit":true,"distance":3632,"i_long":106.811091,"station_name":"Tanah Abang","time":8,"transit":true,"station_id":"THB"},{"distance":3191,"i_lat":-6.207404,"station_id":"PLM","station_name":"Palmerah","is_transit":false,"i_long":106.79689,"transit":false,"line":6,"time":6},{"time":7,"transit":false,"station_name":"Kebayoran","i_long":106.780334,"is_transit":false,"i_lat":-6.237242,"distance":3737,"station_id":"KBY","line":6},{"time":8,"station_id":"PDJ","is_transit":false,"distance":6218,"transit":false,"i_lat":-6.276362,"station_name":"Pondokranji","i_long":106.74273,"line":6},{"line":6,"is_transit":false,"time":3,"distance":2179,"station_name":"Jurangmangu","i_lat":-6.288927,"transit":false,"station_id":"JMU","i_long":106.728916},{"i_lat":-6.296963,"transit":false,"is_transit":false,"distance":1994,"station_id":"SDM","station_name":"Sudimara","i_long":106.712277,"time":4,"line":6},{"line":6,"is_transit":false,"distance":4566,"transit":false,"time":6,"station_id":"RU","station_name":"Rawa Buntu","i_long":106.675475,"i_lat":-6.314823},{"time":4,"transit":false,"station_id":"SRP","i_long":106.66566,"is_transit":false,"i_lat":-6.319871,"distance":2413,"line":6,"station_name":"Serpong"},{"station_name":"Cisauk","i_long":106.640411,"time":4,"transit":false,"station_id":"CSK","line":0,"distance":1784,"i_lat":-6.32484,"is_transit":false}]]}