{"data":[[{"line":21,"station_name":"Nambo","transit":false,"i_long":106.905196,"station_id":"NMO","distance":0,"is_transit":false,"time":0,"i_lat":-6.466285},{"distance":6527,"line":21,"i_long":106.851978,"is_transit":false,"i_lat":-6.46424,"transit":false,"station_name":"Cibinong","station_id":"CBN","time":10},{"i_lat":-6.460735,"i_long":106.824374,"line":21,"station_id":"PDRG","station_name":"Pondok Rajeg","is_transit":false,"time":0,"transit":false,"distance":0},{"is_transit":true,"distance":0,"station_name":"Citayam","i_long":106.800298,"i_lat":-6.448811,"line":2,"transit":true,"station_id":"CTA","time":0},{"station_id":"DP","transit":false,"i_lat":-6.405256,"i_long":106.816926,"is_transit":false,"line":2,"station_name":"Depok","distance":5084,"time":6},{"transit":false,"i_lat":-6.391065,"is_transit":false,"line":2,"time":3,"station_name":"Depokbaru","distance":1584,"i_long":106.819451,"station_id":"DPB"},{"is_transit":false,"station_id":"POC","line":2,"i_long":106.831114,"station_name":"Pondok Cina","distance":2727,"i_lat":-6.369073,"transit":false,"time":4},{"distance":1109,"i_long":106.831474,"line":2,"i_lat":-6.360749,"transit":false,"station_id":"UI","is_transit":false,"time":2,"station_name":"Univ. Indonesia"},{"i_long":106.834175,"i_lat":-6.339291,"time":3,"distance":2264,"line":2,"transit":false,"station_id":"UP","is_transit":false,"station_name":"Univ. Pancasila"},{"i_lat":-6.330363,"i_long":106.832616,"transit":false,"station_id":"LNA","time":2,"line":2,"is_transit":false,"station_name":"Lenteng Agung","distance":1029},{"station_name":"Tanjung Barat","station_id":"TNT","transit":false,"time":3,"line":2,"distance":2671,"i_lat":-6.3080680000000005,"is_transit":false,"i_long":106.838896},{"is_transit":false,"station_id":"PSM","i_lat":-6.2842400000000005,"transit":false,"station_name":"Pasar Minggu","distance":2820,"time":4,"i_long":106.843999,"line":2},{"i_long":106.851577,"distance":2380,"station_id":"PSMB","time":2,"is_transit":false,"station_name":"Pasar Minggu Baru","line":2,"i_lat":-6.263214,"transit":false},{"station_name":"Duren Kalibata","is_transit":false,"distance":824,"line":2,"station_id":"DRN","i_lat":-6.255332,"i_long":106.85449,"time":2,"transit":false},{"line":2,"is_transit":false,"station_id":"CW","i_lat":-6.242512,"i_long":106.856607,"station_name":"Cawang","transit":false,"time":3,"distance":1546}]]}