{"data":[[{"station_name":"Nambo","line":21,"time":0,"distance":0,"station_id":"NMO","transit":false,"i_long":106.905196,"is_transit":false,"i_lat":-6.466285},{"time":10,"station_id":"CBN","i_long":106.851978,"transit":false,"i_lat":-6.46424,"is_transit":false,"line":0,"distance":6527,"station_name":"Cibinong"},{"is_transit":true,"station_name":"Citayam","line":1,"station_id":"CTA","distance":6740,"transit":false,"i_long":106.800298,"time":10,"i_lat":-6.448811},{"distance":5084,"time":6,"transit":false,"i_lat":-6.405256,"station_id":"DP","i_long":106.816926,"station_name":"Depok","line":0,"is_transit":false},{"time":3,"station_name":"Depokbaru","is_transit":false,"transit":false,"station_id":"DPB","line":0,"i_lat":-6.391065,"distance":1584,"i_long":106.819451},{"is_transit":false,"distance":2727,"i_lat":-6.369073,"time":4,"station_id":"POC","station_name":"Pondok Cina","i_long":106.831114,"transit":false,"line":2},{"is_transit":false,"station_name":"Univ. Indonesia","i_long":106.831474,"line":2,"i_lat":-6.360749,"time":2,"station_id":"UI","transit":false,"distance":1109},{"transit":false,"distance":2264,"station_id":"UP","station_name":"Univ. Pancasila","i_lat":-6.339291,"line":2,"i_long":106.834175,"is_transit":false,"time":3},{"distance":1029,"i_long":106.832616,"line":2,"transit":false,"station_id":"LNA","is_transit":false,"i_lat":-6.330363,"time":2,"station_name":"Lenteng Agung"},{"i_long":106.838896,"station_name":"Tanjung Barat","station_id":"TNT","is_transit":false,"time":3,"distance":2671,"transit":false,"i_lat":-6.3080680000000005,"line":2},{"transit":false,"i_lat":-6.2842400000000005,"distance":2820,"line":2,"station_id":"PSM","i_long":106.843999,"time":4,"is_transit":false,"station_name":"Pasar Minggu"},{"time":2,"distance":2380,"station_name":"Pasar Minggu Baru","line":2,"station_id":"PSMB","transit":false,"is_transit":false,"i_long":106.851577,"i_lat":-6.263214},{"line":0,"transit":false,"time":2,"is_transit":false,"i_long":106.85449,"station_id":"DRN","i_lat":-6.255332,"distance":824,"station_name":"Duren Kalibata"},{"station_name":"Cawang","i_long":106.856607,"time":3,"station_id":"CW","transit":false,"is_transit":false,"distance":1546,"line":0,"i_lat":-6.242512},{"station_id":"TEB","i_lat":-6.226659,"is_transit":false,"time":2,"transit":false,"distance":1230,"station_name":"Tebet","i_long":106.857948,"line":2},{"time":4,"transit":true,"is_transit":true,"distance":2610,"i_lat":-6.209883,"line":0,"station_name":"Manggarai","i_long":106.84912,"station_id":"MRI"},{"line":1,"transit":false,"is_transit":false,"i_long":106.822649,"station_id":"SUD","time":4,"distance":3186,"station_name":"Sudirman","i_lat":-6.202263},{"i_lat":-6.201433,"station_id":"SUDB","line":1,"transit":false,"station_name":"Sudirman Baru","time":1,"is_transit":false,"i_long":106.819881,"distance":280},{"i_lat":-6.20132,"line":1,"time":1,"is_transit":false,"i_long":106.816351,"transit":false,"station_name":"Karet","station_id":"KAT","distance":471},{"time":5,"i_long":106.811091,"line":1,"transit":false,"station_name":"Tanah Abang","distance":2029,"i_lat":-6.185545,"station_id":"THB","is_transit":true},{"transit":true,"is_transit":true,"i_lat":-6.155215,"i_long":106.800832,"distance":3632,"line":1,"time":8,"station_id":"DU","station_name":"Duri"},{"distance":1230,"i_lat":-6.144674,"station_name":"Angke","i_long":106.79867,"station_id":"AK","line":0,"transit":false,"is_transit":false,"time":4},{"i_long":106.826365,"transit":false,"time":9,"line":0,"station_id":"KPB","distance":4102,"is_transit":true,"station_name":"Kampung Bandan","i_lat":-6.132549}],[{"is_transit":false,"transit":false,"distance":0,"i_long":106.905196,"i_lat":-6.466285,"line":21,"time":0,"station_id":"NMO","station_name":"Nambo"},{"i_lat":-6.46424,"station_name":"Cibinong","line":0,"is_transit":false,"i_long":106.851978,"station_id":"CBN","distance":6527,"transit":false,"time":10},{"i_lat":-6.448811,"time":10,"transit":false,"line":1,"distance":6740,"i_long":106.800298,"station_id":"CTA","station_name":"Citayam","is_transit":true},{"i_long":106.816926,"i_lat":-6.405256,"station_id":"DP","distance":5084,"is_transit":false,"transit":false,"station_name":"Depok","line":0,"time":6},{"i_long":106.819451,"station_id":"DPB","i_lat":-6.391065,"line":0,"station_name":"Depokbaru","time":3,"transit":false,"is_transit":false,"distance":1584},{"line":2,"station_id":"POC","transit":false,"is_transit":false,"i_lat":-6.369073,"i_long":106.831114,"distance":2727,"time":4,"station_name":"Pondok Cina"},{"distance":1109,"i_lat":-6.360749,"station_id":"UI","transit":false,"station_name":"Univ. Indonesia","i_long":106.831474,"line":2,"is_transit":false,"time":2},{"i_long":106.834175,"time":3,"station_id":"UP","transit":false,"line":2,"i_lat":-6.339291,"is_transit":false,"distance":2264,"station_name":"Univ. Pancasila"},{"transit":false,"i_lat":-6.330363,"i_long":106.832616,"distance":1029,"station_name":"Lenteng Agung","line":2,"is_transit":false,"time":2,"station_id":"LNA"},{"station_id":"TNT","line":2,"transit":false,"time":3,"i_long":106.838896,"distance":2671,"is_transit":false,"station_name":"Tanjung Barat","i_lat":-6.3080680000000005},{"i_lat":-6.2842400000000005,"i_long":106.843999,"line":2,"time":4,"station_id":"PSM","is_transit":false,"transit":false,"station_name":"Pasar Minggu","distance":2820},{"transit":false,"is_transit":false,"i_long":106.851577,"station_id":"PSMB","time":2,"station_name":"Pasar Minggu Baru","i_lat":-6.263214,"line":2,"distance":2380},{"station_id":"DRN","time":2,"line":0,"is_transit":false,"station_name":"Duren Kalibata","distance":824,"i_long":106.85449,"i_lat":-6.255332,"transit":false},{"i_long":106.856607,"time":3,"distance":1546,"i_lat":-6.242512,"is_transit":false,"transit":false,"line":0,"station_name":"Cawang","station_id":"CW"},{"is_transit":false,"distance":1230,"station_id":"TEB","station_name":"Tebet","i_lat":-6.226659,"i_long":106.857948,"time":2,"line":2,"transit":false},{"station_id":"MRI","is_transit":true,"i_long":106.84912,"line":0,"time":4,"distance":2610,"station_name":"Manggarai","i_lat":-6.209883,"transit":true},{"station_id":"CKI","i_long":106.840169,"time":4,"distance":1590,"line":0,"i_lat":-6.198556,"transit":false,"station_name":"Cikini","is_transit":false},{"station_id":"GDD","transit":false,"i_lat":-6.186295,"i_long":106.832183,"is_transit":false,"line":2,"time":3,"distance":1750,"station_name":"Gondangdia"},{"station_id":"JUA","station_name":"Juanda","time":4,"i_lat":-6.166716,"distance":2015,"i_long":106.828284,"is_transit":false,"line":2,"transit":false},{"time":2,"transit":false,"station_name":"Sawah Besar","i_long":106.827103,"line":2,"station_id":"SW","i_lat":-6.160725,"is_transit":false,"distance":1149},{"station_id":"MGB","time":2,"distance":906,"transit":false,"line":2,"i_lat":-6.149769,"i_long":106.82482,"is_transit":false,"station_name":"Manggabesar"},{"i_long":106.820901,"station_name":"Jayakarta","transit":false,"distance":1080,"line":7,"time":2,"station_id":"JAY","is_transit":false,"i_lat":-6.141205},{"station_id":"JAKK","transit":true,"is_transit":true,"distance":1264,"i_lat":-6.137569,"line":0,"i_long":106.812439,"time":4,"station_name":"Jakarta Kota"},{"station_name":"Kampung Bandan","i_lat":-6.132549,"time":3,"station_id":"KPB","is_transit":true,"transit":false,"i_long":106.826365,"line":0,"distance":1364}],[{"time":0,"distance":0,"station_name":"Nambo","station_id":"NMO","is_transit":false,"transit":false,"i_lat":-6.466285,"i_long":106.905196,"line":21},{"transit":false,"station_name":"Cibinong","i_lat":-6.46424,"line":0,"i_long":106.851978,"time":10,"is_transit":false,"distance":6527,"station_id":"CBN"},{"station_id":"CTA","i_long":106.800298,"station_name":"Citayam","i_lat":-6.448811,"line":1,"transit":false,"is_transit":true,"distance":6740,"time":10},{"time":6,"station_id":"DP","station_name":"Depok","line":0,"transit":false,"is_transit":false,"i_lat":-6.405256,"distance":5084,"i_long":106.816926},{"i_lat":-6.391065,"transit":false,"distance":1584,"station_id":"DPB","line":0,"time":3,"i_long":106.819451,"is_transit":false,"station_name":"Depokbaru"},{"i_long":106.831114,"line":2,"is_transit":false,"time":4,"station_id":"POC","distance":2727,"station_name":"Pondok Cina","transit":false,"i_lat":-6.369073},{"line":2,"i_long":106.831474,"time":2,"is_transit":false,"station_name":"Univ. Indonesia","i_lat":-6.360749,"transit":false,"distance":1109,"station_id":"UI"},{"i_long":106.834175,"station_id":"UP","transit":false,"is_transit":false,"station_name":"Univ. Pancasila","i_lat":-6.339291,"time":3,"distance":2264,"line":2},{"is_transit":false,"distance":1029,"transit":false,"station_name":"Lenteng Agung","i_long":106.832616,"time":2,"line":2,"station_id":"LNA","i_lat":-6.330363},{"i_lat":-6.3080680000000005,"line":2,"transit":false,"station_id":"TNT","is_transit":false,"distance":2671,"station_name":"Tanjung Barat","i_long":106.838896,"time":3},{"time":4,"station_name":"Pasar Minggu","i_long":106.843999,"transit":false,"line":2,"i_lat":-6.2842400000000005,"station_id":"PSM","is_transit":false,"distance":2820},{"i_long":106.851577,"station_id":"PSMB","line":2,"time":2,"transit":false,"is_transit":false,"station_name":"Pasar Minggu Baru","i_lat":-6.263214,"distance":2380},{"station_name":"Duren Kalibata","transit":false,"is_transit":false,"station_id":"DRN","distance":824,"time":2,"i_lat":-6.255332,"line":0,"i_long":106.85449},{"distance":1546,"i_long":106.856607,"is_transit":false,"time":3,"station_id":"CW","transit":false,"i_lat":-6.242512,"station_name":"Cawang","line":0},{"line":2,"transit":false,"distance":1230,"station_name":"Tebet","is_transit":false,"time":2,"station_id":"TEB","i_lat":-6.226659,"i_long":106.857948},{"time":4,"station_name":"Manggarai","distance":2610,"line":0,"station_id":"MRI","i_lat":-6.209883,"transit":true,"is_transit":true,"i_long":106.84912},{"i_lat":-6.212485,"is_transit":false,"transit":false,"station_id":"MTR","station_name":"Matraman","line":1,"distance":1275,"i_long":106.858896,"time":2},{"distance":1377,"transit":true,"station_name":"Jatinegara","i_lat":-6.215091,"i_long":106.86807400000001,"line":0,"time":8,"station_id":"JNG","is_transit":true},{"distance":1236,"i_lat":-6.209188,"station_name":"Pondok Jati","time":2,"is_transit":false,"station_id":"POK","transit":false,"i_long":106.861737,"line":11},{"is_transit":false,"distance":1829,"station_name":"Kramat","i_long":106.855437,"transit":false,"i_lat":-6.193792,"line":11,"time":2,"station_id":"KMT"},{"time":1,"transit":false,"station_id":"GST","distance":973,"station_name":"Gang Sentiong","i_lat":-6.185975,"line":11,"i_long":106.850107,"is_transit":false},{"station_id":"PSE","is_transit":false,"line":11,"i_long":106.84368,"transit":false,"time":8,"distance":1567,"station_name":"Pasar Senen","i_lat":-6.174784},{"line":11,"i_lat":-6.161728,"transit":false,"station_name":"Kemayoran","is_transit":false,"i_long":106.839204,"time":4,"station_id":"KMO","distance":1436},{"i_long":106.836569,"distance":1901,"is_transit":false,"line":11,"station_id":"RJW","transit":false,"time":5,"station_name":"Rajawali","i_lat":-6.14505},{"distance":1444,"transit":false,"i_lat":-6.132549,"line":0,"time":3,"station_id":"KPB","station_name":"Kampung Bandan","i_long":106.826365,"is_transit":true}]]}