{"data":[[{"station_id":"NMO","transit":false,"station_name":"Nambo","time":0,"i_lat":-6.466285,"is_transit":false,"line":21,"i_long":106.905196,"distance":0},{"i_long":106.851978,"distance":6527,"time":10,"transit":false,"is_transit":false,"i_lat":-6.46424,"station_id":"CBN","station_name":"Cibinong","line":21},{"transit":false,"station_id":"PDRG","i_lat":-6.460735,"distance":0,"time":0,"line":21,"station_name":"Pondok Rajeg","is_transit":false,"i_long":106.824374},{"station_id":"CTA","transit":true,"line":2,"i_lat":-6.448811,"i_long":106.800298,"station_name":"Citayam","time":0,"distance":0,"is_transit":true},{"distance":5084,"station_id":"DP","i_long":106.816926,"station_name":"Depok","time":6,"i_lat":-6.405256,"transit":false,"is_transit":false,"line":2},{"i_long":106.819451,"transit":false,"distance":1584,"station_id":"DPB","time":3,"line":2,"station_name":"Depokbaru","is_transit":false,"i_lat":-6.391065},{"distance":2727,"station_id":"POC","i_long":106.831114,"station_name":"Pondok Cina","i_lat":-6.369073,"line":2,"is_transit":false,"transit":false,"time":4}]]}