{"data":[[{"line":21,"station_name":"Nambo","i_long":106.905196,"station_id":"NMO","distance":0,"time":0,"is_transit":false,"i_lat":-6.466285,"transit":false},{"distance":6527,"is_transit":false,"station_name":"Cibinong","i_long":106.851978,"time":10,"station_id":"CBN","line":21,"i_lat":-6.46424,"transit":false},{"is_transit":false,"i_long":106.824374,"line":21,"time":0,"station_id":"PDRG","distance":0,"station_name":"Pondok Rajeg","transit":false,"i_lat":-6.460735},{"transit":true,"station_name":"Citayam","time":0,"station_id":"CTA","i_lat":-6.448811,"is_transit":true,"distance":0,"i_long":106.800298,"line":2},{"time":6,"station_id":"DP","i_lat":-6.405256,"i_long":106.816926,"is_transit":false,"transit":false,"distance":5084,"station_name":"Depok","line":2},{"time":3,"transit":false,"distance":1584,"station_name":"Depokbaru","is_transit":false,"i_lat":-6.391065,"line":2,"i_long":106.819451,"station_id":"DPB"},{"i_long":106.831114,"distance":2727,"station_name":"Pondok Cina","station_id":"POC","i_lat":-6.369073,"time":4,"is_transit":false,"transit":false,"line":2},{"distance":1109,"time":2,"line":2,"transit":false,"station_id":"UI","i_lat":-6.360749,"i_long":106.831474,"is_transit":false,"station_name":"Univ. Indonesia"},{"distance":2264,"i_lat":-6.339291,"line":2,"station_name":"Univ. Pancasila","time":3,"is_transit":false,"station_id":"UP","i_long":106.834175,"transit":false},{"i_long":106.832616,"line":2,"is_transit":false,"time":2,"transit":false,"station_name":"Lenteng Agung","distance":1029,"station_id":"LNA","i_lat":-6.330363},{"station_name":"Tanjung Barat","is_transit":false,"line":2,"transit":false,"i_long":106.838896,"time":3,"distance":2671,"station_id":"TNT","i_lat":-6.3080680000000005},{"i_long":106.843999,"station_name":"Pasar Minggu","station_id":"PSM","line":2,"time":4,"transit":false,"distance":2820,"i_lat":-6.2842400000000005,"is_transit":false},{"i_long":106.851577,"station_name":"Pasar Minggu Baru","time":2,"station_id":"PSMB","i_lat":-6.263214,"line":2,"is_transit":false,"distance":2380,"transit":false},{"time":2,"distance":824,"transit":false,"i_lat":-6.255332,"is_transit":false,"i_long":106.85449,"station_name":"Duren Kalibata","line":2,"station_id":"DRN"},{"line":2,"is_transit":false,"station_id":"CW","i_long":106.856607,"distance":1546,"station_name":"Cawang","i_lat":-6.242512,"time":3,"transit":false},{"is_transit":false,"station_name":"Tebet","transit":false,"distance":1230,"station_id":"TEB","i_long":106.857948,"i_lat":-6.226659,"line":2,"time":2},{"time":4,"station_name":"Manggarai","i_long":106.84912,"station_id":"MRI","line":2,"is_transit":true,"transit":true,"i_lat":-6.209883,"distance":2610},{"is_transit":false,"distance":1275,"time":2,"transit":false,"i_lat":-6.212485,"station_id":"MTR","station_name":"Matraman","i_long":106.858896,"line":1},{"transit":false,"station_id":"JNG","time":8,"is_transit":false,"station_name":"Jatinegara","i_lat":-6.215091,"i_long":106.86807400000001,"line":1,"distance":1377}],[{"is_transit":false,"station_id":"NMO","distance":0,"transit":false,"time":0,"station_name":"Nambo","i_long":106.905196,"i_lat":-6.466285,"line":21},{"transit":false,"distance":6527,"is_transit":false,"i_lat":-6.46424,"i_long":106.851978,"station_id":"CBN","time":10,"station_name":"Cibinong","line":21},{"i_long":106.824374,"station_name":"Pondok Rajeg","station_id":"PDRG","distance":0,"i_lat":-6.460735,"transit":false,"is_transit":false,"time":0,"line":21},{"station_name":"Citayam","i_long":106.800298,"station_id":"CTA","time":0,"line":2,"transit":true,"is_transit":true,"distance":0,"i_lat":-6.448811},{"line":2,"is_transit":false,"station_name":"Depok","time":6,"station_id":"DP","i_lat":-6.405256,"transit":false,"i_long":106.816926,"distance":5084},{"line":2,"time":3,"station_id":"DPB","transit":false,"station_name":"Depokbaru","i_lat":-6.391065,"i_long":106.819451,"is_transit":false,"distance":1584},{"distance":2727,"time":4,"i_long":106.831114,"is_transit":false,"transit":false,"station_name":"Pondok Cina","i_lat":-6.369073,"line":2,"station_id":"POC"},{"distance":1109,"i_long":106.831474,"time":2,"i_lat":-6.360749,"line":2,"transit":false,"station_name":"Univ. Indonesia","is_transit":false,"station_id":"UI"},{"i_lat":-6.339291,"transit":false,"station_id":"UP","line":2,"is_transit":false,"time":3,"distance":2264,"station_name":"Univ. Pancasila","i_long":106.834175},{"time":2,"is_transit":false,"station_name":"Lenteng Agung","i_long":106.832616,"transit":false,"line":2,"station_id":"LNA","i_lat":-6.330363,"distance":1029},{"time":3,"i_long":106.838896,"is_transit":false,"station_id":"TNT","i_lat":-6.3080680000000005,"distance":2671,"transit":false,"station_name":"Tanjung Barat","line":2},{"time":4,"station_name":"Pasar Minggu","i_lat":-6.2842400000000005,"line":2,"distance":2820,"transit":false,"i_long":106.843999,"station_id":"PSM","is_transit":false},{"transit":false,"time":2,"i_long":106.851577,"is_transit":false,"i_lat":-6.263214,"line":2,"station_id":"PSMB","station_name":"Pasar Minggu Baru","distance":2380},{"station_name":"Duren Kalibata","station_id":"DRN","time":2,"line":2,"distance":824,"i_long":106.85449,"i_lat":-6.255332,"transit":false,"is_transit":false},{"transit":false,"time":3,"distance":1546,"station_name":"Cawang","is_transit":false,"i_long":106.856607,"station_id":"CW","i_lat":-6.242512,"line":2},{"i_long":106.857948,"is_transit":false,"station_id":"TEB","transit":false,"line":2,"distance":1230,"time":2,"i_lat":-6.226659,"station_name":"Tebet"},{"station_name":"Manggarai","i_lat":-6.209883,"i_long":106.84912,"transit":true,"is_transit":true,"time":4,"line":2,"station_id":"MRI","distance":2610},{"i_long":106.822649,"is_transit":false,"i_lat":-6.202263,"transit":false,"line":1,"distance":3186,"station_id":"SUD","station_name":"Sudirman","time":4},{"is_transit":false,"distance":280,"transit":false,"station_name":"Sudirman Baru","station_id":"SUDB","time":1,"i_long":106.819881,"line":1,"i_lat":-6.201433},{"station_id":"KAT","i_long":106.816351,"time":1,"line":1,"i_lat":-6.20132,"is_transit":false,"transit":false,"distance":471,"station_name":"Karet"},{"i_long":106.811091,"is_transit":false,"distance":2029,"station_id":"THB","time":5,"line":1,"transit":false,"station_name":"Tanah Abang","i_lat":-6.185545},{"i_lat":-6.155215,"transit":false,"distance":3632,"station_name":"Duri","line":1,"is_transit":false,"time":8,"station_id":"DU","i_long":106.800832},{"time":4,"station_name":"Angke","transit":false,"i_lat":-6.144674,"station_id":"AK","i_long":106.79867,"distance":1230,"line":1,"is_transit":false},{"transit":true,"is_transit":true,"i_lat":-6.132549,"time":9,"line":4,"station_name":"Kampung Bandan","station_id":"KPB","distance":4102,"i_long":106.826365},{"i_lat":-6.14505,"time":3,"is_transit":false,"station_name":"Rajawali","i_long":106.836569,"line":11,"transit":false,"distance":1444,"station_id":"RJW"},{"transit":false,"i_long":106.839204,"time":5,"is_transit":false,"station_name":"Kemayoran","distance":1901,"station_id":"KMO","line":11,"i_lat":-6.161728},{"time":4,"line":11,"i_long":106.84368,"station_name":"Pasar Senen","is_transit":false,"i_lat":-6.174784,"transit":false,"station_id":"PSE","distance":1436},{"station_name":"Gang Sentiong","i_long":106.850107,"station_id":"GST","is_transit":false,"line":11,"distance":1567,"time":8,"transit":false,"i_lat":-6.185975},{"station_name":"Kramat","i_lat":-6.193792,"station_id":"KMT","transit":false,"is_transit":false,"i_long":106.855437,"time":1,"distance":973,"line":11},{"is_transit":false,"distance":1829,"time":2,"station_id":"POK","line":11,"i_long":106.861737,"transit":false,"station_name":"Pondok Jati","i_lat":-6.209188},{"i_lat":-6.215091,"i_long":106.86807400000001,"is_transit":false,"station_id":"JNG","time":9,"station_name":"Jatinegara","distance":1236,"transit":false,"line":1}],[{"station_name":"Nambo","distance":0,"is_transit":false,"station_id":"NMO","time":0,"i_lat":-6.466285,"i_long":106.905196,"line":21,"transit":false},{"i_long":106.851978,"transit":false,"distance":6527,"station_id":"CBN","time":10,"line":21,"is_transit":false,"i_lat":-6.46424,"station_name":"Cibinong"},{"line":21,"distance":0,"station_name":"Pondok Rajeg","time":0,"i_lat":-6.460735,"transit":false,"station_id":"PDRG","i_long":106.824374,"is_transit":false},{"line":2,"distance":0,"transit":true,"i_long":106.800298,"station_name":"Citayam","station_id":"CTA","time":0,"is_transit":true,"i_lat":-6.448811},{"transit":false,"is_transit":false,"station_name":"Depok","i_long":106.816926,"time":6,"distance":5084,"i_lat":-6.405256,"station_id":"DP","line":2},{"is_transit":false,"station_name":"Depokbaru","i_lat":-6.391065,"station_id":"DPB","line":2,"time":3,"transit":false,"i_long":106.819451,"distance":1584},{"station_id":"POC","distance":2727,"i_lat":-6.369073,"time":4,"line":2,"is_transit":false,"transit":false,"station_name":"Pondok Cina","i_long":106.831114},{"station_name":"Univ. Indonesia","station_id":"UI","i_long":106.831474,"line":2,"is_transit":false,"time":2,"i_lat":-6.360749,"distance":1109,"transit":false},{"time":3,"station_id":"UP","i_lat":-6.339291,"is_transit":false,"distance":2264,"transit":false,"i_long":106.834175,"station_name":"Univ. Pancasila","line":2},{"time":2,"i_long":106.832616,"station_name":"Lenteng Agung","line":2,"station_id":"LNA","distance":1029,"i_lat":-6.330363,"transit":false,"is_transit":false},{"line":2,"station_id":"TNT","station_name":"Tanjung Barat","i_long":106.838896,"distance":2671,"transit":false,"i_lat":-6.3080680000000005,"time":3,"is_transit":false},{"is_transit":false,"station_name":"Pasar Minggu","time":4,"station_id":"PSM","i_lat":-6.2842400000000005,"line":2,"transit":false,"i_long":106.843999,"distance":2820},{"transit":false,"line":2,"station_name":"Pasar Minggu Baru","distance":2380,"time":2,"is_transit":false,"station_id":"PSMB","i_lat":-6.263214,"i_long":106.851577},{"transit":false,"is_transit":false,"line":2,"time":2,"distance":824,"i_lat":-6.255332,"i_long":106.85449,"station_id":"DRN","station_name":"Duren Kalibata"},{"i_lat":-6.242512,"is_transit":false,"i_long":106.856607,"line":2,"station_name":"Cawang","time":3,"transit":false,"station_id":"CW","distance":1546},{"i_lat":-6.226659,"station_id":"TEB","time":2,"line":2,"is_transit":false,"distance":1230,"station_name":"Tebet","i_long":106.857948,"transit":false},{"station_id":"MRI","i_lat":-6.209883,"station_name":"Manggarai","i_long":106.84912,"line":2,"transit":false,"is_transit":false,"time":4,"distance":2610},{"i_lat":-6.198556,"transit":false,"i_long":106.840169,"station_name":"Cikini","time":4,"is_transit":false,"distance":1590,"line":2,"station_id":"CKI"},{"i_lat":-6.186295,"station_name":"Gondangdia","time":3,"line":2,"distance":1750,"transit":false,"i_long":106.832183,"is_transit":false,"station_id":"GDD"},{"is_transit":false,"time":4,"i_lat":-6.166716,"station_name":"Juanda","i_long":106.828284,"line":2,"transit":false,"station_id":"JUA","distance":2015},{"line":2,"distance":1149,"i_long":106.827103,"station_name":"Sawah Besar","is_transit":false,"time":2,"i_lat":-6.160725,"transit":false,"station_id":"SW"},{"distance":906,"i_lat":-6.149769,"transit":false,"i_long":106.82482,"station_id":"MGB","line":2,"is_transit":false,"time":2,"station_name":"Manggabesar"},{"station_id":"JAY","transit":false,"distance":1080,"time":2,"station_name":"Jayakarta","i_lat":-6.141205,"is_transit":false,"i_long":106.820901,"line":2},{"i_long":106.812439,"time":4,"i_lat":-6.137569,"distance":1264,"station_name":"Jakarta Kota","line":2,"is_transit":true,"transit":true,"station_id":"JAKK"},{"line":4,"i_long":106.826365,"station_id":"KPB","station_name":"Kampung Bandan","transit":true,"i_lat":-6.132549,"time":3,"is_transit":true,"distance":1364},{"time":3,"i_long":106.836569,"station_id":"RJW","line":11,"is_transit":false,"i_lat":-6.14505,"station_name":"Rajawali","transit":false,"distance":1444},{"station_id":"KMO","is_transit":false,"line":11,"time":5,"distance":1901,"i_long":106.839204,"transit":false,"i_lat":-6.161728,"station_name":"Kemayoran"},{"transit":false,"station_name":"Pasar Senen","i_lat":-6.174784,"is_transit":false,"time":4,"station_id":"PSE","i_long":106.84368,"line":11,"distance":1436},{"station_name":"Gang Sentiong","time":8,"i_long":106.850107,"station_id":"GST","transit":false,"line":11,"distance":1567,"i_lat":-6.185975,"is_transit":false},{"i_long":106.855437,"time":1,"station_name":"Kramat","transit":false,"line":11,"i_lat":-6.193792,"distance":973,"is_transit":false,"station_id":"KMT"},{"station_id":"POK","is_transit":false,"i_lat":-6.209188,"station_name":"Pondok Jati","distance":1829,"transit":false,"i_long":106.861737,"line":11,"time":2},{"line":1,"i_long":106.86807400000001,"is_transit":false,"distance":1236,"station_id":"JNG","time":9,"i_lat":-6.215091,"station_name":"Jatinegara","transit":false}]]}