{"data":[[{"is_transit":false,"station_id":"NMO","transit":false,"i_lat":-6.466285,"distance":0,"line":21,"i_long":106.905196,"station_name":"Nambo","time":0},{"station_name":"Cibinong","is_transit":false,"i_lat":-6.46424,"time":10,"station_id":"CBN","line":21,"transit":false,"distance":6527,"i_long":106.851978},{"i_long":106.824374,"station_name":"Pondok Rajeg","distance":0,"time":0,"is_transit":false,"transit":false,"i_lat":-6.460735,"line":21,"station_id":"PDRG"},{"transit":true,"station_name":"Citayam","i_lat":-6.448811,"i_long":106.800298,"line":2,"station_id":"CTA","distance":0,"time":0,"is_transit":true},{"is_transit":false,"station_id":"DP","transit":false,"time":6,"i_long":106.816926,"station_name":"Depok","line":2,"distance":5084,"i_lat":-6.405256},{"station_id":"DPB","i_lat":-6.391065,"line":2,"station_name":"Depokbaru","time":3,"transit":false,"is_transit":false,"distance":1584,"i_long":106.819451},{"station_name":"Pondok Cina","station_id":"POC","i_long":106.831114,"i_lat":-6.369073,"is_transit":false,"transit":false,"time":4,"line":2,"distance":2727},{"station_id":"UI","i_long":106.831474,"line":2,"transit":false,"i_lat":-6.360749,"station_name":"Univ. Indonesia","distance":1109,"time":2,"is_transit":false},{"station_name":"Univ. Pancasila","i_lat":-6.339291,"station_id":"UP","is_transit":false,"distance":2264,"transit":false,"time":3,"i_long":106.834175,"line":2},{"i_lat":-6.330363,"station_name":"Lenteng Agung","transit":false,"line":2,"is_transit":false,"distance":1029,"i_long":106.832616,"time":2,"station_id":"LNA"},{"line":2,"transit":false,"time":3,"station_name":"Tanjung Barat","station_id":"TNT","i_lat":-6.3080680000000005,"distance":2671,"is_transit":false,"i_long":106.838896},{"station_name":"Pasar Minggu","transit":false,"time":4,"station_id":"PSM","i_lat":-6.2842400000000005,"i_long":106.843999,"distance":2820,"line":2,"is_transit":false},{"is_transit":false,"time":2,"transit":false,"i_long":106.851577,"distance":2380,"line":2,"i_lat":-6.263214,"station_id":"PSMB","station_name":"Pasar Minggu Baru"},{"transit":false,"is_transit":false,"time":2,"distance":824,"station_id":"DRN","i_lat":-6.255332,"i_long":106.85449,"station_name":"Duren Kalibata","line":2},{"transit":false,"station_id":"CW","i_long":106.856607,"time":3,"line":2,"i_lat":-6.242512,"is_transit":false,"station_name":"Cawang","distance":1546},{"time":2,"is_transit":false,"transit":false,"i_long":106.857948,"line":2,"distance":1230,"i_lat":-6.226659,"station_id":"TEB","station_name":"Tebet"},{"i_lat":-6.209883,"station_name":"Manggarai","time":4,"transit":false,"distance":2610,"line":2,"i_long":106.84912,"station_id":"MRI","is_transit":false},{"distance":1590,"station_id":"CKI","transit":false,"i_long":106.840169,"time":4,"i_lat":-6.198556,"station_name":"Cikini","line":2,"is_transit":false}],[{"distance":0,"line":21,"is_transit":false,"time":0,"i_lat":-6.466285,"station_name":"Nambo","transit":false,"station_id":"NMO","i_long":106.905196},{"line":21,"distance":6527,"time":10,"transit":false,"i_long":106.851978,"i_lat":-6.46424,"station_id":"CBN","is_transit":false,"station_name":"Cibinong"},{"is_transit":false,"distance":0,"line":21,"time":0,"station_name":"Pondok Rajeg","transit":false,"station_id":"PDRG","i_lat":-6.460735,"i_long":106.824374},{"station_id":"CTA","transit":true,"distance":0,"i_long":106.800298,"time":0,"station_name":"Citayam","i_lat":-6.448811,"line":2,"is_transit":true},{"is_transit":false,"transit":false,"station_id":"DP","i_long":106.816926,"time":6,"distance":5084,"line":2,"i_lat":-6.405256,"station_name":"Depok"},{"i_long":106.819451,"i_lat":-6.391065,"is_transit":false,"time":3,"station_name":"Depokbaru","transit":false,"distance":1584,"station_id":"DPB","line":2},{"station_id":"POC","time":4,"i_long":106.831114,"line":2,"transit":false,"station_name":"Pondok Cina","i_lat":-6.369073,"is_transit":false,"distance":2727},{"i_long":106.831474,"line":2,"time":2,"station_name":"Univ. Indonesia","station_id":"UI","i_lat":-6.360749,"is_transit":false,"distance":1109,"transit":false},{"line":2,"distance":2264,"station_id":"UP","i_lat":-6.339291,"transit":false,"i_long":106.834175,"time":3,"station_name":"Univ. Pancasila","is_transit":false},{"transit":false,"i_lat":-6.330363,"is_transit":false,"time":2,"station_id":"LNA","i_long":106.832616,"line":2,"station_name":"Lenteng Agung","distance":1029},{"station_id":"TNT","transit":false,"is_transit":false,"station_name":"Tanjung Barat","distance":2671,"i_long":106.838896,"time":3,"i_lat":-6.3080680000000005,"line":2},{"distance":2820,"is_transit":false,"station_name":"Pasar Minggu","transit":false,"time":4,"i_lat":-6.2842400000000005,"line":2,"station_id":"PSM","i_long":106.843999},{"line":2,"is_transit":false,"distance":2380,"time":2,"transit":false,"station_name":"Pasar Minggu Baru","station_id":"PSMB","i_long":106.851577,"i_lat":-6.263214},{"i_long":106.85449,"distance":824,"line":2,"is_transit":false,"i_lat":-6.255332,"transit":false,"time":2,"station_name":"Duren Kalibata","station_id":"DRN"},{"transit":false,"i_lat":-6.242512,"time":3,"distance":1546,"line":2,"is_transit":false,"station_id":"CW","i_long":106.856607,"station_name":"Cawang"},{"transit":false,"i_lat":-6.226659,"station_id":"TEB","distance":1230,"i_long":106.857948,"station_name":"Tebet","line":2,"time":2,"is_transit":false},{"transit":true,"distance":2610,"i_lat":-6.209883,"is_transit":true,"station_id":"MRI","time":4,"station_name":"Manggarai","i_long":106.84912,"line":2},{"i_lat":-6.202263,"i_long":106.822649,"is_transit":false,"line":1,"station_name":"Sudirman","distance":3186,"transit":false,"time":4,"station_id":"SUD"},{"is_transit":false,"time":1,"i_lat":-6.201433,"i_long":106.819881,"transit":false,"station_name":"Sudirman Baru","distance":280,"line":1,"station_id":"SUDB"},{"station_id":"KAT","line":1,"i_long":106.816351,"time":1,"i_lat":-6.20132,"distance":471,"is_transit":false,"station_name":"Karet","transit":false},{"time":5,"i_lat":-6.185545,"station_id":"THB","i_long":106.811091,"line":1,"distance":2029,"transit":false,"is_transit":false,"station_name":"Tanah Abang"},{"station_name":"Duri","line":1,"is_transit":false,"time":8,"i_long":106.800832,"transit":false,"i_lat":-6.155215,"station_id":"DU","distance":3632},{"station_name":"Angke","transit":false,"i_long":106.79867,"i_lat":-6.144674,"station_id":"AK","time":4,"line":1,"distance":1230,"is_transit":false},{"station_id":"KPB","i_lat":-6.132549,"transit":true,"station_name":"Kampung Bandan","i_long":106.826365,"distance":4102,"line":4,"is_transit":true,"time":9},{"distance":1364,"is_transit":true,"line":2,"transit":true,"i_lat":-6.137569,"time":3,"station_id":"JAKK","i_long":106.812439,"station_name":"Jakarta Kota"},{"i_lat":-6.141205,"i_long":106.820901,"line":2,"is_transit":false,"station_name":"Jayakarta","transit":false,"time":4,"distance":1264,"station_id":"JAY"},{"line":2,"i_lat":-6.149769,"station_name":"Manggabesar","is_transit":false,"station_id":"MGB","distance":1080,"transit":false,"i_long":106.82482,"time":2},{"distance":906,"station_name":"Sawah Besar","line":2,"i_long":106.827103,"transit":false,"is_transit":false,"time":2,"station_id":"SW","i_lat":-6.160725},{"time":2,"line":2,"transit":false,"i_lat":-6.166716,"is_transit":false,"distance":1149,"i_long":106.828284,"station_name":"Juanda","station_id":"JUA"},{"distance":2015,"i_long":106.832183,"i_lat":-6.186295,"line":2,"transit":false,"station_id":"GDD","station_name":"Gondangdia","is_transit":false,"time":4},{"transit":false,"station_name":"Cikini","time":3,"station_id":"CKI","is_transit":false,"line":2,"i_long":106.840169,"distance":1750,"i_lat":-6.198556}],[{"i_lat":-6.466285,"station_name":"Nambo","transit":false,"time":0,"is_transit":false,"distance":0,"line":21,"i_long":106.905196,"station_id":"NMO"},{"is_transit":false,"i_lat":-6.46424,"time":10,"station_name":"Cibinong","distance":6527,"station_id":"CBN","i_long":106.851978,"transit":false,"line":21},{"time":0,"station_id":"PDRG","i_long":106.824374,"station_name":"Pondok Rajeg","is_transit":false,"transit":false,"i_lat":-6.460735,"line":21,"distance":0},{"station_id":"CTA","i_long":106.800298,"time":0,"station_name":"Citayam","is_transit":true,"transit":true,"i_lat":-6.448811,"line":2,"distance":0},{"station_id":"DP","station_name":"Depok","transit":false,"time":6,"i_lat":-6.405256,"line":2,"distance":5084,"is_transit":false,"i_long":106.816926},{"i_long":106.819451,"transit":false,"time":3,"is_transit":false,"i_lat":-6.391065,"station_name":"Depokbaru","distance":1584,"station_id":"DPB","line":2},{"transit":false,"station_id":"POC","i_long":106.831114,"is_transit":false,"station_name":"Pondok Cina","time":4,"i_lat":-6.369073,"distance":2727,"line":2},{"distance":1109,"transit":false,"is_transit":false,"station_name":"Univ. Indonesia","line":2,"time":2,"i_lat":-6.360749,"i_long":106.831474,"station_id":"UI"},{"time":3,"line":2,"i_lat":-6.339291,"is_transit":false,"station_name":"Univ. Pancasila","station_id":"UP","transit":false,"i_long":106.834175,"distance":2264},{"station_name":"Lenteng Agung","time":2,"i_lat":-6.330363,"is_transit":false,"distance":1029,"station_id":"LNA","transit":false,"i_long":106.832616,"line":2},{"station_name":"Tanjung Barat","transit":false,"time":3,"distance":2671,"i_lat":-6.3080680000000005,"i_long":106.838896,"is_transit":false,"station_id":"TNT","line":2},{"line":2,"station_name":"Pasar Minggu","time":4,"transit":false,"i_lat":-6.2842400000000005,"station_id":"PSM","is_transit":false,"distance":2820,"i_long":106.843999},{"distance":2380,"time":2,"station_id":"PSMB","transit":false,"i_lat":-6.263214,"i_long":106.851577,"line":2,"station_name":"Pasar Minggu Baru","is_transit":false},{"transit":false,"station_id":"DRN","i_lat":-6.255332,"i_long":106.85449,"line":2,"station_name":"Duren Kalibata","is_transit":false,"time":2,"distance":824},{"i_long":106.856607,"station_name":"Cawang","station_id":"CW","i_lat":-6.242512,"line":2,"distance":1546,"time":3,"is_transit":false,"transit":false},{"i_lat":-6.226659,"i_long":106.857948,"station_name":"Tebet","transit":false,"time":2,"distance":1230,"line":2,"station_id":"TEB","is_transit":false},{"station_id":"MRI","i_lat":-6.209883,"time":4,"is_transit":true,"line":2,"distance":2610,"station_name":"Manggarai","i_long":106.84912,"transit":true},{"distance":1275,"i_lat":-6.212485,"i_long":106.858896,"transit":false,"station_name":"Matraman","time":2,"line":1,"is_transit":false,"station_id":"MTR"},{"distance":1377,"i_lat":-6.215091,"line":1,"transit":true,"i_long":106.86807400000001,"station_name":"Jatinegara","station_id":"JNG","time":8,"is_transit":true},{"distance":1236,"station_name":"Pondok Jati","time":2,"is_transit":false,"transit":false,"i_lat":-6.209188,"station_id":"POK","i_long":106.861737,"line":11},{"station_name":"Kramat","is_transit":false,"transit":false,"time":2,"station_id":"KMT","i_long":106.855437,"distance":1829,"i_lat":-6.193792,"line":11},{"distance":973,"station_id":"GST","is_transit":false,"transit":false,"station_name":"Gang Sentiong","i_long":106.850107,"time":1,"i_lat":-6.185975,"line":11},{"is_transit":false,"time":8,"transit":false,"distance":1567,"i_lat":-6.174784,"line":11,"station_id":"PSE","station_name":"Pasar Senen","i_long":106.84368},{"station_id":"KMO","transit":false,"distance":1436,"i_long":106.839204,"station_name":"Kemayoran","time":4,"is_transit":false,"i_lat":-6.161728,"line":11},{"i_long":106.836569,"line":11,"time":5,"station_id":"RJW","distance":1901,"i_lat":-6.14505,"is_transit":false,"station_name":"Rajawali","transit":false},{"transit":true,"line":4,"i_lat":-6.132549,"time":3,"distance":1444,"station_id":"KPB","station_name":"Kampung Bandan","is_transit":true,"i_long":106.826365},{"is_transit":true,"i_lat":-6.137569,"station_id":"JAKK","i_long":106.812439,"transit":true,"distance":1364,"line":2,"time":3,"station_name":"Jakarta Kota"},{"i_lat":-6.141205,"i_long":106.820901,"line":2,"distance":1264,"time":4,"transit":false,"is_transit":false,"station_id":"JAY","station_name":"Jayakarta"},{"transit":false,"distance":1080,"station_name":"Manggabesar","station_id":"MGB","line":2,"i_long":106.82482,"time":2,"i_lat":-6.149769,"is_transit":false},{"is_transit":false,"station_name":"Sawah Besar","time":2,"line":2,"distance":906,"station_id":"SW","i_lat":-6.160725,"i_long":106.827103,"transit":false},{"i_lat":-6.166716,"transit":false,"is_transit":false,"i_long":106.828284,"time":2,"station_name":"Juanda","line":2,"distance":1149,"station_id":"JUA"},{"is_transit":false,"transit":false,"i_lat":-6.186295,"time":4,"line":2,"station_name":"Gondangdia","i_long":106.832183,"distance":2015,"station_id":"GDD"},{"i_lat":-6.198556,"line":2,"station_id":"CKI","is_transit":false,"station_name":"Cikini","transit":false,"time":3,"distance":1750,"i_long":106.840169}]]}