{"data":[[{"station_name":"Nambo","station_id":"NMO","time":0,"transit":false,"is_transit":false,"line":21,"i_long":106.905196,"distance":0,"i_lat":-6.466285},{"is_transit":false,"line":21,"time":10,"station_name":"Cibinong","transit":false,"i_lat":-6.46424,"i_long":106.851978,"distance":6527,"station_id":"CBN"},{"transit":false,"i_long":106.824374,"station_name":"Pondok Rajeg","time":0,"line":21,"i_lat":-6.460735,"station_id":"PDRG","distance":0,"is_transit":false},{"is_transit":true,"time":0,"i_lat":-6.448811,"station_id":"CTA","distance":0,"station_name":"Citayam","i_long":106.800298,"transit":true,"line":2},{"i_long":106.816926,"transit":false,"station_id":"DP","time":6,"is_transit":false,"distance":5084,"i_lat":-6.405256,"station_name":"Depok","line":2},{"distance":1584,"is_transit":false,"transit":false,"station_name":"Depokbaru","time":3,"line":2,"i_long":106.819451,"station_id":"DPB","i_lat":-6.391065},{"line":2,"station_name":"Pondok Cina","i_lat":-6.369073,"transit":false,"i_long":106.831114,"station_id":"POC","time":4,"distance":2727,"is_transit":false},{"i_lat":-6.360749,"station_name":"Univ. Indonesia","distance":1109,"i_long":106.831474,"line":2,"time":2,"transit":false,"is_transit":false,"station_id":"UI"},{"transit":false,"distance":2264,"line":2,"i_lat":-6.339291,"i_long":106.834175,"station_name":"Univ. Pancasila","station_id":"UP","time":3,"is_transit":false},{"line":2,"station_name":"Lenteng Agung","is_transit":false,"distance":1029,"station_id":"LNA","i_lat":-6.330363,"time":2,"transit":false,"i_long":106.832616},{"is_transit":false,"i_long":106.838896,"time":3,"transit":false,"line":2,"i_lat":-6.3080680000000005,"distance":2671,"station_name":"Tanjung Barat","station_id":"TNT"},{"station_name":"Pasar Minggu","line":2,"i_lat":-6.2842400000000005,"i_long":106.843999,"station_id":"PSM","transit":false,"distance":2820,"is_transit":false,"time":4},{"line":2,"station_name":"Pasar Minggu Baru","time":2,"distance":2380,"i_long":106.851577,"is_transit":false,"i_lat":-6.263214,"station_id":"PSMB","transit":false},{"i_long":106.85449,"line":2,"station_name":"Duren Kalibata","transit":false,"station_id":"DRN","time":2,"distance":824,"is_transit":false,"i_lat":-6.255332},{"distance":1546,"time":3,"transit":false,"i_long":106.856607,"i_lat":-6.242512,"line":2,"station_id":"CW","station_name":"Cawang","is_transit":false},{"station_id":"TEB","transit":false,"distance":1230,"line":2,"is_transit":false,"i_lat":-6.226659,"station_name":"Tebet","i_long":106.857948,"time":2},{"station_id":"MRI","station_name":"Manggarai","i_lat":-6.209883,"i_long":106.84912,"time":4,"distance":2610,"line":2,"transit":true,"is_transit":true},{"i_long":106.822649,"line":1,"time":4,"is_transit":false,"distance":3186,"transit":false,"station_name":"Sudirman","i_lat":-6.202263,"station_id":"SUD"},{"station_id":"SUDB","distance":280,"is_transit":false,"station_name":"Sudirman Baru","transit":false,"time":1,"line":1,"i_long":106.819881,"i_lat":-6.201433},{"is_transit":false,"i_lat":-6.20132,"i_long":106.816351,"station_id":"KAT","station_name":"Karet","time":1,"transit":false,"distance":471,"line":1},{"station_id":"THB","time":5,"distance":2029,"is_transit":true,"i_lat":-6.185545,"line":1,"station_name":"Tanah Abang","i_long":106.811091,"transit":true},{"station_id":"PLM","time":6,"station_name":"Palmerah","is_transit":false,"transit":false,"i_long":106.79689,"i_lat":-6.207404,"distance":3191,"line":6},{"i_lat":-6.237242,"line":6,"time":7,"station_id":"KBY","station_name":"Kebayoran","transit":false,"distance":3737,"is_transit":false,"i_long":106.780334}],[{"line":21,"station_name":"Nambo","time":0,"i_lat":-6.466285,"i_long":106.905196,"transit":false,"distance":0,"station_id":"NMO","is_transit":false},{"distance":6527,"i_long":106.851978,"time":10,"station_id":"CBN","line":21,"transit":false,"i_lat":-6.46424,"station_name":"Cibinong","is_transit":false},{"is_transit":false,"station_name":"Pondok Rajeg","time":0,"distance":0,"transit":false,"station_id":"PDRG","line":21,"i_long":106.824374,"i_lat":-6.460735},{"time":0,"line":2,"distance":0,"i_long":106.800298,"station_id":"CTA","transit":true,"i_lat":-6.448811,"is_transit":true,"station_name":"Citayam"},{"i_long":106.816926,"station_id":"DP","is_transit":false,"i_lat":-6.405256,"line":2,"station_name":"Depok","distance":5084,"time":6,"transit":false},{"i_long":106.819451,"time":3,"i_lat":-6.391065,"line":2,"is_transit":false,"transit":false,"station_id":"DPB","station_name":"Depokbaru","distance":1584},{"station_id":"POC","transit":false,"time":4,"i_long":106.831114,"line":2,"i_lat":-6.369073,"is_transit":false,"distance":2727,"station_name":"Pondok Cina"},{"i_lat":-6.360749,"i_long":106.831474,"station_id":"UI","time":2,"line":2,"transit":false,"distance":1109,"is_transit":false,"station_name":"Univ. Indonesia"},{"station_id":"UP","time":3,"transit":false,"distance":2264,"line":2,"is_transit":false,"i_lat":-6.339291,"station_name":"Univ. Pancasila","i_long":106.834175},{"transit":false,"distance":1029,"station_id":"LNA","i_lat":-6.330363,"i_long":106.832616,"line":2,"is_transit":false,"time":2,"station_name":"Lenteng Agung"},{"station_name":"Tanjung Barat","line":2,"station_id":"TNT","i_long":106.838896,"distance":2671,"transit":false,"time":3,"is_transit":false,"i_lat":-6.3080680000000005},{"time":4,"station_name":"Pasar Minggu","transit":false,"i_lat":-6.2842400000000005,"line":2,"is_transit":false,"distance":2820,"station_id":"PSM","i_long":106.843999},{"i_lat":-6.263214,"station_id":"PSMB","transit":false,"station_name":"Pasar Minggu Baru","time":2,"distance":2380,"line":2,"is_transit":false,"i_long":106.851577},{"i_lat":-6.255332,"transit":false,"station_id":"DRN","line":2,"station_name":"Duren Kalibata","time":2,"is_transit":false,"i_long":106.85449,"distance":824},{"transit":false,"time":3,"station_name":"Cawang","i_lat":-6.242512,"line":2,"i_long":106.856607,"distance":1546,"station_id":"CW","is_transit":false},{"time":2,"distance":1230,"line":2,"transit":false,"station_name":"Tebet","i_long":106.857948,"station_id":"TEB","i_lat":-6.226659,"is_transit":false},{"time":4,"is_transit":false,"i_lat":-6.209883,"i_long":106.84912,"line":2,"transit":false,"station_id":"MRI","station_name":"Manggarai","distance":2610},{"i_long":106.840169,"time":4,"station_name":"Cikini","station_id":"CKI","is_transit":false,"line":2,"distance":1590,"transit":false,"i_lat":-6.198556},{"is_transit":false,"i_lat":-6.186295,"transit":false,"line":2,"station_id":"GDD","station_name":"Gondangdia","distance":1750,"time":3,"i_long":106.832183},{"line":2,"station_name":"Juanda","i_lat":-6.166716,"station_id":"JUA","distance":2015,"is_transit":false,"transit":false,"time":4,"i_long":106.828284},{"line":2,"time":2,"i_lat":-6.160725,"station_id":"SW","station_name":"Sawah Besar","is_transit":false,"i_long":106.827103,"distance":1149,"transit":false},{"distance":906,"i_long":106.82482,"is_transit":false,"i_lat":-6.149769,"station_name":"Manggabesar","station_id":"MGB","line":2,"time":2,"transit":false},{"transit":false,"time":2,"i_long":106.820901,"is_transit":false,"station_name":"Jayakarta","i_lat":-6.141205,"station_id":"JAY","distance":1080,"line":2},{"distance":1264,"is_transit":true,"transit":true,"time":4,"i_lat":-6.137569,"station_name":"Jakarta Kota","i_long":106.812439,"line":2,"station_id":"JAKK"},{"station_name":"Kampung Bandan","transit":true,"time":3,"distance":1364,"station_id":"KPB","is_transit":true,"i_long":106.826365,"line":4,"i_lat":-6.132549},{"i_lat":-6.144674,"line":1,"distance":4102,"transit":false,"is_transit":false,"time":9,"i_long":106.79867,"station_name":"Angke","station_id":"AK"},{"station_name":"Duri","distance":1230,"station_id":"DU","transit":false,"line":1,"i_long":106.800832,"time":4,"is_transit":false,"i_lat":-6.155215},{"i_long":106.811091,"distance":3632,"transit":true,"line":1,"i_lat":-6.185545,"time":8,"is_transit":true,"station_id":"THB","station_name":"Tanah Abang"},{"time":6,"station_name":"Palmerah","is_transit":false,"i_lat":-6.207404,"distance":3191,"line":6,"transit":false,"station_id":"PLM","i_long":106.79689},{"station_name":"Kebayoran","i_long":106.780334,"time":7,"transit":false,"distance":3737,"station_id":"KBY","line":6,"is_transit":false,"i_lat":-6.237242}],[{"station_name":"Nambo","i_lat":-6.466285,"distance":0,"is_transit":false,"station_id":"NMO","transit":false,"time":0,"i_long":106.905196,"line":21},{"time":10,"i_lat":-6.46424,"transit":false,"i_long":106.851978,"line":21,"distance":6527,"station_id":"CBN","station_name":"Cibinong","is_transit":false},{"is_transit":false,"station_name":"Pondok Rajeg","transit":false,"line":21,"time":0,"i_long":106.824374,"distance":0,"i_lat":-6.460735,"station_id":"PDRG"},{"i_long":106.800298,"transit":true,"is_transit":true,"time":0,"distance":0,"station_id":"CTA","station_name":"Citayam","line":2,"i_lat":-6.448811},{"time":6,"i_lat":-6.405256,"distance":5084,"line":2,"station_id":"DP","transit":false,"station_name":"Depok","i_long":106.816926,"is_transit":false},{"station_name":"Depokbaru","i_long":106.819451,"distance":1584,"time":3,"line":2,"is_transit":false,"station_id":"DPB","transit":false,"i_lat":-6.391065},{"i_lat":-6.369073,"distance":2727,"is_transit":false,"transit":false,"i_long":106.831114,"station_id":"POC","station_name":"Pondok Cina","line":2,"time":4},{"i_long":106.831474,"line":2,"station_id":"UI","distance":1109,"i_lat":-6.360749,"transit":false,"is_transit":false,"station_name":"Univ. Indonesia","time":2},{"distance":2264,"i_lat":-6.339291,"time":3,"station_id":"UP","i_long":106.834175,"line":2,"station_name":"Univ. Pancasila","is_transit":false,"transit":false},{"line":2,"station_name":"Lenteng Agung","station_id":"LNA","i_long":106.832616,"time":2,"is_transit":false,"distance":1029,"i_lat":-6.330363,"transit":false},{"time":3,"station_id":"TNT","distance":2671,"is_transit":false,"station_name":"Tanjung Barat","line":2,"i_lat":-6.3080680000000005,"transit":false,"i_long":106.838896},{"i_long":106.843999,"distance":2820,"line":2,"is_transit":false,"i_lat":-6.2842400000000005,"station_id":"PSM","station_name":"Pasar Minggu","transit":false,"time":4},{"transit":false,"time":2,"i_lat":-6.263214,"distance":2380,"is_transit":false,"line":2,"i_long":106.851577,"station_name":"Pasar Minggu Baru","station_id":"PSMB"},{"transit":false,"is_transit":false,"i_lat":-6.255332,"time":2,"distance":824,"station_id":"DRN","station_name":"Duren Kalibata","line":2,"i_long":106.85449},{"i_lat":-6.242512,"distance":1546,"i_long":106.856607,"line":2,"station_id":"CW","time":3,"is_transit":false,"transit":false,"station_name":"Cawang"},{"i_lat":-6.226659,"station_name":"Tebet","line":2,"is_transit":false,"station_id":"TEB","i_long":106.857948,"distance":1230,"transit":false,"time":2},{"station_id":"MRI","time":4,"is_transit":true,"station_name":"Manggarai","i_lat":-6.209883,"distance":2610,"i_long":106.84912,"line":2,"transit":true},{"transit":false,"line":1,"station_name":"Matraman","is_transit":false,"i_lat":-6.212485,"station_id":"MTR","time":2,"i_long":106.858896,"distance":1275},{"is_transit":true,"i_lat":-6.215091,"i_long":106.86807400000001,"line":1,"station_id":"JNG","time":8,"transit":true,"station_name":"Jatinegara","distance":1377},{"time":2,"i_lat":-6.209188,"distance":1236,"line":11,"station_id":"POK","is_transit":false,"transit":false,"station_name":"Pondok Jati","i_long":106.861737},{"transit":false,"is_transit":false,"line":11,"station_name":"Kramat","distance":1829,"station_id":"KMT","i_lat":-6.193792,"i_long":106.855437,"time":2},{"station_name":"Gang Sentiong","line":11,"transit":false,"i_long":106.850107,"distance":973,"station_id":"GST","time":1,"is_transit":false,"i_lat":-6.185975},{"i_lat":-6.174784,"time":8,"station_name":"Pasar Senen","is_transit":false,"station_id":"PSE","i_long":106.84368,"distance":1567,"line":11,"transit":false},{"i_long":106.839204,"station_id":"KMO","transit":false,"time":4,"is_transit":false,"line":11,"station_name":"Kemayoran","i_lat":-6.161728,"distance":1436},{"transit":false,"station_name":"Rajawali","is_transit":false,"time":5,"i_long":106.836569,"distance":1901,"line":11,"station_id":"RJW","i_lat":-6.14505},{"is_transit":true,"transit":true,"distance":1444,"i_lat":-6.132549,"time":3,"line":4,"station_id":"KPB","station_name":"Kampung Bandan","i_long":106.826365},{"time":9,"station_id":"AK","i_long":106.79867,"station_name":"Angke","transit":false,"distance":4102,"line":1,"is_transit":false,"i_lat":-6.144674},{"station_name":"Duri","i_long":106.800832,"i_lat":-6.155215,"distance":1230,"transit":false,"is_transit":false,"station_id":"DU","line":1,"time":4},{"line":1,"is_transit":true,"i_lat":-6.185545,"i_long":106.811091,"transit":true,"distance":3632,"time":8,"station_name":"Tanah Abang","station_id":"THB"},{"time":6,"transit":false,"i_lat":-6.207404,"is_transit":false,"distance":3191,"i_long":106.79689,"station_name":"Palmerah","line":6,"station_id":"PLM"},{"distance":3737,"transit":false,"i_lat":-6.237242,"is_transit":false,"i_long":106.780334,"station_name":"Kebayoran","time":7,"station_id":"KBY","line":6}]]}