{"data":[[{"i_long":106.905196,"line":21,"distance":0,"station_name":"Nambo","transit":false,"is_transit":false,"i_lat":-6.466285,"station_id":"NMO","time":0},{"i_long":106.851978,"is_transit":false,"transit":false,"station_id":"CBN","distance":6527,"i_lat":-6.46424,"line":21,"time":10,"station_name":"Cibinong"},{"station_id":"PDRG","transit":false,"is_transit":false,"time":0,"line":21,"station_name":"Pondok Rajeg","i_lat":-6.460735,"distance":0,"i_long":106.824374},{"time":0,"is_transit":true,"i_long":106.800298,"line":2,"transit":true,"distance":0,"i_lat":-6.448811,"station_name":"Citayam","station_id":"CTA"},{"transit":false,"station_id":"DP","time":6,"station_name":"Depok","is_transit":false,"distance":5084,"i_lat":-6.405256,"line":2,"i_long":106.816926},{"transit":false,"is_transit":false,"line":2,"station_name":"Depokbaru","station_id":"DPB","distance":1584,"i_lat":-6.391065,"time":3,"i_long":106.819451},{"is_transit":false,"distance":2727,"i_long":106.831114,"i_lat":-6.369073,"station_id":"POC","transit":false,"line":2,"time":4,"station_name":"Pondok Cina"},{"time":2,"station_name":"Univ. Indonesia","distance":1109,"is_transit":false,"i_lat":-6.360749,"line":2,"transit":false,"station_id":"UI","i_long":106.831474},{"station_id":"UP","is_transit":false,"station_name":"Univ. Pancasila","i_lat":-6.339291,"transit":false,"line":2,"distance":2264,"time":3,"i_long":106.834175},{"line":2,"transit":false,"is_transit":false,"i_lat":-6.330363,"time":2,"distance":1029,"i_long":106.832616,"station_name":"Lenteng Agung","station_id":"LNA"},{"i_lat":-6.3080680000000005,"transit":false,"time":3,"i_long":106.838896,"station_name":"Tanjung Barat","is_transit":false,"station_id":"TNT","distance":2671,"line":2},{"station_name":"Pasar Minggu","station_id":"PSM","is_transit":false,"i_long":106.843999,"distance":2820,"time":4,"i_lat":-6.2842400000000005,"line":2,"transit":false},{"station_id":"PSMB","transit":false,"line":2,"distance":2380,"station_name":"Pasar Minggu Baru","is_transit":false,"i_long":106.851577,"time":2,"i_lat":-6.263214},{"i_lat":-6.255332,"time":2,"station_name":"Duren Kalibata","transit":false,"station_id":"DRN","is_transit":false,"distance":824,"i_long":106.85449,"line":2},{"station_name":"Cawang","i_long":106.856607,"is_transit":false,"station_id":"CW","i_lat":-6.242512,"line":2,"time":3,"transit":false,"distance":1546},{"station_id":"TEB","i_lat":-6.226659,"distance":1230,"line":2,"time":2,"transit":false,"is_transit":false,"station_name":"Tebet","i_long":106.857948},{"i_long":106.84912,"station_id":"MRI","line":2,"time":4,"is_transit":true,"distance":2610,"i_lat":-6.209883,"transit":true,"station_name":"Manggarai"},{"is_transit":false,"station_name":"Matraman","time":2,"station_id":"MTR","i_lat":-6.212485,"transit":false,"distance":1275,"line":1,"i_long":106.858896},{"i_lat":-6.215091,"transit":false,"line":1,"is_transit":false,"station_id":"JNG","station_name":"Jatinegara","distance":1377,"time":8,"i_long":106.86807400000001},{"station_name":"Klender","is_transit":false,"station_id":"KLD","time":3,"transit":false,"i_long":106.899548,"line":1,"distance":3395,"i_lat":-6.2135},{"line":1,"station_id":"BUA","transit":false,"station_name":"Buaran","is_transit":false,"distance":3100,"time":2,"i_lat":-6.215568,"i_long":106.922662},{"line":1,"i_lat":-6.217455,"is_transit":false,"transit":false,"station_id":"KLDB","station_name":"Klenderbaru","time":1,"distance":1305,"i_long":106.939679},{"i_lat":-6.219053,"i_long":106.951283,"station_name":"Cakung","time":8,"line":1,"station_id":"CUK","is_transit":false,"transit":false,"distance":1385}],[{"time":0,"is_transit":false,"distance":0,"line":21,"station_name":"Nambo","i_lat":-6.466285,"i_long":106.905196,"transit":false,"station_id":"NMO"},{"i_long":106.851978,"line":21,"is_transit":false,"i_lat":-6.46424,"station_id":"CBN","station_name":"Cibinong","time":10,"distance":6527,"transit":false},{"i_lat":-6.460735,"distance":0,"is_transit":false,"time":0,"line":21,"i_long":106.824374,"transit":false,"station_name":"Pondok Rajeg","station_id":"PDRG"},{"transit":true,"is_transit":true,"line":2,"time":0,"i_long":106.800298,"station_id":"CTA","distance":0,"station_name":"Citayam","i_lat":-6.448811},{"i_long":106.816926,"time":6,"station_name":"Depok","distance":5084,"station_id":"DP","line":2,"i_lat":-6.405256,"is_transit":false,"transit":false},{"is_transit":false,"transit":false,"i_long":106.819451,"station_name":"Depokbaru","distance":1584,"i_lat":-6.391065,"station_id":"DPB","time":3,"line":2},{"line":2,"station_id":"POC","distance":2727,"transit":false,"i_lat":-6.369073,"is_transit":false,"time":4,"station_name":"Pondok Cina","i_long":106.831114},{"time":2,"distance":1109,"transit":false,"i_lat":-6.360749,"station_name":"Univ. Indonesia","i_long":106.831474,"is_transit":false,"line":2,"station_id":"UI"},{"i_long":106.834175,"time":3,"station_name":"Univ. Pancasila","is_transit":false,"transit":false,"i_lat":-6.339291,"line":2,"station_id":"UP","distance":2264},{"i_long":106.832616,"distance":1029,"i_lat":-6.330363,"transit":false,"station_name":"Lenteng Agung","station_id":"LNA","time":2,"line":2,"is_transit":false},{"time":3,"station_id":"TNT","is_transit":false,"transit":false,"station_name":"Tanjung Barat","i_lat":-6.3080680000000005,"i_long":106.838896,"distance":2671,"line":2},{"is_transit":false,"distance":2820,"time":4,"i_lat":-6.2842400000000005,"i_long":106.843999,"station_name":"Pasar Minggu","line":2,"transit":false,"station_id":"PSM"},{"i_lat":-6.263214,"station_name":"Pasar Minggu Baru","is_transit":false,"i_long":106.851577,"station_id":"PSMB","line":2,"distance":2380,"transit":false,"time":2},{"line":2,"i_long":106.85449,"distance":824,"transit":false,"station_name":"Duren Kalibata","i_lat":-6.255332,"station_id":"DRN","time":2,"is_transit":false},{"station_name":"Cawang","line":2,"distance":1546,"is_transit":false,"time":3,"i_lat":-6.242512,"i_long":106.856607,"transit":false,"station_id":"CW"},{"i_lat":-6.226659,"distance":1230,"time":2,"station_id":"TEB","transit":false,"i_long":106.857948,"line":2,"station_name":"Tebet","is_transit":false},{"is_transit":true,"distance":2610,"i_lat":-6.209883,"line":2,"station_id":"MRI","time":4,"i_long":106.84912,"station_name":"Manggarai","transit":true},{"is_transit":false,"i_lat":-6.202263,"distance":3186,"station_name":"Sudirman","transit":false,"station_id":"SUD","time":4,"line":1,"i_long":106.822649},{"is_transit":false,"time":1,"station_name":"Sudirman Baru","line":1,"distance":280,"station_id":"SUDB","i_lat":-6.201433,"i_long":106.819881,"transit":false},{"distance":471,"station_id":"KAT","station_name":"Karet","line":1,"transit":false,"i_lat":-6.20132,"i_long":106.816351,"time":1,"is_transit":false},{"time":5,"is_transit":false,"station_name":"Tanah Abang","transit":false,"distance":2029,"i_long":106.811091,"line":1,"i_lat":-6.185545,"station_id":"THB"},{"time":8,"distance":3632,"i_lat":-6.155215,"transit":false,"station_id":"DU","station_name":"Duri","i_long":106.800832,"is_transit":false,"line":1},{"i_long":106.79867,"transit":false,"is_transit":false,"time":4,"station_name":"Angke","station_id":"AK","distance":1230,"line":1,"i_lat":-6.144674},{"station_id":"KPB","transit":true,"is_transit":true,"i_long":106.826365,"time":9,"line":4,"distance":4102,"station_name":"Kampung Bandan","i_lat":-6.132549},{"distance":1444,"station_name":"Rajawali","i_long":106.836569,"station_id":"RJW","time":3,"line":11,"i_lat":-6.14505,"transit":false,"is_transit":false},{"i_long":106.839204,"time":5,"line":11,"station_id":"KMO","is_transit":false,"transit":false,"station_name":"Kemayoran","distance":1901,"i_lat":-6.161728},{"i_lat":-6.174784,"transit":false,"is_transit":false,"distance":1436,"station_id":"PSE","station_name":"Pasar Senen","i_long":106.84368,"time":4,"line":11},{"transit":false,"i_long":106.850107,"time":8,"i_lat":-6.185975,"line":11,"station_id":"GST","is_transit":false,"distance":1567,"station_name":"Gang Sentiong"},{"transit":false,"line":11,"is_transit":false,"distance":973,"i_lat":-6.193792,"time":1,"station_name":"Kramat","station_id":"KMT","i_long":106.855437},{"i_long":106.861737,"line":11,"i_lat":-6.209188,"station_id":"POK","time":2,"transit":false,"distance":1829,"is_transit":false,"station_name":"Pondok Jati"},{"line":1,"time":9,"distance":1236,"station_name":"Jatinegara","i_long":106.86807400000001,"transit":true,"station_id":"JNG","is_transit":true,"i_lat":-6.215091},{"transit":false,"station_id":"KLD","i_lat":-6.2135,"is_transit":false,"i_long":106.899548,"time":3,"station_name":"Klender","distance":3395,"line":1},{"is_transit":false,"transit":false,"line":1,"i_lat":-6.215568,"time":2,"i_long":106.922662,"station_name":"Buaran","distance":3100,"station_id":"BUA"},{"station_name":"Klenderbaru","is_transit":false,"time":1,"line":1,"distance":1305,"station_id":"KLDB","i_long":106.939679,"transit":false,"i_lat":-6.217455},{"is_transit":false,"station_id":"CUK","i_lat":-6.219053,"distance":1385,"i_long":106.951283,"station_name":"Cakung","time":8,"transit":false,"line":1}],[{"i_long":106.905196,"i_lat":-6.466285,"station_name":"Nambo","station_id":"NMO","line":21,"transit":false,"is_transit":false,"time":0,"distance":0},{"i_long":106.851978,"is_transit":false,"distance":6527,"line":21,"station_id":"CBN","transit":false,"i_lat":-6.46424,"station_name":"Cibinong","time":10},{"line":21,"distance":0,"station_id":"PDRG","station_name":"Pondok Rajeg","transit":false,"time":0,"i_lat":-6.460735,"i_long":106.824374,"is_transit":false},{"station_id":"CTA","line":2,"time":0,"transit":true,"distance":0,"i_long":106.800298,"i_lat":-6.448811,"station_name":"Citayam","is_transit":true},{"line":2,"i_lat":-6.405256,"transit":false,"distance":5084,"station_id":"DP","i_long":106.816926,"is_transit":false,"station_name":"Depok","time":6},{"transit":false,"station_id":"DPB","i_long":106.819451,"is_transit":false,"time":3,"line":2,"station_name":"Depokbaru","i_lat":-6.391065,"distance":1584},{"is_transit":false,"i_lat":-6.369073,"transit":false,"station_name":"Pondok Cina","time":4,"line":2,"i_long":106.831114,"station_id":"POC","distance":2727},{"i_long":106.831474,"is_transit":false,"distance":1109,"line":2,"i_lat":-6.360749,"time":2,"transit":false,"station_name":"Univ. Indonesia","station_id":"UI"},{"time":3,"distance":2264,"line":2,"station_id":"UP","i_lat":-6.339291,"transit":false,"station_name":"Univ. Pancasila","is_transit":false,"i_long":106.834175},{"line":2,"distance":1029,"transit":false,"station_name":"Lenteng Agung","is_transit":false,"i_long":106.832616,"i_lat":-6.330363,"station_id":"LNA","time":2},{"station_name":"Tanjung Barat","station_id":"TNT","is_transit":false,"time":3,"i_long":106.838896,"distance":2671,"line":2,"i_lat":-6.3080680000000005,"transit":false},{"station_id":"PSM","transit":false,"station_name":"Pasar Minggu","is_transit":false,"distance":2820,"time":4,"i_long":106.843999,"line":2,"i_lat":-6.2842400000000005},{"is_transit":false,"time":2,"distance":2380,"i_lat":-6.263214,"i_long":106.851577,"station_id":"PSMB","line":2,"transit":false,"station_name":"Pasar Minggu Baru"},{"station_name":"Duren Kalibata","i_long":106.85449,"transit":false,"station_id":"DRN","time":2,"is_transit":false,"line":2,"distance":824,"i_lat":-6.255332},{"transit":false,"i_long":106.856607,"line":2,"distance":1546,"station_id":"CW","time":3,"is_transit":false,"i_lat":-6.242512,"station_name":"Cawang"},{"i_long":106.857948,"is_transit":false,"line":2,"station_id":"TEB","i_lat":-6.226659,"transit":false,"time":2,"distance":1230,"station_name":"Tebet"},{"station_id":"MRI","time":4,"transit":false,"is_transit":false,"i_long":106.84912,"i_lat":-6.209883,"line":2,"station_name":"Manggarai","distance":2610},{"i_lat":-6.198556,"time":4,"is_transit":false,"distance":1590,"line":2,"transit":false,"i_long":106.840169,"station_name":"Cikini","station_id":"CKI"},{"is_transit":false,"station_name":"Gondangdia","station_id":"GDD","transit":false,"distance":1750,"i_long":106.832183,"time":3,"i_lat":-6.186295,"line":2},{"station_id":"JUA","transit":false,"is_transit":false,"time":4,"i_lat":-6.166716,"station_name":"Juanda","distance":2015,"i_long":106.828284,"line":2},{"station_name":"Sawah Besar","is_transit":false,"distance":1149,"station_id":"SW","i_lat":-6.160725,"time":2,"i_long":106.827103,"transit":false,"line":2},{"i_lat":-6.149769,"i_long":106.82482,"distance":906,"is_transit":false,"line":2,"time":2,"transit":false,"station_name":"Manggabesar","station_id":"MGB"},{"station_name":"Jayakarta","time":2,"i_lat":-6.141205,"station_id":"JAY","is_transit":false,"transit":false,"line":2,"distance":1080,"i_long":106.820901},{"transit":true,"station_id":"JAKK","is_transit":true,"i_long":106.812439,"time":4,"line":2,"distance":1264,"i_lat":-6.137569,"station_name":"Jakarta Kota"},{"is_transit":true,"i_long":106.826365,"time":3,"transit":true,"i_lat":-6.132549,"line":4,"station_name":"Kampung Bandan","station_id":"KPB","distance":1364},{"transit":false,"distance":1444,"i_lat":-6.14505,"line":11,"i_long":106.836569,"is_transit":false,"station_id":"RJW","station_name":"Rajawali","time":3},{"distance":1901,"i_lat":-6.161728,"station_id":"KMO","line":11,"transit":false,"station_name":"Kemayoran","time":5,"is_transit":false,"i_long":106.839204},{"i_long":106.84368,"i_lat":-6.174784,"transit":false,"station_id":"PSE","is_transit":false,"line":11,"distance":1436,"station_name":"Pasar Senen","time":4},{"time":8,"station_id":"GST","is_transit":false,"i_long":106.850107,"line":11,"station_name":"Gang Sentiong","i_lat":-6.185975,"distance":1567,"transit":false},{"distance":973,"time":1,"station_name":"Kramat","transit":false,"station_id":"KMT","is_transit":false,"i_lat":-6.193792,"i_long":106.855437,"line":11},{"is_transit":false,"station_name":"Pondok Jati","station_id":"POK","i_long":106.861737,"line":11,"distance":1829,"time":2,"transit":false,"i_lat":-6.209188},{"is_transit":true,"distance":1236,"transit":true,"time":9,"i_long":106.86807400000001,"i_lat":-6.215091,"line":1,"station_name":"Jatinegara","station_id":"JNG"},{"i_long":106.899548,"line":1,"distance":3395,"station_name":"Klender","transit":false,"time":3,"is_transit":false,"station_id":"KLD","i_lat":-6.2135},{"transit":false,"i_lat":-6.215568,"i_long":106.922662,"station_name":"Buaran","station_id":"BUA","is_transit":false,"line":1,"time":2,"distance":3100},{"station_id":"KLDB","i_lat":-6.217455,"is_transit":false,"distance":1305,"transit":false,"time":1,"i_long":106.939679,"line":1,"station_name":"Klenderbaru"},{"is_transit":false,"time":8,"distance":1385,"station_id":"CUK","station_name":"Cakung","i_long":106.951283,"i_lat":-6.219053,"transit":false,"line":1}]]}