{"data":[[{"time":0,"station_name":"Nambo","i_long":106.905196,"transit":false,"i_lat":-6.466285,"station_id":"NMO","distance":0,"line":21,"is_transit":false},{"i_long":106.851978,"transit":false,"distance":6527,"station_id":"CBN","i_lat":-6.46424,"line":21,"time":10,"is_transit":false,"station_name":"Cibinong"},{"i_lat":-6.460735,"i_long":106.824374,"line":21,"station_name":"Pondok Rajeg","station_id":"PDRG","time":0,"distance":0,"transit":false,"is_transit":false},{"time":0,"line":2,"distance":0,"station_name":"Citayam","i_lat":-6.448811,"transit":true,"station_id":"CTA","is_transit":true,"i_long":106.800298},{"station_id":"DP","line":2,"i_long":106.816926,"distance":5084,"time":6,"is_transit":false,"transit":false,"i_lat":-6.405256,"station_name":"Depok"},{"is_transit":false,"station_name":"Depokbaru","i_long":106.819451,"station_id":"DPB","i_lat":-6.391065,"line":2,"time":3,"transit":false,"distance":1584},{"line":2,"station_id":"POC","i_lat":-6.369073,"i_long":106.831114,"station_name":"Pondok Cina","transit":false,"time":4,"distance":2727,"is_transit":false},{"transit":false,"is_transit":false,"time":2,"distance":1109,"station_id":"UI","i_lat":-6.360749,"station_name":"Univ. Indonesia","line":2,"i_long":106.831474},{"time":3,"station_name":"Univ. Pancasila","station_id":"UP","line":2,"is_transit":false,"i_long":106.834175,"transit":false,"i_lat":-6.339291,"distance":2264},{"time":2,"station_name":"Lenteng Agung","i_long":106.832616,"station_id":"LNA","distance":1029,"is_transit":false,"i_lat":-6.330363,"line":2,"transit":false},{"is_transit":false,"line":2,"i_long":106.838896,"time":3,"station_id":"TNT","i_lat":-6.3080680000000005,"distance":2671,"station_name":"Tanjung Barat","transit":false},{"distance":2820,"transit":false,"line":2,"i_long":106.843999,"is_transit":false,"i_lat":-6.2842400000000005,"time":4,"station_name":"Pasar Minggu","station_id":"PSM"},{"transit":false,"station_name":"Pasar Minggu Baru","is_transit":false,"distance":2380,"i_lat":-6.263214,"station_id":"PSMB","i_long":106.851577,"line":2,"time":2},{"distance":824,"line":2,"i_long":106.85449,"is_transit":false,"station_id":"DRN","station_name":"Duren Kalibata","transit":false,"i_lat":-6.255332,"time":2},{"transit":false,"line":2,"station_id":"CW","is_transit":false,"time":3,"i_long":106.856607,"distance":1546,"i_lat":-6.242512,"station_name":"Cawang"},{"i_long":106.857948,"distance":1230,"line":2,"is_transit":false,"station_name":"Tebet","time":2,"station_id":"TEB","i_lat":-6.226659,"transit":false},{"station_id":"MRI","i_lat":-6.209883,"time":4,"station_name":"Manggarai","distance":2610,"i_long":106.84912,"is_transit":false,"line":2,"transit":false},{"time":4,"distance":1590,"line":2,"transit":false,"station_id":"CKI","is_transit":false,"i_lat":-6.198556,"i_long":106.840169,"station_name":"Cikini"},{"station_id":"GDD","transit":false,"time":3,"station_name":"Gondangdia","i_long":106.832183,"i_lat":-6.186295,"line":2,"is_transit":false,"distance":1750}],[{"is_transit":false,"line":21,"transit":false,"i_lat":-6.466285,"time":0,"station_name":"Nambo","station_id":"NMO","distance":0,"i_long":106.905196},{"is_transit":false,"transit":false,"station_name":"Cibinong","time":10,"distance":6527,"i_lat":-6.46424,"line":21,"i_long":106.851978,"station_id":"CBN"},{"transit":false,"line":21,"station_id":"PDRG","time":0,"is_transit":false,"i_lat":-6.460735,"i_long":106.824374,"station_name":"Pondok Rajeg","distance":0},{"transit":true,"line":2,"time":0,"is_transit":true,"station_id":"CTA","distance":0,"i_lat":-6.448811,"station_name":"Citayam","i_long":106.800298},{"distance":5084,"station_id":"DP","transit":false,"i_long":106.816926,"time":6,"station_name":"Depok","i_lat":-6.405256,"is_transit":false,"line":2},{"station_id":"DPB","distance":1584,"i_lat":-6.391065,"i_long":106.819451,"time":3,"transit":false,"station_name":"Depokbaru","is_transit":false,"line":2},{"distance":2727,"station_id":"POC","is_transit":false,"transit":false,"line":2,"station_name":"Pondok Cina","time":4,"i_lat":-6.369073,"i_long":106.831114},{"line":2,"station_id":"UI","time":2,"station_name":"Univ. Indonesia","transit":false,"is_transit":false,"distance":1109,"i_long":106.831474,"i_lat":-6.360749},{"line":2,"i_lat":-6.339291,"transit":false,"is_transit":false,"station_id":"UP","distance":2264,"time":3,"station_name":"Univ. Pancasila","i_long":106.834175},{"time":2,"transit":false,"line":2,"distance":1029,"station_id":"LNA","i_long":106.832616,"station_name":"Lenteng Agung","is_transit":false,"i_lat":-6.330363},{"i_lat":-6.3080680000000005,"is_transit":false,"time":3,"station_name":"Tanjung Barat","i_long":106.838896,"line":2,"transit":false,"station_id":"TNT","distance":2671},{"distance":2820,"station_name":"Pasar Minggu","line":2,"is_transit":false,"time":4,"transit":false,"station_id":"PSM","i_long":106.843999,"i_lat":-6.2842400000000005},{"line":2,"time":2,"station_name":"Pasar Minggu Baru","station_id":"PSMB","is_transit":false,"transit":false,"i_long":106.851577,"distance":2380,"i_lat":-6.263214},{"station_id":"DRN","i_long":106.85449,"transit":false,"distance":824,"is_transit":false,"station_name":"Duren Kalibata","time":2,"line":2,"i_lat":-6.255332},{"station_name":"Cawang","i_lat":-6.242512,"i_long":106.856607,"station_id":"CW","line":2,"time":3,"is_transit":false,"distance":1546,"transit":false},{"distance":1230,"is_transit":false,"i_lat":-6.226659,"transit":false,"i_long":106.857948,"time":2,"station_id":"TEB","station_name":"Tebet","line":2},{"line":2,"station_id":"MRI","station_name":"Manggarai","distance":2610,"transit":true,"time":4,"i_long":106.84912,"is_transit":true,"i_lat":-6.209883},{"line":1,"transit":false,"distance":3186,"i_lat":-6.202263,"i_long":106.822649,"is_transit":false,"time":4,"station_name":"Sudirman","station_id":"SUD"},{"i_long":106.819881,"is_transit":false,"distance":280,"i_lat":-6.201433,"station_id":"SUDB","time":1,"transit":false,"station_name":"Sudirman Baru","line":1},{"distance":471,"transit":false,"line":1,"i_long":106.816351,"is_transit":false,"station_id":"KAT","i_lat":-6.20132,"station_name":"Karet","time":1},{"is_transit":false,"distance":2029,"time":5,"i_lat":-6.185545,"line":1,"station_id":"THB","transit":false,"i_long":106.811091,"station_name":"Tanah Abang"},{"time":8,"i_long":106.800832,"i_lat":-6.155215,"is_transit":false,"transit":false,"station_name":"Duri","line":1,"distance":3632,"station_id":"DU"},{"transit":false,"station_id":"AK","i_long":106.79867,"station_name":"Angke","distance":1230,"line":1,"time":4,"i_lat":-6.144674,"is_transit":false},{"station_name":"Kampung Bandan","time":9,"distance":4102,"i_lat":-6.132549,"line":4,"is_transit":true,"transit":true,"i_long":106.826365,"station_id":"KPB"},{"station_id":"JAKK","i_lat":-6.137569,"line":2,"is_transit":true,"transit":true,"distance":1364,"time":3,"i_long":106.812439,"station_name":"Jakarta Kota"},{"station_id":"JAY","transit":false,"i_long":106.820901,"line":2,"station_name":"Jayakarta","time":4,"is_transit":false,"distance":1264,"i_lat":-6.141205},{"station_name":"Manggabesar","is_transit":false,"i_long":106.82482,"time":2,"line":2,"i_lat":-6.149769,"distance":1080,"station_id":"MGB","transit":false},{"transit":false,"line":2,"station_name":"Sawah Besar","i_lat":-6.160725,"station_id":"SW","is_transit":false,"distance":906,"i_long":106.827103,"time":2},{"station_id":"JUA","distance":1149,"i_lat":-6.166716,"is_transit":false,"line":2,"time":2,"station_name":"Juanda","transit":false,"i_long":106.828284},{"station_name":"Gondangdia","distance":2015,"i_long":106.832183,"is_transit":false,"transit":false,"i_lat":-6.186295,"time":4,"station_id":"GDD","line":2}],[{"distance":0,"transit":false,"line":21,"station_name":"Nambo","i_lat":-6.466285,"i_long":106.905196,"time":0,"station_id":"NMO","is_transit":false},{"is_transit":false,"station_name":"Cibinong","i_lat":-6.46424,"time":10,"line":21,"distance":6527,"station_id":"CBN","i_long":106.851978,"transit":false},{"transit":false,"distance":0,"line":21,"is_transit":false,"i_lat":-6.460735,"station_name":"Pondok Rajeg","time":0,"i_long":106.824374,"station_id":"PDRG"},{"station_id":"CTA","i_lat":-6.448811,"i_long":106.800298,"transit":true,"line":2,"is_transit":true,"distance":0,"station_name":"Citayam","time":0},{"is_transit":false,"time":6,"distance":5084,"line":2,"i_long":106.816926,"station_name":"Depok","station_id":"DP","transit":false,"i_lat":-6.405256},{"station_id":"DPB","station_name":"Depokbaru","line":2,"i_long":106.819451,"is_transit":false,"time":3,"distance":1584,"i_lat":-6.391065,"transit":false},{"line":2,"time":4,"station_name":"Pondok Cina","transit":false,"i_long":106.831114,"i_lat":-6.369073,"station_id":"POC","is_transit":false,"distance":2727},{"i_long":106.831474,"station_name":"Univ. Indonesia","station_id":"UI","distance":1109,"transit":false,"i_lat":-6.360749,"time":2,"line":2,"is_transit":false},{"i_lat":-6.339291,"distance":2264,"station_id":"UP","time":3,"station_name":"Univ. Pancasila","is_transit":false,"transit":false,"i_long":106.834175,"line":2},{"transit":false,"i_lat":-6.330363,"distance":1029,"time":2,"i_long":106.832616,"line":2,"is_transit":false,"station_name":"Lenteng Agung","station_id":"LNA"},{"station_id":"TNT","i_lat":-6.3080680000000005,"distance":2671,"is_transit":false,"station_name":"Tanjung Barat","i_long":106.838896,"time":3,"transit":false,"line":2},{"i_long":106.843999,"station_id":"PSM","distance":2820,"i_lat":-6.2842400000000005,"time":4,"line":2,"station_name":"Pasar Minggu","transit":false,"is_transit":false},{"transit":false,"is_transit":false,"distance":2380,"station_name":"Pasar Minggu Baru","station_id":"PSMB","time":2,"i_lat":-6.263214,"i_long":106.851577,"line":2},{"station_id":"DRN","transit":false,"station_name":"Duren Kalibata","distance":824,"i_lat":-6.255332,"is_transit":false,"line":2,"time":2,"i_long":106.85449},{"station_id":"CW","i_long":106.856607,"station_name":"Cawang","i_lat":-6.242512,"transit":false,"time":3,"is_transit":false,"distance":1546,"line":2},{"time":2,"station_name":"Tebet","station_id":"TEB","is_transit":false,"distance":1230,"transit":false,"i_lat":-6.226659,"i_long":106.857948,"line":2},{"i_lat":-6.209883,"station_name":"Manggarai","station_id":"MRI","transit":true,"time":4,"line":2,"distance":2610,"i_long":106.84912,"is_transit":true},{"transit":false,"station_id":"MTR","i_long":106.858896,"time":2,"is_transit":false,"i_lat":-6.212485,"distance":1275,"line":1,"station_name":"Matraman"},{"station_id":"JNG","line":1,"is_transit":true,"i_lat":-6.215091,"transit":true,"distance":1377,"time":8,"station_name":"Jatinegara","i_long":106.86807400000001},{"station_name":"Pondok Jati","station_id":"POK","time":2,"line":11,"i_lat":-6.209188,"is_transit":false,"distance":1236,"transit":false,"i_long":106.861737},{"time":2,"is_transit":false,"station_id":"KMT","i_lat":-6.193792,"i_long":106.855437,"transit":false,"line":11,"station_name":"Kramat","distance":1829},{"transit":false,"i_lat":-6.185975,"time":1,"is_transit":false,"station_id":"GST","i_long":106.850107,"distance":973,"line":11,"station_name":"Gang Sentiong"},{"i_long":106.84368,"distance":1567,"is_transit":false,"transit":false,"line":11,"station_name":"Pasar Senen","i_lat":-6.174784,"station_id":"PSE","time":8},{"distance":1436,"time":4,"i_long":106.839204,"transit":false,"station_name":"Kemayoran","station_id":"KMO","i_lat":-6.161728,"line":11,"is_transit":false},{"distance":1901,"line":11,"transit":false,"station_name":"Rajawali","station_id":"RJW","i_lat":-6.14505,"is_transit":false,"time":5,"i_long":106.836569},{"time":3,"i_lat":-6.132549,"station_name":"Kampung Bandan","i_long":106.826365,"station_id":"KPB","transit":true,"is_transit":true,"distance":1444,"line":4},{"i_long":106.812439,"station_name":"Jakarta Kota","i_lat":-6.137569,"distance":1364,"line":2,"station_id":"JAKK","is_transit":true,"transit":true,"time":3},{"i_lat":-6.141205,"station_id":"JAY","station_name":"Jayakarta","transit":false,"time":4,"distance":1264,"line":2,"is_transit":false,"i_long":106.820901},{"i_long":106.82482,"transit":false,"station_name":"Manggabesar","time":2,"line":2,"station_id":"MGB","is_transit":false,"distance":1080,"i_lat":-6.149769},{"time":2,"line":2,"transit":false,"is_transit":false,"station_name":"Sawah Besar","station_id":"SW","distance":906,"i_lat":-6.160725,"i_long":106.827103},{"distance":1149,"time":2,"i_lat":-6.166716,"is_transit":false,"i_long":106.828284,"transit":false,"line":2,"station_name":"Juanda","station_id":"JUA"},{"i_lat":-6.186295,"time":4,"distance":2015,"i_long":106.832183,"station_id":"GDD","transit":false,"station_name":"Gondangdia","is_transit":false,"line":2}]]}