{"data":[[{"i_lat":-6.466285,"transit":false,"distance":0,"station_id":"NMO","i_long":106.905196,"is_transit":false,"station_name":"Nambo","line":21,"time":0},{"station_id":"CBN","transit":false,"station_name":"Cibinong","time":10,"distance":6527,"i_long":106.851978,"line":21,"is_transit":false,"i_lat":-6.46424},{"is_transit":false,"i_lat":-6.460735,"time":0,"station_name":"Pondok Rajeg","distance":0,"line":21,"station_id":"PDRG","transit":false,"i_long":106.824374},{"time":0,"is_transit":true,"transit":true,"i_long":106.800298,"line":2,"distance":0,"station_id":"CTA","station_name":"Citayam","i_lat":-6.448811},{"station_id":"DP","station_name":"Depok","is_transit":false,"time":6,"transit":false,"distance":5084,"i_lat":-6.405256,"i_long":106.816926,"line":2},{"is_transit":false,"line":2,"station_name":"Depokbaru","station_id":"DPB","time":3,"transit":false,"i_lat":-6.391065,"i_long":106.819451,"distance":1584},{"distance":2727,"i_long":106.831114,"i_lat":-6.369073,"station_id":"POC","is_transit":false,"time":4,"transit":false,"station_name":"Pondok Cina","line":2},{"i_lat":-6.360749,"time":2,"is_transit":false,"transit":false,"station_id":"UI","station_name":"Univ. Indonesia","distance":1109,"i_long":106.831474,"line":2}]]}