{"data":[[{"is_transit":false,"i_lat":-6.466285,"time":0,"distance":0,"station_name":"Nambo","transit":false,"i_long":106.905196,"station_id":"NMO","line":21},{"distance":6527,"line":0,"is_transit":false,"time":10,"i_lat":-6.46424,"station_id":"CBN","station_name":"Cibinong","i_long":106.851978,"transit":false},{"distance":6740,"station_id":"CTA","i_long":106.800298,"line":1,"time":10,"i_lat":-6.448811,"is_transit":true,"station_name":"Citayam","transit":false},{"station_id":"DP","is_transit":false,"station_name":"Depok","i_lat":-6.405256,"i_long":106.816926,"line":0,"transit":false,"distance":5084,"time":6},{"station_name":"Depokbaru","transit":false,"i_long":106.819451,"time":3,"is_transit":false,"line":0,"distance":1584,"i_lat":-6.391065,"station_id":"DPB"},{"is_transit":false,"time":4,"station_name":"Pondok Cina","transit":false,"i_long":106.831114,"station_id":"POC","distance":2727,"i_lat":-6.369073,"line":2},{"transit":false,"i_lat":-6.360749,"distance":1109,"line":2,"i_long":106.831474,"time":2,"station_name":"Univ. Indonesia","station_id":"UI","is_transit":false},{"transit":false,"station_name":"Univ. Pancasila","line":2,"station_id":"UP","time":3,"distance":2264,"is_transit":false,"i_lat":-6.339291,"i_long":106.834175},{"is_transit":false,"transit":false,"i_long":106.832616,"station_id":"LNA","station_name":"Lenteng Agung","time":2,"i_lat":-6.330363,"line":2,"distance":1029},{"i_lat":-6.3080680000000005,"is_transit":false,"time":3,"station_id":"TNT","i_long":106.838896,"station_name":"Tanjung Barat","transit":false,"distance":2671,"line":2},{"line":2,"i_long":106.843999,"station_id":"PSM","time":4,"transit":false,"i_lat":-6.2842400000000005,"is_transit":false,"distance":2820,"station_name":"Pasar Minggu"},{"distance":2380,"line":2,"time":2,"is_transit":false,"i_lat":-6.263214,"station_name":"Pasar Minggu Baru","station_id":"PSMB","transit":false,"i_long":106.851577},{"i_long":106.85449,"is_transit":false,"line":0,"i_lat":-6.255332,"transit":false,"time":2,"station_id":"DRN","station_name":"Duren Kalibata","distance":824},{"i_long":106.856607,"i_lat":-6.242512,"transit":false,"station_id":"CW","is_transit":false,"line":0,"time":3,"distance":1546,"station_name":"Cawang"},{"line":2,"distance":1230,"transit":false,"is_transit":false,"time":2,"station_id":"TEB","station_name":"Tebet","i_lat":-6.226659,"i_long":106.857948},{"station_name":"Manggarai","time":4,"distance":2610,"station_id":"MRI","transit":true,"i_lat":-6.209883,"is_transit":true,"line":0,"i_long":106.84912},{"station_id":"SUD","i_lat":-6.202263,"i_long":106.822649,"is_transit":false,"time":4,"transit":false,"line":1,"station_name":"Sudirman","distance":3186},{"transit":false,"i_lat":-6.201433,"time":1,"is_transit":false,"distance":280,"station_name":"Sudirman Baru","i_long":106.819881,"line":1,"station_id":"SUDB"},{"station_id":"KAT","transit":false,"is_transit":false,"station_name":"Karet","i_lat":-6.20132,"distance":471,"time":1,"line":1,"i_long":106.816351},{"distance":2029,"time":5,"i_long":106.811091,"is_transit":true,"i_lat":-6.185545,"line":1,"transit":false,"station_name":"Tanah Abang","station_id":"THB"},{"is_transit":true,"station_id":"DU","transit":true,"time":8,"i_long":106.800832,"distance":3632,"i_lat":-6.155215,"line":1,"station_name":"Duri"},{"distance":1700,"is_transit":false,"station_name":"Grogol","station_id":"GGL","i_lat":-6.162021,"i_long":106.788277,"time":3,"transit":false,"line":5},{"i_lat":-6.161433,"i_long":106.771379,"station_id":"PSG","station_name":"Pesing","distance":2036,"transit":false,"line":5,"is_transit":false,"time":2},{"i_long":106.756522,"time":2,"distance":1614,"station_id":"TKO","station_name":"Taman Kota","transit":false,"i_lat":-6.1587309999999995,"line":5,"is_transit":false},{"station_name":"Bojongindah","transit":false,"station_id":"BOI","i_long":106.737035,"distance":2334,"line":0,"is_transit":false,"time":2,"i_lat":-6.159876},{"distance":1152,"line":5,"station_name":"Rawa Buaya","station_id":"RW","transit":false,"i_lat":-6.162758,"i_long":106.723064,"is_transit":false,"time":4},{"is_transit":false,"distance":2504,"station_id":"KDS","i_long":106.701612,"time":3,"transit":false,"station_name":"Kalideres","i_lat":-6.166068,"line":5}],[{"transit":false,"time":0,"station_id":"NMO","line":21,"i_long":106.905196,"i_lat":-6.466285,"station_name":"Nambo","is_transit":false,"distance":0},{"is_transit":false,"station_name":"Cibinong","i_lat":-6.46424,"time":10,"station_id":"CBN","transit":false,"distance":6527,"i_long":106.851978,"line":0},{"i_lat":-6.448811,"station_id":"CTA","station_name":"Citayam","is_transit":true,"i_long":106.800298,"time":10,"line":1,"distance":6740,"transit":false},{"i_long":106.816926,"transit":false,"line":0,"is_transit":false,"distance":5084,"i_lat":-6.405256,"station_id":"DP","time":6,"station_name":"Depok"},{"station_name":"Depokbaru","is_transit":false,"station_id":"DPB","transit":false,"i_lat":-6.391065,"time":3,"line":0,"i_long":106.819451,"distance":1584},{"transit":false,"station_name":"Pondok Cina","i_lat":-6.369073,"i_long":106.831114,"line":2,"time":4,"distance":2727,"station_id":"POC","is_transit":false},{"station_id":"UI","time":2,"distance":1109,"station_name":"Univ. Indonesia","i_lat":-6.360749,"i_long":106.831474,"line":2,"is_transit":false,"transit":false},{"station_name":"Univ. Pancasila","station_id":"UP","is_transit":false,"i_long":106.834175,"line":2,"i_lat":-6.339291,"distance":2264,"time":3,"transit":false},{"station_name":"Lenteng Agung","line":2,"time":2,"distance":1029,"transit":false,"station_id":"LNA","i_lat":-6.330363,"i_long":106.832616,"is_transit":false},{"line":2,"i_lat":-6.3080680000000005,"transit":false,"distance":2671,"station_name":"Tanjung Barat","time":3,"station_id":"TNT","i_long":106.838896,"is_transit":false},{"station_id":"PSM","is_transit":false,"time":4,"i_long":106.843999,"station_name":"Pasar Minggu","distance":2820,"transit":false,"line":2,"i_lat":-6.2842400000000005},{"line":2,"station_id":"PSMB","is_transit":false,"distance":2380,"transit":false,"time":2,"i_long":106.851577,"station_name":"Pasar Minggu Baru","i_lat":-6.263214},{"time":2,"station_id":"DRN","i_lat":-6.255332,"i_long":106.85449,"line":0,"distance":824,"is_transit":false,"station_name":"Duren Kalibata","transit":false},{"is_transit":false,"distance":1546,"transit":false,"station_name":"Cawang","i_lat":-6.242512,"i_long":106.856607,"time":3,"station_id":"CW","line":0},{"line":2,"is_transit":false,"time":2,"distance":1230,"i_lat":-6.226659,"station_id":"TEB","transit":false,"i_long":106.857948,"station_name":"Tebet"},{"line":0,"i_lat":-6.209883,"is_transit":true,"time":4,"station_id":"MRI","distance":2610,"station_name":"Manggarai","transit":true,"i_long":106.84912},{"i_long":106.840169,"line":0,"i_lat":-6.198556,"station_id":"CKI","time":4,"station_name":"Cikini","transit":false,"is_transit":false,"distance":1590},{"distance":1750,"i_lat":-6.186295,"time":3,"i_long":106.832183,"line":2,"transit":false,"station_name":"Gondangdia","station_id":"GDD","is_transit":false},{"time":4,"distance":2015,"i_long":106.828284,"i_lat":-6.166716,"station_id":"JUA","is_transit":false,"station_name":"Juanda","line":2,"transit":false},{"station_name":"Sawah Besar","i_long":106.827103,"time":2,"transit":false,"distance":1149,"line":2,"i_lat":-6.160725,"station_id":"SW","is_transit":false},{"time":2,"i_long":106.82482,"station_name":"Manggabesar","is_transit":false,"distance":906,"transit":false,"i_lat":-6.149769,"line":2,"station_id":"MGB"},{"time":2,"distance":1080,"i_long":106.820901,"station_id":"JAY","is_transit":false,"line":7,"station_name":"Jayakarta","transit":false,"i_lat":-6.141205},{"is_transit":true,"time":4,"station_id":"JAKK","transit":true,"i_long":106.812439,"line":0,"distance":1264,"i_lat":-6.137569,"station_name":"Jakarta Kota"},{"station_id":"KPB","station_name":"Kampung Bandan","i_long":106.826365,"time":3,"i_lat":-6.132549,"line":0,"transit":false,"is_transit":true,"distance":1364},{"time":9,"transit":false,"i_lat":-6.144674,"i_long":106.79867,"station_name":"Angke","station_id":"AK","line":0,"is_transit":false,"distance":4102},{"station_name":"Duri","time":4,"i_long":106.800832,"is_transit":true,"transit":true,"distance":1230,"station_id":"DU","line":1,"i_lat":-6.155215},{"i_lat":-6.162021,"station_id":"GGL","distance":1700,"is_transit":false,"time":3,"transit":false,"station_name":"Grogol","line":5,"i_long":106.788277},{"is_transit":false,"distance":2036,"line":5,"time":2,"station_id":"PSG","station_name":"Pesing","i_long":106.771379,"transit":false,"i_lat":-6.161433},{"distance":1614,"line":5,"station_name":"Taman Kota","transit":false,"is_transit":false,"i_long":106.756522,"i_lat":-6.1587309999999995,"station_id":"TKO","time":2},{"station_id":"BOI","i_long":106.737035,"time":2,"line":0,"station_name":"Bojongindah","transit":false,"distance":2334,"is_transit":false,"i_lat":-6.159876},{"station_id":"RW","station_name":"Rawa Buaya","i_lat":-6.162758,"line":5,"i_long":106.723064,"is_transit":false,"time":4,"distance":1152,"transit":false},{"station_id":"KDS","distance":2504,"station_name":"Kalideres","is_transit":false,"time":3,"transit":false,"i_lat":-6.166068,"i_long":106.701612,"line":5}],[{"distance":0,"station_name":"Nambo","i_long":106.905196,"time":0,"transit":false,"line":21,"station_id":"NMO","i_lat":-6.466285,"is_transit":false},{"time":10,"station_name":"Cibinong","is_transit":false,"distance":6527,"station_id":"CBN","transit":false,"i_long":106.851978,"line":0,"i_lat":-6.46424},{"time":10,"station_name":"Citayam","line":1,"i_lat":-6.448811,"transit":false,"station_id":"CTA","i_long":106.800298,"is_transit":true,"distance":6740},{"station_id":"DP","is_transit":false,"transit":false,"distance":5084,"i_long":106.816926,"line":0,"i_lat":-6.405256,"time":6,"station_name":"Depok"},{"transit":false,"i_lat":-6.391065,"i_long":106.819451,"station_name":"Depokbaru","distance":1584,"is_transit":false,"time":3,"station_id":"DPB","line":0},{"is_transit":false,"time":4,"i_lat":-6.369073,"station_name":"Pondok Cina","transit":false,"i_long":106.831114,"line":2,"station_id":"POC","distance":2727},{"distance":1109,"station_id":"UI","i_long":106.831474,"is_transit":false,"line":2,"station_name":"Univ. Indonesia","time":2,"transit":false,"i_lat":-6.360749},{"line":2,"distance":2264,"is_transit":false,"station_id":"UP","transit":false,"i_lat":-6.339291,"i_long":106.834175,"time":3,"station_name":"Univ. Pancasila"},{"station_name":"Lenteng Agung","is_transit":false,"station_id":"LNA","i_lat":-6.330363,"distance":1029,"i_long":106.832616,"line":2,"time":2,"transit":false},{"i_long":106.838896,"distance":2671,"station_name":"Tanjung Barat","is_transit":false,"i_lat":-6.3080680000000005,"time":3,"transit":false,"line":2,"station_id":"TNT"},{"is_transit":false,"time":4,"station_name":"Pasar Minggu","i_long":106.843999,"transit":false,"station_id":"PSM","i_lat":-6.2842400000000005,"line":2,"distance":2820},{"i_long":106.851577,"time":2,"is_transit":false,"transit":false,"i_lat":-6.263214,"line":2,"station_name":"Pasar Minggu Baru","station_id":"PSMB","distance":2380},{"transit":false,"time":2,"station_id":"DRN","station_name":"Duren Kalibata","i_lat":-6.255332,"is_transit":false,"distance":824,"i_long":106.85449,"line":0},{"station_id":"CW","line":0,"distance":1546,"station_name":"Cawang","i_long":106.856607,"time":3,"transit":false,"is_transit":false,"i_lat":-6.242512},{"time":2,"distance":1230,"line":2,"station_name":"Tebet","is_transit":false,"station_id":"TEB","transit":false,"i_long":106.857948,"i_lat":-6.226659},{"transit":true,"station_name":"Manggarai","i_long":106.84912,"time":4,"is_transit":true,"station_id":"MRI","distance":2610,"line":0,"i_lat":-6.209883},{"transit":false,"is_transit":false,"i_long":106.858896,"i_lat":-6.212485,"distance":1275,"line":1,"station_id":"MTR","station_name":"Matraman","time":2},{"station_id":"JNG","i_lat":-6.215091,"distance":1377,"time":8,"station_name":"Jatinegara","i_long":106.86807400000001,"transit":true,"line":0,"is_transit":true},{"time":2,"station_name":"Pondok Jati","i_long":106.861737,"line":11,"is_transit":false,"i_lat":-6.209188,"transit":false,"distance":1236,"station_id":"POK"},{"i_lat":-6.193792,"station_id":"KMT","is_transit":false,"time":2,"transit":false,"distance":1829,"station_name":"Kramat","line":11,"i_long":106.855437},{"station_id":"GST","is_transit":false,"time":1,"station_name":"Gang Sentiong","distance":973,"line":11,"transit":false,"i_lat":-6.185975,"i_long":106.850107},{"time":8,"station_id":"PSE","line":11,"i_lat":-6.174784,"is_transit":false,"i_long":106.84368,"station_name":"Pasar Senen","distance":1567,"transit":false},{"i_lat":-6.161728,"distance":1436,"transit":false,"station_name":"Kemayoran","i_long":106.839204,"line":11,"time":4,"is_transit":false,"station_id":"KMO"},{"station_id":"RJW","is_transit":false,"i_lat":-6.14505,"i_long":106.836569,"line":11,"station_name":"Rajawali","time":5,"transit":false,"distance":1901},{"station_name":"Kampung Bandan","i_lat":-6.132549,"i_long":106.826365,"distance":1444,"time":3,"station_id":"KPB","transit":true,"is_transit":true,"line":0},{"time":9,"distance":4102,"i_lat":-6.144674,"is_transit":false,"station_name":"Angke","i_long":106.79867,"transit":false,"line":0,"station_id":"AK"},{"station_id":"DU","is_transit":true,"transit":true,"i_long":106.800832,"i_lat":-6.155215,"line":1,"time":4,"distance":1230,"station_name":"Duri"},{"station_name":"Grogol","time":3,"line":5,"station_id":"GGL","distance":1700,"i_lat":-6.162021,"transit":false,"is_transit":false,"i_long":106.788277},{"station_id":"PSG","time":2,"i_long":106.771379,"distance":2036,"is_transit":false,"transit":false,"station_name":"Pesing","i_lat":-6.161433,"line":5},{"station_id":"TKO","transit":false,"is_transit":false,"i_long":106.756522,"i_lat":-6.1587309999999995,"time":2,"line":5,"distance":1614,"station_name":"Taman Kota"},{"line":0,"station_name":"Bojongindah","time":2,"is_transit":false,"i_long":106.737035,"station_id":"BOI","distance":2334,"transit":false,"i_lat":-6.159876},{"distance":1152,"station_name":"Rawa Buaya","time":4,"station_id":"RW","is_transit":false,"i_lat":-6.162758,"i_long":106.723064,"transit":false,"line":5},{"station_name":"Kalideres","time":3,"is_transit":false,"transit":false,"i_long":106.701612,"line":5,"distance":2504,"i_lat":-6.166068,"station_id":"KDS"}]]}