{"data":[[{"station_id":"NMO","station_name":"Nambo","distance":0,"i_long":106.905196,"i_lat":-6.466285,"is_transit":false,"transit":false,"time":0,"line":21},{"i_long":106.851978,"line":0,"station_name":"Cibinong","time":10,"distance":6527,"i_lat":-6.46424,"station_id":"CBN","transit":false,"is_transit":false},{"line":1,"station_id":"CTA","distance":6740,"time":10,"i_lat":-6.448811,"i_long":106.800298,"is_transit":true,"station_name":"Citayam","transit":false},{"line":0,"distance":5084,"station_name":"Depok","time":6,"i_lat":-6.405256,"i_long":106.816926,"station_id":"DP","is_transit":false,"transit":false},{"distance":1584,"line":0,"time":3,"transit":false,"station_name":"Depokbaru","i_lat":-6.391065,"i_long":106.819451,"is_transit":false,"station_id":"DPB"},{"i_lat":-6.369073,"station_id":"POC","is_transit":false,"distance":2727,"i_long":106.831114,"line":2,"time":4,"transit":false,"station_name":"Pondok Cina"},{"is_transit":false,"station_name":"Univ. Indonesia","time":2,"i_lat":-6.360749,"line":2,"station_id":"UI","i_long":106.831474,"distance":1109,"transit":false},{"transit":false,"i_lat":-6.339291,"line":2,"distance":2264,"is_transit":false,"time":3,"station_name":"Univ. Pancasila","i_long":106.834175,"station_id":"UP"},{"station_name":"Lenteng Agung","time":2,"station_id":"LNA","is_transit":false,"distance":1029,"i_long":106.832616,"transit":false,"i_lat":-6.330363,"line":2},{"line":2,"transit":false,"time":3,"i_lat":-6.3080680000000005,"is_transit":false,"station_id":"TNT","distance":2671,"i_long":106.838896,"station_name":"Tanjung Barat"},{"station_id":"PSM","is_transit":false,"transit":false,"i_lat":-6.2842400000000005,"i_long":106.843999,"station_name":"Pasar Minggu","line":2,"time":4,"distance":2820},{"line":2,"distance":2380,"is_transit":false,"i_lat":-6.263214,"i_long":106.851577,"station_name":"Pasar Minggu Baru","transit":false,"time":2,"station_id":"PSMB"},{"transit":false,"i_lat":-6.255332,"line":0,"time":2,"distance":824,"station_id":"DRN","station_name":"Duren Kalibata","i_long":106.85449,"is_transit":false},{"station_name":"Cawang","i_long":106.856607,"transit":false,"line":0,"station_id":"CW","time":3,"i_lat":-6.242512,"is_transit":false,"distance":1546},{"i_lat":-6.226659,"distance":1230,"station_name":"Tebet","time":2,"transit":false,"line":2,"i_long":106.857948,"is_transit":false,"station_id":"TEB"},{"distance":2610,"is_transit":true,"station_id":"MRI","transit":true,"line":0,"station_name":"Manggarai","time":4,"i_lat":-6.209883,"i_long":106.84912},{"station_name":"Cikini","is_transit":false,"i_lat":-6.198556,"time":4,"line":0,"station_id":"CKI","distance":1590,"i_long":106.840169,"transit":false}],[{"i_long":106.905196,"transit":false,"station_name":"Nambo","is_transit":false,"line":21,"distance":0,"station_id":"NMO","time":0,"i_lat":-6.466285},{"transit":false,"station_id":"CBN","station_name":"Cibinong","is_transit":false,"distance":6527,"i_long":106.851978,"line":0,"time":10,"i_lat":-6.46424},{"station_id":"CTA","is_transit":true,"time":10,"line":1,"distance":6740,"i_lat":-6.448811,"i_long":106.800298,"station_name":"Citayam","transit":false},{"i_long":106.816926,"is_transit":false,"line":0,"station_name":"Depok","station_id":"DP","time":6,"distance":5084,"transit":false,"i_lat":-6.405256},{"transit":false,"i_long":106.819451,"station_id":"DPB","distance":1584,"line":0,"is_transit":false,"station_name":"Depokbaru","i_lat":-6.391065,"time":3},{"transit":false,"i_long":106.831114,"is_transit":false,"time":4,"line":2,"i_lat":-6.369073,"station_id":"POC","station_name":"Pondok Cina","distance":2727},{"station_id":"UI","transit":false,"time":2,"is_transit":false,"i_lat":-6.360749,"i_long":106.831474,"station_name":"Univ. Indonesia","line":2,"distance":1109},{"is_transit":false,"distance":2264,"i_lat":-6.339291,"transit":false,"time":3,"station_id":"UP","i_long":106.834175,"line":2,"station_name":"Univ. Pancasila"},{"transit":false,"station_name":"Lenteng Agung","distance":1029,"station_id":"LNA","i_long":106.832616,"line":2,"is_transit":false,"time":2,"i_lat":-6.330363},{"i_lat":-6.3080680000000005,"time":3,"i_long":106.838896,"transit":false,"station_name":"Tanjung Barat","distance":2671,"line":2,"is_transit":false,"station_id":"TNT"},{"distance":2820,"time":4,"i_lat":-6.2842400000000005,"station_id":"PSM","i_long":106.843999,"line":2,"is_transit":false,"transit":false,"station_name":"Pasar Minggu"},{"is_transit":false,"transit":false,"i_lat":-6.263214,"distance":2380,"time":2,"station_name":"Pasar Minggu Baru","i_long":106.851577,"line":2,"station_id":"PSMB"},{"time":2,"i_lat":-6.255332,"station_id":"DRN","station_name":"Duren Kalibata","transit":false,"i_long":106.85449,"line":0,"is_transit":false,"distance":824},{"i_lat":-6.242512,"station_name":"Cawang","time":3,"line":0,"i_long":106.856607,"station_id":"CW","is_transit":false,"distance":1546,"transit":false},{"transit":false,"distance":1230,"is_transit":false,"station_name":"Tebet","i_lat":-6.226659,"station_id":"TEB","i_long":106.857948,"time":2,"line":2},{"is_transit":true,"station_id":"MRI","distance":2610,"transit":true,"i_lat":-6.209883,"time":4,"station_name":"Manggarai","line":0,"i_long":106.84912},{"is_transit":false,"station_name":"Sudirman","time":4,"distance":3186,"transit":false,"i_long":106.822649,"line":1,"station_id":"SUD","i_lat":-6.202263},{"is_transit":false,"station_name":"Sudirman Baru","i_long":106.819881,"line":1,"distance":280,"station_id":"SUDB","time":1,"transit":false,"i_lat":-6.201433},{"line":1,"station_name":"Karet","is_transit":false,"time":1,"i_lat":-6.20132,"distance":471,"transit":false,"i_long":106.816351,"station_id":"KAT"},{"station_id":"THB","station_name":"Tanah Abang","time":5,"i_lat":-6.185545,"i_long":106.811091,"transit":false,"distance":2029,"is_transit":true,"line":1},{"i_long":106.800832,"line":1,"time":8,"station_name":"Duri","distance":3632,"i_lat":-6.155215,"station_id":"DU","transit":true,"is_transit":true},{"i_lat":-6.144674,"i_long":106.79867,"distance":1230,"station_name":"Angke","transit":false,"station_id":"AK","is_transit":false,"line":0,"time":4},{"i_long":106.826365,"is_transit":true,"i_lat":-6.132549,"station_name":"Kampung Bandan","distance":4102,"station_id":"KPB","line":0,"time":9,"transit":false},{"i_lat":-6.137569,"transit":true,"station_name":"Jakarta Kota","station_id":"JAKK","i_long":106.812439,"distance":1364,"is_transit":true,"time":3,"line":0},{"transit":false,"i_long":106.820901,"station_name":"Jayakarta","time":4,"station_id":"JAY","is_transit":false,"distance":1264,"line":7,"i_lat":-6.141205},{"time":2,"i_lat":-6.149769,"line":2,"transit":false,"is_transit":false,"i_long":106.82482,"station_id":"MGB","station_name":"Manggabesar","distance":1080},{"is_transit":false,"time":2,"i_lat":-6.160725,"station_id":"SW","station_name":"Sawah Besar","distance":906,"transit":false,"i_long":106.827103,"line":2},{"line":2,"is_transit":false,"time":2,"distance":1149,"transit":false,"station_name":"Juanda","i_lat":-6.166716,"i_long":106.828284,"station_id":"JUA"},{"distance":2015,"line":2,"station_id":"GDD","transit":false,"station_name":"Gondangdia","is_transit":false,"i_lat":-6.186295,"i_long":106.832183,"time":4},{"is_transit":false,"distance":1750,"station_name":"Cikini","time":3,"i_lat":-6.198556,"line":0,"station_id":"CKI","transit":false,"i_long":106.840169}],[{"station_name":"Nambo","distance":0,"i_lat":-6.466285,"line":21,"transit":false,"is_transit":false,"i_long":106.905196,"station_id":"NMO","time":0},{"i_long":106.851978,"station_name":"Cibinong","is_transit":false,"station_id":"CBN","time":10,"distance":6527,"transit":false,"i_lat":-6.46424,"line":0},{"distance":6740,"transit":false,"station_id":"CTA","is_transit":true,"time":10,"i_lat":-6.448811,"line":1,"i_long":106.800298,"station_name":"Citayam"},{"time":6,"distance":5084,"transit":false,"i_lat":-6.405256,"i_long":106.816926,"line":0,"station_name":"Depok","is_transit":false,"station_id":"DP"},{"time":3,"distance":1584,"station_id":"DPB","i_lat":-6.391065,"line":0,"i_long":106.819451,"station_name":"Depokbaru","transit":false,"is_transit":false},{"transit":false,"line":2,"is_transit":false,"i_long":106.831114,"station_name":"Pondok Cina","distance":2727,"time":4,"i_lat":-6.369073,"station_id":"POC"},{"station_id":"UI","station_name":"Univ. Indonesia","transit":false,"distance":1109,"i_lat":-6.360749,"i_long":106.831474,"is_transit":false,"time":2,"line":2},{"i_long":106.834175,"i_lat":-6.339291,"is_transit":false,"transit":false,"distance":2264,"station_id":"UP","time":3,"line":2,"station_name":"Univ. Pancasila"},{"i_long":106.832616,"time":2,"transit":false,"line":2,"is_transit":false,"station_name":"Lenteng Agung","distance":1029,"station_id":"LNA","i_lat":-6.330363},{"i_long":106.838896,"line":2,"station_name":"Tanjung Barat","station_id":"TNT","transit":false,"i_lat":-6.3080680000000005,"is_transit":false,"distance":2671,"time":3},{"line":2,"station_name":"Pasar Minggu","i_long":106.843999,"i_lat":-6.2842400000000005,"transit":false,"is_transit":false,"distance":2820,"station_id":"PSM","time":4},{"transit":false,"station_id":"PSMB","i_lat":-6.263214,"time":2,"distance":2380,"i_long":106.851577,"is_transit":false,"line":2,"station_name":"Pasar Minggu Baru"},{"distance":824,"i_long":106.85449,"line":0,"station_name":"Duren Kalibata","station_id":"DRN","is_transit":false,"time":2,"i_lat":-6.255332,"transit":false},{"i_long":106.856607,"time":3,"station_id":"CW","station_name":"Cawang","is_transit":false,"transit":false,"i_lat":-6.242512,"distance":1546,"line":0},{"transit":false,"distance":1230,"station_id":"TEB","station_name":"Tebet","is_transit":false,"time":2,"line":2,"i_lat":-6.226659,"i_long":106.857948},{"i_lat":-6.209883,"time":4,"station_id":"MRI","station_name":"Manggarai","distance":2610,"transit":true,"i_long":106.84912,"is_transit":true,"line":0},{"i_long":106.858896,"station_id":"MTR","time":2,"transit":false,"station_name":"Matraman","distance":1275,"i_lat":-6.212485,"line":1,"is_transit":false},{"i_long":106.86807400000001,"line":0,"station_name":"Jatinegara","time":8,"is_transit":true,"distance":1377,"i_lat":-6.215091,"station_id":"JNG","transit":true},{"station_id":"POK","i_long":106.861737,"line":11,"time":2,"distance":1236,"is_transit":false,"station_name":"Pondok Jati","transit":false,"i_lat":-6.209188},{"station_name":"Kramat","i_lat":-6.193792,"distance":1829,"is_transit":false,"time":2,"transit":false,"line":11,"station_id":"KMT","i_long":106.855437},{"station_name":"Gang Sentiong","i_lat":-6.185975,"time":1,"distance":973,"i_long":106.850107,"station_id":"GST","transit":false,"line":11,"is_transit":false},{"i_lat":-6.174784,"time":8,"station_name":"Pasar Senen","i_long":106.84368,"is_transit":false,"distance":1567,"transit":false,"station_id":"PSE","line":11},{"station_name":"Kemayoran","station_id":"KMO","time":4,"line":11,"transit":false,"is_transit":false,"distance":1436,"i_lat":-6.161728,"i_long":106.839204},{"time":5,"i_long":106.836569,"is_transit":false,"i_lat":-6.14505,"station_id":"RJW","station_name":"Rajawali","distance":1901,"line":11,"transit":false},{"station_id":"KPB","transit":true,"time":3,"i_lat":-6.132549,"station_name":"Kampung Bandan","is_transit":true,"distance":1444,"i_long":106.826365,"line":0},{"line":0,"station_name":"Jakarta Kota","i_lat":-6.137569,"time":3,"station_id":"JAKK","is_transit":true,"i_long":106.812439,"transit":true,"distance":1364},{"distance":1264,"transit":false,"is_transit":false,"station_name":"Jayakarta","i_lat":-6.141205,"line":7,"i_long":106.820901,"time":4,"station_id":"JAY"},{"is_transit":false,"station_name":"Manggabesar","i_long":106.82482,"line":2,"transit":false,"station_id":"MGB","i_lat":-6.149769,"time":2,"distance":1080},{"distance":906,"station_id":"SW","transit":false,"i_lat":-6.160725,"i_long":106.827103,"line":2,"is_transit":false,"time":2,"station_name":"Sawah Besar"},{"station_id":"JUA","time":2,"i_long":106.828284,"is_transit":false,"transit":false,"station_name":"Juanda","distance":1149,"i_lat":-6.166716,"line":2},{"station_id":"GDD","station_name":"Gondangdia","is_transit":false,"time":4,"line":2,"transit":false,"distance":2015,"i_long":106.832183,"i_lat":-6.186295},{"is_transit":false,"i_lat":-6.198556,"station_name":"Cikini","time":3,"distance":1750,"station_id":"CKI","i_long":106.840169,"line":0,"transit":false}]]}