{"data":[[{"distance":0,"transit":false,"station_name":"Nambo","time":0,"i_long":106.905196,"is_transit":false,"i_lat":-6.466285,"station_id":"NMO","line":21},{"station_name":"Cibinong","i_long":106.851978,"is_transit":false,"transit":false,"distance":6527,"i_lat":-6.46424,"line":21,"time":10,"station_id":"CBN"},{"time":0,"station_name":"Pondok Rajeg","i_lat":-6.460735,"line":21,"transit":false,"station_id":"PDRG","is_transit":false,"distance":0,"i_long":106.824374},{"i_long":106.800298,"distance":0,"time":0,"i_lat":-6.448811,"is_transit":true,"line":2,"station_name":"Citayam","transit":true,"station_id":"CTA"},{"distance":5084,"line":2,"transit":false,"is_transit":false,"station_id":"DP","i_lat":-6.405256,"i_long":106.816926,"time":6,"station_name":"Depok"},{"i_lat":-6.391065,"transit":false,"station_name":"Depokbaru","is_transit":false,"time":3,"distance":1584,"station_id":"DPB","line":2,"i_long":106.819451},{"i_lat":-6.369073,"station_name":"Pondok Cina","i_long":106.831114,"time":4,"transit":false,"is_transit":false,"distance":2727,"station_id":"POC","line":2},{"transit":false,"station_id":"UI","i_long":106.831474,"station_name":"Univ. Indonesia","time":2,"line":2,"is_transit":false,"i_lat":-6.360749,"distance":1109},{"is_transit":false,"i_lat":-6.339291,"station_id":"UP","station_name":"Univ. Pancasila","distance":2264,"i_long":106.834175,"line":2,"transit":false,"time":3},{"time":2,"station_name":"Lenteng Agung","i_lat":-6.330363,"transit":false,"distance":1029,"station_id":"LNA","i_long":106.832616,"is_transit":false,"line":2},{"is_transit":false,"line":2,"station_id":"TNT","distance":2671,"i_long":106.838896,"transit":false,"station_name":"Tanjung Barat","time":3,"i_lat":-6.3080680000000005},{"transit":false,"distance":2820,"i_long":106.843999,"line":2,"station_name":"Pasar Minggu","is_transit":false,"station_id":"PSM","i_lat":-6.2842400000000005,"time":4},{"i_long":106.851577,"station_id":"PSMB","station_name":"Pasar Minggu Baru","transit":false,"is_transit":false,"distance":2380,"time":2,"i_lat":-6.263214,"line":2},{"time":2,"station_id":"DRN","station_name":"Duren Kalibata","line":2,"is_transit":false,"i_lat":-6.255332,"transit":false,"i_long":106.85449,"distance":824},{"station_id":"CW","transit":false,"distance":1546,"i_lat":-6.242512,"line":2,"is_transit":false,"i_long":106.856607,"time":3,"station_name":"Cawang"},{"transit":false,"distance":1230,"time":2,"station_id":"TEB","i_long":106.857948,"line":2,"i_lat":-6.226659,"station_name":"Tebet","is_transit":false},{"transit":true,"distance":2610,"i_lat":-6.209883,"i_long":106.84912,"station_id":"MRI","line":2,"station_name":"Manggarai","is_transit":true,"time":4},{"i_long":106.822649,"line":1,"distance":3186,"is_transit":false,"station_id":"SUD","i_lat":-6.202263,"station_name":"Sudirman","time":4,"transit":false},{"distance":280,"station_name":"Sudirman Baru","i_lat":-6.201433,"time":1,"station_id":"SUDB","is_transit":false,"i_long":106.819881,"transit":false,"line":1},{"distance":471,"station_id":"KAT","time":1,"station_name":"Karet","is_transit":false,"i_lat":-6.20132,"i_long":106.816351,"line":1,"transit":false},{"station_id":"THB","is_transit":true,"i_long":106.811091,"line":1,"time":5,"station_name":"Tanah Abang","transit":true,"i_lat":-6.185545,"distance":2029},{"station_name":"Palmerah","time":6,"line":6,"distance":3191,"station_id":"PLM","i_lat":-6.207404,"transit":false,"is_transit":false,"i_long":106.79689},{"is_transit":false,"transit":false,"distance":3737,"station_id":"KBY","line":6,"time":7,"i_lat":-6.237242,"i_long":106.780334,"station_name":"Kebayoran"},{"station_name":"Pondokranji","time":8,"station_id":"PDJ","i_lat":-6.276362,"i_long":106.74273,"line":6,"distance":6218,"is_transit":false,"transit":false},{"i_lat":-6.288927,"i_long":106.728916,"station_id":"JMU","is_transit":false,"line":6,"time":3,"transit":false,"distance":2179,"station_name":"Jurangmangu"},{"station_name":"Sudimara","is_transit":false,"distance":1994,"i_lat":-6.296963,"i_long":106.712277,"line":6,"transit":false,"station_id":"SDM","time":4},{"time":6,"is_transit":false,"transit":false,"i_long":106.675475,"i_lat":-6.314823,"line":6,"station_name":"Rawa Buntu","distance":4566,"station_id":"RU"},{"time":4,"station_name":"Serpong","is_transit":false,"distance":2413,"i_lat":-6.319871,"i_long":106.66566,"line":6,"transit":false,"station_id":"SRP"},{"is_transit":false,"time":4,"i_lat":-6.32484,"line":3,"distance":1784,"station_name":"Cisauk","transit":false,"i_long":106.640411,"station_id":"CSK"},{"station_id":"CC","line":3,"i_lat":-6.329547,"station_name":"Cicayur","time":4,"is_transit":false,"i_long":106.617853,"transit":false,"distance":2519}],[{"is_transit":false,"i_lat":-6.466285,"time":0,"transit":false,"distance":0,"station_id":"NMO","i_long":106.905196,"line":21,"station_name":"Nambo"},{"i_long":106.851978,"i_lat":-6.46424,"line":21,"distance":6527,"time":10,"transit":false,"station_id":"CBN","station_name":"Cibinong","is_transit":false},{"line":21,"transit":false,"i_long":106.824374,"distance":0,"time":0,"station_name":"Pondok Rajeg","is_transit":false,"station_id":"PDRG","i_lat":-6.460735},{"distance":0,"is_transit":true,"line":2,"transit":true,"station_id":"CTA","i_long":106.800298,"station_name":"Citayam","i_lat":-6.448811,"time":0},{"i_long":106.816926,"time":6,"station_id":"DP","station_name":"Depok","distance":5084,"is_transit":false,"transit":false,"i_lat":-6.405256,"line":2},{"transit":false,"i_long":106.819451,"distance":1584,"i_lat":-6.391065,"station_name":"Depokbaru","station_id":"DPB","is_transit":false,"line":2,"time":3},{"time":4,"is_transit":false,"line":2,"i_lat":-6.369073,"transit":false,"station_name":"Pondok Cina","i_long":106.831114,"station_id":"POC","distance":2727},{"time":2,"station_name":"Univ. Indonesia","i_lat":-6.360749,"is_transit":false,"line":2,"transit":false,"i_long":106.831474,"station_id":"UI","distance":1109},{"time":3,"station_id":"UP","line":2,"station_name":"Univ. Pancasila","transit":false,"i_long":106.834175,"distance":2264,"i_lat":-6.339291,"is_transit":false},{"time":2,"line":2,"station_name":"Lenteng Agung","distance":1029,"is_transit":false,"station_id":"LNA","i_lat":-6.330363,"i_long":106.832616,"transit":false},{"transit":false,"station_id":"TNT","i_long":106.838896,"distance":2671,"is_transit":false,"line":2,"station_name":"Tanjung Barat","i_lat":-6.3080680000000005,"time":3},{"i_lat":-6.2842400000000005,"i_long":106.843999,"line":2,"station_id":"PSM","time":4,"transit":false,"is_transit":false,"station_name":"Pasar Minggu","distance":2820},{"transit":false,"i_lat":-6.263214,"station_id":"PSMB","line":2,"station_name":"Pasar Minggu Baru","time":2,"is_transit":false,"distance":2380,"i_long":106.851577},{"i_lat":-6.255332,"time":2,"is_transit":false,"i_long":106.85449,"station_id":"DRN","line":2,"station_name":"Duren Kalibata","distance":824,"transit":false},{"transit":false,"distance":1546,"is_transit":false,"time":3,"station_id":"CW","i_lat":-6.242512,"line":2,"station_name":"Cawang","i_long":106.856607},{"distance":1230,"time":2,"is_transit":false,"station_id":"TEB","i_lat":-6.226659,"transit":false,"line":2,"i_long":106.857948,"station_name":"Tebet"},{"line":2,"time":4,"station_name":"Manggarai","station_id":"MRI","is_transit":false,"distance":2610,"i_lat":-6.209883,"i_long":106.84912,"transit":false},{"station_name":"Cikini","station_id":"CKI","is_transit":false,"distance":1590,"i_long":106.840169,"transit":false,"i_lat":-6.198556,"time":4,"line":2},{"i_long":106.832183,"station_id":"GDD","is_transit":false,"line":2,"distance":1750,"station_name":"Gondangdia","transit":false,"i_lat":-6.186295,"time":3},{"i_long":106.828284,"is_transit":false,"time":4,"line":2,"distance":2015,"transit":false,"station_name":"Juanda","station_id":"JUA","i_lat":-6.166716},{"station_id":"SW","i_lat":-6.160725,"transit":false,"i_long":106.827103,"station_name":"Sawah Besar","distance":1149,"time":2,"is_transit":false,"line":2},{"i_long":106.82482,"is_transit":false,"station_id":"MGB","distance":906,"line":2,"station_name":"Manggabesar","time":2,"i_lat":-6.149769,"transit":false},{"i_lat":-6.141205,"station_id":"JAY","time":2,"line":2,"transit":false,"i_long":106.820901,"station_name":"Jayakarta","is_transit":false,"distance":1080},{"station_name":"Jakarta Kota","is_transit":true,"time":4,"line":2,"i_long":106.812439,"distance":1264,"i_lat":-6.137569,"transit":true,"station_id":"JAKK"},{"transit":true,"is_transit":true,"i_lat":-6.132549,"time":3,"i_long":106.826365,"distance":1364,"station_name":"Kampung Bandan","station_id":"KPB","line":4},{"i_lat":-6.144674,"line":1,"station_id":"AK","station_name":"Angke","transit":false,"is_transit":false,"distance":4102,"time":9,"i_long":106.79867},{"is_transit":false,"line":1,"distance":1230,"station_id":"DU","station_name":"Duri","time":4,"transit":false,"i_lat":-6.155215,"i_long":106.800832},{"time":8,"station_id":"THB","line":1,"i_long":106.811091,"distance":3632,"is_transit":true,"i_lat":-6.185545,"station_name":"Tanah Abang","transit":true},{"i_long":106.79689,"transit":false,"station_name":"Palmerah","distance":3191,"i_lat":-6.207404,"line":6,"time":6,"station_id":"PLM","is_transit":false},{"transit":false,"station_name":"Kebayoran","station_id":"KBY","is_transit":false,"line":6,"time":7,"distance":3737,"i_lat":-6.237242,"i_long":106.780334},{"distance":6218,"i_long":106.74273,"time":8,"station_id":"PDJ","is_transit":false,"line":6,"transit":false,"station_name":"Pondokranji","i_lat":-6.276362},{"station_id":"JMU","i_long":106.728916,"time":3,"transit":false,"is_transit":false,"station_name":"Jurangmangu","distance":2179,"i_lat":-6.288927,"line":6},{"i_long":106.712277,"station_name":"Sudimara","i_lat":-6.296963,"station_id":"SDM","transit":false,"time":4,"is_transit":false,"distance":1994,"line":6},{"transit":false,"i_long":106.675475,"i_lat":-6.314823,"station_name":"Rawa Buntu","distance":4566,"line":6,"time":6,"is_transit":false,"station_id":"RU"},{"i_long":106.66566,"distance":2413,"time":4,"station_id":"SRP","is_transit":false,"i_lat":-6.319871,"station_name":"Serpong","line":6,"transit":false},{"line":3,"time":4,"is_transit":false,"i_long":106.640411,"station_id":"CSK","i_lat":-6.32484,"station_name":"Cisauk","transit":false,"distance":1784},{"is_transit":false,"station_name":"Cicayur","time":4,"i_long":106.617853,"distance":2519,"i_lat":-6.329547,"line":3,"station_id":"CC","transit":false}],[{"i_lat":-6.466285,"time":0,"station_id":"NMO","is_transit":false,"distance":0,"i_long":106.905196,"line":21,"station_name":"Nambo","transit":false},{"i_long":106.851978,"distance":6527,"station_name":"Cibinong","time":10,"i_lat":-6.46424,"station_id":"CBN","transit":false,"line":21,"is_transit":false},{"line":21,"transit":false,"time":0,"i_lat":-6.460735,"i_long":106.824374,"distance":0,"station_name":"Pondok Rajeg","station_id":"PDRG","is_transit":false},{"is_transit":true,"line":2,"station_name":"Citayam","time":0,"distance":0,"i_lat":-6.448811,"station_id":"CTA","transit":true,"i_long":106.800298},{"i_long":106.816926,"line":2,"time":6,"station_name":"Depok","transit":false,"is_transit":false,"i_lat":-6.405256,"station_id":"DP","distance":5084},{"station_id":"DPB","line":2,"is_transit":false,"i_lat":-6.391065,"station_name":"Depokbaru","time":3,"transit":false,"i_long":106.819451,"distance":1584},{"distance":2727,"i_long":106.831114,"time":4,"station_id":"POC","i_lat":-6.369073,"station_name":"Pondok Cina","line":2,"is_transit":false,"transit":false},{"station_name":"Univ. Indonesia","is_transit":false,"distance":1109,"i_lat":-6.360749,"time":2,"transit":false,"line":2,"station_id":"UI","i_long":106.831474},{"i_long":106.834175,"line":2,"time":3,"is_transit":false,"i_lat":-6.339291,"distance":2264,"station_name":"Univ. Pancasila","transit":false,"station_id":"UP"},{"time":2,"i_long":106.832616,"i_lat":-6.330363,"line":2,"station_id":"LNA","distance":1029,"is_transit":false,"transit":false,"station_name":"Lenteng Agung"},{"station_id":"TNT","line":2,"time":3,"distance":2671,"i_lat":-6.3080680000000005,"station_name":"Tanjung Barat","transit":false,"i_long":106.838896,"is_transit":false},{"transit":false,"station_id":"PSM","i_long":106.843999,"line":2,"station_name":"Pasar Minggu","distance":2820,"time":4,"i_lat":-6.2842400000000005,"is_transit":false},{"station_name":"Pasar Minggu Baru","time":2,"distance":2380,"line":2,"transit":false,"i_lat":-6.263214,"station_id":"PSMB","is_transit":false,"i_long":106.851577},{"line":2,"is_transit":false,"i_lat":-6.255332,"distance":824,"i_long":106.85449,"time":2,"station_name":"Duren Kalibata","transit":false,"station_id":"DRN"},{"distance":1546,"i_long":106.856607,"line":2,"station_name":"Cawang","station_id":"CW","transit":false,"time":3,"is_transit":false,"i_lat":-6.242512},{"is_transit":false,"distance":1230,"station_name":"Tebet","i_long":106.857948,"station_id":"TEB","time":2,"i_lat":-6.226659,"line":2,"transit":false},{"distance":2610,"i_long":106.84912,"transit":true,"station_name":"Manggarai","line":2,"time":4,"is_transit":true,"station_id":"MRI","i_lat":-6.209883},{"is_transit":false,"station_id":"MTR","station_name":"Matraman","line":1,"time":2,"i_lat":-6.212485,"transit":false,"i_long":106.858896,"distance":1275},{"i_long":106.86807400000001,"station_id":"JNG","line":1,"distance":1377,"is_transit":true,"station_name":"Jatinegara","time":8,"transit":true,"i_lat":-6.215091},{"station_id":"POK","is_transit":false,"line":11,"station_name":"Pondok Jati","i_lat":-6.209188,"distance":1236,"time":2,"transit":false,"i_long":106.861737},{"i_lat":-6.193792,"station_id":"KMT","i_long":106.855437,"station_name":"Kramat","distance":1829,"time":2,"transit":false,"line":11,"is_transit":false},{"station_name":"Gang Sentiong","distance":973,"i_lat":-6.185975,"station_id":"GST","is_transit":false,"i_long":106.850107,"line":11,"transit":false,"time":1},{"i_lat":-6.174784,"station_id":"PSE","is_transit":false,"station_name":"Pasar Senen","i_long":106.84368,"transit":false,"line":11,"time":8,"distance":1567},{"station_id":"KMO","station_name":"Kemayoran","i_long":106.839204,"line":11,"transit":false,"is_transit":false,"i_lat":-6.161728,"time":4,"distance":1436},{"is_transit":false,"i_long":106.836569,"distance":1901,"time":5,"i_lat":-6.14505,"line":11,"station_name":"Rajawali","transit":false,"station_id":"RJW"},{"station_name":"Kampung Bandan","time":3,"i_lat":-6.132549,"line":4,"station_id":"KPB","i_long":106.826365,"is_transit":true,"transit":true,"distance":1444},{"i_long":106.79867,"is_transit":false,"station_id":"AK","station_name":"Angke","time":9,"distance":4102,"i_lat":-6.144674,"transit":false,"line":1},{"i_lat":-6.155215,"line":1,"station_id":"DU","i_long":106.800832,"distance":1230,"is_transit":false,"station_name":"Duri","time":4,"transit":false},{"station_name":"Tanah Abang","transit":true,"time":8,"i_lat":-6.185545,"i_long":106.811091,"line":1,"station_id":"THB","is_transit":true,"distance":3632},{"i_lat":-6.207404,"line":6,"is_transit":false,"time":6,"transit":false,"distance":3191,"station_id":"PLM","i_long":106.79689,"station_name":"Palmerah"},{"distance":3737,"i_lat":-6.237242,"line":6,"time":7,"station_id":"KBY","station_name":"Kebayoran","transit":false,"is_transit":false,"i_long":106.780334},{"distance":6218,"i_long":106.74273,"station_id":"PDJ","transit":false,"time":8,"i_lat":-6.276362,"line":6,"is_transit":false,"station_name":"Pondokranji"},{"i_long":106.728916,"line":6,"station_name":"Jurangmangu","station_id":"JMU","i_lat":-6.288927,"is_transit":false,"distance":2179,"time":3,"transit":false},{"station_name":"Sudimara","is_transit":false,"time":4,"i_lat":-6.296963,"distance":1994,"station_id":"SDM","i_long":106.712277,"line":6,"transit":false},{"distance":4566,"station_name":"Rawa Buntu","time":6,"line":6,"i_long":106.675475,"station_id":"RU","i_lat":-6.314823,"is_transit":false,"transit":false},{"time":4,"i_long":106.66566,"station_id":"SRP","line":6,"station_name":"Serpong","i_lat":-6.319871,"distance":2413,"is_transit":false,"transit":false},{"is_transit":false,"distance":1784,"time":4,"i_long":106.640411,"station_id":"CSK","transit":false,"line":3,"i_lat":-6.32484,"station_name":"Cisauk"},{"station_id":"CC","transit":false,"is_transit":false,"i_lat":-6.329547,"line":3,"station_name":"Cicayur","distance":2519,"i_long":106.617853,"time":4}]]}