{"data":[[{"station_name":"Nambo","station_id":"NMO","distance":0,"i_lat":-6.466285,"is_transit":false,"i_long":106.905196,"transit":false,"line":21,"time":0},{"station_name":"Cibinong","transit":false,"is_transit":false,"distance":6527,"i_lat":-6.46424,"station_id":"CBN","line":21,"i_long":106.851978,"time":10},{"station_name":"Pondok Rajeg","line":21,"transit":false,"i_lat":-6.460735,"station_id":"PDRG","time":0,"i_long":106.824374,"is_transit":false,"distance":0},{"station_id":"CTA","time":0,"distance":0,"station_name":"Citayam","i_lat":-6.448811,"transit":true,"is_transit":true,"i_long":106.800298,"line":2},{"time":6,"is_transit":false,"i_lat":-6.405256,"transit":false,"i_long":106.816926,"station_id":"DP","line":2,"station_name":"Depok","distance":5084},{"is_transit":false,"distance":1584,"i_lat":-6.391065,"station_name":"Depokbaru","station_id":"DPB","transit":false,"i_long":106.819451,"line":2,"time":3},{"line":2,"i_lat":-6.369073,"time":4,"i_long":106.831114,"distance":2727,"station_name":"Pondok Cina","station_id":"POC","is_transit":false,"transit":false},{"time":2,"line":2,"i_lat":-6.360749,"i_long":106.831474,"is_transit":false,"distance":1109,"transit":false,"station_id":"UI","station_name":"Univ. Indonesia"},{"time":3,"distance":2264,"transit":false,"station_id":"UP","is_transit":false,"i_lat":-6.339291,"station_name":"Univ. Pancasila","i_long":106.834175,"line":2},{"i_lat":-6.330363,"line":2,"time":2,"station_id":"LNA","station_name":"Lenteng Agung","i_long":106.832616,"is_transit":false,"distance":1029,"transit":false},{"station_name":"Tanjung Barat","station_id":"TNT","time":3,"i_lat":-6.3080680000000005,"i_long":106.838896,"transit":false,"line":2,"is_transit":false,"distance":2671},{"is_transit":false,"transit":false,"i_long":106.843999,"line":2,"i_lat":-6.2842400000000005,"time":4,"distance":2820,"station_id":"PSM","station_name":"Pasar Minggu"},{"i_long":106.851577,"transit":false,"is_transit":false,"station_name":"Pasar Minggu Baru","line":2,"station_id":"PSMB","distance":2380,"time":2,"i_lat":-6.263214},{"distance":824,"line":2,"time":2,"is_transit":false,"i_lat":-6.255332,"i_long":106.85449,"transit":false,"station_id":"DRN","station_name":"Duren Kalibata"},{"time":3,"distance":1546,"station_name":"Cawang","station_id":"CW","i_long":106.856607,"line":2,"transit":false,"is_transit":false,"i_lat":-6.242512},{"line":2,"distance":1230,"station_name":"Tebet","station_id":"TEB","time":2,"transit":false,"is_transit":false,"i_long":106.857948,"i_lat":-6.226659},{"transit":true,"i_lat":-6.209883,"time":4,"station_id":"MRI","is_transit":true,"line":2,"station_name":"Manggarai","i_long":106.84912,"distance":2610},{"is_transit":false,"transit":false,"line":1,"time":4,"station_name":"Sudirman","station_id":"SUD","distance":3186,"i_lat":-6.202263,"i_long":106.822649},{"is_transit":false,"distance":280,"station_id":"SUDB","time":1,"station_name":"Sudirman Baru","i_lat":-6.201433,"i_long":106.819881,"line":1,"transit":false},{"distance":471,"is_transit":false,"transit":false,"i_long":106.816351,"time":1,"line":1,"station_name":"Karet","i_lat":-6.20132,"station_id":"KAT"},{"station_id":"THB","transit":false,"distance":2029,"time":5,"i_long":106.811091,"is_transit":false,"i_lat":-6.185545,"line":1,"station_name":"Tanah Abang"}],[{"line":21,"transit":false,"station_id":"NMO","i_long":106.905196,"distance":0,"time":0,"is_transit":false,"station_name":"Nambo","i_lat":-6.466285},{"time":10,"i_lat":-6.46424,"i_long":106.851978,"distance":6527,"is_transit":false,"station_id":"CBN","line":21,"station_name":"Cibinong","transit":false},{"station_name":"Pondok Rajeg","i_lat":-6.460735,"transit":false,"is_transit":false,"distance":0,"time":0,"i_long":106.824374,"line":21,"station_id":"PDRG"},{"line":2,"transit":true,"station_name":"Citayam","station_id":"CTA","i_lat":-6.448811,"time":0,"is_transit":true,"distance":0,"i_long":106.800298},{"is_transit":false,"time":6,"i_long":106.816926,"line":2,"station_name":"Depok","i_lat":-6.405256,"station_id":"DP","distance":5084,"transit":false},{"station_id":"DPB","line":2,"transit":false,"i_lat":-6.391065,"station_name":"Depokbaru","i_long":106.819451,"distance":1584,"is_transit":false,"time":3},{"station_id":"POC","i_lat":-6.369073,"i_long":106.831114,"is_transit":false,"line":2,"time":4,"distance":2727,"transit":false,"station_name":"Pondok Cina"},{"line":2,"i_long":106.831474,"time":2,"transit":false,"station_id":"UI","is_transit":false,"distance":1109,"station_name":"Univ. Indonesia","i_lat":-6.360749},{"station_id":"UP","distance":2264,"i_lat":-6.339291,"i_long":106.834175,"is_transit":false,"line":2,"transit":false,"time":3,"station_name":"Univ. Pancasila"},{"i_long":106.832616,"station_name":"Lenteng Agung","transit":false,"line":2,"is_transit":false,"distance":1029,"station_id":"LNA","time":2,"i_lat":-6.330363},{"station_id":"TNT","time":3,"transit":false,"is_transit":false,"station_name":"Tanjung Barat","distance":2671,"i_long":106.838896,"i_lat":-6.3080680000000005,"line":2},{"i_lat":-6.2842400000000005,"station_id":"PSM","time":4,"distance":2820,"line":2,"transit":false,"i_long":106.843999,"station_name":"Pasar Minggu","is_transit":false},{"transit":false,"station_name":"Pasar Minggu Baru","line":2,"station_id":"PSMB","i_long":106.851577,"time":2,"i_lat":-6.263214,"is_transit":false,"distance":2380},{"line":2,"time":2,"transit":false,"station_id":"DRN","i_lat":-6.255332,"distance":824,"is_transit":false,"station_name":"Duren Kalibata","i_long":106.85449},{"transit":false,"distance":1546,"line":2,"station_id":"CW","i_long":106.856607,"is_transit":false,"station_name":"Cawang","i_lat":-6.242512,"time":3},{"line":2,"transit":false,"distance":1230,"i_long":106.857948,"time":2,"i_lat":-6.226659,"station_id":"TEB","station_name":"Tebet","is_transit":false},{"is_transit":false,"station_name":"Manggarai","i_long":106.84912,"station_id":"MRI","transit":false,"time":4,"distance":2610,"i_lat":-6.209883,"line":2},{"station_name":"Cikini","i_lat":-6.198556,"distance":1590,"is_transit":false,"i_long":106.840169,"time":4,"transit":false,"line":2,"station_id":"CKI"},{"i_lat":-6.186295,"time":3,"is_transit":false,"distance":1750,"i_long":106.832183,"station_name":"Gondangdia","station_id":"GDD","transit":false,"line":2},{"station_name":"Juanda","station_id":"JUA","is_transit":false,"transit":false,"time":4,"i_long":106.828284,"i_lat":-6.166716,"line":2,"distance":2015},{"station_id":"SW","is_transit":false,"distance":1149,"line":2,"transit":false,"i_lat":-6.160725,"i_long":106.827103,"station_name":"Sawah Besar","time":2},{"line":2,"transit":false,"distance":906,"time":2,"station_name":"Manggabesar","is_transit":false,"i_lat":-6.149769,"station_id":"MGB","i_long":106.82482},{"distance":1080,"i_lat":-6.141205,"station_id":"JAY","time":2,"transit":false,"station_name":"Jayakarta","i_long":106.820901,"line":2,"is_transit":false},{"transit":true,"time":4,"station_name":"Jakarta Kota","distance":1264,"is_transit":true,"i_lat":-6.137569,"station_id":"JAKK","i_long":106.812439,"line":2},{"line":4,"station_id":"KPB","transit":true,"time":3,"is_transit":true,"station_name":"Kampung Bandan","i_lat":-6.132549,"distance":1364,"i_long":106.826365},{"distance":4102,"i_lat":-6.144674,"station_id":"AK","station_name":"Angke","line":1,"is_transit":false,"transit":false,"time":9,"i_long":106.79867},{"station_id":"DU","transit":false,"is_transit":false,"i_lat":-6.155215,"distance":1230,"line":1,"station_name":"Duri","time":4,"i_long":106.800832},{"time":8,"transit":false,"line":1,"distance":3632,"is_transit":false,"station_id":"THB","station_name":"Tanah Abang","i_lat":-6.185545,"i_long":106.811091}],[{"i_long":106.905196,"transit":false,"station_id":"NMO","time":0,"distance":0,"is_transit":false,"i_lat":-6.466285,"station_name":"Nambo","line":21},{"i_lat":-6.46424,"station_name":"Cibinong","station_id":"CBN","line":21,"i_long":106.851978,"distance":6527,"is_transit":false,"transit":false,"time":10},{"station_id":"PDRG","time":0,"transit":false,"distance":0,"station_name":"Pondok Rajeg","is_transit":false,"i_lat":-6.460735,"i_long":106.824374,"line":21},{"i_long":106.800298,"is_transit":true,"line":2,"transit":true,"station_id":"CTA","distance":0,"time":0,"station_name":"Citayam","i_lat":-6.448811},{"station_id":"DP","station_name":"Depok","i_long":106.816926,"line":2,"is_transit":false,"time":6,"transit":false,"distance":5084,"i_lat":-6.405256},{"i_lat":-6.391065,"station_id":"DPB","time":3,"transit":false,"is_transit":false,"i_long":106.819451,"line":2,"distance":1584,"station_name":"Depokbaru"},{"distance":2727,"station_id":"POC","time":4,"i_long":106.831114,"transit":false,"line":2,"station_name":"Pondok Cina","i_lat":-6.369073,"is_transit":false},{"i_lat":-6.360749,"transit":false,"is_transit":false,"line":2,"distance":1109,"i_long":106.831474,"station_id":"UI","time":2,"station_name":"Univ. Indonesia"},{"i_lat":-6.339291,"i_long":106.834175,"station_id":"UP","transit":false,"time":3,"station_name":"Univ. Pancasila","line":2,"is_transit":false,"distance":2264},{"i_long":106.832616,"i_lat":-6.330363,"line":2,"distance":1029,"station_id":"LNA","time":2,"station_name":"Lenteng Agung","transit":false,"is_transit":false},{"station_name":"Tanjung Barat","line":2,"is_transit":false,"distance":2671,"transit":false,"i_lat":-6.3080680000000005,"i_long":106.838896,"station_id":"TNT","time":3},{"time":4,"station_id":"PSM","i_lat":-6.2842400000000005,"line":2,"is_transit":false,"transit":false,"i_long":106.843999,"station_name":"Pasar Minggu","distance":2820},{"i_long":106.851577,"station_name":"Pasar Minggu Baru","line":2,"transit":false,"distance":2380,"i_lat":-6.263214,"is_transit":false,"time":2,"station_id":"PSMB"},{"transit":false,"station_id":"DRN","time":2,"i_long":106.85449,"station_name":"Duren Kalibata","distance":824,"i_lat":-6.255332,"line":2,"is_transit":false},{"station_id":"CW","time":3,"is_transit":false,"transit":false,"station_name":"Cawang","distance":1546,"line":2,"i_long":106.856607,"i_lat":-6.242512},{"time":2,"i_lat":-6.226659,"distance":1230,"line":2,"station_name":"Tebet","i_long":106.857948,"station_id":"TEB","is_transit":false,"transit":false},{"i_lat":-6.209883,"time":4,"station_name":"Manggarai","i_long":106.84912,"station_id":"MRI","distance":2610,"is_transit":true,"line":2,"transit":true},{"station_id":"MTR","transit":false,"line":1,"distance":1275,"time":2,"i_long":106.858896,"is_transit":false,"station_name":"Matraman","i_lat":-6.212485},{"station_name":"Jatinegara","transit":true,"is_transit":true,"i_long":106.86807400000001,"distance":1377,"i_lat":-6.215091,"time":8,"station_id":"JNG","line":1},{"is_transit":false,"station_name":"Pondok Jati","station_id":"POK","i_lat":-6.209188,"i_long":106.861737,"line":11,"distance":1236,"transit":false,"time":2},{"station_name":"Kramat","time":2,"is_transit":false,"transit":false,"line":11,"i_long":106.855437,"station_id":"KMT","i_lat":-6.193792,"distance":1829},{"transit":false,"is_transit":false,"line":11,"station_id":"GST","time":1,"distance":973,"i_lat":-6.185975,"i_long":106.850107,"station_name":"Gang Sentiong"},{"i_long":106.84368,"transit":false,"time":8,"distance":1567,"i_lat":-6.174784,"is_transit":false,"station_id":"PSE","station_name":"Pasar Senen","line":11},{"station_name":"Kemayoran","transit":false,"station_id":"KMO","i_long":106.839204,"line":11,"distance":1436,"is_transit":false,"i_lat":-6.161728,"time":4},{"i_long":106.836569,"station_name":"Rajawali","station_id":"RJW","distance":1901,"time":5,"transit":false,"is_transit":false,"line":11,"i_lat":-6.14505},{"is_transit":true,"distance":1444,"station_id":"KPB","i_lat":-6.132549,"i_long":106.826365,"time":3,"station_name":"Kampung Bandan","line":4,"transit":true},{"transit":false,"time":9,"distance":4102,"i_long":106.79867,"i_lat":-6.144674,"station_name":"Angke","is_transit":false,"station_id":"AK","line":1},{"i_lat":-6.155215,"station_id":"DU","time":4,"line":1,"transit":false,"is_transit":false,"distance":1230,"i_long":106.800832,"station_name":"Duri"},{"transit":false,"is_transit":false,"line":1,"distance":3632,"station_id":"THB","time":8,"i_long":106.811091,"station_name":"Tanah Abang","i_lat":-6.185545}]]}