{"data":[[{"i_lat":-6.466285,"line":21,"station_name":"Nambo","station_id":"NMO","transit":false,"time":0,"distance":0,"i_long":106.905196,"is_transit":false},{"transit":false,"i_lat":-6.46424,"distance":6527,"time":10,"station_name":"Cibinong","is_transit":false,"station_id":"CBN","i_long":106.851978,"line":21},{"time":0,"distance":0,"is_transit":false,"i_long":106.824374,"station_id":"PDRG","transit":false,"line":21,"station_name":"Pondok Rajeg","i_lat":-6.460735},{"is_transit":true,"i_lat":-6.448811,"distance":0,"transit":true,"time":0,"station_id":"CTA","i_long":106.800298,"station_name":"Citayam","line":2},{"station_id":"DP","distance":5084,"i_lat":-6.405256,"line":2,"station_name":"Depok","is_transit":false,"time":6,"i_long":106.816926,"transit":false},{"distance":1584,"i_lat":-6.391065,"time":3,"station_name":"Depokbaru","station_id":"DPB","line":2,"i_long":106.819451,"is_transit":false,"transit":false},{"distance":2727,"i_lat":-6.369073,"line":2,"station_name":"Pondok Cina","station_id":"POC","transit":false,"is_transit":false,"time":4,"i_long":106.831114},{"distance":1109,"i_long":106.831474,"line":2,"i_lat":-6.360749,"time":2,"is_transit":false,"station_name":"Univ. Indonesia","station_id":"UI","transit":false},{"distance":2264,"station_id":"UP","station_name":"Univ. Pancasila","transit":false,"i_long":106.834175,"is_transit":false,"line":2,"i_lat":-6.339291,"time":3}]]}