{"data":[[{"station_name":"Nambo","time":0,"i_long":106.905196,"distance":0,"i_lat":-6.466285,"station_id":"NMO","line":21,"transit":false,"is_transit":false},{"i_long":106.851978,"i_lat":-6.46424,"line":21,"station_id":"CBN","distance":6527,"transit":false,"is_transit":false,"station_name":"Cibinong","time":10},{"line":21,"transit":false,"i_long":106.824374,"station_id":"PDRG","station_name":"Pondok Rajeg","is_transit":false,"i_lat":-6.460735,"time":0,"distance":0},{"transit":true,"line":2,"time":0,"i_long":106.800298,"distance":0,"station_id":"CTA","is_transit":true,"i_lat":-6.448811,"station_name":"Citayam"},{"i_lat":-6.405256,"is_transit":false,"station_id":"DP","station_name":"Depok","i_long":106.816926,"transit":false,"distance":5084,"line":2,"time":6},{"i_lat":-6.391065,"time":3,"distance":1584,"transit":false,"station_id":"DPB","is_transit":false,"station_name":"Depokbaru","i_long":106.819451,"line":2},{"transit":false,"time":4,"distance":2727,"station_id":"POC","station_name":"Pondok Cina","is_transit":false,"i_long":106.831114,"line":2,"i_lat":-6.369073},{"i_lat":-6.360749,"transit":false,"time":2,"station_id":"UI","distance":1109,"station_name":"Univ. Indonesia","i_long":106.831474,"is_transit":false,"line":2}]]}