{"data":[[{"transit":false,"station_id":"NMO","time":0,"distance":0,"i_long":106.905196,"is_transit":false,"i_lat":-6.466285,"station_name":"Nambo","line":21},{"station_id":"CBN","station_name":"Cibinong","transit":false,"i_long":106.851978,"distance":6527,"i_lat":-6.46424,"line":21,"is_transit":false,"time":10},{"distance":0,"transit":false,"time":0,"i_long":106.824374,"station_id":"PDRG","station_name":"Pondok Rajeg","i_lat":-6.460735,"is_transit":false,"line":21},{"i_lat":-6.448811,"i_long":106.800298,"time":0,"station_name":"Citayam","line":2,"transit":true,"station_id":"CTA","distance":0,"is_transit":true},{"station_id":"DP","distance":5084,"line":2,"i_lat":-6.405256,"i_long":106.816926,"time":6,"is_transit":false,"station_name":"Depok","transit":false},{"i_lat":-6.391065,"transit":false,"i_long":106.819451,"station_name":"Depokbaru","is_transit":false,"station_id":"DPB","time":3,"distance":1584,"line":2},{"line":2,"transit":false,"station_name":"Pondok Cina","station_id":"POC","is_transit":false,"distance":2727,"i_long":106.831114,"i_lat":-6.369073,"time":4},{"station_id":"UI","distance":1109,"i_lat":-6.360749,"transit":false,"is_transit":false,"i_long":106.831474,"time":2,"station_name":"Univ. Indonesia","line":2},{"line":2,"i_lat":-6.339291,"station_id":"UP","station_name":"Univ. Pancasila","time":3,"is_transit":false,"transit":false,"distance":2264,"i_long":106.834175},{"station_id":"LNA","is_transit":false,"time":2,"i_long":106.832616,"line":2,"transit":false,"distance":1029,"station_name":"Lenteng Agung","i_lat":-6.330363},{"station_name":"Tanjung Barat","i_long":106.838896,"i_lat":-6.3080680000000005,"is_transit":false,"distance":2671,"line":2,"station_id":"TNT","time":3,"transit":false},{"station_name":"Pasar Minggu","time":4,"distance":2820,"i_lat":-6.2842400000000005,"station_id":"PSM","is_transit":false,"line":2,"i_long":106.843999,"transit":false},{"i_long":106.851577,"station_id":"PSMB","distance":2380,"transit":false,"is_transit":false,"time":2,"station_name":"Pasar Minggu Baru","i_lat":-6.263214,"line":2},{"is_transit":false,"distance":824,"line":2,"i_long":106.85449,"station_name":"Duren Kalibata","transit":false,"time":2,"i_lat":-6.255332,"station_id":"DRN"},{"is_transit":false,"distance":1546,"i_long":106.856607,"line":2,"time":3,"i_lat":-6.242512,"transit":false,"station_id":"CW","station_name":"Cawang"},{"distance":1230,"line":2,"station_name":"Tebet","station_id":"TEB","i_long":106.857948,"time":2,"is_transit":false,"i_lat":-6.226659,"transit":false},{"transit":true,"distance":2610,"i_lat":-6.209883,"station_name":"Manggarai","is_transit":true,"i_long":106.84912,"time":4,"station_id":"MRI","line":2},{"station_name":"Sudirman","is_transit":false,"station_id":"SUD","time":4,"i_long":106.822649,"line":1,"i_lat":-6.202263,"distance":3186,"transit":false},{"station_name":"Sudirman Baru","i_long":106.819881,"station_id":"SUDB","transit":false,"i_lat":-6.201433,"time":1,"line":1,"distance":280,"is_transit":false},{"is_transit":false,"i_lat":-6.20132,"line":1,"time":1,"distance":471,"i_long":106.816351,"station_name":"Karet","station_id":"KAT","transit":false},{"time":5,"transit":true,"is_transit":true,"i_long":106.811091,"line":1,"distance":2029,"station_name":"Tanah Abang","i_lat":-6.185545,"station_id":"THB"},{"transit":false,"station_id":"PLM","distance":3191,"i_long":106.79689,"is_transit":false,"line":6,"station_name":"Palmerah","time":6,"i_lat":-6.207404},{"station_id":"KBY","is_transit":false,"transit":false,"time":7,"station_name":"Kebayoran","distance":3737,"i_long":106.780334,"line":6,"i_lat":-6.237242}],[{"station_name":"Nambo","is_transit":false,"time":0,"line":21,"station_id":"NMO","transit":false,"distance":0,"i_lat":-6.466285,"i_long":106.905196},{"station_id":"CBN","is_transit":false,"i_lat":-6.46424,"time":10,"i_long":106.851978,"station_name":"Cibinong","transit":false,"line":21,"distance":6527},{"station_id":"PDRG","line":21,"transit":false,"i_long":106.824374,"time":0,"i_lat":-6.460735,"distance":0,"is_transit":false,"station_name":"Pondok Rajeg"},{"i_long":106.800298,"line":2,"is_transit":true,"time":0,"distance":0,"transit":true,"station_id":"CTA","station_name":"Citayam","i_lat":-6.448811},{"station_id":"DP","i_long":106.816926,"transit":false,"is_transit":false,"time":6,"i_lat":-6.405256,"station_name":"Depok","line":2,"distance":5084},{"distance":1584,"station_name":"Depokbaru","i_long":106.819451,"time":3,"station_id":"DPB","is_transit":false,"i_lat":-6.391065,"line":2,"transit":false},{"i_lat":-6.369073,"time":4,"station_name":"Pondok Cina","i_long":106.831114,"station_id":"POC","transit":false,"distance":2727,"line":2,"is_transit":false},{"transit":false,"is_transit":false,"station_id":"UI","distance":1109,"i_lat":-6.360749,"station_name":"Univ. Indonesia","i_long":106.831474,"time":2,"line":2},{"is_transit":false,"station_id":"UP","time":3,"station_name":"Univ. Pancasila","transit":false,"distance":2264,"i_lat":-6.339291,"line":2,"i_long":106.834175},{"time":2,"line":2,"transit":false,"is_transit":false,"station_name":"Lenteng Agung","distance":1029,"i_lat":-6.330363,"i_long":106.832616,"station_id":"LNA"},{"station_id":"TNT","is_transit":false,"line":2,"i_lat":-6.3080680000000005,"transit":false,"i_long":106.838896,"station_name":"Tanjung Barat","time":3,"distance":2671},{"station_name":"Pasar Minggu","transit":false,"is_transit":false,"i_long":106.843999,"station_id":"PSM","line":2,"time":4,"distance":2820,"i_lat":-6.2842400000000005},{"i_lat":-6.263214,"line":2,"transit":false,"is_transit":false,"station_name":"Pasar Minggu Baru","time":2,"i_long":106.851577,"distance":2380,"station_id":"PSMB"},{"distance":824,"time":2,"is_transit":false,"line":2,"station_id":"DRN","station_name":"Duren Kalibata","transit":false,"i_long":106.85449,"i_lat":-6.255332},{"distance":1546,"is_transit":false,"i_long":106.856607,"line":2,"i_lat":-6.242512,"station_id":"CW","station_name":"Cawang","transit":false,"time":3},{"i_long":106.857948,"distance":1230,"transit":false,"line":2,"station_id":"TEB","time":2,"is_transit":false,"i_lat":-6.226659,"station_name":"Tebet"},{"line":2,"station_id":"MRI","i_lat":-6.209883,"i_long":106.84912,"station_name":"Manggarai","time":4,"is_transit":false,"distance":2610,"transit":false},{"transit":false,"time":4,"station_id":"CKI","is_transit":false,"station_name":"Cikini","i_lat":-6.198556,"line":2,"distance":1590,"i_long":106.840169},{"transit":false,"i_lat":-6.186295,"is_transit":false,"time":3,"i_long":106.832183,"station_id":"GDD","station_name":"Gondangdia","distance":1750,"line":2},{"i_lat":-6.166716,"station_id":"JUA","distance":2015,"i_long":106.828284,"station_name":"Juanda","line":2,"time":4,"transit":false,"is_transit":false},{"distance":1149,"i_lat":-6.160725,"station_id":"SW","i_long":106.827103,"time":2,"line":2,"transit":false,"station_name":"Sawah Besar","is_transit":false},{"transit":false,"is_transit":false,"line":2,"distance":906,"station_id":"MGB","station_name":"Manggabesar","i_lat":-6.149769,"i_long":106.82482,"time":2},{"station_id":"JAY","transit":false,"i_lat":-6.141205,"station_name":"Jayakarta","is_transit":false,"distance":1080,"i_long":106.820901,"line":2,"time":2},{"time":4,"is_transit":true,"station_name":"Jakarta Kota","station_id":"JAKK","i_long":106.812439,"transit":true,"distance":1264,"i_lat":-6.137569,"line":2},{"station_name":"Kampung Bandan","transit":true,"station_id":"KPB","line":4,"time":3,"is_transit":true,"distance":1364,"i_long":106.826365,"i_lat":-6.132549},{"line":1,"time":9,"station_id":"AK","i_lat":-6.144674,"i_long":106.79867,"distance":4102,"station_name":"Angke","transit":false,"is_transit":false},{"i_lat":-6.155215,"distance":1230,"i_long":106.800832,"transit":false,"station_id":"DU","station_name":"Duri","is_transit":false,"time":4,"line":1},{"station_id":"THB","is_transit":true,"i_lat":-6.185545,"transit":true,"line":1,"i_long":106.811091,"distance":3632,"station_name":"Tanah Abang","time":8},{"is_transit":false,"station_name":"Palmerah","station_id":"PLM","i_lat":-6.207404,"distance":3191,"i_long":106.79689,"transit":false,"time":6,"line":6},{"i_lat":-6.237242,"station_id":"KBY","station_name":"Kebayoran","is_transit":false,"i_long":106.780334,"line":6,"distance":3737,"transit":false,"time":7}],[{"station_name":"Nambo","station_id":"NMO","time":0,"i_lat":-6.466285,"distance":0,"transit":false,"i_long":106.905196,"line":21,"is_transit":false},{"time":10,"line":21,"transit":false,"i_lat":-6.46424,"is_transit":false,"i_long":106.851978,"station_id":"CBN","station_name":"Cibinong","distance":6527},{"line":21,"i_long":106.824374,"station_name":"Pondok Rajeg","time":0,"i_lat":-6.460735,"transit":false,"distance":0,"station_id":"PDRG","is_transit":false},{"line":2,"time":0,"distance":0,"i_long":106.800298,"is_transit":true,"station_name":"Citayam","station_id":"CTA","transit":true,"i_lat":-6.448811},{"line":2,"station_id":"DP","is_transit":false,"distance":5084,"i_long":106.816926,"i_lat":-6.405256,"station_name":"Depok","time":6,"transit":false},{"is_transit":false,"distance":1584,"transit":false,"i_long":106.819451,"line":2,"i_lat":-6.391065,"station_id":"DPB","station_name":"Depokbaru","time":3},{"i_lat":-6.369073,"distance":2727,"time":4,"line":2,"transit":false,"station_name":"Pondok Cina","is_transit":false,"i_long":106.831114,"station_id":"POC"},{"time":2,"station_name":"Univ. Indonesia","distance":1109,"i_lat":-6.360749,"transit":false,"is_transit":false,"i_long":106.831474,"line":2,"station_id":"UI"},{"time":3,"is_transit":false,"distance":2264,"station_id":"UP","i_lat":-6.339291,"i_long":106.834175,"station_name":"Univ. Pancasila","line":2,"transit":false},{"distance":1029,"station_name":"Lenteng Agung","time":2,"transit":false,"station_id":"LNA","is_transit":false,"i_lat":-6.330363,"line":2,"i_long":106.832616},{"station_name":"Tanjung Barat","time":3,"line":2,"distance":2671,"transit":false,"is_transit":false,"i_lat":-6.3080680000000005,"station_id":"TNT","i_long":106.838896},{"i_lat":-6.2842400000000005,"transit":false,"line":2,"station_name":"Pasar Minggu","i_long":106.843999,"distance":2820,"time":4,"station_id":"PSM","is_transit":false},{"distance":2380,"station_name":"Pasar Minggu Baru","i_lat":-6.263214,"is_transit":false,"station_id":"PSMB","transit":false,"time":2,"i_long":106.851577,"line":2},{"time":2,"distance":824,"is_transit":false,"line":2,"i_long":106.85449,"station_id":"DRN","i_lat":-6.255332,"station_name":"Duren Kalibata","transit":false},{"station_name":"Cawang","time":3,"distance":1546,"i_lat":-6.242512,"i_long":106.856607,"line":2,"is_transit":false,"transit":false,"station_id":"CW"},{"i_long":106.857948,"line":2,"station_id":"TEB","station_name":"Tebet","is_transit":false,"i_lat":-6.226659,"time":2,"transit":false,"distance":1230},{"station_name":"Manggarai","is_transit":true,"station_id":"MRI","distance":2610,"transit":true,"i_long":106.84912,"line":2,"i_lat":-6.209883,"time":4},{"station_name":"Matraman","is_transit":false,"line":1,"distance":1275,"i_lat":-6.212485,"station_id":"MTR","transit":false,"time":2,"i_long":106.858896},{"transit":true,"is_transit":true,"station_id":"JNG","i_lat":-6.215091,"i_long":106.86807400000001,"station_name":"Jatinegara","time":8,"distance":1377,"line":1},{"distance":1236,"station_name":"Pondok Jati","is_transit":false,"line":11,"station_id":"POK","i_long":106.861737,"time":2,"transit":false,"i_lat":-6.209188},{"is_transit":false,"i_long":106.855437,"transit":false,"line":11,"distance":1829,"time":2,"station_id":"KMT","station_name":"Kramat","i_lat":-6.193792},{"transit":false,"is_transit":false,"distance":973,"time":1,"station_name":"Gang Sentiong","station_id":"GST","i_long":106.850107,"line":11,"i_lat":-6.185975},{"station_name":"Pasar Senen","transit":false,"is_transit":false,"distance":1567,"i_long":106.84368,"line":11,"time":8,"i_lat":-6.174784,"station_id":"PSE"},{"line":11,"time":4,"station_id":"KMO","transit":false,"station_name":"Kemayoran","is_transit":false,"i_long":106.839204,"distance":1436,"i_lat":-6.161728},{"station_id":"RJW","station_name":"Rajawali","i_long":106.836569,"line":11,"i_lat":-6.14505,"time":5,"is_transit":false,"distance":1901,"transit":false},{"i_long":106.826365,"i_lat":-6.132549,"station_id":"KPB","time":3,"distance":1444,"transit":true,"is_transit":true,"line":4,"station_name":"Kampung Bandan"},{"is_transit":false,"line":1,"i_long":106.79867,"station_name":"Angke","station_id":"AK","transit":false,"i_lat":-6.144674,"distance":4102,"time":9},{"station_id":"DU","line":1,"is_transit":false,"distance":1230,"station_name":"Duri","transit":false,"i_lat":-6.155215,"time":4,"i_long":106.800832},{"transit":true,"time":8,"station_name":"Tanah Abang","distance":3632,"is_transit":true,"i_lat":-6.185545,"i_long":106.811091,"line":1,"station_id":"THB"},{"time":6,"i_lat":-6.207404,"transit":false,"station_name":"Palmerah","line":6,"distance":3191,"station_id":"PLM","i_long":106.79689,"is_transit":false},{"distance":3737,"line":6,"i_long":106.780334,"is_transit":false,"time":7,"i_lat":-6.237242,"station_id":"KBY","transit":false,"station_name":"Kebayoran"}]]}