{"data":[[{"i_long":106.905196,"is_transit":false,"distance":0,"station_id":"NMO","transit":false,"i_lat":-6.466285,"line":21,"time":0,"station_name":"Nambo"},{"station_id":"CBN","transit":false,"station_name":"Cibinong","i_lat":-6.46424,"line":0,"distance":6527,"time":10,"is_transit":false,"i_long":106.851978},{"i_long":106.800298,"is_transit":true,"i_lat":-6.448811,"station_id":"CTA","line":1,"station_name":"Citayam","time":10,"transit":false,"distance":6740},{"station_id":"DP","station_name":"Depok","distance":5084,"is_transit":false,"transit":false,"i_lat":-6.405256,"line":0,"time":6,"i_long":106.816926},{"i_long":106.819451,"station_name":"Depokbaru","distance":1584,"transit":false,"station_id":"DPB","is_transit":false,"line":0,"time":3,"i_lat":-6.391065},{"transit":false,"station_name":"Pondok Cina","line":2,"i_long":106.831114,"time":4,"is_transit":false,"station_id":"POC","distance":2727,"i_lat":-6.369073},{"time":2,"distance":1109,"station_name":"Univ. Indonesia","i_lat":-6.360749,"i_long":106.831474,"station_id":"UI","line":2,"is_transit":false,"transit":false},{"station_id":"UP","line":2,"station_name":"Univ. Pancasila","time":3,"is_transit":false,"i_lat":-6.339291,"transit":false,"i_long":106.834175,"distance":2264},{"station_id":"LNA","time":2,"station_name":"Lenteng Agung","is_transit":false,"i_lat":-6.330363,"line":2,"transit":false,"distance":1029,"i_long":106.832616}]]}