{"data":[[{"distance":0,"i_lat":-6.466285,"time":0,"line":21,"station_name":"Nambo","station_id":"NMO","is_transit":false,"transit":false,"i_long":106.905196},{"i_long":106.851978,"line":21,"distance":6527,"station_id":"CBN","station_name":"Cibinong","is_transit":false,"time":10,"transit":false,"i_lat":-6.46424},{"station_name":"Pondok Rajeg","is_transit":false,"time":0,"i_long":106.824374,"distance":0,"transit":false,"i_lat":-6.460735,"station_id":"PDRG","line":21},{"transit":true,"i_long":106.800298,"distance":0,"station_id":"CTA","is_transit":true,"time":0,"line":2,"i_lat":-6.448811,"station_name":"Citayam"},{"distance":5084,"station_id":"DP","transit":false,"time":6,"i_lat":-6.405256,"station_name":"Depok","is_transit":false,"line":2,"i_long":106.816926},{"is_transit":false,"station_name":"Depokbaru","distance":1584,"i_long":106.819451,"station_id":"DPB","time":3,"i_lat":-6.391065,"line":2,"transit":false},{"station_id":"POC","i_long":106.831114,"line":2,"i_lat":-6.369073,"station_name":"Pondok Cina","is_transit":false,"time":4,"distance":2727,"transit":false},{"station_name":"Univ. Indonesia","is_transit":false,"distance":1109,"station_id":"UI","i_lat":-6.360749,"time":2,"transit":false,"line":2,"i_long":106.831474},{"transit":false,"i_lat":-6.339291,"time":3,"i_long":106.834175,"line":2,"is_transit":false,"station_name":"Univ. Pancasila","station_id":"UP","distance":2264},{"is_transit":false,"distance":1029,"station_name":"Lenteng Agung","transit":false,"time":2,"i_long":106.832616,"line":2,"i_lat":-6.330363,"station_id":"LNA"},{"transit":false,"i_lat":-6.3080680000000005,"line":2,"i_long":106.838896,"station_name":"Tanjung Barat","is_transit":false,"time":3,"station_id":"TNT","distance":2671},{"i_lat":-6.2842400000000005,"line":2,"time":4,"distance":2820,"is_transit":false,"station_name":"Pasar Minggu","transit":false,"i_long":106.843999,"station_id":"PSM"},{"i_long":106.851577,"transit":false,"distance":2380,"station_id":"PSMB","is_transit":false,"station_name":"Pasar Minggu Baru","i_lat":-6.263214,"time":2,"line":2},{"time":2,"i_long":106.85449,"transit":false,"i_lat":-6.255332,"station_name":"Duren Kalibata","is_transit":false,"distance":824,"station_id":"DRN","line":2},{"station_name":"Cawang","i_long":106.856607,"station_id":"CW","transit":false,"is_transit":false,"i_lat":-6.242512,"line":2,"distance":1546,"time":3},{"distance":1230,"time":2,"i_lat":-6.226659,"i_long":106.857948,"line":2,"station_name":"Tebet","transit":false,"station_id":"TEB","is_transit":false},{"line":2,"is_transit":true,"i_lat":-6.209883,"station_name":"Manggarai","time":4,"station_id":"MRI","transit":true,"i_long":106.84912,"distance":2610},{"station_name":"Matraman","is_transit":false,"distance":1275,"i_lat":-6.212485,"line":1,"station_id":"MTR","time":2,"transit":false,"i_long":106.858896},{"is_transit":true,"time":8,"station_id":"JNG","transit":true,"line":1,"i_lat":-6.215091,"i_long":106.86807400000001,"station_name":"Jatinegara","distance":1377},{"line":11,"station_name":"Pondok Jati","time":2,"is_transit":false,"i_lat":-6.209188,"i_long":106.861737,"distance":1236,"station_id":"POK","transit":false}],[{"line":21,"station_name":"Nambo","station_id":"NMO","transit":false,"is_transit":false,"time":0,"i_lat":-6.466285,"distance":0,"i_long":106.905196},{"station_id":"CBN","line":21,"distance":6527,"i_long":106.851978,"time":10,"transit":false,"is_transit":false,"i_lat":-6.46424,"station_name":"Cibinong"},{"transit":false,"time":0,"is_transit":false,"i_lat":-6.460735,"distance":0,"station_id":"PDRG","line":21,"i_long":106.824374,"station_name":"Pondok Rajeg"},{"station_name":"Citayam","distance":0,"station_id":"CTA","i_lat":-6.448811,"transit":true,"time":0,"is_transit":true,"i_long":106.800298,"line":2},{"line":2,"i_long":106.816926,"i_lat":-6.405256,"station_name":"Depok","time":6,"is_transit":false,"distance":5084,"station_id":"DP","transit":false},{"station_id":"DPB","station_name":"Depokbaru","distance":1584,"transit":false,"line":2,"is_transit":false,"i_long":106.819451,"i_lat":-6.391065,"time":3},{"station_id":"POC","transit":false,"i_lat":-6.369073,"i_long":106.831114,"line":2,"station_name":"Pondok Cina","distance":2727,"time":4,"is_transit":false},{"is_transit":false,"transit":false,"distance":1109,"station_name":"Univ. Indonesia","station_id":"UI","time":2,"i_lat":-6.360749,"i_long":106.831474,"line":2},{"distance":2264,"i_lat":-6.339291,"station_name":"Univ. Pancasila","transit":false,"station_id":"UP","is_transit":false,"line":2,"i_long":106.834175,"time":3},{"distance":1029,"is_transit":false,"transit":false,"i_long":106.832616,"line":2,"station_name":"Lenteng Agung","time":2,"i_lat":-6.330363,"station_id":"LNA"},{"station_id":"TNT","line":2,"time":3,"i_lat":-6.3080680000000005,"is_transit":false,"i_long":106.838896,"transit":false,"distance":2671,"station_name":"Tanjung Barat"},{"line":2,"is_transit":false,"station_name":"Pasar Minggu","station_id":"PSM","transit":false,"distance":2820,"i_lat":-6.2842400000000005,"time":4,"i_long":106.843999},{"i_lat":-6.263214,"line":2,"distance":2380,"station_id":"PSMB","i_long":106.851577,"station_name":"Pasar Minggu Baru","time":2,"transit":false,"is_transit":false},{"transit":false,"station_id":"DRN","line":2,"station_name":"Duren Kalibata","i_long":106.85449,"time":2,"i_lat":-6.255332,"is_transit":false,"distance":824},{"station_id":"CW","station_name":"Cawang","is_transit":false,"distance":1546,"transit":false,"i_long":106.856607,"line":2,"time":3,"i_lat":-6.242512},{"station_id":"TEB","distance":1230,"station_name":"Tebet","is_transit":false,"time":2,"line":2,"i_lat":-6.226659,"transit":false,"i_long":106.857948},{"time":4,"transit":true,"distance":2610,"is_transit":true,"line":2,"station_id":"MRI","i_lat":-6.209883,"i_long":106.84912,"station_name":"Manggarai"},{"i_lat":-6.202263,"is_transit":false,"distance":3186,"station_name":"Sudirman","station_id":"SUD","time":4,"i_long":106.822649,"line":1,"transit":false},{"is_transit":false,"station_name":"Sudirman Baru","transit":false,"i_long":106.819881,"i_lat":-6.201433,"distance":280,"station_id":"SUDB","time":1,"line":1},{"i_long":106.816351,"i_lat":-6.20132,"line":1,"is_transit":false,"station_id":"KAT","time":1,"transit":false,"station_name":"Karet","distance":471},{"i_long":106.811091,"i_lat":-6.185545,"line":1,"station_id":"THB","station_name":"Tanah Abang","is_transit":false,"transit":false,"time":5,"distance":2029},{"i_lat":-6.155215,"distance":3632,"i_long":106.800832,"time":8,"station_name":"Duri","station_id":"DU","line":1,"is_transit":false,"transit":false},{"line":1,"station_name":"Angke","time":4,"i_long":106.79867,"i_lat":-6.144674,"transit":false,"station_id":"AK","is_transit":false,"distance":1230},{"is_transit":true,"i_lat":-6.132549,"distance":4102,"transit":true,"station_name":"Kampung Bandan","station_id":"KPB","i_long":106.826365,"line":4,"time":9},{"station_name":"Rajawali","i_lat":-6.14505,"line":11,"is_transit":false,"i_long":106.836569,"distance":1444,"station_id":"RJW","time":3,"transit":false},{"i_lat":-6.161728,"station_name":"Kemayoran","station_id":"KMO","distance":1901,"i_long":106.839204,"line":11,"transit":false,"is_transit":false,"time":5},{"i_long":106.84368,"line":11,"station_name":"Pasar Senen","station_id":"PSE","transit":false,"is_transit":false,"time":4,"distance":1436,"i_lat":-6.174784},{"i_lat":-6.185975,"distance":1567,"transit":false,"line":11,"station_id":"GST","time":8,"station_name":"Gang Sentiong","is_transit":false,"i_long":106.850107},{"i_long":106.855437,"station_name":"Kramat","transit":false,"i_lat":-6.193792,"distance":973,"is_transit":false,"time":1,"line":11,"station_id":"KMT"},{"is_transit":false,"station_id":"POK","i_long":106.861737,"transit":false,"i_lat":-6.209188,"line":11,"station_name":"Pondok Jati","distance":1829,"time":2}],[{"transit":false,"station_id":"NMO","time":0,"distance":0,"line":21,"i_long":106.905196,"i_lat":-6.466285,"station_name":"Nambo","is_transit":false},{"time":10,"is_transit":false,"line":21,"i_lat":-6.46424,"distance":6527,"station_id":"CBN","transit":false,"station_name":"Cibinong","i_long":106.851978},{"station_name":"Pondok Rajeg","transit":false,"is_transit":false,"station_id":"PDRG","line":21,"i_lat":-6.460735,"time":0,"distance":0,"i_long":106.824374},{"transit":true,"is_transit":true,"distance":0,"station_name":"Citayam","i_long":106.800298,"line":2,"time":0,"i_lat":-6.448811,"station_id":"CTA"},{"station_name":"Depok","time":6,"is_transit":false,"i_long":106.816926,"line":2,"distance":5084,"transit":false,"station_id":"DP","i_lat":-6.405256},{"station_name":"Depokbaru","i_lat":-6.391065,"station_id":"DPB","i_long":106.819451,"transit":false,"distance":1584,"time":3,"line":2,"is_transit":false},{"i_lat":-6.369073,"station_id":"POC","distance":2727,"i_long":106.831114,"time":4,"transit":false,"line":2,"is_transit":false,"station_name":"Pondok Cina"},{"station_name":"Univ. Indonesia","time":2,"distance":1109,"line":2,"is_transit":false,"transit":false,"i_long":106.831474,"i_lat":-6.360749,"station_id":"UI"},{"i_long":106.834175,"station_id":"UP","transit":false,"distance":2264,"i_lat":-6.339291,"line":2,"station_name":"Univ. Pancasila","time":3,"is_transit":false},{"station_id":"LNA","time":2,"i_long":106.832616,"line":2,"distance":1029,"is_transit":false,"transit":false,"i_lat":-6.330363,"station_name":"Lenteng Agung"},{"time":3,"i_lat":-6.3080680000000005,"i_long":106.838896,"station_id":"TNT","transit":false,"line":2,"distance":2671,"is_transit":false,"station_name":"Tanjung Barat"},{"i_lat":-6.2842400000000005,"station_id":"PSM","distance":2820,"transit":false,"i_long":106.843999,"time":4,"line":2,"station_name":"Pasar Minggu","is_transit":false},{"i_long":106.851577,"distance":2380,"transit":false,"is_transit":false,"station_id":"PSMB","station_name":"Pasar Minggu Baru","time":2,"i_lat":-6.263214,"line":2},{"time":2,"distance":824,"line":2,"station_name":"Duren Kalibata","transit":false,"i_long":106.85449,"i_lat":-6.255332,"is_transit":false,"station_id":"DRN"},{"time":3,"station_name":"Cawang","distance":1546,"i_long":106.856607,"transit":false,"station_id":"CW","i_lat":-6.242512,"is_transit":false,"line":2},{"distance":1230,"transit":false,"i_lat":-6.226659,"is_transit":false,"i_long":106.857948,"station_name":"Tebet","time":2,"line":2,"station_id":"TEB"},{"distance":2610,"is_transit":false,"station_id":"MRI","i_long":106.84912,"i_lat":-6.209883,"transit":false,"time":4,"station_name":"Manggarai","line":2},{"distance":1590,"i_long":106.840169,"time":4,"transit":false,"station_name":"Cikini","is_transit":false,"i_lat":-6.198556,"station_id":"CKI","line":2},{"distance":1750,"transit":false,"i_long":106.832183,"station_name":"Gondangdia","is_transit":false,"station_id":"GDD","time":3,"line":2,"i_lat":-6.186295},{"distance":2015,"time":4,"is_transit":false,"station_id":"JUA","transit":false,"i_lat":-6.166716,"line":2,"station_name":"Juanda","i_long":106.828284},{"transit":false,"station_id":"SW","time":2,"i_lat":-6.160725,"station_name":"Sawah Besar","i_long":106.827103,"distance":1149,"is_transit":false,"line":2},{"is_transit":false,"i_lat":-6.149769,"transit":false,"i_long":106.82482,"station_name":"Manggabesar","line":2,"distance":906,"time":2,"station_id":"MGB"},{"i_lat":-6.141205,"transit":false,"distance":1080,"i_long":106.820901,"line":2,"time":2,"is_transit":false,"station_name":"Jayakarta","station_id":"JAY"},{"distance":1264,"time":4,"transit":true,"is_transit":true,"station_id":"JAKK","i_long":106.812439,"station_name":"Jakarta Kota","i_lat":-6.137569,"line":2},{"station_id":"KPB","line":4,"i_lat":-6.132549,"transit":true,"station_name":"Kampung Bandan","distance":1364,"is_transit":true,"i_long":106.826365,"time":3},{"i_lat":-6.14505,"station_id":"RJW","distance":1444,"i_long":106.836569,"station_name":"Rajawali","time":3,"line":11,"is_transit":false,"transit":false},{"time":5,"transit":false,"i_lat":-6.161728,"i_long":106.839204,"station_id":"KMO","line":11,"station_name":"Kemayoran","distance":1901,"is_transit":false},{"i_long":106.84368,"distance":1436,"time":4,"station_id":"PSE","station_name":"Pasar Senen","transit":false,"line":11,"i_lat":-6.174784,"is_transit":false},{"is_transit":false,"i_lat":-6.185975,"i_long":106.850107,"distance":1567,"station_name":"Gang Sentiong","line":11,"transit":false,"time":8,"station_id":"GST"},{"transit":false,"line":11,"i_long":106.855437,"is_transit":false,"i_lat":-6.193792,"distance":973,"station_id":"KMT","time":1,"station_name":"Kramat"},{"is_transit":false,"i_lat":-6.209188,"station_id":"POK","time":2,"transit":false,"distance":1829,"i_long":106.861737,"station_name":"Pondok Jati","line":11}]]}