{"data":[[{"station_id":"NMO","time":0,"station_name":"Nambo","distance":0,"i_lat":-6.466285,"i_long":106.905196,"line":21,"transit":false,"is_transit":false},{"station_name":"Cibinong","is_transit":false,"station_id":"CBN","i_long":106.851978,"line":0,"i_lat":-6.46424,"distance":6527,"time":10,"transit":false},{"station_name":"Citayam","line":1,"time":10,"distance":6740,"transit":false,"station_id":"CTA","i_lat":-6.448811,"i_long":106.800298,"is_transit":true},{"line":0,"i_lat":-6.405256,"transit":false,"station_name":"Depok","distance":5084,"time":6,"station_id":"DP","i_long":106.816926,"is_transit":false},{"is_transit":false,"station_id":"DPB","time":3,"i_long":106.819451,"station_name":"Depokbaru","distance":1584,"transit":false,"line":0,"i_lat":-6.391065},{"line":2,"station_id":"POC","is_transit":false,"distance":2727,"transit":false,"time":4,"i_long":106.831114,"station_name":"Pondok Cina","i_lat":-6.369073},{"time":2,"station_id":"UI","i_lat":-6.360749,"i_long":106.831474,"line":2,"distance":1109,"is_transit":false,"station_name":"Univ. Indonesia","transit":false},{"is_transit":false,"station_name":"Univ. Pancasila","transit":false,"distance":2264,"i_lat":-6.339291,"i_long":106.834175,"time":3,"station_id":"UP","line":2},{"line":2,"is_transit":false,"time":2,"distance":1029,"i_lat":-6.330363,"station_id":"LNA","transit":false,"i_long":106.832616,"station_name":"Lenteng Agung"},{"line":2,"i_lat":-6.3080680000000005,"is_transit":false,"time":3,"station_id":"TNT","station_name":"Tanjung Barat","distance":2671,"transit":false,"i_long":106.838896},{"i_long":106.843999,"line":2,"i_lat":-6.2842400000000005,"station_id":"PSM","time":4,"station_name":"Pasar Minggu","transit":false,"is_transit":false,"distance":2820},{"is_transit":false,"station_id":"PSMB","distance":2380,"i_long":106.851577,"station_name":"Pasar Minggu Baru","time":2,"line":2,"transit":false,"i_lat":-6.263214},{"line":0,"is_transit":false,"transit":false,"station_id":"DRN","station_name":"Duren Kalibata","distance":824,"i_lat":-6.255332,"time":2,"i_long":106.85449},{"station_id":"CW","transit":false,"i_lat":-6.242512,"station_name":"Cawang","distance":1546,"i_long":106.856607,"line":0,"time":3,"is_transit":false},{"is_transit":false,"transit":false,"station_id":"TEB","station_name":"Tebet","i_lat":-6.226659,"i_long":106.857948,"line":2,"time":2,"distance":1230},{"station_id":"MRI","time":4,"transit":true,"i_long":106.84912,"i_lat":-6.209883,"line":0,"distance":2610,"is_transit":true,"station_name":"Manggarai"},{"i_long":106.822649,"station_id":"SUD","i_lat":-6.202263,"time":4,"station_name":"Sudirman","transit":false,"is_transit":false,"line":1,"distance":3186}],[{"station_id":"NMO","station_name":"Nambo","i_long":106.905196,"time":0,"i_lat":-6.466285,"line":21,"transit":false,"is_transit":false,"distance":0},{"time":10,"transit":false,"i_lat":-6.46424,"i_long":106.851978,"station_name":"Cibinong","station_id":"CBN","line":0,"is_transit":false,"distance":6527},{"station_name":"Citayam","time":10,"i_long":106.800298,"is_transit":true,"transit":false,"distance":6740,"station_id":"CTA","line":1,"i_lat":-6.448811},{"i_lat":-6.405256,"station_id":"DP","transit":false,"time":6,"is_transit":false,"station_name":"Depok","distance":5084,"line":0,"i_long":106.816926},{"is_transit":false,"distance":1584,"line":0,"time":3,"station_id":"DPB","station_name":"Depokbaru","i_long":106.819451,"transit":false,"i_lat":-6.391065},{"distance":2727,"line":2,"station_name":"Pondok Cina","transit":false,"is_transit":false,"i_long":106.831114,"i_lat":-6.369073,"station_id":"POC","time":4},{"station_id":"UI","i_long":106.831474,"time":2,"line":2,"station_name":"Univ. Indonesia","transit":false,"distance":1109,"is_transit":false,"i_lat":-6.360749},{"station_id":"UP","station_name":"Univ. Pancasila","i_lat":-6.339291,"line":2,"i_long":106.834175,"is_transit":false,"time":3,"transit":false,"distance":2264},{"station_id":"LNA","distance":1029,"station_name":"Lenteng Agung","is_transit":false,"time":2,"transit":false,"i_lat":-6.330363,"i_long":106.832616,"line":2},{"distance":2671,"station_name":"Tanjung Barat","i_long":106.838896,"time":3,"transit":false,"line":2,"station_id":"TNT","i_lat":-6.3080680000000005,"is_transit":false},{"time":4,"station_name":"Pasar Minggu","transit":false,"is_transit":false,"station_id":"PSM","distance":2820,"i_long":106.843999,"line":2,"i_lat":-6.2842400000000005},{"time":2,"station_name":"Pasar Minggu Baru","line":2,"i_lat":-6.263214,"transit":false,"station_id":"PSMB","i_long":106.851577,"is_transit":false,"distance":2380},{"is_transit":false,"transit":false,"station_id":"DRN","distance":824,"i_long":106.85449,"line":0,"i_lat":-6.255332,"time":2,"station_name":"Duren Kalibata"},{"transit":false,"i_lat":-6.242512,"i_long":106.856607,"station_name":"Cawang","distance":1546,"is_transit":false,"time":3,"station_id":"CW","line":0},{"is_transit":false,"time":2,"i_lat":-6.226659,"station_name":"Tebet","transit":false,"i_long":106.857948,"line":2,"station_id":"TEB","distance":1230},{"distance":2610,"station_id":"MRI","i_long":106.84912,"is_transit":true,"line":0,"station_name":"Manggarai","time":4,"transit":true,"i_lat":-6.209883},{"line":0,"distance":1590,"is_transit":false,"transit":false,"station_id":"CKI","i_lat":-6.198556,"i_long":106.840169,"time":4,"station_name":"Cikini"},{"time":3,"transit":false,"station_name":"Gondangdia","i_long":106.832183,"is_transit":false,"i_lat":-6.186295,"distance":1750,"station_id":"GDD","line":2},{"time":4,"station_id":"JUA","is_transit":false,"distance":2015,"transit":false,"i_lat":-6.166716,"station_name":"Juanda","i_long":106.828284,"line":2},{"line":2,"is_transit":false,"time":2,"distance":1149,"station_name":"Sawah Besar","i_lat":-6.160725,"transit":false,"station_id":"SW","i_long":106.827103},{"i_lat":-6.149769,"transit":false,"is_transit":false,"distance":906,"station_id":"MGB","station_name":"Manggabesar","i_long":106.82482,"time":2,"line":2},{"station_name":"Jayakarta","i_lat":-6.141205,"is_transit":false,"line":7,"distance":1080,"i_long":106.820901,"station_id":"JAY","time":2,"transit":false},{"station_id":"JAKK","i_lat":-6.137569,"line":0,"is_transit":true,"time":4,"i_long":106.812439,"distance":1264,"transit":true,"station_name":"Jakarta Kota"},{"station_name":"Kampung Bandan","time":3,"transit":false,"line":0,"i_lat":-6.132549,"is_transit":true,"i_long":106.826365,"distance":1364,"station_id":"KPB"},{"i_long":106.79867,"station_name":"Angke","is_transit":false,"time":9,"transit":false,"distance":4102,"line":0,"station_id":"AK","i_lat":-6.144674},{"station_id":"DU","line":1,"transit":true,"station_name":"Duri","i_long":106.800832,"time":4,"is_transit":true,"distance":1230,"i_lat":-6.155215},{"station_id":"THB","i_lat":-6.185545,"distance":3632,"time":8,"station_name":"Tanah Abang","i_long":106.811091,"transit":false,"line":1,"is_transit":true},{"time":5,"station_name":"Karet","i_long":106.816351,"line":1,"is_transit":false,"i_lat":-6.20132,"transit":false,"distance":2029,"station_id":"KAT"},{"i_lat":-6.201433,"station_id":"SUDB","is_transit":false,"time":1,"transit":false,"station_name":"Sudirman Baru","distance":471,"line":1,"i_long":106.819881},{"station_id":"SUD","is_transit":false,"time":1,"station_name":"Sudirman","distance":280,"line":1,"transit":false,"i_lat":-6.202263,"i_long":106.822649}],[{"time":0,"station_id":"NMO","line":21,"i_lat":-6.466285,"is_transit":false,"i_long":106.905196,"station_name":"Nambo","transit":false,"distance":0},{"i_lat":-6.46424,"transit":false,"station_name":"Cibinong","distance":6527,"i_long":106.851978,"line":0,"time":10,"is_transit":false,"station_id":"CBN"},{"is_transit":true,"station_id":"CTA","i_lat":-6.448811,"i_long":106.800298,"line":1,"station_name":"Citayam","time":10,"transit":false,"distance":6740},{"station_name":"Depok","i_lat":-6.405256,"i_long":106.816926,"distance":5084,"time":6,"transit":false,"station_id":"DP","is_transit":false,"line":0},{"time":3,"distance":1584,"i_lat":-6.391065,"is_transit":false,"station_name":"Depokbaru","i_long":106.819451,"transit":false,"line":0,"station_id":"DPB"},{"station_id":"POC","transit":false,"is_transit":false,"i_long":106.831114,"i_lat":-6.369073,"line":2,"time":4,"distance":2727,"station_name":"Pondok Cina"},{"station_name":"Univ. Indonesia","time":2,"line":2,"station_id":"UI","distance":1109,"i_lat":-6.360749,"transit":false,"is_transit":false,"i_long":106.831474},{"station_id":"UP","time":3,"i_long":106.834175,"distance":2264,"is_transit":false,"transit":false,"station_name":"Univ. Pancasila","i_lat":-6.339291,"line":2},{"transit":false,"station_id":"LNA","is_transit":false,"i_long":106.832616,"i_lat":-6.330363,"time":2,"line":2,"distance":1029,"station_name":"Lenteng Agung"},{"line":2,"station_name":"Tanjung Barat","time":3,"is_transit":false,"i_long":106.838896,"station_id":"TNT","distance":2671,"transit":false,"i_lat":-6.3080680000000005},{"distance":2820,"station_name":"Pasar Minggu","time":4,"station_id":"PSM","is_transit":false,"i_lat":-6.2842400000000005,"i_long":106.843999,"transit":false,"line":2},{"station_name":"Pasar Minggu Baru","time":2,"is_transit":false,"transit":false,"i_long":106.851577,"line":2,"distance":2380,"i_lat":-6.263214,"station_id":"PSMB"},{"i_long":106.85449,"transit":false,"distance":824,"is_transit":false,"station_id":"DRN","time":2,"station_name":"Duren Kalibata","i_lat":-6.255332,"line":0},{"distance":1546,"i_lat":-6.242512,"i_long":106.856607,"line":0,"is_transit":false,"transit":false,"time":3,"station_id":"CW","station_name":"Cawang"},{"transit":false,"station_name":"Tebet","i_lat":-6.226659,"line":2,"station_id":"TEB","time":2,"is_transit":false,"distance":1230,"i_long":106.857948},{"time":4,"line":0,"transit":true,"distance":2610,"i_lat":-6.209883,"station_name":"Manggarai","i_long":106.84912,"is_transit":true,"station_id":"MRI"},{"distance":1275,"i_lat":-6.212485,"transit":false,"station_id":"MTR","line":1,"is_transit":false,"time":2,"station_name":"Matraman","i_long":106.858896},{"i_lat":-6.215091,"station_name":"Jatinegara","is_transit":true,"transit":true,"distance":1377,"line":0,"i_long":106.86807400000001,"time":8,"station_id":"JNG"},{"line":11,"station_name":"Pondok Jati","i_long":106.861737,"distance":1236,"i_lat":-6.209188,"time":2,"transit":false,"station_id":"POK","is_transit":false},{"is_transit":false,"station_id":"KMT","i_lat":-6.193792,"time":2,"line":11,"transit":false,"station_name":"Kramat","distance":1829,"i_long":106.855437},{"transit":false,"time":1,"station_id":"GST","i_lat":-6.185975,"i_long":106.850107,"is_transit":false,"distance":973,"line":11,"station_name":"Gang Sentiong"},{"distance":1567,"i_lat":-6.174784,"time":8,"transit":false,"station_name":"Pasar Senen","is_transit":false,"i_long":106.84368,"station_id":"PSE","line":11},{"time":4,"transit":false,"line":11,"station_id":"KMO","station_name":"Kemayoran","is_transit":false,"distance":1436,"i_lat":-6.161728,"i_long":106.839204},{"transit":false,"i_lat":-6.14505,"line":11,"distance":1901,"time":5,"is_transit":false,"i_long":106.836569,"station_id":"RJW","station_name":"Rajawali"},{"time":3,"distance":1444,"i_long":106.826365,"station_id":"KPB","is_transit":true,"i_lat":-6.132549,"station_name":"Kampung Bandan","line":0,"transit":true},{"is_transit":false,"distance":4102,"station_name":"Angke","line":0,"i_lat":-6.144674,"station_id":"AK","i_long":106.79867,"time":9,"transit":false},{"time":4,"station_id":"DU","i_lat":-6.155215,"distance":1230,"transit":true,"station_name":"Duri","i_long":106.800832,"is_transit":true,"line":1},{"station_id":"THB","time":8,"i_long":106.811091,"distance":3632,"transit":false,"line":1,"station_name":"Tanah Abang","i_lat":-6.185545,"is_transit":true},{"transit":false,"time":5,"distance":2029,"i_lat":-6.20132,"line":1,"station_id":"KAT","station_name":"Karet","i_long":106.816351,"is_transit":false},{"distance":471,"station_name":"Sudirman Baru","i_lat":-6.201433,"line":1,"is_transit":false,"i_long":106.819881,"transit":false,"station_id":"SUDB","time":1},{"i_long":106.822649,"station_id":"SUD","transit":false,"line":1,"is_transit":false,"time":1,"i_lat":-6.202263,"distance":280,"station_name":"Sudirman"}]]}