{"data":[[{"time":0,"station_id":"NMO","i_lat":-6.466285,"station_name":"Nambo","is_transit":false,"line":21,"i_long":106.905196,"distance":0,"transit":false},{"i_long":106.851978,"distance":6527,"transit":false,"i_lat":-6.46424,"station_name":"Cibinong","line":21,"station_id":"CBN","time":10,"is_transit":false},{"transit":false,"i_lat":-6.460735,"i_long":106.824374,"is_transit":false,"time":0,"station_name":"Pondok Rajeg","distance":0,"line":21,"station_id":"PDRG"},{"distance":0,"station_name":"Citayam","i_lat":-6.448811,"time":0,"transit":true,"station_id":"CTA","is_transit":true,"line":2,"i_long":106.800298},{"station_id":"DP","transit":false,"distance":5084,"time":6,"i_lat":-6.405256,"i_long":106.816926,"line":2,"is_transit":false,"station_name":"Depok"},{"transit":false,"time":3,"station_id":"DPB","is_transit":false,"distance":1584,"i_lat":-6.391065,"i_long":106.819451,"line":2,"station_name":"Depokbaru"},{"station_id":"POC","time":4,"transit":false,"i_long":106.831114,"line":2,"is_transit":false,"station_name":"Pondok Cina","distance":2727,"i_lat":-6.369073},{"station_name":"Univ. Indonesia","line":2,"i_long":106.831474,"transit":false,"station_id":"UI","is_transit":false,"i_lat":-6.360749,"time":2,"distance":1109},{"time":3,"i_long":106.834175,"transit":false,"is_transit":false,"distance":2264,"i_lat":-6.339291,"station_id":"UP","line":2,"station_name":"Univ. Pancasila"},{"station_id":"LNA","transit":false,"i_long":106.832616,"is_transit":false,"station_name":"Lenteng Agung","time":2,"distance":1029,"i_lat":-6.330363,"line":2},{"transit":false,"time":3,"is_transit":false,"station_id":"TNT","i_lat":-6.3080680000000005,"line":2,"station_name":"Tanjung Barat","i_long":106.838896,"distance":2671},{"is_transit":false,"time":4,"i_lat":-6.2842400000000005,"i_long":106.843999,"distance":2820,"line":2,"transit":false,"station_id":"PSM","station_name":"Pasar Minggu"},{"transit":false,"line":2,"i_lat":-6.263214,"station_name":"Pasar Minggu Baru","time":2,"i_long":106.851577,"station_id":"PSMB","is_transit":false,"distance":2380},{"is_transit":false,"time":2,"i_long":106.85449,"station_name":"Duren Kalibata","i_lat":-6.255332,"transit":false,"distance":824,"line":2,"station_id":"DRN"},{"line":2,"station_id":"CW","station_name":"Cawang","distance":1546,"is_transit":false,"i_lat":-6.242512,"i_long":106.856607,"time":3,"transit":false},{"station_name":"Tebet","transit":false,"distance":1230,"station_id":"TEB","is_transit":false,"time":2,"i_long":106.857948,"line":2,"i_lat":-6.226659},{"time":4,"station_id":"MRI","station_name":"Manggarai","distance":2610,"i_long":106.84912,"transit":true,"i_lat":-6.209883,"line":2,"is_transit":true},{"distance":1275,"transit":false,"time":2,"is_transit":false,"station_id":"MTR","i_lat":-6.212485,"station_name":"Matraman","line":1,"i_long":106.858896}],[{"time":0,"i_lat":-6.466285,"i_long":106.905196,"line":21,"station_name":"Nambo","station_id":"NMO","transit":false,"distance":0,"is_transit":false},{"station_name":"Cibinong","transit":false,"time":10,"distance":6527,"i_lat":-6.46424,"station_id":"CBN","line":21,"i_long":106.851978,"is_transit":false},{"i_long":106.824374,"distance":0,"time":0,"i_lat":-6.460735,"station_name":"Pondok Rajeg","station_id":"PDRG","is_transit":false,"line":21,"transit":false},{"station_name":"Citayam","station_id":"CTA","is_transit":true,"time":0,"line":2,"i_lat":-6.448811,"i_long":106.800298,"distance":0,"transit":true},{"line":2,"time":6,"transit":false,"station_name":"Depok","distance":5084,"is_transit":false,"i_long":106.816926,"i_lat":-6.405256,"station_id":"DP"},{"is_transit":false,"time":3,"station_id":"DPB","line":2,"i_long":106.819451,"distance":1584,"station_name":"Depokbaru","i_lat":-6.391065,"transit":false},{"is_transit":false,"time":4,"i_lat":-6.369073,"line":2,"i_long":106.831114,"transit":false,"station_id":"POC","station_name":"Pondok Cina","distance":2727},{"is_transit":false,"i_long":106.831474,"i_lat":-6.360749,"time":2,"transit":false,"station_id":"UI","distance":1109,"line":2,"station_name":"Univ. Indonesia"},{"i_lat":-6.339291,"transit":false,"i_long":106.834175,"station_id":"UP","distance":2264,"station_name":"Univ. Pancasila","line":2,"time":3,"is_transit":false},{"i_long":106.832616,"i_lat":-6.330363,"transit":false,"distance":1029,"line":2,"is_transit":false,"station_id":"LNA","station_name":"Lenteng Agung","time":2},{"distance":2671,"station_id":"TNT","i_lat":-6.3080680000000005,"is_transit":false,"time":3,"station_name":"Tanjung Barat","i_long":106.838896,"line":2,"transit":false},{"i_lat":-6.2842400000000005,"is_transit":false,"station_id":"PSM","time":4,"i_long":106.843999,"line":2,"transit":false,"station_name":"Pasar Minggu","distance":2820},{"transit":false,"station_id":"PSMB","i_lat":-6.263214,"station_name":"Pasar Minggu Baru","i_long":106.851577,"line":2,"is_transit":false,"distance":2380,"time":2},{"station_name":"Duren Kalibata","i_lat":-6.255332,"station_id":"DRN","is_transit":false,"distance":824,"i_long":106.85449,"time":2,"line":2,"transit":false},{"i_lat":-6.242512,"line":2,"station_name":"Cawang","is_transit":false,"transit":false,"time":3,"distance":1546,"i_long":106.856607,"station_id":"CW"},{"is_transit":false,"i_lat":-6.226659,"station_id":"TEB","time":2,"distance":1230,"station_name":"Tebet","i_long":106.857948,"line":2,"transit":false},{"line":2,"time":4,"station_name":"Manggarai","i_lat":-6.209883,"distance":2610,"is_transit":true,"i_long":106.84912,"transit":true,"station_id":"MRI"},{"is_transit":false,"time":4,"transit":false,"distance":3186,"i_lat":-6.202263,"i_long":106.822649,"station_id":"SUD","line":1,"station_name":"Sudirman"},{"is_transit":false,"i_lat":-6.201433,"line":1,"i_long":106.819881,"transit":false,"station_name":"Sudirman Baru","station_id":"SUDB","time":1,"distance":280},{"i_lat":-6.20132,"i_long":106.816351,"line":1,"transit":false,"station_name":"Karet","station_id":"KAT","is_transit":false,"time":1,"distance":471},{"time":5,"i_long":106.811091,"is_transit":false,"i_lat":-6.185545,"transit":false,"station_name":"Tanah Abang","line":1,"station_id":"THB","distance":2029},{"i_lat":-6.155215,"i_long":106.800832,"line":1,"time":8,"station_name":"Duri","distance":3632,"station_id":"DU","transit":false,"is_transit":false},{"is_transit":false,"line":1,"station_name":"Angke","time":4,"station_id":"AK","transit":false,"i_lat":-6.144674,"distance":1230,"i_long":106.79867},{"distance":4102,"time":9,"station_id":"KPB","transit":true,"i_lat":-6.132549,"i_long":106.826365,"line":4,"station_name":"Kampung Bandan","is_transit":true},{"time":3,"is_transit":false,"station_id":"RJW","i_lat":-6.14505,"transit":false,"distance":1444,"station_name":"Rajawali","i_long":106.836569,"line":11},{"time":5,"station_id":"KMO","line":11,"station_name":"Kemayoran","is_transit":false,"i_lat":-6.161728,"i_long":106.839204,"transit":false,"distance":1901},{"transit":false,"station_id":"PSE","line":11,"time":4,"station_name":"Pasar Senen","i_long":106.84368,"distance":1436,"i_lat":-6.174784,"is_transit":false},{"transit":false,"i_lat":-6.185975,"i_long":106.850107,"time":8,"line":11,"is_transit":false,"station_name":"Gang Sentiong","distance":1567,"station_id":"GST"},{"time":1,"i_long":106.855437,"station_id":"KMT","i_lat":-6.193792,"line":11,"transit":false,"distance":973,"station_name":"Kramat","is_transit":false},{"station_name":"Pondok Jati","is_transit":false,"distance":1829,"time":2,"line":11,"station_id":"POK","transit":false,"i_long":106.861737,"i_lat":-6.209188},{"is_transit":true,"time":9,"line":1,"station_name":"Jatinegara","distance":1236,"i_long":106.86807400000001,"station_id":"JNG","i_lat":-6.215091,"transit":true},{"transit":false,"station_id":"MTR","i_long":106.858896,"is_transit":false,"line":1,"time":2,"distance":1377,"i_lat":-6.212485,"station_name":"Matraman"}],[{"i_lat":-6.466285,"i_long":106.905196,"transit":false,"station_id":"NMO","time":0,"is_transit":false,"distance":0,"station_name":"Nambo","line":21},{"distance":6527,"time":10,"i_long":106.851978,"i_lat":-6.46424,"line":21,"transit":false,"is_transit":false,"station_id":"CBN","station_name":"Cibinong"},{"is_transit":false,"station_id":"PDRG","transit":false,"distance":0,"i_lat":-6.460735,"i_long":106.824374,"station_name":"Pondok Rajeg","time":0,"line":21},{"distance":0,"i_lat":-6.448811,"station_name":"Citayam","is_transit":true,"time":0,"line":2,"i_long":106.800298,"transit":true,"station_id":"CTA"},{"i_lat":-6.405256,"is_transit":false,"transit":false,"time":6,"station_name":"Depok","line":2,"i_long":106.816926,"distance":5084,"station_id":"DP"},{"station_name":"Depokbaru","is_transit":false,"i_lat":-6.391065,"i_long":106.819451,"transit":false,"time":3,"line":2,"distance":1584,"station_id":"DPB"},{"distance":2727,"i_lat":-6.369073,"time":4,"i_long":106.831114,"line":2,"station_name":"Pondok Cina","transit":false,"station_id":"POC","is_transit":false},{"distance":1109,"transit":false,"i_long":106.831474,"i_lat":-6.360749,"line":2,"is_transit":false,"station_name":"Univ. Indonesia","station_id":"UI","time":2},{"distance":2264,"i_lat":-6.339291,"time":3,"station_name":"Univ. Pancasila","is_transit":false,"i_long":106.834175,"line":2,"transit":false,"station_id":"UP"},{"station_name":"Lenteng Agung","i_long":106.832616,"is_transit":false,"line":2,"distance":1029,"station_id":"LNA","transit":false,"i_lat":-6.330363,"time":2},{"transit":false,"station_name":"Tanjung Barat","time":3,"i_long":106.838896,"i_lat":-6.3080680000000005,"station_id":"TNT","distance":2671,"line":2,"is_transit":false},{"i_lat":-6.2842400000000005,"is_transit":false,"i_long":106.843999,"station_id":"PSM","station_name":"Pasar Minggu","line":2,"transit":false,"time":4,"distance":2820},{"distance":2380,"is_transit":false,"station_id":"PSMB","time":2,"i_lat":-6.263214,"transit":false,"i_long":106.851577,"line":2,"station_name":"Pasar Minggu Baru"},{"distance":824,"transit":false,"time":2,"station_id":"DRN","i_lat":-6.255332,"i_long":106.85449,"line":2,"is_transit":false,"station_name":"Duren Kalibata"},{"is_transit":false,"distance":1546,"transit":false,"i_lat":-6.242512,"station_id":"CW","station_name":"Cawang","i_long":106.856607,"time":3,"line":2},{"i_long":106.857948,"i_lat":-6.226659,"line":2,"station_name":"Tebet","transit":false,"is_transit":false,"time":2,"station_id":"TEB","distance":1230},{"transit":false,"is_transit":false,"i_long":106.84912,"i_lat":-6.209883,"station_name":"Manggarai","line":2,"distance":2610,"time":4,"station_id":"MRI"},{"i_lat":-6.198556,"station_name":"Cikini","transit":false,"is_transit":false,"i_long":106.840169,"line":2,"station_id":"CKI","time":4,"distance":1590},{"transit":false,"time":3,"is_transit":false,"station_name":"Gondangdia","i_long":106.832183,"line":2,"distance":1750,"station_id":"GDD","i_lat":-6.186295},{"transit":false,"station_id":"JUA","line":2,"is_transit":false,"station_name":"Juanda","distance":2015,"i_lat":-6.166716,"i_long":106.828284,"time":4},{"transit":false,"station_id":"SW","distance":1149,"is_transit":false,"i_long":106.827103,"line":2,"i_lat":-6.160725,"time":2,"station_name":"Sawah Besar"},{"station_name":"Manggabesar","transit":false,"i_lat":-6.149769,"distance":906,"is_transit":false,"time":2,"i_long":106.82482,"line":2,"station_id":"MGB"},{"station_name":"Jayakarta","time":2,"station_id":"JAY","line":2,"transit":false,"distance":1080,"i_lat":-6.141205,"is_transit":false,"i_long":106.820901},{"time":4,"station_name":"Jakarta Kota","transit":true,"station_id":"JAKK","line":2,"i_long":106.812439,"is_transit":true,"i_lat":-6.137569,"distance":1264},{"distance":1364,"i_long":106.826365,"line":4,"i_lat":-6.132549,"station_id":"KPB","transit":true,"station_name":"Kampung Bandan","is_transit":true,"time":3},{"station_name":"Rajawali","i_lat":-6.14505,"line":11,"time":3,"transit":false,"distance":1444,"i_long":106.836569,"station_id":"RJW","is_transit":false},{"i_lat":-6.161728,"i_long":106.839204,"distance":1901,"station_id":"KMO","time":5,"line":11,"station_name":"Kemayoran","transit":false,"is_transit":false},{"time":4,"transit":false,"station_name":"Pasar Senen","is_transit":false,"station_id":"PSE","distance":1436,"line":11,"i_lat":-6.174784,"i_long":106.84368},{"transit":false,"i_long":106.850107,"time":8,"line":11,"station_id":"GST","station_name":"Gang Sentiong","is_transit":false,"distance":1567,"i_lat":-6.185975},{"i_long":106.855437,"line":11,"transit":false,"station_name":"Kramat","station_id":"KMT","is_transit":false,"distance":973,"i_lat":-6.193792,"time":1},{"station_id":"POK","i_lat":-6.209188,"station_name":"Pondok Jati","i_long":106.861737,"transit":false,"time":2,"line":11,"is_transit":false,"distance":1829},{"station_name":"Jatinegara","i_lat":-6.215091,"transit":true,"line":1,"is_transit":true,"time":9,"station_id":"JNG","distance":1236,"i_long":106.86807400000001},{"time":2,"i_long":106.858896,"transit":false,"line":1,"i_lat":-6.212485,"station_name":"Matraman","distance":1377,"is_transit":false,"station_id":"MTR"}]]}