{"data":[[{"distance":0,"station_name":"Nambo","line":21,"transit":false,"is_transit":false,"i_lat":-6.466285,"time":0,"station_id":"NMO","i_long":106.905196},{"station_name":"Cibinong","time":10,"is_transit":false,"i_long":106.851978,"line":21,"transit":false,"i_lat":-6.46424,"station_id":"CBN","distance":6527},{"i_long":106.824374,"line":21,"station_name":"Pondok Rajeg","transit":false,"station_id":"PDRG","is_transit":false,"i_lat":-6.460735,"time":0,"distance":0},{"i_lat":-6.448811,"line":2,"station_id":"CTA","station_name":"Citayam","i_long":106.800298,"is_transit":true,"time":0,"transit":true,"distance":0},{"station_name":"Depok","time":6,"distance":5084,"station_id":"DP","transit":false,"i_long":106.816926,"line":2,"is_transit":false,"i_lat":-6.405256},{"i_long":106.819451,"transit":false,"is_transit":false,"i_lat":-6.391065,"line":2,"station_name":"Depokbaru","distance":1584,"time":3,"station_id":"DPB"},{"distance":2727,"transit":false,"line":2,"station_id":"POC","i_lat":-6.369073,"i_long":106.831114,"is_transit":false,"time":4,"station_name":"Pondok Cina"},{"i_lat":-6.360749,"i_long":106.831474,"distance":1109,"station_id":"UI","station_name":"Univ. Indonesia","is_transit":false,"line":2,"time":2,"transit":false},{"time":3,"i_lat":-6.339291,"transit":false,"station_id":"UP","distance":2264,"station_name":"Univ. Pancasila","i_long":106.834175,"is_transit":false,"line":2},{"i_long":106.832616,"transit":false,"line":2,"station_name":"Lenteng Agung","is_transit":false,"distance":1029,"station_id":"LNA","i_lat":-6.330363,"time":2},{"i_long":106.838896,"distance":2671,"i_lat":-6.3080680000000005,"station_id":"TNT","station_name":"Tanjung Barat","is_transit":false,"transit":false,"line":2,"time":3},{"time":4,"i_long":106.843999,"i_lat":-6.2842400000000005,"transit":false,"line":2,"station_id":"PSM","station_name":"Pasar Minggu","distance":2820,"is_transit":false},{"i_lat":-6.263214,"line":2,"transit":false,"station_id":"PSMB","station_name":"Pasar Minggu Baru","time":2,"i_long":106.851577,"distance":2380,"is_transit":false},{"transit":false,"is_transit":false,"distance":824,"i_long":106.85449,"station_name":"Duren Kalibata","time":2,"line":2,"i_lat":-6.255332,"station_id":"DRN"},{"transit":false,"is_transit":false,"line":2,"station_name":"Cawang","i_lat":-6.242512,"i_long":106.856607,"station_id":"CW","distance":1546,"time":3},{"i_lat":-6.226659,"transit":false,"is_transit":false,"distance":1230,"station_name":"Tebet","line":2,"time":2,"i_long":106.857948,"station_id":"TEB"},{"station_id":"MRI","station_name":"Manggarai","i_long":106.84912,"transit":true,"time":4,"distance":2610,"line":2,"is_transit":true,"i_lat":-6.209883},{"i_lat":-6.212485,"transit":false,"i_long":106.858896,"station_name":"Matraman","line":1,"distance":1275,"is_transit":false,"time":2,"station_id":"MTR"}],[{"i_lat":-6.466285,"distance":0,"station_id":"NMO","transit":false,"line":21,"station_name":"Nambo","time":0,"i_long":106.905196,"is_transit":false},{"station_id":"CBN","transit":false,"distance":6527,"i_lat":-6.46424,"i_long":106.851978,"line":21,"time":10,"station_name":"Cibinong","is_transit":false},{"i_lat":-6.460735,"station_id":"PDRG","line":21,"distance":0,"transit":false,"time":0,"is_transit":false,"i_long":106.824374,"station_name":"Pondok Rajeg"},{"station_id":"CTA","station_name":"Citayam","time":0,"is_transit":true,"transit":true,"distance":0,"i_lat":-6.448811,"i_long":106.800298,"line":2},{"station_id":"DP","line":2,"i_long":106.816926,"time":6,"i_lat":-6.405256,"transit":false,"station_name":"Depok","is_transit":false,"distance":5084},{"line":2,"time":3,"station_name":"Depokbaru","is_transit":false,"transit":false,"i_lat":-6.391065,"i_long":106.819451,"station_id":"DPB","distance":1584},{"is_transit":false,"i_long":106.831114,"station_id":"POC","distance":2727,"transit":false,"station_name":"Pondok Cina","line":2,"i_lat":-6.369073,"time":4},{"is_transit":false,"i_long":106.831474,"station_name":"Univ. Indonesia","time":2,"i_lat":-6.360749,"line":2,"distance":1109,"transit":false,"station_id":"UI"},{"i_lat":-6.339291,"time":3,"i_long":106.834175,"station_name":"Univ. Pancasila","line":2,"station_id":"UP","distance":2264,"transit":false,"is_transit":false},{"time":2,"station_id":"LNA","i_lat":-6.330363,"is_transit":false,"transit":false,"distance":1029,"line":2,"i_long":106.832616,"station_name":"Lenteng Agung"},{"time":3,"distance":2671,"station_name":"Tanjung Barat","transit":false,"i_lat":-6.3080680000000005,"line":2,"i_long":106.838896,"is_transit":false,"station_id":"TNT"},{"is_transit":false,"transit":false,"i_lat":-6.2842400000000005,"distance":2820,"i_long":106.843999,"line":2,"time":4,"station_name":"Pasar Minggu","station_id":"PSM"},{"transit":false,"i_lat":-6.263214,"i_long":106.851577,"line":2,"time":2,"station_name":"Pasar Minggu Baru","station_id":"PSMB","is_transit":false,"distance":2380},{"station_name":"Duren Kalibata","line":2,"station_id":"DRN","distance":824,"transit":false,"time":2,"i_lat":-6.255332,"i_long":106.85449,"is_transit":false},{"line":2,"i_lat":-6.242512,"is_transit":false,"station_id":"CW","transit":false,"time":3,"distance":1546,"station_name":"Cawang","i_long":106.856607},{"station_name":"Tebet","time":2,"is_transit":false,"transit":false,"distance":1230,"i_long":106.857948,"line":2,"i_lat":-6.226659,"station_id":"TEB"},{"transit":true,"i_lat":-6.209883,"station_id":"MRI","distance":2610,"line":2,"is_transit":true,"i_long":106.84912,"station_name":"Manggarai","time":4},{"station_name":"Sudirman","transit":false,"is_transit":false,"line":1,"distance":3186,"i_long":106.822649,"time":4,"i_lat":-6.202263,"station_id":"SUD"},{"i_lat":-6.201433,"i_long":106.819881,"distance":280,"station_name":"Sudirman Baru","line":1,"station_id":"SUDB","transit":false,"time":1,"is_transit":false},{"is_transit":false,"i_long":106.816351,"station_name":"Karet","line":1,"distance":471,"station_id":"KAT","i_lat":-6.20132,"time":1,"transit":false},{"station_id":"THB","is_transit":false,"distance":2029,"i_long":106.811091,"line":1,"i_lat":-6.185545,"station_name":"Tanah Abang","time":5,"transit":false},{"transit":false,"station_id":"DU","is_transit":false,"line":1,"station_name":"Duri","distance":3632,"i_lat":-6.155215,"time":8,"i_long":106.800832},{"station_id":"AK","i_lat":-6.144674,"line":1,"i_long":106.79867,"transit":false,"is_transit":false,"station_name":"Angke","time":4,"distance":1230},{"i_lat":-6.132549,"is_transit":true,"station_name":"Kampung Bandan","transit":true,"station_id":"KPB","i_long":106.826365,"distance":4102,"time":9,"line":4},{"distance":1444,"i_long":106.836569,"i_lat":-6.14505,"transit":false,"line":11,"time":3,"is_transit":false,"station_id":"RJW","station_name":"Rajawali"},{"line":11,"station_name":"Kemayoran","transit":false,"station_id":"KMO","distance":1901,"i_lat":-6.161728,"time":5,"i_long":106.839204,"is_transit":false},{"station_id":"PSE","i_lat":-6.174784,"distance":1436,"station_name":"Pasar Senen","transit":false,"is_transit":false,"time":4,"i_long":106.84368,"line":11},{"line":11,"station_id":"GST","i_long":106.850107,"time":8,"station_name":"Gang Sentiong","is_transit":false,"transit":false,"i_lat":-6.185975,"distance":1567},{"station_name":"Kramat","station_id":"KMT","is_transit":false,"time":1,"distance":973,"i_lat":-6.193792,"transit":false,"i_long":106.855437,"line":11},{"distance":1829,"time":2,"station_id":"POK","i_lat":-6.209188,"station_name":"Pondok Jati","is_transit":false,"line":11,"i_long":106.861737,"transit":false},{"station_id":"JNG","time":9,"is_transit":true,"i_lat":-6.215091,"distance":1236,"i_long":106.86807400000001,"line":1,"station_name":"Jatinegara","transit":true},{"station_name":"Matraman","transit":false,"time":2,"is_transit":false,"distance":1377,"station_id":"MTR","line":1,"i_long":106.858896,"i_lat":-6.212485}],[{"station_id":"NMO","station_name":"Nambo","distance":0,"i_lat":-6.466285,"line":21,"transit":false,"time":0,"is_transit":false,"i_long":106.905196},{"time":10,"i_long":106.851978,"i_lat":-6.46424,"station_name":"Cibinong","is_transit":false,"line":21,"station_id":"CBN","transit":false,"distance":6527},{"station_id":"PDRG","station_name":"Pondok Rajeg","transit":false,"i_lat":-6.460735,"i_long":106.824374,"line":21,"time":0,"is_transit":false,"distance":0},{"transit":true,"distance":0,"line":2,"is_transit":true,"station_name":"Citayam","i_lat":-6.448811,"station_id":"CTA","time":0,"i_long":106.800298},{"time":6,"station_id":"DP","transit":false,"i_long":106.816926,"is_transit":false,"distance":5084,"line":2,"station_name":"Depok","i_lat":-6.405256},{"line":2,"transit":false,"i_lat":-6.391065,"distance":1584,"station_id":"DPB","station_name":"Depokbaru","time":3,"i_long":106.819451,"is_transit":false},{"station_id":"POC","time":4,"is_transit":false,"line":2,"i_lat":-6.369073,"i_long":106.831114,"distance":2727,"transit":false,"station_name":"Pondok Cina"},{"time":2,"is_transit":false,"i_lat":-6.360749,"line":2,"station_id":"UI","i_long":106.831474,"station_name":"Univ. Indonesia","transit":false,"distance":1109},{"transit":false,"is_transit":false,"station_name":"Univ. Pancasila","station_id":"UP","i_lat":-6.339291,"distance":2264,"i_long":106.834175,"time":3,"line":2},{"station_name":"Lenteng Agung","station_id":"LNA","time":2,"is_transit":false,"i_lat":-6.330363,"transit":false,"i_long":106.832616,"line":2,"distance":1029},{"station_name":"Tanjung Barat","distance":2671,"is_transit":false,"i_lat":-6.3080680000000005,"i_long":106.838896,"transit":false,"station_id":"TNT","time":3,"line":2},{"distance":2820,"i_lat":-6.2842400000000005,"is_transit":false,"station_name":"Pasar Minggu","line":2,"time":4,"transit":false,"station_id":"PSM","i_long":106.843999},{"is_transit":false,"line":2,"station_name":"Pasar Minggu Baru","station_id":"PSMB","i_long":106.851577,"distance":2380,"i_lat":-6.263214,"transit":false,"time":2},{"time":2,"i_lat":-6.255332,"distance":824,"line":2,"station_id":"DRN","station_name":"Duren Kalibata","transit":false,"i_long":106.85449,"is_transit":false},{"distance":1546,"i_long":106.856607,"station_name":"Cawang","i_lat":-6.242512,"transit":false,"time":3,"is_transit":false,"station_id":"CW","line":2},{"is_transit":false,"station_id":"TEB","time":2,"station_name":"Tebet","line":2,"transit":false,"i_long":106.857948,"i_lat":-6.226659,"distance":1230},{"distance":2610,"station_name":"Manggarai","station_id":"MRI","line":2,"is_transit":false,"i_lat":-6.209883,"i_long":106.84912,"time":4,"transit":false},{"station_name":"Cikini","distance":1590,"station_id":"CKI","i_long":106.840169,"transit":false,"time":4,"is_transit":false,"i_lat":-6.198556,"line":2},{"transit":false,"distance":1750,"i_lat":-6.186295,"time":3,"i_long":106.832183,"line":2,"station_name":"Gondangdia","station_id":"GDD","is_transit":false},{"station_id":"JUA","i_lat":-6.166716,"transit":false,"is_transit":false,"i_long":106.828284,"line":2,"distance":2015,"time":4,"station_name":"Juanda"},{"transit":false,"line":2,"distance":1149,"is_transit":false,"i_lat":-6.160725,"station_id":"SW","station_name":"Sawah Besar","i_long":106.827103,"time":2},{"time":2,"is_transit":false,"distance":906,"station_id":"MGB","transit":false,"station_name":"Manggabesar","i_lat":-6.149769,"i_long":106.82482,"line":2},{"time":2,"station_id":"JAY","i_lat":-6.141205,"station_name":"Jayakarta","is_transit":false,"i_long":106.820901,"transit":false,"line":2,"distance":1080},{"time":4,"distance":1264,"i_lat":-6.137569,"transit":true,"station_id":"JAKK","station_name":"Jakarta Kota","i_long":106.812439,"line":2,"is_transit":true},{"i_lat":-6.132549,"station_name":"Kampung Bandan","station_id":"KPB","is_transit":true,"i_long":106.826365,"line":4,"distance":1364,"transit":true,"time":3},{"i_long":106.836569,"distance":1444,"line":11,"transit":false,"station_name":"Rajawali","station_id":"RJW","is_transit":false,"i_lat":-6.14505,"time":3},{"time":5,"i_long":106.839204,"i_lat":-6.161728,"station_name":"Kemayoran","distance":1901,"is_transit":false,"line":11,"transit":false,"station_id":"KMO"},{"station_name":"Pasar Senen","station_id":"PSE","transit":false,"is_transit":false,"i_lat":-6.174784,"distance":1436,"time":4,"line":11,"i_long":106.84368},{"station_name":"Gang Sentiong","i_lat":-6.185975,"distance":1567,"time":8,"is_transit":false,"transit":false,"i_long":106.850107,"station_id":"GST","line":11},{"is_transit":false,"distance":973,"station_name":"Kramat","line":11,"transit":false,"i_long":106.855437,"i_lat":-6.193792,"station_id":"KMT","time":1},{"i_lat":-6.209188,"station_name":"Pondok Jati","distance":1829,"line":11,"i_long":106.861737,"time":2,"transit":false,"station_id":"POK","is_transit":false},{"is_transit":true,"time":9,"transit":true,"i_long":106.86807400000001,"i_lat":-6.215091,"station_id":"JNG","station_name":"Jatinegara","distance":1236,"line":1},{"distance":1377,"time":2,"transit":false,"station_id":"MTR","i_lat":-6.212485,"station_name":"Matraman","line":1,"is_transit":false,"i_long":106.858896}]]}