{"data":[[{"i_long":106.905196,"transit":false,"time":0,"i_lat":-6.466285,"line":21,"station_name":"Nambo","station_id":"NMO","is_transit":false,"distance":0},{"i_long":106.851978,"i_lat":-6.46424,"line":0,"time":10,"transit":false,"station_name":"Cibinong","distance":6527,"station_id":"CBN","is_transit":false},{"is_transit":true,"i_lat":-6.448811,"station_name":"Citayam","station_id":"CTA","i_long":106.800298,"time":10,"line":1,"transit":false,"distance":6740},{"line":0,"station_id":"DP","time":6,"distance":5084,"i_lat":-6.405256,"is_transit":false,"transit":false,"station_name":"Depok","i_long":106.816926},{"i_long":106.819451,"distance":1584,"is_transit":false,"i_lat":-6.391065,"line":0,"station_id":"DPB","station_name":"Depokbaru","time":3,"transit":false},{"is_transit":false,"station_id":"POC","time":4,"i_lat":-6.369073,"station_name":"Pondok Cina","transit":false,"distance":2727,"i_long":106.831114,"line":2},{"time":2,"station_name":"Univ. Indonesia","transit":false,"i_lat":-6.360749,"i_long":106.831474,"line":2,"is_transit":false,"distance":1109,"station_id":"UI"},{"transit":false,"i_lat":-6.339291,"is_transit":false,"station_id":"UP","station_name":"Univ. Pancasila","distance":2264,"line":2,"time":3,"i_long":106.834175},{"station_id":"LNA","distance":1029,"i_long":106.832616,"transit":false,"i_lat":-6.330363,"station_name":"Lenteng Agung","line":2,"is_transit":false,"time":2},{"distance":2671,"i_long":106.838896,"i_lat":-6.3080680000000005,"transit":false,"is_transit":false,"station_name":"Tanjung Barat","time":3,"line":2,"station_id":"TNT"},{"i_long":106.843999,"station_id":"PSM","station_name":"Pasar Minggu","time":4,"transit":false,"is_transit":false,"distance":2820,"line":2,"i_lat":-6.2842400000000005},{"i_lat":-6.263214,"i_long":106.851577,"time":2,"transit":false,"is_transit":false,"station_name":"Pasar Minggu Baru","station_id":"PSMB","line":2,"distance":2380},{"distance":824,"line":0,"station_name":"Duren Kalibata","station_id":"DRN","transit":false,"time":2,"i_long":106.85449,"i_lat":-6.255332,"is_transit":false},{"i_lat":-6.242512,"line":0,"i_long":106.856607,"station_name":"Cawang","distance":1546,"time":3,"station_id":"CW","transit":false,"is_transit":false},{"i_long":106.857948,"i_lat":-6.226659,"station_id":"TEB","transit":false,"distance":1230,"is_transit":false,"line":2,"time":2,"station_name":"Tebet"},{"distance":2610,"is_transit":true,"station_name":"Manggarai","time":4,"i_lat":-6.209883,"i_long":106.84912,"line":0,"transit":true,"station_id":"MRI"},{"distance":1275,"i_long":106.858896,"line":1,"station_name":"Matraman","station_id":"MTR","is_transit":false,"i_lat":-6.212485,"time":2,"transit":false},{"station_name":"Jatinegara","distance":1377,"time":8,"station_id":"JNG","i_lat":-6.215091,"transit":true,"i_long":106.86807400000001,"line":0,"is_transit":true},{"station_id":"POK","line":11,"station_name":"Pondok Jati","transit":false,"distance":1236,"time":2,"is_transit":false,"i_lat":-6.209188,"i_long":106.861737}],[{"station_id":"NMO","transit":false,"time":0,"station_name":"Nambo","distance":0,"i_lat":-6.466285,"is_transit":false,"i_long":106.905196,"line":21},{"transit":false,"time":10,"line":0,"station_name":"Cibinong","i_lat":-6.46424,"i_long":106.851978,"station_id":"CBN","distance":6527,"is_transit":false},{"station_id":"CTA","line":1,"transit":false,"distance":6740,"time":10,"is_transit":true,"i_lat":-6.448811,"i_long":106.800298,"station_name":"Citayam"},{"distance":5084,"i_long":106.816926,"line":0,"is_transit":false,"time":6,"station_id":"DP","i_lat":-6.405256,"station_name":"Depok","transit":false},{"station_id":"DPB","distance":1584,"line":0,"station_name":"Depokbaru","transit":false,"time":3,"is_transit":false,"i_long":106.819451,"i_lat":-6.391065},{"transit":false,"time":4,"is_transit":false,"i_long":106.831114,"line":2,"distance":2727,"station_name":"Pondok Cina","i_lat":-6.369073,"station_id":"POC"},{"distance":1109,"station_name":"Univ. Indonesia","time":2,"transit":false,"station_id":"UI","i_lat":-6.360749,"i_long":106.831474,"is_transit":false,"line":2},{"is_transit":false,"i_lat":-6.339291,"i_long":106.834175,"time":3,"transit":false,"station_id":"UP","distance":2264,"station_name":"Univ. Pancasila","line":2},{"time":2,"is_transit":false,"station_id":"LNA","distance":1029,"station_name":"Lenteng Agung","i_lat":-6.330363,"transit":false,"i_long":106.832616,"line":2},{"time":3,"i_lat":-6.3080680000000005,"line":2,"transit":false,"station_id":"TNT","i_long":106.838896,"station_name":"Tanjung Barat","is_transit":false,"distance":2671},{"line":2,"i_lat":-6.2842400000000005,"is_transit":false,"time":4,"transit":false,"station_id":"PSM","distance":2820,"i_long":106.843999,"station_name":"Pasar Minggu"},{"station_name":"Pasar Minggu Baru","distance":2380,"i_lat":-6.263214,"is_transit":false,"time":2,"i_long":106.851577,"line":2,"station_id":"PSMB","transit":false},{"i_lat":-6.255332,"is_transit":false,"transit":false,"station_name":"Duren Kalibata","station_id":"DRN","distance":824,"time":2,"line":0,"i_long":106.85449},{"station_id":"CW","line":0,"i_lat":-6.242512,"station_name":"Cawang","distance":1546,"i_long":106.856607,"is_transit":false,"time":3,"transit":false},{"station_id":"TEB","transit":false,"time":2,"is_transit":false,"station_name":"Tebet","distance":1230,"i_long":106.857948,"i_lat":-6.226659,"line":2},{"station_name":"Manggarai","distance":2610,"is_transit":true,"time":4,"station_id":"MRI","i_lat":-6.209883,"i_long":106.84912,"transit":true,"line":0},{"transit":false,"i_long":106.822649,"time":4,"i_lat":-6.202263,"station_name":"Sudirman","distance":3186,"line":1,"station_id":"SUD","is_transit":false},{"time":1,"is_transit":false,"station_id":"SUDB","distance":280,"transit":false,"station_name":"Sudirman Baru","line":1,"i_long":106.819881,"i_lat":-6.201433},{"line":1,"distance":471,"time":1,"i_long":106.816351,"is_transit":false,"transit":false,"i_lat":-6.20132,"station_id":"KAT","station_name":"Karet"},{"is_transit":true,"line":1,"transit":false,"station_id":"THB","time":5,"distance":2029,"i_long":106.811091,"i_lat":-6.185545,"station_name":"Tanah Abang"},{"time":8,"station_name":"Duri","distance":3632,"i_long":106.800832,"line":1,"i_lat":-6.155215,"is_transit":true,"station_id":"DU","transit":true},{"i_long":106.79867,"line":0,"distance":1230,"is_transit":false,"time":4,"station_name":"Angke","station_id":"AK","i_lat":-6.144674,"transit":false},{"time":9,"station_id":"KPB","i_lat":-6.132549,"is_transit":true,"i_long":106.826365,"distance":4102,"line":0,"transit":true,"station_name":"Kampung Bandan"},{"distance":1444,"transit":false,"is_transit":false,"time":3,"station_name":"Rajawali","station_id":"RJW","i_lat":-6.14505,"i_long":106.836569,"line":11},{"station_id":"KMO","transit":false,"is_transit":false,"distance":1901,"line":11,"station_name":"Kemayoran","i_lat":-6.161728,"time":5,"i_long":106.839204},{"station_id":"PSE","distance":1436,"i_long":106.84368,"i_lat":-6.174784,"station_name":"Pasar Senen","is_transit":false,"time":4,"transit":false,"line":11},{"i_lat":-6.185975,"line":11,"station_id":"GST","i_long":106.850107,"distance":1567,"station_name":"Gang Sentiong","is_transit":false,"transit":false,"time":8},{"i_long":106.855437,"is_transit":false,"i_lat":-6.193792,"line":11,"time":1,"station_id":"KMT","transit":false,"station_name":"Kramat","distance":973},{"time":2,"transit":false,"distance":1829,"station_id":"POK","line":11,"i_lat":-6.209188,"i_long":106.861737,"is_transit":false,"station_name":"Pondok Jati"}],[{"station_name":"Nambo","time":0,"line":21,"station_id":"NMO","is_transit":false,"i_lat":-6.466285,"distance":0,"i_long":106.905196,"transit":false},{"station_id":"CBN","is_transit":false,"i_lat":-6.46424,"i_long":106.851978,"time":10,"station_name":"Cibinong","transit":false,"line":0,"distance":6527},{"i_long":106.800298,"is_transit":true,"distance":6740,"line":1,"transit":false,"time":10,"i_lat":-6.448811,"station_name":"Citayam","station_id":"CTA"},{"time":6,"is_transit":false,"station_id":"DP","station_name":"Depok","distance":5084,"line":0,"i_lat":-6.405256,"transit":false,"i_long":106.816926},{"time":3,"is_transit":false,"i_lat":-6.391065,"station_name":"Depokbaru","station_id":"DPB","i_long":106.819451,"distance":1584,"transit":false,"line":0},{"station_name":"Pondok Cina","time":4,"station_id":"POC","transit":false,"distance":2727,"i_long":106.831114,"is_transit":false,"line":2,"i_lat":-6.369073},{"i_long":106.831474,"station_name":"Univ. Indonesia","is_transit":false,"line":2,"station_id":"UI","transit":false,"i_lat":-6.360749,"distance":1109,"time":2},{"distance":2264,"i_lat":-6.339291,"line":2,"time":3,"station_name":"Univ. Pancasila","station_id":"UP","transit":false,"is_transit":false,"i_long":106.834175},{"is_transit":false,"station_name":"Lenteng Agung","station_id":"LNA","time":2,"i_lat":-6.330363,"i_long":106.832616,"transit":false,"distance":1029,"line":2},{"station_name":"Tanjung Barat","line":2,"i_lat":-6.3080680000000005,"time":3,"is_transit":false,"transit":false,"distance":2671,"i_long":106.838896,"station_id":"TNT"},{"transit":false,"time":4,"station_id":"PSM","is_transit":false,"distance":2820,"station_name":"Pasar Minggu","i_long":106.843999,"i_lat":-6.2842400000000005,"line":2},{"station_name":"Pasar Minggu Baru","line":2,"is_transit":false,"station_id":"PSMB","transit":false,"i_long":106.851577,"time":2,"distance":2380,"i_lat":-6.263214},{"station_id":"DRN","is_transit":false,"time":2,"transit":false,"i_lat":-6.255332,"line":0,"distance":824,"station_name":"Duren Kalibata","i_long":106.85449},{"line":0,"transit":false,"station_name":"Cawang","station_id":"CW","distance":1546,"is_transit":false,"time":3,"i_long":106.856607,"i_lat":-6.242512},{"station_name":"Tebet","transit":false,"distance":1230,"is_transit":false,"i_lat":-6.226659,"line":2,"station_id":"TEB","i_long":106.857948,"time":2},{"time":4,"distance":2610,"transit":true,"i_lat":-6.209883,"is_transit":true,"station_id":"MRI","line":0,"i_long":106.84912,"station_name":"Manggarai"},{"distance":1590,"line":0,"transit":false,"i_lat":-6.198556,"is_transit":false,"time":4,"station_name":"Cikini","i_long":106.840169,"station_id":"CKI"},{"transit":false,"station_name":"Gondangdia","station_id":"GDD","distance":1750,"is_transit":false,"line":2,"time":3,"i_lat":-6.186295,"i_long":106.832183},{"transit":false,"station_id":"JUA","line":2,"i_long":106.828284,"time":4,"is_transit":false,"distance":2015,"station_name":"Juanda","i_lat":-6.166716},{"time":2,"distance":1149,"is_transit":false,"station_id":"SW","i_lat":-6.160725,"i_long":106.827103,"transit":false,"station_name":"Sawah Besar","line":2},{"station_name":"Manggabesar","time":2,"transit":false,"distance":906,"is_transit":false,"i_lat":-6.149769,"station_id":"MGB","i_long":106.82482,"line":2},{"station_id":"JAY","transit":false,"distance":1080,"time":2,"is_transit":false,"i_long":106.820901,"line":7,"station_name":"Jayakarta","i_lat":-6.141205},{"is_transit":true,"station_name":"Jakarta Kota","distance":1264,"station_id":"JAKK","i_lat":-6.137569,"i_long":106.812439,"time":4,"transit":true,"line":0},{"transit":true,"station_id":"KPB","line":0,"station_name":"Kampung Bandan","time":3,"is_transit":true,"i_long":106.826365,"i_lat":-6.132549,"distance":1364},{"station_name":"Rajawali","i_lat":-6.14505,"i_long":106.836569,"time":3,"transit":false,"distance":1444,"is_transit":false,"station_id":"RJW","line":11},{"i_lat":-6.161728,"time":5,"station_id":"KMO","i_long":106.839204,"line":11,"is_transit":false,"station_name":"Kemayoran","distance":1901,"transit":false},{"i_long":106.84368,"line":11,"transit":false,"station_id":"PSE","i_lat":-6.174784,"station_name":"Pasar Senen","time":4,"distance":1436,"is_transit":false},{"station_id":"GST","station_name":"Gang Sentiong","is_transit":false,"i_lat":-6.185975,"transit":false,"line":11,"i_long":106.850107,"time":8,"distance":1567},{"is_transit":false,"i_lat":-6.193792,"distance":973,"line":11,"station_name":"Kramat","i_long":106.855437,"transit":false,"time":1,"station_id":"KMT"},{"distance":1829,"station_id":"POK","station_name":"Pondok Jati","time":2,"line":11,"i_lat":-6.209188,"is_transit":false,"i_long":106.861737,"transit":false}]]}