{"data":[[{"station_name":"Nambo","is_transit":false,"i_lat":-6.466285,"line":21,"transit":false,"time":0,"distance":0,"station_id":"NMO","i_long":106.905196},{"i_lat":-6.46424,"time":10,"transit":false,"is_transit":false,"station_id":"CBN","station_name":"Cibinong","distance":6527,"i_long":106.851978,"line":21},{"transit":false,"time":0,"i_long":106.824374,"distance":0,"station_name":"Pondok Rajeg","station_id":"PDRG","i_lat":-6.460735,"line":21,"is_transit":false},{"transit":true,"distance":0,"station_name":"Citayam","line":2,"station_id":"CTA","is_transit":true,"time":0,"i_long":106.800298,"i_lat":-6.448811},{"is_transit":false,"time":6,"transit":false,"station_id":"DP","i_lat":-6.405256,"distance":5084,"station_name":"Depok","i_long":106.816926,"line":2},{"line":2,"transit":false,"station_name":"Depokbaru","time":3,"distance":1584,"i_long":106.819451,"station_id":"DPB","i_lat":-6.391065,"is_transit":false},{"is_transit":false,"station_name":"Pondok Cina","distance":2727,"time":4,"i_lat":-6.369073,"i_long":106.831114,"transit":false,"line":2,"station_id":"POC"},{"i_long":106.831474,"time":2,"station_id":"UI","line":2,"is_transit":false,"station_name":"Univ. Indonesia","distance":1109,"i_lat":-6.360749,"transit":false},{"transit":false,"is_transit":false,"distance":2264,"i_long":106.834175,"line":2,"station_name":"Univ. Pancasila","i_lat":-6.339291,"time":3,"station_id":"UP"},{"is_transit":false,"time":2,"distance":1029,"i_lat":-6.330363,"transit":false,"station_name":"Lenteng Agung","line":2,"i_long":106.832616,"station_id":"LNA"},{"i_long":106.838896,"transit":false,"station_id":"TNT","is_transit":false,"distance":2671,"i_lat":-6.3080680000000005,"time":3,"line":2,"station_name":"Tanjung Barat"},{"station_id":"PSM","distance":2820,"time":4,"i_long":106.843999,"transit":false,"station_name":"Pasar Minggu","line":2,"is_transit":false,"i_lat":-6.2842400000000005},{"is_transit":false,"station_name":"Pasar Minggu Baru","line":2,"station_id":"PSMB","distance":2380,"i_lat":-6.263214,"time":2,"transit":false,"i_long":106.851577},{"distance":824,"i_lat":-6.255332,"line":2,"station_name":"Duren Kalibata","time":2,"transit":false,"i_long":106.85449,"station_id":"DRN","is_transit":false},{"station_id":"CW","i_lat":-6.242512,"is_transit":false,"station_name":"Cawang","distance":1546,"line":2,"transit":false,"i_long":106.856607,"time":3},{"station_id":"TEB","transit":false,"station_name":"Tebet","distance":1230,"i_long":106.857948,"line":2,"is_transit":false,"time":2,"i_lat":-6.226659},{"time":4,"distance":2610,"station_name":"Manggarai","transit":false,"i_lat":-6.209883,"line":2,"i_long":106.84912,"is_transit":false,"station_id":"MRI"},{"i_long":106.840169,"station_name":"Cikini","is_transit":false,"distance":1590,"i_lat":-6.198556,"transit":false,"time":4,"station_id":"CKI","line":2},{"i_lat":-6.186295,"line":2,"station_id":"GDD","transit":false,"distance":1750,"i_long":106.832183,"time":3,"station_name":"Gondangdia","is_transit":false}],[{"line":21,"transit":false,"distance":0,"station_name":"Nambo","station_id":"NMO","is_transit":false,"time":0,"i_long":106.905196,"i_lat":-6.466285},{"line":21,"i_lat":-6.46424,"distance":6527,"station_name":"Cibinong","i_long":106.851978,"time":10,"transit":false,"is_transit":false,"station_id":"CBN"},{"time":0,"station_id":"PDRG","station_name":"Pondok Rajeg","i_lat":-6.460735,"transit":false,"distance":0,"is_transit":false,"i_long":106.824374,"line":21},{"i_long":106.800298,"is_transit":true,"station_id":"CTA","station_name":"Citayam","i_lat":-6.448811,"line":2,"time":0,"distance":0,"transit":true},{"station_name":"Depok","i_lat":-6.405256,"line":2,"is_transit":false,"i_long":106.816926,"time":6,"transit":false,"station_id":"DP","distance":5084},{"station_name":"Depokbaru","distance":1584,"time":3,"line":2,"transit":false,"i_long":106.819451,"is_transit":false,"i_lat":-6.391065,"station_id":"DPB"},{"transit":false,"is_transit":false,"station_id":"POC","line":2,"distance":2727,"i_long":106.831114,"station_name":"Pondok Cina","time":4,"i_lat":-6.369073},{"station_name":"Univ. Indonesia","time":2,"station_id":"UI","i_lat":-6.360749,"i_long":106.831474,"is_transit":false,"line":2,"transit":false,"distance":1109},{"distance":2264,"station_name":"Univ. Pancasila","i_lat":-6.339291,"line":2,"station_id":"UP","time":3,"i_long":106.834175,"is_transit":false,"transit":false},{"time":2,"is_transit":false,"transit":false,"station_name":"Lenteng Agung","station_id":"LNA","distance":1029,"i_lat":-6.330363,"i_long":106.832616,"line":2},{"time":3,"i_lat":-6.3080680000000005,"distance":2671,"line":2,"transit":false,"i_long":106.838896,"station_id":"TNT","station_name":"Tanjung Barat","is_transit":false},{"transit":false,"station_name":"Pasar Minggu","line":2,"station_id":"PSM","i_long":106.843999,"time":4,"is_transit":false,"distance":2820,"i_lat":-6.2842400000000005},{"transit":false,"station_name":"Pasar Minggu Baru","line":2,"distance":2380,"station_id":"PSMB","is_transit":false,"i_lat":-6.263214,"i_long":106.851577,"time":2},{"distance":824,"i_long":106.85449,"station_id":"DRN","transit":false,"time":2,"is_transit":false,"line":2,"station_name":"Duren Kalibata","i_lat":-6.255332},{"time":3,"distance":1546,"transit":false,"station_name":"Cawang","station_id":"CW","i_long":106.856607,"line":2,"i_lat":-6.242512,"is_transit":false},{"station_id":"TEB","is_transit":false,"distance":1230,"i_lat":-6.226659,"line":2,"station_name":"Tebet","transit":false,"time":2,"i_long":106.857948},{"station_name":"Manggarai","is_transit":true,"distance":2610,"line":2,"station_id":"MRI","transit":true,"time":4,"i_lat":-6.209883,"i_long":106.84912},{"i_lat":-6.202263,"station_id":"SUD","distance":3186,"station_name":"Sudirman","i_long":106.822649,"line":1,"transit":false,"time":4,"is_transit":false},{"station_name":"Sudirman Baru","distance":280,"is_transit":false,"i_long":106.819881,"transit":false,"time":1,"i_lat":-6.201433,"line":1,"station_id":"SUDB"},{"i_long":106.816351,"station_name":"Karet","transit":false,"time":1,"line":1,"is_transit":false,"i_lat":-6.20132,"distance":471,"station_id":"KAT"},{"line":1,"distance":2029,"station_name":"Tanah Abang","transit":false,"is_transit":false,"time":5,"station_id":"THB","i_lat":-6.185545,"i_long":106.811091},{"distance":3632,"station_name":"Duri","i_lat":-6.155215,"i_long":106.800832,"transit":false,"line":1,"station_id":"DU","is_transit":false,"time":8},{"i_lat":-6.144674,"distance":1230,"station_name":"Angke","time":4,"transit":false,"is_transit":false,"i_long":106.79867,"station_id":"AK","line":1},{"i_lat":-6.132549,"line":4,"distance":4102,"i_long":106.826365,"station_id":"KPB","is_transit":true,"transit":true,"station_name":"Kampung Bandan","time":9},{"distance":1364,"station_name":"Jakarta Kota","station_id":"JAKK","is_transit":true,"transit":true,"time":3,"i_lat":-6.137569,"i_long":106.812439,"line":2},{"is_transit":false,"station_name":"Jayakarta","time":4,"distance":1264,"i_lat":-6.141205,"i_long":106.820901,"station_id":"JAY","line":2,"transit":false},{"i_lat":-6.149769,"transit":false,"station_name":"Manggabesar","station_id":"MGB","time":2,"line":2,"is_transit":false,"distance":1080,"i_long":106.82482},{"i_long":106.827103,"distance":906,"station_id":"SW","transit":false,"is_transit":false,"time":2,"station_name":"Sawah Besar","line":2,"i_lat":-6.160725},{"station_name":"Juanda","distance":1149,"station_id":"JUA","time":2,"transit":false,"i_long":106.828284,"is_transit":false,"line":2,"i_lat":-6.166716},{"transit":false,"time":4,"station_id":"GDD","line":2,"station_name":"Gondangdia","i_long":106.832183,"distance":2015,"is_transit":false,"i_lat":-6.186295}],[{"transit":false,"time":0,"distance":0,"is_transit":false,"i_long":106.905196,"station_name":"Nambo","station_id":"NMO","line":21,"i_lat":-6.466285},{"station_id":"CBN","i_lat":-6.46424,"line":21,"transit":false,"distance":6527,"is_transit":false,"i_long":106.851978,"station_name":"Cibinong","time":10},{"line":21,"station_id":"PDRG","distance":0,"i_long":106.824374,"time":0,"i_lat":-6.460735,"station_name":"Pondok Rajeg","transit":false,"is_transit":false},{"transit":true,"station_id":"CTA","distance":0,"time":0,"is_transit":true,"i_lat":-6.448811,"i_long":106.800298,"line":2,"station_name":"Citayam"},{"transit":false,"station_id":"DP","station_name":"Depok","time":6,"i_lat":-6.405256,"is_transit":false,"distance":5084,"i_long":106.816926,"line":2},{"transit":false,"i_lat":-6.391065,"is_transit":false,"station_name":"Depokbaru","distance":1584,"i_long":106.819451,"line":2,"station_id":"DPB","time":3},{"station_id":"POC","is_transit":false,"time":4,"i_lat":-6.369073,"line":2,"transit":false,"station_name":"Pondok Cina","distance":2727,"i_long":106.831114},{"line":2,"i_long":106.831474,"distance":1109,"i_lat":-6.360749,"station_name":"Univ. Indonesia","transit":false,"station_id":"UI","time":2,"is_transit":false},{"station_id":"UP","transit":false,"distance":2264,"is_transit":false,"time":3,"i_long":106.834175,"i_lat":-6.339291,"line":2,"station_name":"Univ. Pancasila"},{"station_id":"LNA","station_name":"Lenteng Agung","i_lat":-6.330363,"is_transit":false,"time":2,"distance":1029,"line":2,"transit":false,"i_long":106.832616},{"distance":2671,"i_lat":-6.3080680000000005,"i_long":106.838896,"time":3,"is_transit":false,"station_id":"TNT","line":2,"station_name":"Tanjung Barat","transit":false},{"transit":false,"time":4,"is_transit":false,"station_id":"PSM","i_long":106.843999,"i_lat":-6.2842400000000005,"station_name":"Pasar Minggu","distance":2820,"line":2},{"transit":false,"i_long":106.851577,"distance":2380,"station_name":"Pasar Minggu Baru","i_lat":-6.263214,"time":2,"station_id":"PSMB","is_transit":false,"line":2},{"line":2,"time":2,"station_name":"Duren Kalibata","station_id":"DRN","is_transit":false,"i_lat":-6.255332,"i_long":106.85449,"distance":824,"transit":false},{"distance":1546,"is_transit":false,"station_name":"Cawang","line":2,"time":3,"transit":false,"i_lat":-6.242512,"station_id":"CW","i_long":106.856607},{"station_name":"Tebet","i_lat":-6.226659,"line":2,"is_transit":false,"distance":1230,"station_id":"TEB","i_long":106.857948,"transit":false,"time":2},{"time":4,"i_long":106.84912,"station_name":"Manggarai","is_transit":true,"line":2,"transit":true,"i_lat":-6.209883,"station_id":"MRI","distance":2610},{"time":2,"transit":false,"distance":1275,"station_id":"MTR","station_name":"Matraman","i_lat":-6.212485,"i_long":106.858896,"line":1,"is_transit":false},{"station_name":"Jatinegara","transit":true,"station_id":"JNG","time":8,"is_transit":true,"distance":1377,"i_lat":-6.215091,"i_long":106.86807400000001,"line":1},{"station_id":"POK","i_lat":-6.209188,"line":11,"transit":false,"is_transit":false,"station_name":"Pondok Jati","time":2,"distance":1236,"i_long":106.861737},{"time":2,"distance":1829,"line":11,"station_id":"KMT","transit":false,"i_lat":-6.193792,"i_long":106.855437,"station_name":"Kramat","is_transit":false},{"i_long":106.850107,"distance":973,"transit":false,"station_id":"GST","i_lat":-6.185975,"time":1,"station_name":"Gang Sentiong","is_transit":false,"line":11},{"transit":false,"is_transit":false,"time":8,"station_name":"Pasar Senen","station_id":"PSE","distance":1567,"i_long":106.84368,"line":11,"i_lat":-6.174784},{"distance":1436,"line":11,"is_transit":false,"time":4,"station_name":"Kemayoran","i_lat":-6.161728,"transit":false,"i_long":106.839204,"station_id":"KMO"},{"is_transit":false,"line":11,"station_name":"Rajawali","station_id":"RJW","distance":1901,"i_long":106.836569,"transit":false,"i_lat":-6.14505,"time":5},{"time":3,"i_long":106.826365,"station_id":"KPB","is_transit":true,"distance":1444,"i_lat":-6.132549,"line":4,"transit":true,"station_name":"Kampung Bandan"},{"station_name":"Jakarta Kota","i_lat":-6.137569,"time":3,"line":2,"is_transit":true,"i_long":106.812439,"transit":true,"station_id":"JAKK","distance":1364},{"distance":1264,"line":2,"i_long":106.820901,"i_lat":-6.141205,"transit":false,"station_id":"JAY","station_name":"Jayakarta","is_transit":false,"time":4},{"transit":false,"line":2,"station_id":"MGB","station_name":"Manggabesar","time":2,"is_transit":false,"i_lat":-6.149769,"distance":1080,"i_long":106.82482},{"station_id":"SW","station_name":"Sawah Besar","time":2,"is_transit":false,"transit":false,"i_long":106.827103,"line":2,"distance":906,"i_lat":-6.160725},{"transit":false,"station_id":"JUA","distance":1149,"station_name":"Juanda","is_transit":false,"i_lat":-6.166716,"time":2,"i_long":106.828284,"line":2},{"line":2,"time":4,"station_id":"GDD","distance":2015,"i_lat":-6.186295,"transit":false,"i_long":106.832183,"station_name":"Gondangdia","is_transit":false}]]}