{"data":[[{"time":0,"transit":false,"is_transit":false,"i_long":106.905196,"distance":0,"station_id":"NMO","line":21,"station_name":"Nambo","i_lat":-6.466285},{"station_name":"Cibinong","i_lat":-6.46424,"station_id":"CBN","transit":false,"is_transit":false,"distance":6527,"i_long":106.851978,"line":0,"time":10},{"distance":6740,"is_transit":true,"line":1,"time":10,"i_lat":-6.448811,"station_id":"CTA","station_name":"Citayam","transit":false,"i_long":106.800298},{"time":6,"transit":false,"line":0,"is_transit":false,"distance":5084,"i_lat":-6.405256,"station_id":"DP","station_name":"Depok","i_long":106.816926},{"station_id":"DPB","station_name":"Depokbaru","i_long":106.819451,"is_transit":false,"transit":false,"line":0,"i_lat":-6.391065,"time":3,"distance":1584},{"distance":2727,"i_lat":-6.369073,"line":2,"station_id":"POC","transit":false,"is_transit":false,"i_long":106.831114,"time":4,"station_name":"Pondok Cina"},{"i_long":106.831474,"station_name":"Univ. Indonesia","line":2,"transit":false,"distance":1109,"is_transit":false,"time":2,"station_id":"UI","i_lat":-6.360749},{"time":3,"is_transit":false,"distance":2264,"line":2,"station_name":"Univ. Pancasila","i_lat":-6.339291,"i_long":106.834175,"transit":false,"station_id":"UP"},{"is_transit":false,"time":2,"distance":1029,"i_lat":-6.330363,"station_id":"LNA","i_long":106.832616,"station_name":"Lenteng Agung","line":2,"transit":false},{"station_name":"Tanjung Barat","distance":2671,"is_transit":false,"i_lat":-6.3080680000000005,"i_long":106.838896,"line":2,"station_id":"TNT","transit":false,"time":3},{"time":4,"i_lat":-6.2842400000000005,"line":2,"is_transit":false,"station_name":"Pasar Minggu","station_id":"PSM","i_long":106.843999,"distance":2820,"transit":false},{"station_id":"PSMB","is_transit":false,"line":2,"transit":false,"time":2,"station_name":"Pasar Minggu Baru","distance":2380,"i_lat":-6.263214,"i_long":106.851577},{"is_transit":false,"station_id":"DRN","transit":false,"station_name":"Duren Kalibata","time":2,"i_lat":-6.255332,"line":0,"distance":824,"i_long":106.85449},{"time":3,"i_lat":-6.242512,"is_transit":false,"i_long":106.856607,"transit":false,"distance":1546,"line":0,"station_id":"CW","station_name":"Cawang"},{"time":2,"i_lat":-6.226659,"i_long":106.857948,"line":2,"station_name":"Tebet","transit":false,"is_transit":false,"distance":1230,"station_id":"TEB"},{"time":4,"distance":2610,"station_name":"Manggarai","transit":true,"i_long":106.84912,"line":0,"station_id":"MRI","i_lat":-6.209883,"is_transit":true},{"i_lat":-6.212485,"station_id":"MTR","is_transit":false,"distance":1275,"i_long":106.858896,"transit":false,"time":2,"station_name":"Matraman","line":1}],[{"is_transit":false,"station_name":"Nambo","station_id":"NMO","distance":0,"time":0,"i_lat":-6.466285,"i_long":106.905196,"line":21,"transit":false},{"is_transit":false,"station_name":"Cibinong","time":10,"i_lat":-6.46424,"station_id":"CBN","distance":6527,"transit":false,"i_long":106.851978,"line":0},{"is_transit":true,"time":10,"i_long":106.800298,"line":1,"distance":6740,"station_name":"Citayam","transit":false,"station_id":"CTA","i_lat":-6.448811},{"is_transit":false,"station_name":"Depok","station_id":"DP","transit":false,"i_lat":-6.405256,"i_long":106.816926,"line":0,"time":6,"distance":5084},{"station_name":"Depokbaru","transit":false,"is_transit":false,"i_long":106.819451,"time":3,"distance":1584,"line":0,"station_id":"DPB","i_lat":-6.391065},{"is_transit":false,"i_lat":-6.369073,"station_id":"POC","station_name":"Pondok Cina","i_long":106.831114,"distance":2727,"line":2,"transit":false,"time":4},{"is_transit":false,"i_long":106.831474,"distance":1109,"transit":false,"time":2,"station_name":"Univ. Indonesia","station_id":"UI","line":2,"i_lat":-6.360749},{"station_id":"UP","distance":2264,"transit":false,"time":3,"i_long":106.834175,"station_name":"Univ. Pancasila","is_transit":false,"line":2,"i_lat":-6.339291},{"transit":false,"station_id":"LNA","is_transit":false,"distance":1029,"time":2,"line":2,"station_name":"Lenteng Agung","i_lat":-6.330363,"i_long":106.832616},{"station_name":"Tanjung Barat","line":2,"distance":2671,"i_long":106.838896,"station_id":"TNT","time":3,"transit":false,"i_lat":-6.3080680000000005,"is_transit":false},{"is_transit":false,"line":2,"distance":2820,"transit":false,"station_id":"PSM","station_name":"Pasar Minggu","i_lat":-6.2842400000000005,"i_long":106.843999,"time":4},{"time":2,"i_long":106.851577,"line":2,"is_transit":false,"distance":2380,"i_lat":-6.263214,"transit":false,"station_id":"PSMB","station_name":"Pasar Minggu Baru"},{"line":0,"time":2,"i_lat":-6.255332,"is_transit":false,"distance":824,"i_long":106.85449,"transit":false,"station_id":"DRN","station_name":"Duren Kalibata"},{"station_id":"CW","transit":false,"distance":1546,"station_name":"Cawang","time":3,"i_lat":-6.242512,"i_long":106.856607,"is_transit":false,"line":0},{"is_transit":false,"distance":1230,"i_long":106.857948,"time":2,"station_id":"TEB","line":2,"station_name":"Tebet","i_lat":-6.226659,"transit":false},{"station_id":"MRI","transit":true,"time":4,"line":0,"i_long":106.84912,"station_name":"Manggarai","distance":2610,"i_lat":-6.209883,"is_transit":true},{"i_lat":-6.202263,"line":1,"station_name":"Sudirman","time":4,"distance":3186,"i_long":106.822649,"is_transit":false,"station_id":"SUD","transit":false},{"time":1,"transit":false,"station_id":"SUDB","distance":280,"station_name":"Sudirman Baru","i_lat":-6.201433,"is_transit":false,"line":1,"i_long":106.819881},{"station_name":"Karet","line":1,"station_id":"KAT","is_transit":false,"i_lat":-6.20132,"time":1,"transit":false,"distance":471,"i_long":106.816351},{"line":1,"transit":false,"distance":2029,"station_name":"Tanah Abang","i_long":106.811091,"i_lat":-6.185545,"is_transit":true,"station_id":"THB","time":5},{"i_long":106.800832,"line":1,"station_name":"Duri","transit":true,"distance":3632,"station_id":"DU","i_lat":-6.155215,"is_transit":true,"time":8},{"distance":1230,"station_id":"AK","time":4,"i_lat":-6.144674,"is_transit":false,"i_long":106.79867,"transit":false,"station_name":"Angke","line":0},{"line":0,"station_id":"KPB","distance":4102,"i_lat":-6.132549,"i_long":106.826365,"transit":true,"is_transit":true,"station_name":"Kampung Bandan","time":9},{"time":3,"distance":1444,"station_id":"RJW","i_lat":-6.14505,"line":11,"i_long":106.836569,"transit":false,"is_transit":false,"station_name":"Rajawali"},{"transit":false,"i_lat":-6.161728,"line":11,"time":5,"is_transit":false,"station_id":"KMO","station_name":"Kemayoran","i_long":106.839204,"distance":1901},{"transit":false,"i_long":106.84368,"is_transit":false,"distance":1436,"line":11,"station_name":"Pasar Senen","station_id":"PSE","time":4,"i_lat":-6.174784},{"is_transit":false,"station_id":"GST","station_name":"Gang Sentiong","distance":1567,"line":11,"transit":false,"i_lat":-6.185975,"time":8,"i_long":106.850107},{"i_long":106.855437,"transit":false,"is_transit":false,"time":1,"station_name":"Kramat","distance":973,"i_lat":-6.193792,"station_id":"KMT","line":11},{"distance":1829,"time":2,"station_name":"Pondok Jati","i_lat":-6.209188,"i_long":106.861737,"line":11,"transit":false,"station_id":"POK","is_transit":false},{"distance":1236,"i_lat":-6.215091,"i_long":106.86807400000001,"station_id":"JNG","transit":true,"is_transit":true,"station_name":"Jatinegara","time":9,"line":0},{"distance":1377,"line":1,"is_transit":false,"station_id":"MTR","station_name":"Matraman","transit":false,"time":2,"i_lat":-6.212485,"i_long":106.858896}],[{"line":21,"station_id":"NMO","i_lat":-6.466285,"time":0,"i_long":106.905196,"transit":false,"station_name":"Nambo","is_transit":false,"distance":0},{"line":0,"station_name":"Cibinong","i_lat":-6.46424,"transit":false,"is_transit":false,"i_long":106.851978,"distance":6527,"time":10,"station_id":"CBN"},{"line":1,"i_lat":-6.448811,"station_id":"CTA","is_transit":true,"time":10,"distance":6740,"transit":false,"station_name":"Citayam","i_long":106.800298},{"distance":5084,"i_lat":-6.405256,"station_name":"Depok","transit":false,"is_transit":false,"station_id":"DP","i_long":106.816926,"line":0,"time":6},{"distance":1584,"time":3,"is_transit":false,"station_id":"DPB","i_long":106.819451,"line":0,"transit":false,"i_lat":-6.391065,"station_name":"Depokbaru"},{"distance":2727,"station_name":"Pondok Cina","i_lat":-6.369073,"station_id":"POC","is_transit":false,"i_long":106.831114,"time":4,"line":2,"transit":false},{"station_name":"Univ. Indonesia","line":2,"station_id":"UI","i_long":106.831474,"transit":false,"time":2,"i_lat":-6.360749,"distance":1109,"is_transit":false},{"line":2,"i_lat":-6.339291,"transit":false,"time":3,"station_name":"Univ. Pancasila","distance":2264,"i_long":106.834175,"station_id":"UP","is_transit":false},{"station_id":"LNA","time":2,"transit":false,"station_name":"Lenteng Agung","i_long":106.832616,"line":2,"is_transit":false,"i_lat":-6.330363,"distance":1029},{"station_id":"TNT","transit":false,"is_transit":false,"time":3,"station_name":"Tanjung Barat","i_long":106.838896,"line":2,"i_lat":-6.3080680000000005,"distance":2671},{"transit":false,"station_id":"PSM","station_name":"Pasar Minggu","i_lat":-6.2842400000000005,"is_transit":false,"i_long":106.843999,"line":2,"time":4,"distance":2820},{"station_name":"Pasar Minggu Baru","transit":false,"i_long":106.851577,"time":2,"station_id":"PSMB","i_lat":-6.263214,"is_transit":false,"distance":2380,"line":2},{"station_id":"DRN","is_transit":false,"line":0,"i_lat":-6.255332,"distance":824,"transit":false,"i_long":106.85449,"station_name":"Duren Kalibata","time":2},{"i_lat":-6.242512,"station_name":"Cawang","i_long":106.856607,"line":0,"is_transit":false,"time":3,"distance":1546,"station_id":"CW","transit":false},{"i_long":106.857948,"station_name":"Tebet","is_transit":false,"distance":1230,"line":2,"station_id":"TEB","time":2,"i_lat":-6.226659,"transit":false},{"time":4,"i_lat":-6.209883,"transit":true,"station_id":"MRI","i_long":106.84912,"line":0,"station_name":"Manggarai","distance":2610,"is_transit":true},{"station_name":"Cikini","line":0,"station_id":"CKI","distance":1590,"is_transit":false,"i_long":106.840169,"transit":false,"i_lat":-6.198556,"time":4},{"station_name":"Gondangdia","station_id":"GDD","transit":false,"i_lat":-6.186295,"distance":1750,"i_long":106.832183,"is_transit":false,"time":3,"line":2},{"station_id":"JUA","i_lat":-6.166716,"i_long":106.828284,"is_transit":false,"line":2,"time":4,"distance":2015,"station_name":"Juanda","transit":false},{"is_transit":false,"station_id":"SW","i_lat":-6.160725,"station_name":"Sawah Besar","i_long":106.827103,"transit":false,"distance":1149,"time":2,"line":2},{"i_long":106.82482,"i_lat":-6.149769,"transit":false,"station_id":"MGB","is_transit":false,"station_name":"Manggabesar","time":2,"distance":906,"line":2},{"time":2,"station_name":"Jayakarta","i_lat":-6.141205,"line":7,"distance":1080,"is_transit":false,"i_long":106.820901,"station_id":"JAY","transit":false},{"time":4,"is_transit":true,"station_name":"Jakarta Kota","station_id":"JAKK","distance":1264,"transit":true,"i_lat":-6.137569,"line":0,"i_long":106.812439},{"station_name":"Kampung Bandan","line":0,"is_transit":true,"time":3,"distance":1364,"i_lat":-6.132549,"station_id":"KPB","i_long":106.826365,"transit":true},{"station_id":"RJW","station_name":"Rajawali","distance":1444,"i_long":106.836569,"time":3,"transit":false,"i_lat":-6.14505,"line":11,"is_transit":false},{"station_id":"KMO","line":11,"distance":1901,"station_name":"Kemayoran","transit":false,"is_transit":false,"i_lat":-6.161728,"time":5,"i_long":106.839204},{"i_long":106.84368,"line":11,"station_name":"Pasar Senen","time":4,"i_lat":-6.174784,"is_transit":false,"transit":false,"distance":1436,"station_id":"PSE"},{"transit":false,"station_name":"Gang Sentiong","time":8,"distance":1567,"station_id":"GST","i_long":106.850107,"i_lat":-6.185975,"line":11,"is_transit":false},{"time":1,"distance":973,"i_lat":-6.193792,"i_long":106.855437,"line":11,"station_id":"KMT","transit":false,"is_transit":false,"station_name":"Kramat"},{"is_transit":false,"station_name":"Pondok Jati","i_lat":-6.209188,"transit":false,"time":2,"distance":1829,"station_id":"POK","i_long":106.861737,"line":11},{"distance":1236,"is_transit":true,"i_lat":-6.215091,"i_long":106.86807400000001,"time":9,"station_id":"JNG","transit":true,"station_name":"Jatinegara","line":0},{"is_transit":false,"station_id":"MTR","transit":false,"station_name":"Matraman","distance":1377,"i_lat":-6.212485,"line":1,"i_long":106.858896,"time":2}]]}