{"data":[[{"i_lat":-6.466285,"i_long":106.905196,"line":21,"distance":0,"station_id":"NMO","time":0,"station_name":"Nambo","is_transit":false,"transit":false},{"time":10,"distance":6527,"transit":false,"station_id":"CBN","line":21,"i_lat":-6.46424,"i_long":106.851978,"station_name":"Cibinong","is_transit":false},{"time":0,"distance":0,"transit":false,"i_long":106.824374,"line":21,"i_lat":-6.460735,"is_transit":false,"station_name":"Pondok Rajeg","station_id":"PDRG"},{"distance":0,"time":0,"transit":true,"line":2,"station_id":"CTA","station_name":"Citayam","i_long":106.800298,"is_transit":true,"i_lat":-6.448811},{"is_transit":false,"station_id":"DP","line":2,"time":6,"i_long":106.816926,"transit":false,"distance":5084,"i_lat":-6.405256,"station_name":"Depok"},{"i_long":106.819451,"line":2,"distance":1584,"is_transit":false,"transit":false,"station_id":"DPB","station_name":"Depokbaru","time":3,"i_lat":-6.391065},{"i_long":106.831114,"transit":false,"i_lat":-6.369073,"line":2,"station_name":"Pondok Cina","time":4,"is_transit":false,"distance":2727,"station_id":"POC"},{"station_id":"UI","distance":1109,"i_long":106.831474,"station_name":"Univ. Indonesia","is_transit":false,"i_lat":-6.360749,"time":2,"line":2,"transit":false},{"time":3,"distance":2264,"station_id":"UP","i_lat":-6.339291,"i_long":106.834175,"station_name":"Univ. Pancasila","is_transit":false,"line":2,"transit":false},{"time":2,"i_lat":-6.330363,"transit":false,"line":2,"is_transit":false,"station_id":"LNA","distance":1029,"i_long":106.832616,"station_name":"Lenteng Agung"},{"time":3,"i_lat":-6.3080680000000005,"station_name":"Tanjung Barat","distance":2671,"line":2,"transit":false,"station_id":"TNT","is_transit":false,"i_long":106.838896},{"station_name":"Pasar Minggu","line":2,"distance":2820,"time":4,"transit":false,"is_transit":false,"i_lat":-6.2842400000000005,"i_long":106.843999,"station_id":"PSM"},{"time":2,"is_transit":false,"station_id":"PSMB","i_long":106.851577,"distance":2380,"transit":false,"station_name":"Pasar Minggu Baru","i_lat":-6.263214,"line":2},{"line":2,"i_lat":-6.255332,"time":2,"transit":false,"is_transit":false,"i_long":106.85449,"distance":824,"station_name":"Duren Kalibata","station_id":"DRN"},{"time":3,"i_long":106.856607,"station_name":"Cawang","station_id":"CW","line":2,"is_transit":false,"transit":false,"distance":1546,"i_lat":-6.242512},{"station_id":"TEB","line":2,"station_name":"Tebet","i_lat":-6.226659,"is_transit":false,"i_long":106.857948,"transit":false,"distance":1230,"time":2},{"station_name":"Manggarai","time":4,"i_long":106.84912,"line":2,"station_id":"MRI","transit":true,"distance":2610,"is_transit":true,"i_lat":-6.209883},{"transit":false,"station_name":"Sudirman","line":1,"time":4,"station_id":"SUD","is_transit":false,"i_lat":-6.202263,"i_long":106.822649,"distance":3186},{"station_id":"SUDB","transit":false,"time":1,"i_long":106.819881,"distance":280,"i_lat":-6.201433,"line":1,"is_transit":false,"station_name":"Sudirman Baru"},{"distance":471,"time":1,"station_id":"KAT","i_long":106.816351,"station_name":"Karet","line":1,"i_lat":-6.20132,"transit":false,"is_transit":false},{"station_name":"Tanah Abang","distance":2029,"time":5,"line":1,"is_transit":false,"station_id":"THB","i_long":106.811091,"transit":false,"i_lat":-6.185545},{"time":8,"i_lat":-6.155215,"transit":true,"i_long":106.800832,"line":1,"station_id":"DU","station_name":"Duri","distance":3632,"is_transit":true},{"i_long":106.788277,"is_transit":false,"station_name":"Grogol","station_id":"GGL","i_lat":-6.162021,"transit":false,"line":5,"distance":1700,"time":3},{"is_transit":false,"station_name":"Pesing","station_id":"PSG","distance":2036,"time":2,"line":5,"transit":false,"i_long":106.771379,"i_lat":-6.161433},{"transit":false,"time":2,"station_id":"TKO","is_transit":false,"i_long":106.756522,"station_name":"Taman Kota","distance":1614,"i_lat":-6.1587309999999995,"line":5},{"station_name":"Bojongindah","distance":2334,"time":2,"transit":false,"station_id":"BOI","i_long":106.737035,"i_lat":-6.159876,"is_transit":false,"line":5},{"transit":false,"i_long":106.723064,"line":5,"time":4,"is_transit":false,"distance":1152,"i_lat":-6.162758,"station_id":"RW","station_name":"Rawa Buaya"},{"station_id":"KDS","is_transit":false,"line":5,"station_name":"Kalideres","i_long":106.701612,"i_lat":-6.166068,"time":3,"transit":false,"distance":2504}],[{"line":21,"is_transit":false,"station_id":"NMO","i_long":106.905196,"distance":0,"time":0,"station_name":"Nambo","i_lat":-6.466285,"transit":false},{"distance":6527,"is_transit":false,"transit":false,"time":10,"line":21,"station_id":"CBN","i_lat":-6.46424,"i_long":106.851978,"station_name":"Cibinong"},{"station_id":"PDRG","is_transit":false,"time":0,"i_lat":-6.460735,"transit":false,"i_long":106.824374,"station_name":"Pondok Rajeg","distance":0,"line":21},{"i_long":106.800298,"station_id":"CTA","time":0,"station_name":"Citayam","transit":true,"i_lat":-6.448811,"distance":0,"line":2,"is_transit":true},{"i_long":106.816926,"is_transit":false,"time":6,"station_id":"DP","distance":5084,"transit":false,"i_lat":-6.405256,"line":2,"station_name":"Depok"},{"line":2,"distance":1584,"station_id":"DPB","time":3,"transit":false,"is_transit":false,"i_long":106.819451,"station_name":"Depokbaru","i_lat":-6.391065},{"station_id":"POC","i_lat":-6.369073,"is_transit":false,"time":4,"distance":2727,"transit":false,"i_long":106.831114,"line":2,"station_name":"Pondok Cina"},{"i_lat":-6.360749,"distance":1109,"time":2,"i_long":106.831474,"station_id":"UI","station_name":"Univ. Indonesia","transit":false,"line":2,"is_transit":false},{"i_long":106.834175,"line":2,"time":3,"station_id":"UP","transit":false,"distance":2264,"is_transit":false,"i_lat":-6.339291,"station_name":"Univ. Pancasila"},{"transit":false,"i_lat":-6.330363,"i_long":106.832616,"line":2,"station_id":"LNA","station_name":"Lenteng Agung","distance":1029,"time":2,"is_transit":false},{"i_lat":-6.3080680000000005,"transit":false,"time":3,"station_id":"TNT","is_transit":false,"station_name":"Tanjung Barat","distance":2671,"i_long":106.838896,"line":2},{"transit":false,"i_long":106.843999,"i_lat":-6.2842400000000005,"station_name":"Pasar Minggu","line":2,"is_transit":false,"distance":2820,"time":4,"station_id":"PSM"},{"transit":false,"line":2,"i_lat":-6.263214,"station_id":"PSMB","is_transit":false,"distance":2380,"i_long":106.851577,"station_name":"Pasar Minggu Baru","time":2},{"is_transit":false,"transit":false,"station_id":"DRN","station_name":"Duren Kalibata","distance":824,"time":2,"i_lat":-6.255332,"i_long":106.85449,"line":2},{"line":2,"transit":false,"is_transit":false,"distance":1546,"i_lat":-6.242512,"station_name":"Cawang","time":3,"i_long":106.856607,"station_id":"CW"},{"station_name":"Tebet","station_id":"TEB","line":2,"time":2,"transit":false,"is_transit":false,"distance":1230,"i_lat":-6.226659,"i_long":106.857948},{"line":2,"station_name":"Manggarai","time":4,"i_long":106.84912,"station_id":"MRI","is_transit":false,"transit":false,"distance":2610,"i_lat":-6.209883},{"i_long":106.840169,"station_id":"CKI","line":2,"transit":false,"distance":1590,"time":4,"station_name":"Cikini","is_transit":false,"i_lat":-6.198556},{"transit":false,"distance":1750,"station_id":"GDD","station_name":"Gondangdia","i_long":106.832183,"i_lat":-6.186295,"line":2,"time":3,"is_transit":false},{"line":2,"station_id":"JUA","transit":false,"is_transit":false,"station_name":"Juanda","distance":2015,"time":4,"i_long":106.828284,"i_lat":-6.166716},{"line":2,"distance":1149,"is_transit":false,"transit":false,"station_id":"SW","station_name":"Sawah Besar","i_long":106.827103,"i_lat":-6.160725,"time":2},{"distance":906,"is_transit":false,"time":2,"station_id":"MGB","transit":false,"line":2,"i_lat":-6.149769,"station_name":"Manggabesar","i_long":106.82482},{"station_id":"JAY","station_name":"Jayakarta","is_transit":false,"i_long":106.820901,"line":2,"time":2,"distance":1080,"i_lat":-6.141205,"transit":false},{"line":2,"i_long":106.812439,"i_lat":-6.137569,"station_name":"Jakarta Kota","time":4,"distance":1264,"station_id":"JAKK","is_transit":true,"transit":true},{"distance":1364,"is_transit":true,"station_id":"KPB","station_name":"Kampung Bandan","i_lat":-6.132549,"line":4,"transit":true,"time":3,"i_long":106.826365},{"station_name":"Angke","is_transit":false,"transit":false,"i_long":106.79867,"time":9,"i_lat":-6.144674,"line":1,"station_id":"AK","distance":4102},{"transit":true,"i_lat":-6.155215,"distance":1230,"is_transit":true,"station_name":"Duri","i_long":106.800832,"line":1,"station_id":"DU","time":4},{"i_lat":-6.162021,"is_transit":false,"i_long":106.788277,"distance":1700,"time":3,"station_name":"Grogol","station_id":"GGL","transit":false,"line":5},{"i_lat":-6.161433,"distance":2036,"station_id":"PSG","station_name":"Pesing","i_long":106.771379,"time":2,"line":5,"is_transit":false,"transit":false},{"station_name":"Taman Kota","distance":1614,"i_long":106.756522,"station_id":"TKO","time":2,"i_lat":-6.1587309999999995,"is_transit":false,"transit":false,"line":5},{"distance":2334,"transit":false,"is_transit":false,"i_lat":-6.159876,"i_long":106.737035,"line":5,"time":2,"station_id":"BOI","station_name":"Bojongindah"},{"line":5,"i_lat":-6.162758,"time":4,"i_long":106.723064,"station_name":"Rawa Buaya","is_transit":false,"transit":false,"station_id":"RW","distance":1152},{"time":3,"i_lat":-6.166068,"line":5,"is_transit":false,"station_id":"KDS","station_name":"Kalideres","distance":2504,"transit":false,"i_long":106.701612}],[{"time":0,"transit":false,"distance":0,"is_transit":false,"i_lat":-6.466285,"line":21,"i_long":106.905196,"station_id":"NMO","station_name":"Nambo"},{"time":10,"i_lat":-6.46424,"distance":6527,"is_transit":false,"transit":false,"station_name":"Cibinong","station_id":"CBN","i_long":106.851978,"line":21},{"i_long":106.824374,"is_transit":false,"station_id":"PDRG","distance":0,"station_name":"Pondok Rajeg","line":21,"transit":false,"time":0,"i_lat":-6.460735},{"is_transit":true,"transit":true,"i_long":106.800298,"time":0,"i_lat":-6.448811,"station_name":"Citayam","distance":0,"line":2,"station_id":"CTA"},{"station_name":"Depok","time":6,"distance":5084,"i_lat":-6.405256,"transit":false,"i_long":106.816926,"station_id":"DP","is_transit":false,"line":2},{"transit":false,"time":3,"station_id":"DPB","distance":1584,"i_lat":-6.391065,"i_long":106.819451,"line":2,"station_name":"Depokbaru","is_transit":false},{"line":2,"i_long":106.831114,"is_transit":false,"time":4,"station_name":"Pondok Cina","station_id":"POC","distance":2727,"transit":false,"i_lat":-6.369073},{"i_long":106.831474,"is_transit":false,"station_name":"Univ. Indonesia","time":2,"distance":1109,"i_lat":-6.360749,"station_id":"UI","transit":false,"line":2},{"time":3,"distance":2264,"i_lat":-6.339291,"station_name":"Univ. Pancasila","station_id":"UP","is_transit":false,"line":2,"transit":false,"i_long":106.834175},{"time":2,"distance":1029,"line":2,"station_name":"Lenteng Agung","station_id":"LNA","i_long":106.832616,"transit":false,"is_transit":false,"i_lat":-6.330363},{"transit":false,"distance":2671,"i_lat":-6.3080680000000005,"i_long":106.838896,"is_transit":false,"station_name":"Tanjung Barat","time":3,"line":2,"station_id":"TNT"},{"distance":2820,"time":4,"station_id":"PSM","line":2,"i_long":106.843999,"station_name":"Pasar Minggu","is_transit":false,"transit":false,"i_lat":-6.2842400000000005},{"time":2,"station_name":"Pasar Minggu Baru","transit":false,"distance":2380,"i_lat":-6.263214,"is_transit":false,"i_long":106.851577,"station_id":"PSMB","line":2},{"transit":false,"is_transit":false,"distance":824,"i_long":106.85449,"time":2,"line":2,"i_lat":-6.255332,"station_id":"DRN","station_name":"Duren Kalibata"},{"transit":false,"i_long":106.856607,"distance":1546,"line":2,"is_transit":false,"station_id":"CW","station_name":"Cawang","i_lat":-6.242512,"time":3},{"station_id":"TEB","distance":1230,"i_long":106.857948,"line":2,"transit":false,"station_name":"Tebet","i_lat":-6.226659,"time":2,"is_transit":false},{"distance":2610,"line":2,"is_transit":true,"station_id":"MRI","transit":true,"station_name":"Manggarai","i_long":106.84912,"time":4,"i_lat":-6.209883},{"is_transit":false,"station_name":"Matraman","distance":1275,"transit":false,"line":1,"time":2,"station_id":"MTR","i_lat":-6.212485,"i_long":106.858896},{"i_lat":-6.215091,"line":1,"is_transit":true,"i_long":106.86807400000001,"station_id":"JNG","station_name":"Jatinegara","distance":1377,"time":8,"transit":true},{"line":11,"is_transit":false,"distance":1236,"station_id":"POK","time":2,"station_name":"Pondok Jati","transit":false,"i_lat":-6.209188,"i_long":106.861737},{"station_id":"KMT","transit":false,"line":11,"is_transit":false,"i_long":106.855437,"distance":1829,"i_lat":-6.193792,"time":2,"station_name":"Kramat"},{"transit":false,"station_name":"Gang Sentiong","is_transit":false,"i_lat":-6.185975,"i_long":106.850107,"station_id":"GST","line":11,"distance":973,"time":1},{"distance":1567,"i_lat":-6.174784,"i_long":106.84368,"line":11,"is_transit":false,"transit":false,"station_name":"Pasar Senen","time":8,"station_id":"PSE"},{"i_long":106.839204,"transit":false,"distance":1436,"station_name":"Kemayoran","station_id":"KMO","line":11,"is_transit":false,"time":4,"i_lat":-6.161728},{"distance":1901,"line":11,"i_lat":-6.14505,"station_id":"RJW","is_transit":false,"time":5,"transit":false,"station_name":"Rajawali","i_long":106.836569},{"time":3,"station_name":"Kampung Bandan","transit":true,"line":4,"station_id":"KPB","is_transit":true,"distance":1444,"i_lat":-6.132549,"i_long":106.826365},{"station_name":"Angke","i_lat":-6.144674,"distance":4102,"line":1,"transit":false,"i_long":106.79867,"time":9,"is_transit":false,"station_id":"AK"},{"distance":1230,"station_id":"DU","time":4,"transit":true,"is_transit":true,"station_name":"Duri","line":1,"i_lat":-6.155215,"i_long":106.800832},{"i_lat":-6.162021,"transit":false,"distance":1700,"i_long":106.788277,"station_name":"Grogol","time":3,"is_transit":false,"station_id":"GGL","line":5},{"time":2,"i_long":106.771379,"station_id":"PSG","distance":2036,"i_lat":-6.161433,"station_name":"Pesing","is_transit":false,"transit":false,"line":5},{"distance":1614,"transit":false,"is_transit":false,"time":2,"station_name":"Taman Kota","i_long":106.756522,"station_id":"TKO","i_lat":-6.1587309999999995,"line":5},{"station_id":"BOI","i_long":106.737035,"station_name":"Bojongindah","is_transit":false,"time":2,"line":5,"distance":2334,"i_lat":-6.159876,"transit":false},{"transit":false,"i_lat":-6.162758,"is_transit":false,"line":5,"distance":1152,"station_id":"RW","time":4,"i_long":106.723064,"station_name":"Rawa Buaya"},{"station_id":"KDS","transit":false,"station_name":"Kalideres","distance":2504,"i_long":106.701612,"time":3,"is_transit":false,"i_lat":-6.166068,"line":5}]]}