{"data":[[{"is_transit":false,"station_id":"NMO","transit":false,"distance":0,"station_name":"Nambo","time":0,"i_lat":-6.466285,"i_long":106.905196,"line":21},{"i_long":106.851978,"line":0,"station_id":"CBN","is_transit":false,"time":10,"distance":6527,"station_name":"Cibinong","transit":false,"i_lat":-6.46424},{"station_id":"CTA","transit":false,"i_lat":-6.448811,"i_long":106.800298,"line":1,"station_name":"Citayam","distance":6740,"is_transit":true,"time":10},{"station_id":"DP","transit":false,"station_name":"Depok","line":0,"is_transit":false,"distance":5084,"i_lat":-6.405256,"time":6,"i_long":106.816926},{"station_id":"DPB","i_long":106.819451,"station_name":"Depokbaru","distance":1584,"line":0,"time":3,"is_transit":false,"i_lat":-6.391065,"transit":false},{"i_long":106.831114,"station_name":"Pondok Cina","is_transit":false,"time":4,"transit":false,"distance":2727,"station_id":"POC","i_lat":-6.369073,"line":2},{"station_id":"UI","distance":1109,"transit":false,"i_lat":-6.360749,"i_long":106.831474,"is_transit":false,"time":2,"line":2,"station_name":"Univ. Indonesia"},{"time":3,"station_name":"Univ. Pancasila","distance":2264,"station_id":"UP","is_transit":false,"i_lat":-6.339291,"i_long":106.834175,"line":2,"transit":false},{"station_name":"Lenteng Agung","transit":false,"line":2,"is_transit":false,"i_lat":-6.330363,"station_id":"LNA","time":2,"distance":1029,"i_long":106.832616},{"i_lat":-6.3080680000000005,"station_name":"Tanjung Barat","line":2,"i_long":106.838896,"time":3,"station_id":"TNT","transit":false,"distance":2671,"is_transit":false},{"station_id":"PSM","time":4,"station_name":"Pasar Minggu","distance":2820,"i_lat":-6.2842400000000005,"i_long":106.843999,"line":2,"transit":false,"is_transit":false},{"time":2,"station_id":"PSMB","station_name":"Pasar Minggu Baru","distance":2380,"transit":false,"i_long":106.851577,"line":2,"is_transit":false,"i_lat":-6.263214},{"i_long":106.85449,"station_name":"Duren Kalibata","is_transit":false,"line":0,"distance":824,"station_id":"DRN","time":2,"i_lat":-6.255332,"transit":false},{"i_lat":-6.242512,"distance":1546,"station_id":"CW","line":0,"i_long":106.856607,"station_name":"Cawang","time":3,"transit":false,"is_transit":false},{"transit":false,"distance":1230,"line":2,"i_long":106.857948,"i_lat":-6.226659,"time":2,"station_name":"Tebet","is_transit":false,"station_id":"TEB"},{"station_id":"MRI","station_name":"Manggarai","is_transit":true,"i_long":106.84912,"transit":true,"time":4,"distance":2610,"i_lat":-6.209883,"line":0},{"station_name":"Cikini","i_lat":-6.198556,"station_id":"CKI","distance":1590,"is_transit":false,"time":4,"line":0,"transit":false,"i_long":106.840169},{"distance":1750,"station_name":"Gondangdia","i_long":106.832183,"line":2,"station_id":"GDD","i_lat":-6.186295,"is_transit":false,"transit":false,"time":3}],[{"station_name":"Nambo","station_id":"NMO","time":0,"distance":0,"i_long":106.905196,"is_transit":false,"transit":false,"i_lat":-6.466285,"line":21},{"i_long":106.851978,"i_lat":-6.46424,"distance":6527,"time":10,"transit":false,"line":0,"station_id":"CBN","is_transit":false,"station_name":"Cibinong"},{"station_id":"CTA","distance":6740,"i_long":106.800298,"is_transit":true,"time":10,"transit":false,"i_lat":-6.448811,"station_name":"Citayam","line":1},{"transit":false,"is_transit":false,"i_long":106.816926,"i_lat":-6.405256,"line":0,"station_name":"Depok","distance":5084,"station_id":"DP","time":6},{"station_id":"DPB","transit":false,"line":0,"is_transit":false,"distance":1584,"i_lat":-6.391065,"station_name":"Depokbaru","i_long":106.819451,"time":3},{"line":2,"i_long":106.831114,"i_lat":-6.369073,"is_transit":false,"transit":false,"station_id":"POC","station_name":"Pondok Cina","time":4,"distance":2727},{"station_name":"Univ. Indonesia","is_transit":false,"distance":1109,"time":2,"station_id":"UI","i_lat":-6.360749,"i_long":106.831474,"line":2,"transit":false},{"time":3,"is_transit":false,"i_long":106.834175,"transit":false,"station_name":"Univ. Pancasila","station_id":"UP","line":2,"distance":2264,"i_lat":-6.339291},{"transit":false,"i_long":106.832616,"line":2,"is_transit":false,"time":2,"station_id":"LNA","distance":1029,"i_lat":-6.330363,"station_name":"Lenteng Agung"},{"line":2,"distance":2671,"transit":false,"is_transit":false,"station_name":"Tanjung Barat","i_lat":-6.3080680000000005,"i_long":106.838896,"time":3,"station_id":"TNT"},{"i_long":106.843999,"time":4,"distance":2820,"is_transit":false,"transit":false,"station_id":"PSM","i_lat":-6.2842400000000005,"line":2,"station_name":"Pasar Minggu"},{"transit":false,"station_id":"PSMB","line":2,"i_lat":-6.263214,"i_long":106.851577,"is_transit":false,"station_name":"Pasar Minggu Baru","distance":2380,"time":2},{"time":2,"transit":false,"is_transit":false,"distance":824,"station_name":"Duren Kalibata","i_long":106.85449,"i_lat":-6.255332,"station_id":"DRN","line":0},{"time":3,"distance":1546,"i_long":106.856607,"station_id":"CW","transit":false,"station_name":"Cawang","i_lat":-6.242512,"is_transit":false,"line":0},{"is_transit":false,"i_long":106.857948,"i_lat":-6.226659,"transit":false,"time":2,"distance":1230,"line":2,"station_id":"TEB","station_name":"Tebet"},{"transit":true,"distance":2610,"i_long":106.84912,"is_transit":true,"station_name":"Manggarai","i_lat":-6.209883,"station_id":"MRI","line":0,"time":4},{"i_long":106.822649,"i_lat":-6.202263,"line":1,"distance":3186,"station_id":"SUD","transit":false,"time":4,"station_name":"Sudirman","is_transit":false},{"i_long":106.819881,"i_lat":-6.201433,"station_id":"SUDB","transit":false,"line":1,"is_transit":false,"station_name":"Sudirman Baru","time":1,"distance":280},{"is_transit":false,"transit":false,"station_id":"KAT","distance":471,"line":1,"i_lat":-6.20132,"station_name":"Karet","time":1,"i_long":106.816351},{"station_name":"Tanah Abang","is_transit":true,"station_id":"THB","i_long":106.811091,"distance":2029,"transit":false,"time":5,"i_lat":-6.185545,"line":1},{"time":8,"station_id":"DU","i_lat":-6.155215,"i_long":106.800832,"transit":true,"distance":3632,"line":1,"is_transit":true,"station_name":"Duri"},{"transit":false,"distance":1230,"line":0,"time":4,"i_long":106.79867,"station_name":"Angke","is_transit":false,"i_lat":-6.144674,"station_id":"AK"},{"station_name":"Kampung Bandan","distance":4102,"transit":false,"is_transit":true,"time":9,"station_id":"KPB","i_lat":-6.132549,"i_long":106.826365,"line":0},{"transit":true,"time":3,"distance":1364,"line":0,"station_id":"JAKK","is_transit":true,"i_long":106.812439,"station_name":"Jakarta Kota","i_lat":-6.137569},{"is_transit":false,"time":4,"transit":false,"line":7,"station_name":"Jayakarta","i_long":106.820901,"station_id":"JAY","distance":1264,"i_lat":-6.141205},{"i_lat":-6.149769,"line":2,"is_transit":false,"station_id":"MGB","time":2,"i_long":106.82482,"station_name":"Manggabesar","distance":1080,"transit":false},{"is_transit":false,"time":2,"station_id":"SW","transit":false,"line":2,"i_long":106.827103,"distance":906,"station_name":"Sawah Besar","i_lat":-6.160725},{"station_id":"JUA","i_long":106.828284,"station_name":"Juanda","distance":1149,"time":2,"is_transit":false,"transit":false,"line":2,"i_lat":-6.166716},{"is_transit":false,"distance":2015,"station_id":"GDD","i_long":106.832183,"time":4,"transit":false,"i_lat":-6.186295,"station_name":"Gondangdia","line":2}],[{"station_name":"Nambo","i_lat":-6.466285,"station_id":"NMO","transit":false,"distance":0,"is_transit":false,"time":0,"i_long":106.905196,"line":21},{"distance":6527,"i_lat":-6.46424,"line":0,"station_id":"CBN","i_long":106.851978,"time":10,"station_name":"Cibinong","is_transit":false,"transit":false},{"station_name":"Citayam","is_transit":true,"transit":false,"station_id":"CTA","line":1,"i_lat":-6.448811,"time":10,"distance":6740,"i_long":106.800298},{"i_long":106.816926,"station_name":"Depok","is_transit":false,"time":6,"station_id":"DP","distance":5084,"transit":false,"i_lat":-6.405256,"line":0},{"transit":false,"time":3,"station_id":"DPB","distance":1584,"i_lat":-6.391065,"i_long":106.819451,"is_transit":false,"station_name":"Depokbaru","line":0},{"is_transit":false,"i_long":106.831114,"time":4,"line":2,"station_name":"Pondok Cina","station_id":"POC","transit":false,"i_lat":-6.369073,"distance":2727},{"distance":1109,"i_lat":-6.360749,"transit":false,"station_name":"Univ. Indonesia","time":2,"is_transit":false,"station_id":"UI","i_long":106.831474,"line":2},{"distance":2264,"station_name":"Univ. Pancasila","transit":false,"i_lat":-6.339291,"i_long":106.834175,"line":2,"is_transit":false,"time":3,"station_id":"UP"},{"is_transit":false,"line":2,"distance":1029,"station_id":"LNA","transit":false,"i_lat":-6.330363,"time":2,"station_name":"Lenteng Agung","i_long":106.832616},{"i_lat":-6.3080680000000005,"i_long":106.838896,"transit":false,"is_transit":false,"distance":2671,"time":3,"station_name":"Tanjung Barat","line":2,"station_id":"TNT"},{"transit":false,"i_lat":-6.2842400000000005,"station_id":"PSM","distance":2820,"i_long":106.843999,"line":2,"time":4,"station_name":"Pasar Minggu","is_transit":false},{"i_lat":-6.263214,"i_long":106.851577,"station_id":"PSMB","is_transit":false,"station_name":"Pasar Minggu Baru","transit":false,"time":2,"distance":2380,"line":2},{"station_id":"DRN","transit":false,"distance":824,"i_lat":-6.255332,"station_name":"Duren Kalibata","time":2,"i_long":106.85449,"line":0,"is_transit":false},{"i_lat":-6.242512,"distance":1546,"line":0,"time":3,"station_id":"CW","is_transit":false,"transit":false,"i_long":106.856607,"station_name":"Cawang"},{"line":2,"transit":false,"time":2,"station_id":"TEB","distance":1230,"i_lat":-6.226659,"station_name":"Tebet","is_transit":false,"i_long":106.857948},{"distance":2610,"transit":true,"station_id":"MRI","i_lat":-6.209883,"i_long":106.84912,"line":0,"station_name":"Manggarai","is_transit":true,"time":4},{"is_transit":false,"transit":false,"time":2,"i_lat":-6.212485,"station_id":"MTR","distance":1275,"i_long":106.858896,"line":1,"station_name":"Matraman"},{"station_name":"Jatinegara","time":8,"station_id":"JNG","transit":true,"is_transit":true,"i_long":106.86807400000001,"distance":1377,"line":0,"i_lat":-6.215091},{"distance":1236,"station_name":"Pondok Jati","line":11,"i_lat":-6.209188,"station_id":"POK","time":2,"transit":false,"i_long":106.861737,"is_transit":false},{"time":2,"station_id":"KMT","i_lat":-6.193792,"i_long":106.855437,"transit":false,"line":11,"station_name":"Kramat","distance":1829,"is_transit":false},{"station_name":"Gang Sentiong","is_transit":false,"time":1,"station_id":"GST","i_lat":-6.185975,"i_long":106.850107,"transit":false,"distance":973,"line":11},{"i_lat":-6.174784,"i_long":106.84368,"station_id":"PSE","station_name":"Pasar Senen","line":11,"time":8,"transit":false,"is_transit":false,"distance":1567},{"transit":false,"is_transit":false,"time":4,"station_id":"KMO","distance":1436,"line":11,"i_lat":-6.161728,"i_long":106.839204,"station_name":"Kemayoran"},{"station_name":"Rajawali","time":5,"is_transit":false,"transit":false,"station_id":"RJW","line":11,"i_lat":-6.14505,"distance":1901,"i_long":106.836569},{"station_name":"Kampung Bandan","i_long":106.826365,"station_id":"KPB","transit":true,"distance":1444,"line":0,"is_transit":true,"time":3,"i_lat":-6.132549},{"i_lat":-6.137569,"distance":1364,"station_name":"Jakarta Kota","is_transit":true,"time":3,"transit":true,"i_long":106.812439,"line":0,"station_id":"JAKK"},{"is_transit":false,"time":4,"transit":false,"station_name":"Jayakarta","i_lat":-6.141205,"i_long":106.820901,"distance":1264,"station_id":"JAY","line":7},{"station_id":"MGB","time":2,"i_lat":-6.149769,"i_long":106.82482,"line":2,"is_transit":false,"transit":false,"station_name":"Manggabesar","distance":1080},{"is_transit":false,"station_id":"SW","distance":906,"station_name":"Sawah Besar","line":2,"i_long":106.827103,"i_lat":-6.160725,"transit":false,"time":2},{"station_name":"Juanda","line":2,"distance":1149,"i_lat":-6.166716,"station_id":"JUA","time":2,"i_long":106.828284,"is_transit":false,"transit":false},{"i_long":106.832183,"station_id":"GDD","transit":false,"time":4,"line":2,"i_lat":-6.186295,"station_name":"Gondangdia","distance":2015,"is_transit":false}]]}