{"data":[[{"i_long":106.905196,"time":0,"transit":false,"is_transit":false,"line":21,"distance":0,"station_id":"NMO","station_name":"Nambo","i_lat":-6.466285},{"is_transit":false,"transit":false,"time":10,"station_name":"Cibinong","distance":6527,"station_id":"CBN","i_lat":-6.46424,"i_long":106.851978,"line":21},{"line":21,"distance":0,"i_long":106.824374,"station_id":"PDRG","transit":false,"is_transit":false,"station_name":"Pondok Rajeg","time":0,"i_lat":-6.460735},{"distance":0,"station_id":"CTA","station_name":"Citayam","is_transit":true,"time":0,"i_lat":-6.448811,"line":2,"transit":true,"i_long":106.800298},{"i_lat":-6.493243,"station_id":"BJD","i_long":106.792719,"is_transit":false,"transit":false,"time":5,"station_name":"Bojonggede","distance":5197,"line":2},{"transit":false,"distance":4331,"time":5,"is_transit":false,"station_name":"Cilebut","station_id":"CLT","line":2,"i_lat":-6.530544,"i_long":106.800016}]]}