{"data":[[{"time":0,"station_name":"Nambo","distance":0,"line":21,"transit":false,"i_lat":-6.466285,"is_transit":false,"i_long":106.905196,"station_id":"NMO"},{"transit":false,"time":10,"i_lat":-6.46424,"line":21,"station_id":"CBN","distance":6527,"i_long":106.851978,"is_transit":false,"station_name":"Cibinong"},{"time":0,"i_lat":-6.460735,"station_name":"Pondok Rajeg","station_id":"PDRG","distance":0,"i_long":106.824374,"line":21,"is_transit":false,"transit":false},{"time":0,"transit":true,"is_transit":true,"station_name":"Citayam","i_long":106.800298,"i_lat":-6.448811,"station_id":"CTA","line":2,"distance":0},{"is_transit":false,"i_long":106.816926,"time":6,"i_lat":-6.405256,"transit":false,"station_id":"DP","station_name":"Depok","distance":5084,"line":2},{"time":3,"i_long":106.819451,"station_name":"Depokbaru","is_transit":false,"transit":false,"station_id":"DPB","distance":1584,"line":2,"i_lat":-6.391065},{"is_transit":false,"time":4,"transit":false,"distance":2727,"line":2,"station_id":"POC","station_name":"Pondok Cina","i_lat":-6.369073,"i_long":106.831114},{"station_id":"UI","line":2,"time":2,"is_transit":false,"station_name":"Univ. Indonesia","i_lat":-6.360749,"i_long":106.831474,"transit":false,"distance":1109},{"i_long":106.834175,"time":3,"transit":false,"is_transit":false,"station_id":"UP","distance":2264,"line":2,"station_name":"Univ. Pancasila","i_lat":-6.339291},{"i_long":106.832616,"station_name":"Lenteng Agung","is_transit":false,"distance":1029,"i_lat":-6.330363,"time":2,"transit":false,"station_id":"LNA","line":2},{"station_id":"TNT","i_lat":-6.3080680000000005,"i_long":106.838896,"line":2,"distance":2671,"transit":false,"time":3,"station_name":"Tanjung Barat","is_transit":false},{"station_name":"Pasar Minggu","i_lat":-6.2842400000000005,"transit":false,"distance":2820,"station_id":"PSM","line":2,"i_long":106.843999,"time":4,"is_transit":false},{"distance":2380,"i_long":106.851577,"line":2,"station_name":"Pasar Minggu Baru","is_transit":false,"station_id":"PSMB","transit":false,"i_lat":-6.263214,"time":2},{"station_name":"Duren Kalibata","is_transit":false,"i_lat":-6.255332,"i_long":106.85449,"transit":false,"station_id":"DRN","line":2,"distance":824,"time":2},{"i_long":106.856607,"transit":false,"distance":1546,"i_lat":-6.242512,"time":3,"station_id":"CW","line":2,"station_name":"Cawang","is_transit":false},{"transit":false,"time":2,"is_transit":false,"station_name":"Tebet","distance":1230,"i_lat":-6.226659,"station_id":"TEB","line":2,"i_long":106.857948},{"line":2,"station_name":"Manggarai","i_lat":-6.209883,"station_id":"MRI","time":4,"i_long":106.84912,"distance":2610,"is_transit":true,"transit":true},{"station_name":"Sudirman","station_id":"SUD","time":4,"transit":false,"is_transit":false,"i_long":106.822649,"distance":3186,"i_lat":-6.202263,"line":1}],[{"distance":0,"station_id":"NMO","station_name":"Nambo","line":21,"i_lat":-6.466285,"is_transit":false,"transit":false,"time":0,"i_long":106.905196},{"i_lat":-6.46424,"line":21,"i_long":106.851978,"transit":false,"distance":6527,"time":10,"is_transit":false,"station_id":"CBN","station_name":"Cibinong"},{"transit":false,"time":0,"station_id":"PDRG","station_name":"Pondok Rajeg","i_lat":-6.460735,"line":21,"i_long":106.824374,"distance":0,"is_transit":false},{"station_name":"Citayam","distance":0,"time":0,"is_transit":true,"line":2,"i_long":106.800298,"i_lat":-6.448811,"station_id":"CTA","transit":true},{"i_long":106.816926,"time":6,"transit":false,"distance":5084,"is_transit":false,"i_lat":-6.405256,"line":2,"station_name":"Depok","station_id":"DP"},{"station_id":"DPB","station_name":"Depokbaru","distance":1584,"time":3,"i_long":106.819451,"is_transit":false,"i_lat":-6.391065,"line":2,"transit":false},{"time":4,"is_transit":false,"transit":false,"line":2,"station_name":"Pondok Cina","distance":2727,"i_long":106.831114,"station_id":"POC","i_lat":-6.369073},{"time":2,"i_lat":-6.360749,"transit":false,"line":2,"station_name":"Univ. Indonesia","distance":1109,"i_long":106.831474,"station_id":"UI","is_transit":false},{"station_name":"Univ. Pancasila","i_lat":-6.339291,"transit":false,"line":2,"is_transit":false,"i_long":106.834175,"station_id":"UP","distance":2264,"time":3},{"transit":false,"i_long":106.832616,"station_id":"LNA","line":2,"distance":1029,"station_name":"Lenteng Agung","i_lat":-6.330363,"time":2,"is_transit":false},{"line":2,"i_long":106.838896,"distance":2671,"time":3,"station_id":"TNT","station_name":"Tanjung Barat","transit":false,"is_transit":false,"i_lat":-6.3080680000000005},{"distance":2820,"transit":false,"i_lat":-6.2842400000000005,"line":2,"i_long":106.843999,"time":4,"is_transit":false,"station_id":"PSM","station_name":"Pasar Minggu"},{"station_id":"PSMB","i_lat":-6.263214,"distance":2380,"transit":false,"station_name":"Pasar Minggu Baru","is_transit":false,"i_long":106.851577,"time":2,"line":2},{"station_id":"DRN","i_long":106.85449,"transit":false,"is_transit":false,"time":2,"station_name":"Duren Kalibata","distance":824,"i_lat":-6.255332,"line":2},{"transit":false,"i_lat":-6.242512,"i_long":106.856607,"line":2,"station_name":"Cawang","is_transit":false,"station_id":"CW","distance":1546,"time":3},{"time":2,"transit":false,"i_long":106.857948,"station_name":"Tebet","i_lat":-6.226659,"station_id":"TEB","line":2,"is_transit":false,"distance":1230},{"station_name":"Manggarai","station_id":"MRI","distance":2610,"line":2,"is_transit":false,"i_long":106.84912,"i_lat":-6.209883,"transit":false,"time":4},{"line":2,"station_id":"CKI","station_name":"Cikini","is_transit":false,"time":4,"i_lat":-6.198556,"i_long":106.840169,"transit":false,"distance":1590},{"transit":false,"station_id":"GDD","is_transit":false,"distance":1750,"i_lat":-6.186295,"i_long":106.832183,"station_name":"Gondangdia","line":2,"time":3},{"i_lat":-6.166716,"i_long":106.828284,"time":4,"line":2,"is_transit":false,"station_name":"Juanda","transit":false,"station_id":"JUA","distance":2015},{"i_long":106.827103,"station_name":"Sawah Besar","time":2,"distance":1149,"line":2,"is_transit":false,"transit":false,"i_lat":-6.160725,"station_id":"SW"},{"line":2,"i_lat":-6.149769,"transit":false,"time":2,"station_name":"Manggabesar","distance":906,"i_long":106.82482,"station_id":"MGB","is_transit":false},{"line":2,"station_id":"JAY","station_name":"Jayakarta","i_lat":-6.141205,"is_transit":false,"transit":false,"time":2,"distance":1080,"i_long":106.820901},{"i_long":106.812439,"transit":true,"time":4,"is_transit":true,"station_id":"JAKK","distance":1264,"line":2,"station_name":"Jakarta Kota","i_lat":-6.137569},{"i_long":106.826365,"distance":1364,"time":3,"station_name":"Kampung Bandan","line":4,"transit":true,"station_id":"KPB","is_transit":true,"i_lat":-6.132549},{"time":9,"i_lat":-6.144674,"station_id":"AK","distance":4102,"transit":false,"i_long":106.79867,"line":1,"is_transit":false,"station_name":"Angke"},{"is_transit":false,"time":4,"distance":1230,"i_long":106.800832,"line":1,"station_name":"Duri","i_lat":-6.155215,"transit":false,"station_id":"DU"},{"i_long":106.811091,"line":1,"is_transit":false,"station_id":"THB","i_lat":-6.185545,"distance":3632,"station_name":"Tanah Abang","transit":false,"time":8},{"is_transit":false,"station_name":"Karet","distance":2029,"transit":false,"i_lat":-6.20132,"i_long":106.816351,"time":5,"line":1,"station_id":"KAT"},{"is_transit":false,"transit":false,"station_id":"SUDB","station_name":"Sudirman Baru","i_long":106.819881,"i_lat":-6.201433,"line":1,"time":1,"distance":471},{"station_name":"Sudirman","is_transit":false,"distance":280,"i_lat":-6.202263,"i_long":106.822649,"line":1,"transit":false,"time":1,"station_id":"SUD"}],[{"transit":false,"i_lat":-6.466285,"station_id":"NMO","station_name":"Nambo","distance":0,"i_long":106.905196,"is_transit":false,"time":0,"line":21},{"station_id":"CBN","station_name":"Cibinong","is_transit":false,"i_lat":-6.46424,"i_long":106.851978,"transit":false,"time":10,"line":21,"distance":6527},{"station_name":"Pondok Rajeg","i_long":106.824374,"station_id":"PDRG","i_lat":-6.460735,"distance":0,"time":0,"line":21,"transit":false,"is_transit":false},{"i_long":106.800298,"transit":true,"is_transit":true,"time":0,"station_name":"Citayam","distance":0,"i_lat":-6.448811,"line":2,"station_id":"CTA"},{"transit":false,"i_lat":-6.405256,"distance":5084,"line":2,"i_long":106.816926,"station_name":"Depok","station_id":"DP","is_transit":false,"time":6},{"station_name":"Depokbaru","i_long":106.819451,"line":2,"transit":false,"is_transit":false,"distance":1584,"time":3,"i_lat":-6.391065,"station_id":"DPB"},{"distance":2727,"is_transit":false,"transit":false,"i_lat":-6.369073,"line":2,"station_name":"Pondok Cina","i_long":106.831114,"station_id":"POC","time":4},{"i_lat":-6.360749,"time":2,"station_name":"Univ. Indonesia","line":2,"i_long":106.831474,"station_id":"UI","transit":false,"is_transit":false,"distance":1109},{"transit":false,"station_name":"Univ. Pancasila","line":2,"distance":2264,"i_lat":-6.339291,"station_id":"UP","is_transit":false,"i_long":106.834175,"time":3},{"is_transit":false,"i_long":106.832616,"transit":false,"station_name":"Lenteng Agung","distance":1029,"line":2,"time":2,"station_id":"LNA","i_lat":-6.330363},{"station_name":"Tanjung Barat","time":3,"distance":2671,"is_transit":false,"station_id":"TNT","i_long":106.838896,"line":2,"transit":false,"i_lat":-6.3080680000000005},{"distance":2820,"i_long":106.843999,"station_id":"PSM","transit":false,"station_name":"Pasar Minggu","line":2,"is_transit":false,"time":4,"i_lat":-6.2842400000000005},{"time":2,"station_id":"PSMB","line":2,"distance":2380,"i_lat":-6.263214,"transit":false,"i_long":106.851577,"is_transit":false,"station_name":"Pasar Minggu Baru"},{"i_long":106.85449,"is_transit":false,"transit":false,"time":2,"station_name":"Duren Kalibata","distance":824,"line":2,"station_id":"DRN","i_lat":-6.255332},{"station_id":"CW","time":3,"station_name":"Cawang","is_transit":false,"transit":false,"distance":1546,"line":2,"i_lat":-6.242512,"i_long":106.856607},{"station_id":"TEB","transit":false,"station_name":"Tebet","i_long":106.857948,"line":2,"time":2,"i_lat":-6.226659,"is_transit":false,"distance":1230},{"line":2,"i_long":106.84912,"station_name":"Manggarai","station_id":"MRI","time":4,"is_transit":true,"i_lat":-6.209883,"transit":true,"distance":2610},{"i_lat":-6.212485,"line":1,"station_id":"MTR","station_name":"Matraman","transit":false,"distance":1275,"time":2,"i_long":106.858896,"is_transit":false},{"line":1,"is_transit":true,"station_name":"Jatinegara","i_lat":-6.215091,"transit":true,"time":8,"station_id":"JNG","i_long":106.86807400000001,"distance":1377},{"i_lat":-6.209188,"station_id":"POK","distance":1236,"i_long":106.861737,"time":2,"line":11,"transit":false,"is_transit":false,"station_name":"Pondok Jati"},{"line":11,"is_transit":false,"distance":1829,"i_lat":-6.193792,"station_name":"Kramat","station_id":"KMT","i_long":106.855437,"time":2,"transit":false},{"time":1,"i_long":106.850107,"distance":973,"i_lat":-6.185975,"transit":false,"line":11,"station_id":"GST","is_transit":false,"station_name":"Gang Sentiong"},{"time":8,"i_long":106.84368,"station_name":"Pasar Senen","line":11,"distance":1567,"transit":false,"i_lat":-6.174784,"is_transit":false,"station_id":"PSE"},{"i_lat":-6.161728,"distance":1436,"transit":false,"is_transit":false,"time":4,"station_name":"Kemayoran","station_id":"KMO","line":11,"i_long":106.839204},{"is_transit":false,"station_name":"Rajawali","i_long":106.836569,"i_lat":-6.14505,"line":11,"time":5,"transit":false,"distance":1901,"station_id":"RJW"},{"i_lat":-6.132549,"line":4,"i_long":106.826365,"time":3,"is_transit":true,"station_name":"Kampung Bandan","distance":1444,"transit":true,"station_id":"KPB"},{"line":1,"is_transit":false,"time":9,"station_id":"AK","distance":4102,"station_name":"Angke","i_lat":-6.144674,"transit":false,"i_long":106.79867},{"station_id":"DU","i_long":106.800832,"transit":false,"station_name":"Duri","time":4,"i_lat":-6.155215,"is_transit":false,"line":1,"distance":1230},{"transit":false,"station_id":"THB","line":1,"time":8,"station_name":"Tanah Abang","is_transit":false,"distance":3632,"i_lat":-6.185545,"i_long":106.811091},{"transit":false,"time":5,"station_name":"Karet","line":1,"i_lat":-6.20132,"distance":2029,"i_long":106.816351,"station_id":"KAT","is_transit":false},{"is_transit":false,"i_lat":-6.201433,"station_name":"Sudirman Baru","distance":471,"line":1,"transit":false,"time":1,"station_id":"SUDB","i_long":106.819881},{"station_id":"SUD","line":1,"i_long":106.822649,"time":1,"distance":280,"is_transit":false,"station_name":"Sudirman","transit":false,"i_lat":-6.202263}]]}