{"data":[[{"is_transit":false,"station_name":"Nambo","transit":false,"station_id":"NMO","i_lat":-6.466285,"i_long":106.905196,"line":21,"distance":0,"time":0},{"line":21,"station_name":"Cibinong","is_transit":false,"station_id":"CBN","transit":false,"i_lat":-6.46424,"time":10,"i_long":106.851978,"distance":6527},{"distance":0,"station_id":"PDRG","i_long":106.824374,"station_name":"Pondok Rajeg","time":0,"i_lat":-6.460735,"line":21,"transit":false,"is_transit":false},{"i_long":106.800298,"line":2,"is_transit":true,"station_name":"Citayam","distance":0,"time":0,"i_lat":-6.448811,"station_id":"CTA","transit":true},{"distance":5084,"station_name":"Depok","is_transit":false,"i_long":106.816926,"station_id":"DP","time":6,"line":2,"transit":false,"i_lat":-6.405256},{"station_id":"DPB","distance":1584,"line":2,"is_transit":false,"i_lat":-6.391065,"transit":false,"station_name":"Depokbaru","time":3,"i_long":106.819451},{"i_long":106.831114,"station_id":"POC","distance":2727,"station_name":"Pondok Cina","time":4,"transit":false,"i_lat":-6.369073,"is_transit":false,"line":2}]]}