{"data":[[{"is_transit":false,"distance":0,"station_id":"NMO","time":0,"i_lat":-6.466285,"i_long":106.905196,"station_name":"Nambo","line":21,"transit":false},{"station_id":"CBN","station_name":"Cibinong","is_transit":false,"line":21,"transit":false,"i_lat":-6.46424,"distance":6527,"time":10,"i_long":106.851978},{"i_lat":-6.460735,"station_id":"PDRG","time":0,"station_name":"Pondok Rajeg","distance":0,"transit":false,"i_long":106.824374,"line":21,"is_transit":false},{"i_lat":-6.448811,"station_id":"CTA","i_long":106.800298,"line":2,"transit":true,"station_name":"Citayam","distance":0,"is_transit":true,"time":0},{"i_long":106.792719,"line":2,"transit":false,"time":5,"i_lat":-6.493243,"station_name":"Bojonggede","distance":5197,"station_id":"BJD","is_transit":false},{"time":5,"distance":4331,"is_transit":false,"i_lat":-6.530544,"transit":false,"i_long":106.800016,"line":2,"station_id":"CLT","station_name":"Cilebut"}]]}