{"data":[[{"transit":false,"i_lat":-6.466285,"i_long":106.905196,"station_name":"Nambo","station_id":"NMO","distance":0,"time":0,"is_transit":false,"line":21},{"station_name":"Cibinong","time":10,"transit":false,"i_lat":-6.46424,"distance":6527,"station_id":"CBN","is_transit":false,"i_long":106.851978,"line":0},{"transit":false,"station_id":"CTA","time":10,"is_transit":true,"i_long":106.800298,"line":1,"distance":6740,"i_lat":-6.448811,"station_name":"Citayam"},{"time":6,"station_id":"DP","station_name":"Depok","is_transit":false,"i_lat":-6.405256,"transit":false,"i_long":106.816926,"line":0,"distance":5084},{"station_name":"Depokbaru","time":3,"station_id":"DPB","transit":false,"is_transit":false,"i_long":106.819451,"distance":1584,"line":0,"i_lat":-6.391065},{"distance":2727,"station_name":"Pondok Cina","line":2,"i_lat":-6.369073,"station_id":"POC","time":4,"transit":false,"i_long":106.831114,"is_transit":false},{"is_transit":false,"station_id":"UI","i_lat":-6.360749,"i_long":106.831474,"transit":false,"line":2,"station_name":"Univ. Indonesia","distance":1109,"time":2}]]}