{"data":[[{"distance":0,"i_lat":-6.466285,"time":0,"line":21,"station_id":"NMO","is_transit":false,"transit":false,"i_long":106.905196,"station_name":"Nambo"},{"station_id":"CBN","is_transit":false,"i_long":106.851978,"time":10,"line":0,"station_name":"Cibinong","distance":6527,"i_lat":-6.46424,"transit":false},{"distance":6740,"i_long":106.800298,"line":1,"time":10,"station_id":"CTA","is_transit":true,"station_name":"Citayam","transit":false,"i_lat":-6.448811},{"station_name":"Bojonggede","transit":false,"is_transit":false,"distance":5197,"time":5,"station_id":"BJD","i_long":106.792719,"line":0,"i_lat":-6.493243},{"transit":false,"station_name":"Cilebut","i_lat":-6.530544,"line":0,"time":5,"distance":4331,"is_transit":false,"station_id":"CLT","i_long":106.800016}]]}