{"data":[[{"distance":0,"line":21,"transit":false,"station_id":"NMO","i_lat":-6.466285,"i_long":106.905196,"is_transit":false,"station_name":"Nambo","time":0},{"i_long":106.851978,"distance":6527,"station_name":"Cibinong","time":10,"i_lat":-6.46424,"is_transit":false,"transit":false,"station_id":"CBN","line":21},{"i_long":106.824374,"time":0,"station_id":"PDRG","line":21,"distance":0,"i_lat":-6.460735,"transit":false,"station_name":"Pondok Rajeg","is_transit":false},{"line":2,"time":0,"transit":true,"distance":0,"station_id":"CTA","is_transit":true,"i_long":106.800298,"i_lat":-6.448811,"station_name":"Citayam"},{"station_name":"Depok","distance":5084,"transit":false,"is_transit":false,"i_lat":-6.405256,"line":2,"station_id":"DP","time":6,"i_long":106.816926},{"i_lat":-6.391065,"distance":1584,"station_id":"DPB","station_name":"Depokbaru","line":2,"is_transit":false,"i_long":106.819451,"time":3,"transit":false},{"time":4,"station_id":"POC","distance":2727,"line":2,"i_lat":-6.369073,"transit":false,"i_long":106.831114,"is_transit":false,"station_name":"Pondok Cina"},{"time":2,"station_name":"Univ. Indonesia","line":2,"is_transit":false,"i_long":106.831474,"i_lat":-6.360749,"transit":false,"station_id":"UI","distance":1109},{"i_long":106.834175,"station_name":"Univ. Pancasila","time":3,"line":2,"is_transit":false,"distance":2264,"transit":false,"i_lat":-6.339291,"station_id":"UP"},{"transit":false,"time":2,"station_id":"LNA","is_transit":false,"distance":1029,"station_name":"Lenteng Agung","i_lat":-6.330363,"line":2,"i_long":106.832616},{"station_name":"Tanjung Barat","station_id":"TNT","i_long":106.838896,"is_transit":false,"time":3,"line":2,"i_lat":-6.3080680000000005,"transit":false,"distance":2671},{"transit":false,"time":4,"station_id":"PSM","is_transit":false,"distance":2820,"i_long":106.843999,"station_name":"Pasar Minggu","i_lat":-6.2842400000000005,"line":2},{"i_long":106.851577,"distance":2380,"line":2,"is_transit":false,"station_id":"PSMB","transit":false,"time":2,"station_name":"Pasar Minggu Baru","i_lat":-6.263214},{"station_name":"Duren Kalibata","i_long":106.85449,"line":2,"i_lat":-6.255332,"station_id":"DRN","distance":824,"time":2,"is_transit":false,"transit":false},{"station_name":"Cawang","station_id":"CW","i_lat":-6.242512,"line":2,"time":3,"distance":1546,"is_transit":false,"transit":false,"i_long":106.856607},{"is_transit":false,"i_long":106.857948,"transit":false,"time":2,"station_name":"Tebet","station_id":"TEB","distance":1230,"i_lat":-6.226659,"line":2},{"station_name":"Manggarai","distance":2610,"time":4,"line":2,"is_transit":true,"transit":true,"i_long":106.84912,"station_id":"MRI","i_lat":-6.209883},{"station_id":"SUD","time":4,"station_name":"Sudirman","i_lat":-6.202263,"i_long":106.822649,"line":1,"distance":3186,"is_transit":false,"transit":false},{"station_id":"SUDB","station_name":"Sudirman Baru","i_lat":-6.201433,"i_long":106.819881,"is_transit":false,"time":1,"distance":280,"line":1,"transit":false},{"time":1,"station_name":"Karet","i_lat":-6.20132,"is_transit":false,"station_id":"KAT","distance":471,"line":1,"i_long":106.816351,"transit":false},{"station_id":"THB","distance":2029,"transit":false,"i_long":106.811091,"time":5,"line":1,"station_name":"Tanah Abang","is_transit":false,"i_lat":-6.185545},{"i_long":106.800832,"time":8,"transit":false,"station_id":"DU","distance":3632,"line":1,"station_name":"Duri","is_transit":false,"i_lat":-6.155215},{"distance":1230,"station_id":"AK","transit":false,"is_transit":false,"line":1,"i_lat":-6.144674,"station_name":"Angke","i_long":106.79867,"time":4},{"time":9,"distance":4102,"station_name":"Kampung Bandan","i_long":106.826365,"station_id":"KPB","i_lat":-6.132549,"line":4,"transit":false,"is_transit":false}],[{"station_name":"Nambo","line":21,"distance":0,"i_long":106.905196,"is_transit":false,"time":0,"i_lat":-6.466285,"transit":false,"station_id":"NMO"},{"distance":6527,"transit":false,"is_transit":false,"time":10,"i_lat":-6.46424,"i_long":106.851978,"station_name":"Cibinong","line":21,"station_id":"CBN"},{"transit":false,"time":0,"i_lat":-6.460735,"i_long":106.824374,"distance":0,"station_name":"Pondok Rajeg","line":21,"is_transit":false,"station_id":"PDRG"},{"station_id":"CTA","station_name":"Citayam","transit":true,"distance":0,"i_lat":-6.448811,"is_transit":true,"time":0,"line":2,"i_long":106.800298},{"time":6,"is_transit":false,"station_name":"Depok","i_long":106.816926,"distance":5084,"line":2,"i_lat":-6.405256,"transit":false,"station_id":"DP"},{"station_name":"Depokbaru","i_lat":-6.391065,"line":2,"is_transit":false,"station_id":"DPB","distance":1584,"transit":false,"i_long":106.819451,"time":3},{"distance":2727,"i_long":106.831114,"line":2,"station_id":"POC","transit":false,"is_transit":false,"time":4,"station_name":"Pondok Cina","i_lat":-6.369073},{"distance":1109,"i_lat":-6.360749,"i_long":106.831474,"line":2,"station_name":"Univ. Indonesia","time":2,"is_transit":false,"station_id":"UI","transit":false},{"time":3,"line":2,"i_lat":-6.339291,"i_long":106.834175,"is_transit":false,"transit":false,"station_id":"UP","station_name":"Univ. Pancasila","distance":2264},{"line":2,"station_name":"Lenteng Agung","distance":1029,"i_lat":-6.330363,"is_transit":false,"time":2,"i_long":106.832616,"station_id":"LNA","transit":false},{"line":2,"i_lat":-6.3080680000000005,"i_long":106.838896,"is_transit":false,"station_id":"TNT","transit":false,"time":3,"station_name":"Tanjung Barat","distance":2671},{"distance":2820,"station_id":"PSM","line":2,"time":4,"is_transit":false,"station_name":"Pasar Minggu","transit":false,"i_long":106.843999,"i_lat":-6.2842400000000005},{"transit":false,"is_transit":false,"line":2,"station_id":"PSMB","distance":2380,"i_lat":-6.263214,"time":2,"station_name":"Pasar Minggu Baru","i_long":106.851577},{"station_name":"Duren Kalibata","is_transit":false,"line":2,"time":2,"distance":824,"transit":false,"i_lat":-6.255332,"station_id":"DRN","i_long":106.85449},{"is_transit":false,"station_id":"CW","distance":1546,"i_long":106.856607,"line":2,"station_name":"Cawang","transit":false,"i_lat":-6.242512,"time":3},{"station_name":"Tebet","line":2,"distance":1230,"is_transit":false,"time":2,"i_lat":-6.226659,"transit":false,"i_long":106.857948,"station_id":"TEB"},{"i_long":106.84912,"time":4,"line":2,"station_id":"MRI","distance":2610,"station_name":"Manggarai","is_transit":false,"transit":false,"i_lat":-6.209883},{"distance":1590,"transit":false,"station_id":"CKI","time":4,"i_lat":-6.198556,"i_long":106.840169,"line":2,"station_name":"Cikini","is_transit":false},{"transit":false,"distance":1750,"time":3,"line":2,"station_id":"GDD","station_name":"Gondangdia","i_long":106.832183,"i_lat":-6.186295,"is_transit":false},{"time":4,"is_transit":false,"i_long":106.828284,"station_name":"Juanda","line":2,"i_lat":-6.166716,"distance":2015,"station_id":"JUA","transit":false},{"i_lat":-6.160725,"i_long":106.827103,"station_id":"SW","is_transit":false,"station_name":"Sawah Besar","line":2,"transit":false,"time":2,"distance":1149},{"time":2,"i_lat":-6.149769,"i_long":106.82482,"station_id":"MGB","line":2,"distance":906,"transit":false,"is_transit":false,"station_name":"Manggabesar"},{"i_lat":-6.141205,"line":2,"station_id":"JAY","distance":1080,"i_long":106.820901,"time":2,"transit":false,"station_name":"Jayakarta","is_transit":false},{"i_lat":-6.137569,"transit":true,"station_id":"JAKK","distance":1264,"station_name":"Jakarta Kota","line":2,"time":4,"is_transit":true,"i_long":106.812439},{"time":3,"station_id":"KPB","is_transit":false,"distance":1364,"station_name":"Kampung Bandan","line":4,"i_long":106.826365,"i_lat":-6.132549,"transit":false}],[{"distance":0,"is_transit":false,"transit":false,"i_lat":-6.466285,"i_long":106.905196,"station_name":"Nambo","time":0,"line":21,"station_id":"NMO"},{"i_lat":-6.46424,"is_transit":false,"station_id":"CBN","transit":false,"time":10,"station_name":"Cibinong","i_long":106.851978,"line":21,"distance":6527},{"is_transit":false,"i_lat":-6.460735,"i_long":106.824374,"station_name":"Pondok Rajeg","line":21,"distance":0,"station_id":"PDRG","time":0,"transit":false},{"distance":0,"i_lat":-6.448811,"station_name":"Citayam","i_long":106.800298,"station_id":"CTA","line":2,"time":0,"transit":true,"is_transit":true},{"time":6,"i_lat":-6.405256,"i_long":106.816926,"line":2,"is_transit":false,"station_id":"DP","distance":5084,"transit":false,"station_name":"Depok"},{"is_transit":false,"station_id":"DPB","line":2,"time":3,"transit":false,"station_name":"Depokbaru","distance":1584,"i_long":106.819451,"i_lat":-6.391065},{"station_id":"POC","transit":false,"i_lat":-6.369073,"is_transit":false,"distance":2727,"time":4,"i_long":106.831114,"line":2,"station_name":"Pondok Cina"},{"line":2,"is_transit":false,"station_id":"UI","station_name":"Univ. Indonesia","distance":1109,"i_long":106.831474,"transit":false,"time":2,"i_lat":-6.360749},{"line":2,"transit":false,"distance":2264,"i_long":106.834175,"station_id":"UP","time":3,"station_name":"Univ. Pancasila","is_transit":false,"i_lat":-6.339291},{"i_lat":-6.330363,"i_long":106.832616,"time":2,"is_transit":false,"distance":1029,"line":2,"transit":false,"station_id":"LNA","station_name":"Lenteng Agung"},{"is_transit":false,"i_long":106.838896,"i_lat":-6.3080680000000005,"time":3,"transit":false,"distance":2671,"station_id":"TNT","station_name":"Tanjung Barat","line":2},{"line":2,"station_name":"Pasar Minggu","i_long":106.843999,"transit":false,"distance":2820,"time":4,"i_lat":-6.2842400000000005,"station_id":"PSM","is_transit":false},{"i_long":106.851577,"distance":2380,"station_name":"Pasar Minggu Baru","line":2,"transit":false,"i_lat":-6.263214,"station_id":"PSMB","is_transit":false,"time":2},{"time":2,"transit":false,"i_long":106.85449,"is_transit":false,"station_name":"Duren Kalibata","line":2,"i_lat":-6.255332,"station_id":"DRN","distance":824},{"distance":1546,"i_long":106.856607,"transit":false,"station_id":"CW","is_transit":false,"time":3,"station_name":"Cawang","i_lat":-6.242512,"line":2},{"is_transit":false,"time":2,"line":2,"i_long":106.857948,"station_name":"Tebet","i_lat":-6.226659,"distance":1230,"transit":false,"station_id":"TEB"},{"transit":true,"i_lat":-6.209883,"i_long":106.84912,"is_transit":true,"line":2,"station_id":"MRI","distance":2610,"time":4,"station_name":"Manggarai"},{"distance":1275,"station_id":"MTR","time":2,"station_name":"Matraman","i_lat":-6.212485,"line":1,"i_long":106.858896,"transit":false,"is_transit":false},{"station_name":"Jatinegara","line":1,"is_transit":true,"i_long":106.86807400000001,"time":8,"station_id":"JNG","i_lat":-6.215091,"transit":true,"distance":1377},{"i_long":106.861737,"is_transit":false,"line":11,"transit":false,"i_lat":-6.209188,"station_name":"Pondok Jati","time":2,"station_id":"POK","distance":1236},{"transit":false,"is_transit":false,"station_id":"KMT","line":11,"i_long":106.855437,"time":2,"distance":1829,"station_name":"Kramat","i_lat":-6.193792},{"distance":973,"line":11,"i_long":106.850107,"transit":false,"i_lat":-6.185975,"time":1,"is_transit":false,"station_name":"Gang Sentiong","station_id":"GST"},{"station_name":"Pasar Senen","time":8,"line":11,"is_transit":false,"distance":1567,"transit":false,"i_lat":-6.174784,"i_long":106.84368,"station_id":"PSE"},{"station_id":"KMO","time":4,"i_lat":-6.161728,"line":11,"is_transit":false,"distance":1436,"transit":false,"station_name":"Kemayoran","i_long":106.839204},{"transit":false,"is_transit":false,"i_long":106.836569,"station_id":"RJW","line":11,"time":5,"station_name":"Rajawali","i_lat":-6.14505,"distance":1901},{"time":3,"i_long":106.826365,"line":4,"station_id":"KPB","transit":false,"i_lat":-6.132549,"is_transit":false,"distance":1444,"station_name":"Kampung Bandan"}]]}