{"data":[[{"i_lat":-6.466285,"i_long":106.905196,"line":21,"station_id":"NMO","is_transit":false,"time":0,"distance":0,"transit":false,"station_name":"Nambo"},{"i_lat":-6.46424,"i_long":106.851978,"station_id":"CBN","line":0,"time":10,"is_transit":false,"station_name":"Cibinong","transit":false,"distance":6527},{"station_id":"CTA","is_transit":true,"line":1,"i_lat":-6.448811,"i_long":106.800298,"station_name":"Citayam","time":10,"transit":false,"distance":6740},{"line":0,"station_id":"DP","distance":5084,"time":6,"transit":false,"station_name":"Depok","is_transit":false,"i_lat":-6.405256,"i_long":106.816926},{"i_long":106.819451,"station_name":"Depokbaru","i_lat":-6.391065,"transit":false,"station_id":"DPB","line":0,"is_transit":false,"distance":1584,"time":3},{"time":4,"station_name":"Pondok Cina","transit":false,"is_transit":false,"i_lat":-6.369073,"station_id":"POC","i_long":106.831114,"distance":2727,"line":2},{"station_name":"Univ. Indonesia","distance":1109,"station_id":"UI","is_transit":false,"time":2,"i_lat":-6.360749,"i_long":106.831474,"line":2,"transit":false},{"is_transit":false,"time":3,"transit":false,"i_long":106.834175,"distance":2264,"station_id":"UP","i_lat":-6.339291,"station_name":"Univ. Pancasila","line":2},{"transit":false,"distance":1029,"time":2,"i_long":106.832616,"line":2,"is_transit":false,"station_id":"LNA","i_lat":-6.330363,"station_name":"Lenteng Agung"},{"time":3,"i_long":106.838896,"line":2,"distance":2671,"station_id":"TNT","transit":false,"i_lat":-6.3080680000000005,"station_name":"Tanjung Barat","is_transit":false},{"line":2,"i_lat":-6.2842400000000005,"is_transit":false,"i_long":106.843999,"station_name":"Pasar Minggu","distance":2820,"station_id":"PSM","time":4,"transit":false},{"transit":false,"is_transit":false,"station_id":"PSMB","i_long":106.851577,"distance":2380,"time":2,"i_lat":-6.263214,"line":2,"station_name":"Pasar Minggu Baru"},{"station_id":"DRN","i_long":106.85449,"is_transit":false,"distance":824,"time":2,"transit":false,"station_name":"Duren Kalibata","i_lat":-6.255332,"line":0},{"i_long":106.856607,"is_transit":false,"station_id":"CW","distance":1546,"time":3,"i_lat":-6.242512,"line":0,"transit":false,"station_name":"Cawang"},{"i_long":106.857948,"time":2,"transit":false,"station_id":"TEB","is_transit":false,"line":2,"i_lat":-6.226659,"distance":1230,"station_name":"Tebet"},{"i_lat":-6.209883,"i_long":106.84912,"line":0,"is_transit":true,"transit":true,"time":4,"station_id":"MRI","station_name":"Manggarai","distance":2610},{"station_id":"MTR","distance":1275,"station_name":"Matraman","transit":false,"i_lat":-6.212485,"time":2,"line":1,"i_long":106.858896,"is_transit":false},{"station_id":"JNG","station_name":"Jatinegara","distance":1377,"i_lat":-6.215091,"i_long":106.86807400000001,"line":0,"transit":false,"time":8,"is_transit":true},{"transit":false,"distance":3395,"station_name":"Klender","is_transit":false,"time":3,"i_long":106.899548,"i_lat":-6.2135,"station_id":"KLD","line":1},{"transit":false,"time":2,"station_name":"Buaran","is_transit":false,"line":0,"i_lat":-6.215568,"i_long":106.922662,"station_id":"BUA","distance":3100},{"distance":1305,"i_long":106.939679,"is_transit":false,"station_id":"KLDB","time":1,"transit":false,"i_lat":-6.217455,"station_name":"Klenderbaru","line":1},{"i_long":106.951283,"station_name":"Cakung","distance":1385,"station_id":"CUK","is_transit":false,"time":8,"i_lat":-6.219053,"transit":false,"line":0}],[{"time":0,"station_id":"NMO","is_transit":false,"i_long":106.905196,"distance":0,"i_lat":-6.466285,"transit":false,"line":21,"station_name":"Nambo"},{"i_lat":-6.46424,"station_id":"CBN","is_transit":false,"i_long":106.851978,"distance":6527,"time":10,"transit":false,"line":0,"station_name":"Cibinong"},{"time":10,"i_long":106.800298,"station_name":"Citayam","distance":6740,"transit":false,"is_transit":true,"line":1,"i_lat":-6.448811,"station_id":"CTA"},{"station_name":"Depok","i_long":106.816926,"distance":5084,"station_id":"DP","transit":false,"line":0,"time":6,"i_lat":-6.405256,"is_transit":false},{"station_id":"DPB","is_transit":false,"distance":1584,"time":3,"transit":false,"line":0,"station_name":"Depokbaru","i_long":106.819451,"i_lat":-6.391065},{"is_transit":false,"distance":2727,"line":2,"i_long":106.831114,"i_lat":-6.369073,"transit":false,"station_name":"Pondok Cina","station_id":"POC","time":4},{"time":2,"line":2,"i_long":106.831474,"distance":1109,"transit":false,"i_lat":-6.360749,"is_transit":false,"station_name":"Univ. Indonesia","station_id":"UI"},{"distance":2264,"transit":false,"station_name":"Univ. Pancasila","i_long":106.834175,"is_transit":false,"line":2,"time":3,"station_id":"UP","i_lat":-6.339291},{"station_name":"Lenteng Agung","i_lat":-6.330363,"line":2,"distance":1029,"transit":false,"is_transit":false,"time":2,"i_long":106.832616,"station_id":"LNA"},{"time":3,"station_name":"Tanjung Barat","is_transit":false,"station_id":"TNT","i_lat":-6.3080680000000005,"i_long":106.838896,"line":2,"distance":2671,"transit":false},{"is_transit":false,"station_name":"Pasar Minggu","i_long":106.843999,"line":2,"i_lat":-6.2842400000000005,"distance":2820,"station_id":"PSM","time":4,"transit":false},{"time":2,"i_lat":-6.263214,"is_transit":false,"station_id":"PSMB","line":2,"transit":false,"distance":2380,"i_long":106.851577,"station_name":"Pasar Minggu Baru"},{"distance":824,"time":2,"line":0,"i_long":106.85449,"is_transit":false,"i_lat":-6.255332,"station_id":"DRN","transit":false,"station_name":"Duren Kalibata"},{"i_long":106.856607,"i_lat":-6.242512,"station_id":"CW","is_transit":false,"station_name":"Cawang","time":3,"line":0,"transit":false,"distance":1546},{"i_lat":-6.226659,"is_transit":false,"station_id":"TEB","station_name":"Tebet","distance":1230,"i_long":106.857948,"time":2,"line":2,"transit":false},{"station_name":"Manggarai","i_long":106.84912,"distance":2610,"station_id":"MRI","time":4,"transit":true,"line":0,"is_transit":true,"i_lat":-6.209883},{"station_id":"SUD","time":4,"transit":false,"distance":3186,"i_long":106.822649,"i_lat":-6.202263,"line":1,"station_name":"Sudirman","is_transit":false},{"line":1,"transit":false,"time":1,"is_transit":false,"i_long":106.819881,"station_id":"SUDB","i_lat":-6.201433,"distance":280,"station_name":"Sudirman Baru"},{"station_name":"Karet","i_long":106.816351,"transit":false,"distance":471,"station_id":"KAT","is_transit":false,"time":1,"line":1,"i_lat":-6.20132},{"station_id":"THB","i_lat":-6.185545,"is_transit":true,"distance":2029,"transit":false,"station_name":"Tanah Abang","time":5,"i_long":106.811091,"line":1},{"distance":3632,"transit":true,"is_transit":true,"time":8,"i_lat":-6.155215,"line":1,"station_name":"Duri","i_long":106.800832,"station_id":"DU"},{"line":0,"transit":false,"is_transit":false,"i_long":106.79867,"distance":1230,"station_id":"AK","station_name":"Angke","time":4,"i_lat":-6.144674},{"station_name":"Kampung Bandan","i_long":106.826365,"is_transit":true,"transit":true,"time":9,"station_id":"KPB","i_lat":-6.132549,"line":0,"distance":4102},{"is_transit":false,"station_name":"Rajawali","line":11,"transit":false,"time":3,"distance":1444,"station_id":"RJW","i_lat":-6.14505,"i_long":106.836569},{"i_long":106.839204,"station_id":"KMO","transit":false,"station_name":"Kemayoran","is_transit":false,"distance":1901,"time":5,"line":11,"i_lat":-6.161728},{"station_id":"PSE","transit":false,"station_name":"Pasar Senen","i_lat":-6.174784,"is_transit":false,"distance":1436,"i_long":106.84368,"time":4,"line":11},{"distance":1567,"transit":false,"is_transit":false,"station_id":"GST","time":8,"i_lat":-6.185975,"i_long":106.850107,"station_name":"Gang Sentiong","line":11},{"time":1,"line":11,"station_name":"Kramat","distance":973,"station_id":"KMT","transit":false,"i_lat":-6.193792,"is_transit":false,"i_long":106.855437},{"line":11,"distance":1829,"station_id":"POK","station_name":"Pondok Jati","time":2,"transit":false,"i_long":106.861737,"is_transit":false,"i_lat":-6.209188},{"station_id":"JNG","distance":1236,"transit":true,"station_name":"Jatinegara","is_transit":true,"i_lat":-6.215091,"time":9,"i_long":106.86807400000001,"line":0},{"station_name":"Klender","transit":false,"is_transit":false,"i_lat":-6.2135,"time":3,"i_long":106.899548,"distance":3395,"line":1,"station_id":"KLD"},{"line":0,"distance":3100,"i_long":106.922662,"transit":false,"i_lat":-6.215568,"is_transit":false,"time":2,"station_name":"Buaran","station_id":"BUA"},{"station_name":"Klenderbaru","station_id":"KLDB","i_long":106.939679,"transit":false,"line":1,"distance":1305,"i_lat":-6.217455,"time":1,"is_transit":false},{"i_long":106.951283,"line":0,"transit":false,"station_id":"CUK","station_name":"Cakung","is_transit":false,"time":8,"i_lat":-6.219053,"distance":1385}],[{"is_transit":false,"i_lat":-6.466285,"distance":0,"station_id":"NMO","transit":false,"station_name":"Nambo","time":0,"line":21,"i_long":106.905196},{"distance":6527,"line":0,"is_transit":false,"transit":false,"time":10,"i_lat":-6.46424,"i_long":106.851978,"station_name":"Cibinong","station_id":"CBN"},{"transit":false,"is_transit":true,"line":1,"distance":6740,"i_lat":-6.448811,"time":10,"i_long":106.800298,"station_id":"CTA","station_name":"Citayam"},{"distance":5084,"line":0,"time":6,"i_long":106.816926,"station_name":"Depok","station_id":"DP","transit":false,"is_transit":false,"i_lat":-6.405256},{"i_lat":-6.391065,"station_name":"Depokbaru","is_transit":false,"time":3,"line":0,"transit":false,"i_long":106.819451,"distance":1584,"station_id":"DPB"},{"transit":false,"time":4,"station_id":"POC","distance":2727,"station_name":"Pondok Cina","is_transit":false,"i_lat":-6.369073,"line":2,"i_long":106.831114},{"time":2,"i_lat":-6.360749,"line":2,"is_transit":false,"i_long":106.831474,"station_name":"Univ. Indonesia","distance":1109,"station_id":"UI","transit":false},{"transit":false,"line":2,"i_lat":-6.339291,"station_name":"Univ. Pancasila","time":3,"station_id":"UP","is_transit":false,"distance":2264,"i_long":106.834175},{"distance":1029,"is_transit":false,"time":2,"line":2,"station_id":"LNA","station_name":"Lenteng Agung","transit":false,"i_lat":-6.330363,"i_long":106.832616},{"distance":2671,"i_long":106.838896,"is_transit":false,"station_id":"TNT","transit":false,"station_name":"Tanjung Barat","time":3,"i_lat":-6.3080680000000005,"line":2},{"station_name":"Pasar Minggu","line":2,"transit":false,"time":4,"distance":2820,"i_lat":-6.2842400000000005,"is_transit":false,"station_id":"PSM","i_long":106.843999},{"is_transit":false,"i_lat":-6.263214,"station_name":"Pasar Minggu Baru","distance":2380,"i_long":106.851577,"time":2,"line":2,"station_id":"PSMB","transit":false},{"station_name":"Duren Kalibata","i_long":106.85449,"transit":false,"i_lat":-6.255332,"distance":824,"time":2,"is_transit":false,"station_id":"DRN","line":0},{"time":3,"i_long":106.856607,"station_name":"Cawang","distance":1546,"line":0,"station_id":"CW","is_transit":false,"transit":false,"i_lat":-6.242512},{"is_transit":false,"station_id":"TEB","i_long":106.857948,"station_name":"Tebet","time":2,"distance":1230,"line":2,"i_lat":-6.226659,"transit":false},{"time":4,"station_id":"MRI","station_name":"Manggarai","i_lat":-6.209883,"is_transit":true,"line":0,"distance":2610,"i_long":106.84912,"transit":true},{"time":4,"station_name":"Cikini","line":0,"station_id":"CKI","transit":false,"distance":1590,"is_transit":false,"i_long":106.840169,"i_lat":-6.198556},{"i_long":106.832183,"station_name":"Gondangdia","time":3,"is_transit":false,"line":2,"distance":1750,"transit":false,"station_id":"GDD","i_lat":-6.186295},{"time":4,"transit":false,"i_long":106.828284,"station_name":"Juanda","line":2,"station_id":"JUA","distance":2015,"is_transit":false,"i_lat":-6.166716},{"line":2,"i_lat":-6.160725,"i_long":106.827103,"is_transit":false,"transit":false,"time":2,"distance":1149,"station_id":"SW","station_name":"Sawah Besar"},{"transit":false,"is_transit":false,"i_lat":-6.149769,"distance":906,"station_id":"MGB","station_name":"Manggabesar","i_long":106.82482,"time":2,"line":2},{"station_name":"Jayakarta","line":7,"i_long":106.820901,"station_id":"JAY","is_transit":false,"time":2,"i_lat":-6.141205,"distance":1080,"transit":false},{"station_id":"JAKK","station_name":"Jakarta Kota","is_transit":true,"line":0,"transit":true,"distance":1264,"time":4,"i_lat":-6.137569,"i_long":106.812439},{"distance":1364,"i_long":106.826365,"line":0,"station_name":"Kampung Bandan","time":3,"transit":true,"i_lat":-6.132549,"is_transit":true,"station_id":"KPB"},{"line":11,"distance":1444,"transit":false,"station_name":"Rajawali","station_id":"RJW","time":3,"i_lat":-6.14505,"is_transit":false,"i_long":106.836569},{"is_transit":false,"station_name":"Kemayoran","transit":false,"time":5,"station_id":"KMO","line":11,"i_lat":-6.161728,"i_long":106.839204,"distance":1901},{"is_transit":false,"i_lat":-6.174784,"i_long":106.84368,"line":11,"time":4,"station_id":"PSE","station_name":"Pasar Senen","distance":1436,"transit":false},{"is_transit":false,"time":8,"line":11,"transit":false,"distance":1567,"station_id":"GST","station_name":"Gang Sentiong","i_lat":-6.185975,"i_long":106.850107},{"transit":false,"i_long":106.855437,"distance":973,"station_id":"KMT","is_transit":false,"time":1,"i_lat":-6.193792,"line":11,"station_name":"Kramat"},{"distance":1829,"is_transit":false,"time":2,"transit":false,"station_name":"Pondok Jati","i_lat":-6.209188,"line":11,"station_id":"POK","i_long":106.861737},{"line":0,"distance":1236,"transit":true,"time":9,"is_transit":true,"station_id":"JNG","i_lat":-6.215091,"i_long":106.86807400000001,"station_name":"Jatinegara"},{"is_transit":false,"i_long":106.899548,"distance":3395,"time":3,"station_id":"KLD","i_lat":-6.2135,"line":1,"station_name":"Klender","transit":false},{"line":0,"is_transit":false,"transit":false,"time":2,"distance":3100,"station_id":"BUA","i_lat":-6.215568,"station_name":"Buaran","i_long":106.922662},{"is_transit":false,"station_name":"Klenderbaru","time":1,"i_lat":-6.217455,"distance":1305,"station_id":"KLDB","transit":false,"i_long":106.939679,"line":1},{"is_transit":false,"time":8,"i_long":106.951283,"line":0,"distance":1385,"station_name":"Cakung","station_id":"CUK","transit":false,"i_lat":-6.219053}]]}