{"data":[[{"is_transit":false,"i_lat":-6.466285,"transit":false,"station_name":"Nambo","i_long":106.905196,"distance":0,"line":21,"station_id":"NMO","time":0},{"station_name":"Cibinong","transit":false,"line":21,"distance":6527,"is_transit":false,"time":10,"station_id":"CBN","i_long":106.851978,"i_lat":-6.46424},{"i_lat":-6.460735,"i_long":106.824374,"line":21,"time":0,"distance":0,"station_id":"PDRG","station_name":"Pondok Rajeg","transit":false,"is_transit":false},{"time":0,"is_transit":true,"i_lat":-6.448811,"station_name":"Citayam","distance":0,"transit":true,"station_id":"CTA","i_long":106.800298,"line":2},{"station_id":"DP","i_long":106.816926,"line":2,"time":6,"i_lat":-6.405256,"distance":5084,"transit":false,"is_transit":false,"station_name":"Depok"},{"time":3,"is_transit":false,"i_lat":-6.391065,"station_name":"Depokbaru","station_id":"DPB","line":2,"distance":1584,"i_long":106.819451,"transit":false},{"distance":2727,"transit":false,"station_id":"POC","is_transit":false,"i_lat":-6.369073,"i_long":106.831114,"station_name":"Pondok Cina","line":2,"time":4},{"line":2,"station_id":"UI","transit":false,"i_lat":-6.360749,"time":2,"is_transit":false,"distance":1109,"i_long":106.831474,"station_name":"Univ. Indonesia"},{"distance":2264,"transit":false,"i_lat":-6.339291,"line":2,"station_name":"Univ. Pancasila","is_transit":false,"station_id":"UP","time":3,"i_long":106.834175},{"i_long":106.832616,"station_id":"LNA","time":2,"distance":1029,"i_lat":-6.330363,"transit":false,"station_name":"Lenteng Agung","is_transit":false,"line":2},{"line":2,"station_name":"Tanjung Barat","distance":2671,"time":3,"i_lat":-6.3080680000000005,"i_long":106.838896,"station_id":"TNT","transit":false,"is_transit":false},{"transit":false,"i_lat":-6.2842400000000005,"i_long":106.843999,"station_id":"PSM","time":4,"is_transit":false,"line":2,"station_name":"Pasar Minggu","distance":2820},{"i_long":106.851577,"line":2,"time":2,"distance":2380,"transit":false,"i_lat":-6.263214,"station_name":"Pasar Minggu Baru","is_transit":false,"station_id":"PSMB"},{"i_lat":-6.255332,"distance":824,"i_long":106.85449,"line":2,"is_transit":false,"transit":false,"station_name":"Duren Kalibata","time":2,"station_id":"DRN"},{"transit":false,"time":3,"i_lat":-6.242512,"i_long":106.856607,"station_name":"Cawang","is_transit":false,"station_id":"CW","distance":1546,"line":2}]]}