{"data":[[{"station_name":"Nambo","time":0,"line":21,"i_long":106.905196,"station_id":"NMO","i_lat":-6.466285,"distance":0,"is_transit":false,"transit":false},{"line":21,"station_name":"Cibinong","station_id":"CBN","transit":false,"time":10,"i_lat":-6.46424,"is_transit":false,"distance":6527,"i_long":106.851978},{"is_transit":false,"station_name":"Pondok Rajeg","i_long":106.824374,"time":0,"i_lat":-6.460735,"line":21,"station_id":"PDRG","transit":false,"distance":0},{"distance":0,"station_id":"CTA","line":2,"station_name":"Citayam","transit":true,"is_transit":true,"i_lat":-6.448811,"time":0,"i_long":106.800298},{"i_long":106.816926,"line":2,"transit":false,"is_transit":false,"station_name":"Depok","time":6,"distance":5084,"i_lat":-6.405256,"station_id":"DP"},{"station_name":"Depokbaru","line":2,"is_transit":false,"transit":false,"station_id":"DPB","i_long":106.819451,"time":3,"distance":1584,"i_lat":-6.391065},{"station_id":"POC","i_long":106.831114,"distance":2727,"is_transit":false,"station_name":"Pondok Cina","line":2,"i_lat":-6.369073,"time":4,"transit":false},{"station_name":"Univ. Indonesia","transit":false,"time":2,"distance":1109,"i_lat":-6.360749,"i_long":106.831474,"station_id":"UI","line":2,"is_transit":false},{"time":3,"station_name":"Univ. Pancasila","i_lat":-6.339291,"distance":2264,"is_transit":false,"station_id":"UP","transit":false,"i_long":106.834175,"line":2},{"transit":false,"station_id":"LNA","i_lat":-6.330363,"is_transit":false,"i_long":106.832616,"line":2,"distance":1029,"time":2,"station_name":"Lenteng Agung"},{"time":3,"distance":2671,"station_id":"TNT","i_lat":-6.3080680000000005,"i_long":106.838896,"transit":false,"is_transit":false,"line":2,"station_name":"Tanjung Barat"},{"i_lat":-6.2842400000000005,"i_long":106.843999,"time":4,"station_name":"Pasar Minggu","line":2,"transit":false,"is_transit":false,"station_id":"PSM","distance":2820},{"time":2,"station_name":"Pasar Minggu Baru","i_long":106.851577,"transit":false,"distance":2380,"is_transit":false,"line":2,"station_id":"PSMB","i_lat":-6.263214},{"transit":false,"time":2,"distance":824,"line":2,"is_transit":false,"station_id":"DRN","i_lat":-6.255332,"i_long":106.85449,"station_name":"Duren Kalibata"},{"time":3,"distance":1546,"is_transit":false,"i_long":106.856607,"station_id":"CW","transit":false,"station_name":"Cawang","i_lat":-6.242512,"line":2},{"i_lat":-6.226659,"i_long":106.857948,"station_id":"TEB","transit":false,"is_transit":false,"station_name":"Tebet","time":2,"distance":1230,"line":2},{"transit":true,"is_transit":true,"line":2,"time":4,"distance":2610,"station_name":"Manggarai","i_long":106.84912,"i_lat":-6.209883,"station_id":"MRI"},{"transit":false,"line":1,"time":4,"station_id":"SUD","distance":3186,"i_lat":-6.202263,"station_name":"Sudirman","is_transit":false,"i_long":106.822649},{"i_long":106.819881,"station_id":"SUDB","is_transit":false,"line":1,"time":1,"distance":280,"transit":false,"station_name":"Sudirman Baru","i_lat":-6.201433},{"time":1,"is_transit":false,"i_long":106.816351,"station_id":"KAT","distance":471,"station_name":"Karet","transit":false,"line":1,"i_lat":-6.20132},{"line":1,"distance":2029,"station_id":"THB","i_long":106.811091,"time":5,"is_transit":false,"station_name":"Tanah Abang","i_lat":-6.185545,"transit":false},{"station_id":"DU","line":1,"i_lat":-6.155215,"station_name":"Duri","distance":3632,"i_long":106.800832,"time":8,"transit":false,"is_transit":false},{"i_long":106.79867,"is_transit":false,"distance":1230,"time":4,"line":1,"station_name":"Angke","station_id":"AK","i_lat":-6.144674,"transit":false},{"line":4,"is_transit":false,"station_name":"Kampung Bandan","i_lat":-6.132549,"i_long":106.826365,"transit":false,"station_id":"KPB","distance":4102,"time":9}],[{"is_transit":false,"distance":0,"i_long":106.905196,"station_id":"NMO","line":21,"i_lat":-6.466285,"station_name":"Nambo","transit":false,"time":0},{"i_long":106.851978,"station_id":"CBN","i_lat":-6.46424,"is_transit":false,"line":21,"transit":false,"distance":6527,"time":10,"station_name":"Cibinong"},{"is_transit":false,"transit":false,"station_name":"Pondok Rajeg","distance":0,"station_id":"PDRG","time":0,"i_long":106.824374,"line":21,"i_lat":-6.460735},{"is_transit":true,"time":0,"i_long":106.800298,"transit":true,"i_lat":-6.448811,"distance":0,"line":2,"station_id":"CTA","station_name":"Citayam"},{"is_transit":false,"time":6,"station_name":"Depok","station_id":"DP","line":2,"transit":false,"i_long":106.816926,"i_lat":-6.405256,"distance":5084},{"station_id":"DPB","distance":1584,"transit":false,"line":2,"i_long":106.819451,"station_name":"Depokbaru","time":3,"is_transit":false,"i_lat":-6.391065},{"line":2,"station_id":"POC","is_transit":false,"station_name":"Pondok Cina","i_long":106.831114,"distance":2727,"time":4,"transit":false,"i_lat":-6.369073},{"i_lat":-6.360749,"station_id":"UI","time":2,"line":2,"transit":false,"is_transit":false,"i_long":106.831474,"distance":1109,"station_name":"Univ. Indonesia"},{"station_name":"Univ. Pancasila","i_lat":-6.339291,"i_long":106.834175,"transit":false,"line":2,"time":3,"distance":2264,"is_transit":false,"station_id":"UP"},{"line":2,"i_lat":-6.330363,"i_long":106.832616,"station_id":"LNA","distance":1029,"is_transit":false,"time":2,"transit":false,"station_name":"Lenteng Agung"},{"time":3,"i_lat":-6.3080680000000005,"i_long":106.838896,"distance":2671,"station_name":"Tanjung Barat","transit":false,"is_transit":false,"station_id":"TNT","line":2},{"transit":false,"time":4,"station_id":"PSM","distance":2820,"i_lat":-6.2842400000000005,"station_name":"Pasar Minggu","i_long":106.843999,"is_transit":false,"line":2},{"i_long":106.851577,"line":2,"time":2,"distance":2380,"transit":false,"station_name":"Pasar Minggu Baru","station_id":"PSMB","i_lat":-6.263214,"is_transit":false},{"is_transit":false,"transit":false,"time":2,"distance":824,"i_lat":-6.255332,"station_id":"DRN","i_long":106.85449,"station_name":"Duren Kalibata","line":2},{"is_transit":false,"transit":false,"line":2,"i_long":106.856607,"distance":1546,"station_id":"CW","i_lat":-6.242512,"time":3,"station_name":"Cawang"},{"time":2,"is_transit":false,"station_name":"Tebet","i_lat":-6.226659,"distance":1230,"line":2,"i_long":106.857948,"transit":false,"station_id":"TEB"},{"is_transit":false,"station_name":"Manggarai","distance":2610,"i_long":106.84912,"line":2,"time":4,"i_lat":-6.209883,"station_id":"MRI","transit":false},{"is_transit":false,"i_long":106.840169,"line":2,"station_id":"CKI","transit":false,"time":4,"i_lat":-6.198556,"station_name":"Cikini","distance":1590},{"i_lat":-6.186295,"distance":1750,"line":2,"time":3,"transit":false,"station_name":"Gondangdia","is_transit":false,"i_long":106.832183,"station_id":"GDD"},{"station_id":"JUA","time":4,"transit":false,"station_name":"Juanda","i_long":106.828284,"i_lat":-6.166716,"line":2,"is_transit":false,"distance":2015},{"time":2,"station_id":"SW","distance":1149,"station_name":"Sawah Besar","is_transit":false,"i_lat":-6.160725,"i_long":106.827103,"transit":false,"line":2},{"line":2,"station_id":"MGB","transit":false,"is_transit":false,"time":2,"i_lat":-6.149769,"i_long":106.82482,"distance":906,"station_name":"Manggabesar"},{"transit":false,"station_name":"Jayakarta","line":2,"i_long":106.820901,"time":2,"is_transit":false,"station_id":"JAY","i_lat":-6.141205,"distance":1080},{"station_id":"JAKK","line":2,"distance":1264,"i_long":106.812439,"station_name":"Jakarta Kota","is_transit":true,"transit":true,"i_lat":-6.137569,"time":4},{"i_lat":-6.132549,"station_name":"Kampung Bandan","station_id":"KPB","line":4,"transit":false,"time":3,"i_long":106.826365,"distance":1364,"is_transit":false}],[{"station_id":"NMO","transit":false,"is_transit":false,"distance":0,"station_name":"Nambo","time":0,"i_lat":-6.466285,"line":21,"i_long":106.905196},{"station_name":"Cibinong","i_long":106.851978,"is_transit":false,"line":21,"distance":6527,"station_id":"CBN","time":10,"i_lat":-6.46424,"transit":false},{"distance":0,"i_long":106.824374,"transit":false,"is_transit":false,"station_id":"PDRG","i_lat":-6.460735,"line":21,"time":0,"station_name":"Pondok Rajeg"},{"i_long":106.800298,"station_name":"Citayam","station_id":"CTA","distance":0,"line":2,"is_transit":true,"transit":true,"i_lat":-6.448811,"time":0},{"i_lat":-6.405256,"station_name":"Depok","is_transit":false,"line":2,"transit":false,"i_long":106.816926,"time":6,"station_id":"DP","distance":5084},{"time":3,"transit":false,"is_transit":false,"line":2,"distance":1584,"station_name":"Depokbaru","station_id":"DPB","i_lat":-6.391065,"i_long":106.819451},{"line":2,"time":4,"i_lat":-6.369073,"transit":false,"distance":2727,"is_transit":false,"station_name":"Pondok Cina","station_id":"POC","i_long":106.831114},{"i_long":106.831474,"time":2,"is_transit":false,"station_name":"Univ. Indonesia","transit":false,"distance":1109,"station_id":"UI","line":2,"i_lat":-6.360749},{"is_transit":false,"i_lat":-6.339291,"time":3,"line":2,"station_name":"Univ. Pancasila","distance":2264,"station_id":"UP","transit":false,"i_long":106.834175},{"is_transit":false,"line":2,"station_name":"Lenteng Agung","station_id":"LNA","i_lat":-6.330363,"i_long":106.832616,"time":2,"transit":false,"distance":1029},{"station_id":"TNT","station_name":"Tanjung Barat","time":3,"transit":false,"is_transit":false,"line":2,"distance":2671,"i_lat":-6.3080680000000005,"i_long":106.838896},{"station_id":"PSM","transit":false,"i_lat":-6.2842400000000005,"distance":2820,"line":2,"i_long":106.843999,"time":4,"is_transit":false,"station_name":"Pasar Minggu"},{"station_name":"Pasar Minggu Baru","time":2,"distance":2380,"transit":false,"is_transit":false,"i_lat":-6.263214,"station_id":"PSMB","i_long":106.851577,"line":2},{"time":2,"station_id":"DRN","i_lat":-6.255332,"i_long":106.85449,"distance":824,"transit":false,"station_name":"Duren Kalibata","line":2,"is_transit":false},{"i_long":106.856607,"line":2,"i_lat":-6.242512,"station_id":"CW","transit":false,"time":3,"distance":1546,"is_transit":false,"station_name":"Cawang"},{"time":2,"is_transit":false,"i_long":106.857948,"i_lat":-6.226659,"distance":1230,"station_name":"Tebet","transit":false,"station_id":"TEB","line":2},{"is_transit":true,"station_id":"MRI","time":4,"i_lat":-6.209883,"distance":2610,"line":2,"i_long":106.84912,"transit":true,"station_name":"Manggarai"},{"i_lat":-6.212485,"transit":false,"distance":1275,"station_id":"MTR","i_long":106.858896,"station_name":"Matraman","is_transit":false,"time":2,"line":1},{"is_transit":true,"transit":true,"i_lat":-6.215091,"distance":1377,"station_id":"JNG","i_long":106.86807400000001,"line":1,"station_name":"Jatinegara","time":8},{"station_id":"POK","i_lat":-6.209188,"line":11,"i_long":106.861737,"station_name":"Pondok Jati","transit":false,"is_transit":false,"time":2,"distance":1236},{"time":2,"distance":1829,"i_lat":-6.193792,"station_name":"Kramat","i_long":106.855437,"station_id":"KMT","line":11,"is_transit":false,"transit":false},{"i_long":106.850107,"distance":973,"transit":false,"line":11,"station_name":"Gang Sentiong","station_id":"GST","time":1,"i_lat":-6.185975,"is_transit":false},{"time":8,"transit":false,"station_name":"Pasar Senen","station_id":"PSE","i_lat":-6.174784,"line":11,"i_long":106.84368,"distance":1567,"is_transit":false},{"station_name":"Kemayoran","is_transit":false,"distance":1436,"i_long":106.839204,"station_id":"KMO","i_lat":-6.161728,"time":4,"line":11,"transit":false},{"is_transit":false,"station_name":"Rajawali","distance":1901,"station_id":"RJW","transit":false,"i_lat":-6.14505,"i_long":106.836569,"time":5,"line":11},{"is_transit":false,"station_name":"Kampung Bandan","transit":false,"i_lat":-6.132549,"station_id":"KPB","time":3,"i_long":106.826365,"line":4,"distance":1444}]]}