{"data":[[{"distance":0,"i_lat":-6.466285,"station_name":"Nambo","transit":false,"station_id":"NMO","i_long":106.905196,"line":21,"is_transit":false,"time":0},{"i_long":106.851978,"distance":6527,"i_lat":-6.46424,"line":21,"station_name":"Cibinong","is_transit":false,"transit":false,"station_id":"CBN","time":10},{"i_lat":-6.460735,"line":21,"station_name":"Pondok Rajeg","station_id":"PDRG","is_transit":false,"time":0,"transit":false,"i_long":106.824374,"distance":0},{"i_long":106.800298,"station_id":"CTA","is_transit":true,"station_name":"Citayam","line":2,"transit":true,"time":0,"i_lat":-6.448811,"distance":0},{"station_id":"DP","time":6,"distance":5084,"station_name":"Depok","i_lat":-6.405256,"is_transit":false,"transit":false,"i_long":106.816926,"line":2},{"station_id":"DPB","is_transit":false,"transit":false,"distance":1584,"i_long":106.819451,"time":3,"i_lat":-6.391065,"line":2,"station_name":"Depokbaru"},{"distance":2727,"station_id":"POC","station_name":"Pondok Cina","i_lat":-6.369073,"time":4,"i_long":106.831114,"transit":false,"line":2,"is_transit":false},{"is_transit":false,"station_name":"Univ. Indonesia","transit":false,"station_id":"UI","time":2,"distance":1109,"i_lat":-6.360749,"line":2,"i_long":106.831474},{"line":2,"transit":false,"station_name":"Univ. Pancasila","i_lat":-6.339291,"station_id":"UP","distance":2264,"is_transit":false,"time":3,"i_long":106.834175},{"is_transit":false,"distance":1029,"transit":false,"time":2,"i_long":106.832616,"line":2,"station_id":"LNA","i_lat":-6.330363,"station_name":"Lenteng Agung"},{"station_name":"Tanjung Barat","time":3,"distance":2671,"i_lat":-6.3080680000000005,"line":2,"i_long":106.838896,"transit":false,"station_id":"TNT","is_transit":false},{"is_transit":false,"station_id":"PSM","i_lat":-6.2842400000000005,"time":4,"station_name":"Pasar Minggu","transit":false,"i_long":106.843999,"line":2,"distance":2820},{"time":2,"i_lat":-6.263214,"i_long":106.851577,"distance":2380,"line":2,"is_transit":false,"station_id":"PSMB","transit":false,"station_name":"Pasar Minggu Baru"},{"station_name":"Duren Kalibata","is_transit":false,"i_long":106.85449,"transit":false,"station_id":"DRN","time":2,"distance":824,"i_lat":-6.255332,"line":2},{"i_long":106.856607,"transit":false,"distance":1546,"station_id":"CW","line":2,"is_transit":false,"i_lat":-6.242512,"station_name":"Cawang","time":3},{"is_transit":false,"transit":false,"i_lat":-6.226659,"time":2,"distance":1230,"station_name":"Tebet","i_long":106.857948,"station_id":"TEB","line":2},{"i_lat":-6.209883,"transit":false,"is_transit":false,"line":2,"time":4,"i_long":106.84912,"distance":2610,"station_name":"Manggarai","station_id":"MRI"},{"distance":1590,"station_name":"Cikini","i_lat":-6.198556,"station_id":"CKI","time":4,"line":2,"transit":false,"i_long":106.840169,"is_transit":false}],[{"is_transit":false,"i_lat":-6.466285,"station_id":"NMO","transit":false,"station_name":"Nambo","time":0,"distance":0,"line":21,"i_long":106.905196},{"station_id":"CBN","transit":false,"is_transit":false,"time":10,"i_lat":-6.46424,"line":21,"distance":6527,"i_long":106.851978,"station_name":"Cibinong"},{"i_long":106.824374,"distance":0,"line":21,"time":0,"station_name":"Pondok Rajeg","transit":false,"is_transit":false,"i_lat":-6.460735,"station_id":"PDRG"},{"transit":true,"station_name":"Citayam","station_id":"CTA","is_transit":true,"i_lat":-6.448811,"line":2,"distance":0,"i_long":106.800298,"time":0},{"is_transit":false,"time":6,"line":2,"transit":false,"station_name":"Depok","station_id":"DP","i_lat":-6.405256,"i_long":106.816926,"distance":5084},{"is_transit":false,"distance":1584,"i_long":106.819451,"time":3,"line":2,"transit":false,"station_name":"Depokbaru","i_lat":-6.391065,"station_id":"DPB"},{"station_name":"Pondok Cina","distance":2727,"line":2,"station_id":"POC","time":4,"is_transit":false,"transit":false,"i_lat":-6.369073,"i_long":106.831114},{"transit":false,"i_lat":-6.360749,"distance":1109,"is_transit":false,"i_long":106.831474,"station_id":"UI","time":2,"station_name":"Univ. Indonesia","line":2},{"i_long":106.834175,"station_id":"UP","i_lat":-6.339291,"line":2,"station_name":"Univ. Pancasila","transit":false,"is_transit":false,"time":3,"distance":2264},{"time":2,"line":2,"distance":1029,"station_id":"LNA","i_lat":-6.330363,"is_transit":false,"transit":false,"station_name":"Lenteng Agung","i_long":106.832616},{"i_lat":-6.3080680000000005,"i_long":106.838896,"transit":false,"line":2,"station_name":"Tanjung Barat","station_id":"TNT","is_transit":false,"time":3,"distance":2671},{"station_name":"Pasar Minggu","station_id":"PSM","distance":2820,"transit":false,"i_long":106.843999,"line":2,"time":4,"i_lat":-6.2842400000000005,"is_transit":false},{"time":2,"station_id":"PSMB","distance":2380,"i_lat":-6.263214,"transit":false,"is_transit":false,"line":2,"i_long":106.851577,"station_name":"Pasar Minggu Baru"},{"distance":824,"i_lat":-6.255332,"i_long":106.85449,"line":2,"transit":false,"station_id":"DRN","time":2,"station_name":"Duren Kalibata","is_transit":false},{"station_id":"CW","is_transit":false,"distance":1546,"transit":false,"station_name":"Cawang","time":3,"i_long":106.856607,"line":2,"i_lat":-6.242512},{"transit":false,"station_name":"Tebet","is_transit":false,"time":2,"distance":1230,"i_lat":-6.226659,"i_long":106.857948,"line":2,"station_id":"TEB"},{"line":2,"distance":2610,"i_long":106.84912,"transit":true,"station_id":"MRI","station_name":"Manggarai","time":4,"i_lat":-6.209883,"is_transit":true},{"line":1,"i_long":106.822649,"station_name":"Sudirman","station_id":"SUD","i_lat":-6.202263,"distance":3186,"transit":false,"is_transit":false,"time":4},{"time":1,"station_name":"Sudirman Baru","i_long":106.819881,"line":1,"i_lat":-6.201433,"transit":false,"is_transit":false,"distance":280,"station_id":"SUDB"},{"i_long":106.816351,"transit":false,"distance":471,"line":1,"station_id":"KAT","i_lat":-6.20132,"station_name":"Karet","is_transit":false,"time":1},{"distance":2029,"i_lat":-6.185545,"is_transit":false,"station_name":"Tanah Abang","station_id":"THB","line":1,"i_long":106.811091,"transit":false,"time":5},{"line":1,"is_transit":false,"transit":false,"station_name":"Duri","distance":3632,"station_id":"DU","i_long":106.800832,"i_lat":-6.155215,"time":8},{"station_name":"Angke","distance":1230,"time":4,"transit":false,"station_id":"AK","i_long":106.79867,"line":1,"i_lat":-6.144674,"is_transit":false},{"distance":4102,"is_transit":true,"i_long":106.826365,"station_id":"KPB","transit":true,"time":9,"i_lat":-6.132549,"line":4,"station_name":"Kampung Bandan"},{"time":3,"i_lat":-6.137569,"distance":1364,"i_long":106.812439,"station_name":"Jakarta Kota","station_id":"JAKK","transit":true,"is_transit":true,"line":2},{"transit":false,"distance":1264,"station_id":"JAY","i_long":106.820901,"line":2,"station_name":"Jayakarta","is_transit":false,"time":4,"i_lat":-6.141205},{"distance":1080,"station_name":"Manggabesar","i_lat":-6.149769,"time":2,"is_transit":false,"i_long":106.82482,"transit":false,"line":2,"station_id":"MGB"},{"transit":false,"i_long":106.827103,"station_name":"Sawah Besar","is_transit":false,"station_id":"SW","time":2,"distance":906,"line":2,"i_lat":-6.160725},{"is_transit":false,"line":2,"station_id":"JUA","transit":false,"i_long":106.828284,"station_name":"Juanda","time":2,"distance":1149,"i_lat":-6.166716},{"i_lat":-6.186295,"is_transit":false,"i_long":106.832183,"time":4,"distance":2015,"transit":false,"station_name":"Gondangdia","station_id":"GDD","line":2},{"line":2,"station_id":"CKI","is_transit":false,"time":3,"transit":false,"station_name":"Cikini","i_lat":-6.198556,"i_long":106.840169,"distance":1750}],[{"line":21,"time":0,"transit":false,"i_long":106.905196,"station_name":"Nambo","station_id":"NMO","distance":0,"i_lat":-6.466285,"is_transit":false},{"i_lat":-6.46424,"line":21,"time":10,"station_id":"CBN","distance":6527,"i_long":106.851978,"station_name":"Cibinong","transit":false,"is_transit":false},{"i_long":106.824374,"transit":false,"station_id":"PDRG","distance":0,"is_transit":false,"line":21,"time":0,"station_name":"Pondok Rajeg","i_lat":-6.460735},{"transit":true,"distance":0,"station_name":"Citayam","i_lat":-6.448811,"i_long":106.800298,"line":2,"is_transit":true,"station_id":"CTA","time":0},{"distance":5084,"station_name":"Depok","station_id":"DP","time":6,"is_transit":false,"i_long":106.816926,"line":2,"transit":false,"i_lat":-6.405256},{"line":2,"station_id":"DPB","transit":false,"is_transit":false,"station_name":"Depokbaru","distance":1584,"i_lat":-6.391065,"i_long":106.819451,"time":3},{"is_transit":false,"transit":false,"distance":2727,"i_lat":-6.369073,"i_long":106.831114,"station_name":"Pondok Cina","station_id":"POC","time":4,"line":2},{"is_transit":false,"station_id":"UI","station_name":"Univ. Indonesia","i_lat":-6.360749,"i_long":106.831474,"distance":1109,"transit":false,"line":2,"time":2},{"time":3,"station_id":"UP","station_name":"Univ. Pancasila","distance":2264,"is_transit":false,"i_lat":-6.339291,"transit":false,"i_long":106.834175,"line":2},{"distance":1029,"transit":false,"time":2,"is_transit":false,"i_long":106.832616,"line":2,"station_name":"Lenteng Agung","station_id":"LNA","i_lat":-6.330363},{"station_name":"Tanjung Barat","distance":2671,"station_id":"TNT","is_transit":false,"i_lat":-6.3080680000000005,"time":3,"line":2,"i_long":106.838896,"transit":false},{"transit":false,"i_lat":-6.2842400000000005,"line":2,"station_id":"PSM","time":4,"is_transit":false,"station_name":"Pasar Minggu","distance":2820,"i_long":106.843999},{"time":2,"is_transit":false,"station_id":"PSMB","distance":2380,"transit":false,"i_lat":-6.263214,"i_long":106.851577,"line":2,"station_name":"Pasar Minggu Baru"},{"is_transit":false,"station_id":"DRN","distance":824,"transit":false,"i_long":106.85449,"line":2,"i_lat":-6.255332,"time":2,"station_name":"Duren Kalibata"},{"time":3,"station_name":"Cawang","distance":1546,"transit":false,"line":2,"i_lat":-6.242512,"is_transit":false,"station_id":"CW","i_long":106.856607},{"station_id":"TEB","transit":false,"is_transit":false,"time":2,"station_name":"Tebet","i_long":106.857948,"line":2,"distance":1230,"i_lat":-6.226659},{"time":4,"i_lat":-6.209883,"station_name":"Manggarai","station_id":"MRI","distance":2610,"transit":true,"line":2,"is_transit":true,"i_long":106.84912},{"time":2,"distance":1275,"i_lat":-6.212485,"transit":false,"station_name":"Matraman","is_transit":false,"station_id":"MTR","i_long":106.858896,"line":1},{"transit":true,"station_name":"Jatinegara","i_long":106.86807400000001,"i_lat":-6.215091,"line":1,"is_transit":true,"station_id":"JNG","time":8,"distance":1377},{"distance":1236,"line":11,"transit":false,"i_long":106.861737,"station_id":"POK","is_transit":false,"station_name":"Pondok Jati","i_lat":-6.209188,"time":2},{"station_name":"Kramat","station_id":"KMT","i_long":106.855437,"i_lat":-6.193792,"line":11,"distance":1829,"transit":false,"is_transit":false,"time":2},{"distance":973,"line":11,"transit":false,"station_id":"GST","is_transit":false,"i_lat":-6.185975,"station_name":"Gang Sentiong","time":1,"i_long":106.850107},{"distance":1567,"line":11,"is_transit":false,"transit":false,"i_lat":-6.174784,"time":8,"station_id":"PSE","station_name":"Pasar Senen","i_long":106.84368},{"is_transit":false,"time":4,"i_lat":-6.161728,"i_long":106.839204,"distance":1436,"line":11,"transit":false,"station_name":"Kemayoran","station_id":"KMO"},{"i_long":106.836569,"time":5,"station_id":"RJW","line":11,"i_lat":-6.14505,"station_name":"Rajawali","transit":false,"is_transit":false,"distance":1901},{"distance":1444,"station_name":"Kampung Bandan","i_long":106.826365,"station_id":"KPB","line":4,"transit":true,"is_transit":true,"time":3,"i_lat":-6.132549},{"i_long":106.812439,"time":3,"line":2,"i_lat":-6.137569,"is_transit":true,"distance":1364,"station_name":"Jakarta Kota","station_id":"JAKK","transit":true},{"station_name":"Jayakarta","is_transit":false,"i_long":106.820901,"i_lat":-6.141205,"line":2,"transit":false,"time":4,"distance":1264,"station_id":"JAY"},{"distance":1080,"line":2,"i_long":106.82482,"transit":false,"station_name":"Manggabesar","is_transit":false,"time":2,"i_lat":-6.149769,"station_id":"MGB"},{"i_lat":-6.160725,"station_id":"SW","time":2,"i_long":106.827103,"station_name":"Sawah Besar","distance":906,"transit":false,"is_transit":false,"line":2},{"is_transit":false,"time":2,"i_long":106.828284,"station_name":"Juanda","i_lat":-6.166716,"station_id":"JUA","transit":false,"distance":1149,"line":2},{"station_name":"Gondangdia","distance":2015,"i_long":106.832183,"transit":false,"line":2,"is_transit":false,"time":4,"station_id":"GDD","i_lat":-6.186295},{"transit":false,"line":2,"i_long":106.840169,"is_transit":false,"i_lat":-6.198556,"time":3,"distance":1750,"station_id":"CKI","station_name":"Cikini"}]]}