{"data":[[{"i_long":106.74273,"line":6,"time":0,"distance":0,"i_lat":-6.276362,"station_id":"PDJ","transit":false,"station_name":"Pondokranji","is_transit":false},{"time":8,"i_long":106.780334,"line":6,"station_id":"KBY","transit":false,"station_name":"Kebayoran","is_transit":false,"distance":6218,"i_lat":-6.237242},{"transit":false,"is_transit":false,"time":7,"station_name":"Palmerah","i_long":106.79689,"i_lat":-6.207404,"station_id":"PLM","distance":3737,"line":6},{"time":6,"station_id":"THB","i_long":106.811091,"i_lat":-6.185545,"is_transit":true,"transit":true,"distance":3191,"station_name":"Tanah Abang","line":1},{"time":5,"distance":2029,"station_name":"Karet","i_long":106.816351,"line":1,"transit":false,"is_transit":false,"station_id":"KAT","i_lat":-6.20132},{"line":1,"transit":false,"i_lat":-6.201433,"time":1,"is_transit":false,"distance":471,"station_name":"Sudirman Baru","station_id":"SUDB","i_long":106.819881},{"transit":false,"station_name":"Sudirman","distance":280,"i_long":106.822649,"is_transit":false,"time":1,"station_id":"SUD","i_lat":-6.202263,"line":1},{"time":4,"distance":3186,"station_id":"MRI","transit":false,"line":0,"i_long":106.84912,"i_lat":-6.209883,"is_transit":true,"station_name":"Manggarai"}],[{"i_long":106.74273,"station_id":"PDJ","line":6,"i_lat":-6.276362,"transit":false,"time":0,"distance":0,"is_transit":false,"station_name":"Pondokranji"},{"time":8,"i_lat":-6.237242,"station_name":"Kebayoran","station_id":"KBY","transit":false,"i_long":106.780334,"distance":6218,"line":6,"is_transit":false},{"i_lat":-6.207404,"is_transit":false,"line":6,"station_name":"Palmerah","station_id":"PLM","transit":false,"i_long":106.79689,"distance":3737,"time":7},{"is_transit":true,"station_id":"THB","i_lat":-6.185545,"i_long":106.811091,"station_name":"Tanah Abang","time":6,"distance":3191,"line":1,"transit":true},{"station_id":"DU","is_transit":true,"i_lat":-6.155215,"i_long":106.800832,"distance":3632,"station_name":"Duri","time":8,"transit":true,"line":1},{"distance":1230,"is_transit":false,"time":4,"station_id":"AK","i_lat":-6.144674,"station_name":"Angke","i_long":106.79867,"line":0,"transit":false},{"i_long":106.826365,"transit":false,"is_transit":true,"station_name":"Kampung Bandan","time":9,"line":0,"station_id":"KPB","distance":4102,"i_lat":-6.132549},{"station_name":"Jakarta Kota","distance":1364,"i_lat":-6.137569,"station_id":"JAKK","transit":true,"is_transit":true,"time":3,"i_long":106.812439,"line":0},{"station_name":"Jayakarta","distance":1264,"transit":false,"is_transit":false,"time":4,"i_long":106.820901,"i_lat":-6.141205,"line":7,"station_id":"JAY"},{"station_id":"MGB","distance":1080,"i_lat":-6.149769,"line":2,"station_name":"Manggabesar","is_transit":false,"time":2,"i_long":106.82482,"transit":false},{"i_lat":-6.160725,"station_name":"Sawah Besar","is_transit":false,"transit":false,"i_long":106.827103,"line":2,"time":2,"distance":906,"station_id":"SW"},{"line":2,"time":2,"station_name":"Juanda","i_lat":-6.166716,"i_long":106.828284,"transit":false,"station_id":"JUA","distance":1149,"is_transit":false},{"i_long":106.832183,"line":2,"i_lat":-6.186295,"transit":false,"time":4,"station_name":"Gondangdia","is_transit":false,"station_id":"GDD","distance":2015},{"line":0,"station_id":"CKI","distance":1750,"i_long":106.840169,"is_transit":false,"transit":false,"station_name":"Cikini","time":3,"i_lat":-6.198556},{"station_name":"Manggarai","is_transit":true,"transit":false,"i_lat":-6.209883,"i_long":106.84912,"distance":1590,"time":4,"station_id":"MRI","line":0}],[{"line":6,"station_id":"PDJ","transit":false,"time":0,"is_transit":false,"station_name":"Pondokranji","distance":0,"i_lat":-6.276362,"i_long":106.74273},{"transit":false,"is_transit":false,"station_name":"Kebayoran","station_id":"KBY","i_long":106.780334,"line":6,"time":8,"i_lat":-6.237242,"distance":6218},{"station_name":"Palmerah","i_lat":-6.207404,"i_long":106.79689,"line":6,"time":7,"station_id":"PLM","transit":false,"is_transit":false,"distance":3737},{"time":6,"station_name":"Tanah Abang","distance":3191,"i_long":106.811091,"station_id":"THB","line":1,"transit":true,"is_transit":true,"i_lat":-6.185545},{"station_id":"DU","line":1,"is_transit":true,"time":8,"distance":3632,"station_name":"Duri","transit":true,"i_lat":-6.155215,"i_long":106.800832},{"line":0,"transit":false,"station_name":"Angke","time":4,"distance":1230,"i_long":106.79867,"station_id":"AK","is_transit":false,"i_lat":-6.144674},{"i_long":106.826365,"transit":true,"distance":4102,"line":0,"time":9,"station_id":"KPB","is_transit":true,"station_name":"Kampung Bandan","i_lat":-6.132549},{"is_transit":false,"distance":1444,"station_name":"Rajawali","station_id":"RJW","i_lat":-6.14505,"i_long":106.836569,"transit":false,"time":3,"line":11},{"transit":false,"i_long":106.839204,"time":5,"station_name":"Kemayoran","line":11,"is_transit":false,"distance":1901,"station_id":"KMO","i_lat":-6.161728},{"station_id":"PSE","transit":false,"time":4,"i_long":106.84368,"station_name":"Pasar Senen","i_lat":-6.174784,"line":11,"distance":1436,"is_transit":false},{"distance":1567,"station_id":"GST","time":8,"station_name":"Gang Sentiong","i_long":106.850107,"is_transit":false,"i_lat":-6.185975,"line":11,"transit":false},{"time":1,"distance":973,"station_name":"Kramat","i_lat":-6.193792,"line":11,"i_long":106.855437,"station_id":"KMT","is_transit":false,"transit":false},{"station_name":"Pondok Jati","distance":1829,"i_lat":-6.209188,"line":11,"i_long":106.861737,"is_transit":false,"station_id":"POK","time":2,"transit":false},{"i_long":106.86807400000001,"distance":1236,"transit":true,"is_transit":true,"time":9,"station_name":"Jatinegara","station_id":"JNG","i_lat":-6.215091,"line":0},{"station_id":"MTR","time":2,"station_name":"Matraman","i_lat":-6.212485,"i_long":106.858896,"transit":false,"is_transit":false,"line":1,"distance":1377},{"station_name":"Manggarai","transit":false,"time":2,"i_long":106.84912,"is_transit":true,"i_lat":-6.209883,"distance":1275,"station_id":"MRI","line":0}]]}