{"data":[[{"line":6,"station_id":"PDJ","i_lat":-6.276362,"time":0,"transit":false,"i_long":106.74273,"is_transit":false,"distance":0,"station_name":"Pondokranji"},{"distance":6218,"time":8,"station_name":"Kebayoran","station_id":"KBY","i_lat":-6.237242,"i_long":106.780334,"is_transit":false,"line":6,"transit":false},{"distance":3737,"transit":false,"station_name":"Palmerah","line":6,"station_id":"PLM","is_transit":false,"i_long":106.79689,"i_lat":-6.207404,"time":7},{"transit":true,"distance":3191,"station_name":"Tanah Abang","line":1,"time":6,"is_transit":true,"i_long":106.811091,"station_id":"THB","i_lat":-6.185545},{"station_name":"Karet","is_transit":false,"i_lat":-6.20132,"station_id":"KAT","i_long":106.816351,"line":1,"distance":2029,"transit":false,"time":5},{"station_id":"SUDB","is_transit":false,"transit":false,"i_lat":-6.201433,"distance":471,"time":1,"i_long":106.819881,"line":1,"station_name":"Sudirman Baru"},{"station_name":"Sudirman","is_transit":false,"i_long":106.822649,"station_id":"SUD","transit":false,"distance":280,"i_lat":-6.202263,"line":1,"time":1},{"transit":true,"is_transit":true,"distance":3186,"station_name":"Manggarai","station_id":"MRI","line":2,"time":4,"i_long":106.84912,"i_lat":-6.209883},{"i_long":106.857948,"is_transit":false,"station_id":"TEB","transit":false,"time":4,"distance":2610,"station_name":"Tebet","line":2,"i_lat":-6.226659},{"station_name":"Cawang","i_long":106.856607,"line":2,"station_id":"CW","transit":false,"is_transit":false,"distance":1230,"i_lat":-6.242512,"time":2},{"station_id":"DRN","time":3,"distance":1546,"line":2,"i_lat":-6.255332,"station_name":"Duren Kalibata","transit":false,"is_transit":false,"i_long":106.85449},{"i_long":106.851577,"station_name":"Pasar Minggu Baru","time":2,"line":2,"distance":824,"i_lat":-6.263214,"transit":false,"station_id":"PSMB","is_transit":false},{"line":2,"station_name":"Pasar Minggu","station_id":"PSM","transit":false,"distance":2380,"is_transit":false,"i_lat":-6.2842400000000005,"i_long":106.843999,"time":2},{"line":2,"is_transit":false,"time":4,"station_id":"TNT","station_name":"Tanjung Barat","transit":false,"distance":2820,"i_lat":-6.3080680000000005,"i_long":106.838896},{"i_lat":-6.330363,"i_long":106.832616,"is_transit":false,"line":2,"transit":false,"station_name":"Lenteng Agung","distance":2671,"station_id":"LNA","time":3},{"i_lat":-6.339291,"i_long":106.834175,"time":2,"is_transit":false,"station_name":"Univ. Pancasila","line":2,"station_id":"UP","distance":1029,"transit":false},{"distance":2264,"time":3,"i_long":106.831474,"is_transit":false,"station_name":"Univ. Indonesia","transit":false,"station_id":"UI","line":2,"i_lat":-6.360749},{"station_name":"Pondok Cina","line":2,"time":2,"distance":1109,"is_transit":false,"station_id":"POC","i_long":106.831114,"transit":false,"i_lat":-6.369073},{"i_long":106.819451,"i_lat":-6.391065,"time":4,"line":2,"transit":false,"station_id":"DPB","station_name":"Depokbaru","distance":2727,"is_transit":false},{"i_lat":-6.405256,"station_id":"DP","is_transit":false,"distance":1584,"line":2,"transit":false,"station_name":"Depok","i_long":106.816926,"time":3}],[{"i_long":106.74273,"time":0,"transit":false,"line":6,"station_id":"PDJ","distance":0,"station_name":"Pondokranji","is_transit":false,"i_lat":-6.276362},{"station_name":"Kebayoran","transit":false,"line":6,"distance":6218,"is_transit":false,"station_id":"KBY","i_lat":-6.237242,"i_long":106.780334,"time":8},{"station_name":"Palmerah","i_long":106.79689,"distance":3737,"line":6,"station_id":"PLM","transit":false,"time":7,"is_transit":false,"i_lat":-6.207404},{"distance":3191,"station_id":"THB","i_lat":-6.185545,"line":1,"is_transit":true,"transit":true,"i_long":106.811091,"station_name":"Tanah Abang","time":6},{"station_id":"DU","station_name":"Duri","i_lat":-6.155215,"time":8,"i_long":106.800832,"transit":false,"is_transit":false,"line":1,"distance":3632},{"transit":false,"line":1,"time":4,"distance":1230,"is_transit":false,"i_lat":-6.144674,"i_long":106.79867,"station_id":"AK","station_name":"Angke"},{"i_lat":-6.132549,"transit":true,"time":9,"is_transit":true,"i_long":106.826365,"station_name":"Kampung Bandan","line":4,"station_id":"KPB","distance":4102},{"i_lat":-6.137569,"line":2,"transit":true,"i_long":106.812439,"station_id":"JAKK","distance":1364,"station_name":"Jakarta Kota","time":3,"is_transit":true},{"line":2,"i_long":106.820901,"transit":false,"is_transit":false,"station_id":"JAY","station_name":"Jayakarta","i_lat":-6.141205,"time":4,"distance":1264},{"time":2,"station_name":"Manggabesar","distance":1080,"i_lat":-6.149769,"line":2,"station_id":"MGB","i_long":106.82482,"transit":false,"is_transit":false},{"is_transit":false,"station_name":"Sawah Besar","i_long":106.827103,"line":2,"time":2,"transit":false,"station_id":"SW","distance":906,"i_lat":-6.160725},{"is_transit":false,"station_name":"Juanda","i_long":106.828284,"transit":false,"time":2,"distance":1149,"line":2,"i_lat":-6.166716,"station_id":"JUA"},{"line":2,"transit":false,"i_lat":-6.186295,"station_name":"Gondangdia","station_id":"GDD","is_transit":false,"distance":2015,"i_long":106.832183,"time":4},{"station_name":"Cikini","station_id":"CKI","is_transit":false,"i_lat":-6.198556,"transit":false,"i_long":106.840169,"time":3,"distance":1750,"line":2},{"transit":false,"station_id":"MRI","station_name":"Manggarai","is_transit":false,"distance":1590,"line":2,"i_long":106.84912,"time":4,"i_lat":-6.209883},{"time":4,"distance":2610,"transit":false,"is_transit":false,"station_name":"Tebet","i_lat":-6.226659,"station_id":"TEB","i_long":106.857948,"line":2},{"distance":1230,"i_lat":-6.242512,"line":2,"is_transit":false,"station_name":"Cawang","transit":false,"time":2,"i_long":106.856607,"station_id":"CW"},{"line":2,"distance":1546,"transit":false,"time":3,"i_long":106.85449,"station_name":"Duren Kalibata","station_id":"DRN","is_transit":false,"i_lat":-6.255332},{"time":2,"transit":false,"station_id":"PSMB","distance":824,"is_transit":false,"line":2,"station_name":"Pasar Minggu Baru","i_lat":-6.263214,"i_long":106.851577},{"distance":2380,"is_transit":false,"station_name":"Pasar Minggu","line":2,"i_lat":-6.2842400000000005,"time":2,"transit":false,"i_long":106.843999,"station_id":"PSM"},{"station_id":"TNT","time":4,"transit":false,"distance":2820,"station_name":"Tanjung Barat","i_long":106.838896,"i_lat":-6.3080680000000005,"is_transit":false,"line":2},{"distance":2671,"transit":false,"is_transit":false,"line":2,"i_long":106.832616,"time":3,"station_id":"LNA","station_name":"Lenteng Agung","i_lat":-6.330363},{"time":2,"line":2,"station_id":"UP","is_transit":false,"i_lat":-6.339291,"i_long":106.834175,"station_name":"Univ. Pancasila","distance":1029,"transit":false},{"i_lat":-6.360749,"is_transit":false,"line":2,"transit":false,"station_name":"Univ. Indonesia","station_id":"UI","i_long":106.831474,"time":3,"distance":2264},{"time":2,"distance":1109,"station_id":"POC","station_name":"Pondok Cina","i_long":106.831114,"is_transit":false,"transit":false,"i_lat":-6.369073,"line":2},{"time":4,"is_transit":false,"station_id":"DPB","transit":false,"distance":2727,"station_name":"Depokbaru","i_long":106.819451,"i_lat":-6.391065,"line":2},{"station_id":"DP","is_transit":false,"time":3,"i_lat":-6.405256,"i_long":106.816926,"line":2,"distance":1584,"station_name":"Depok","transit":false}],[{"time":0,"line":6,"i_long":106.74273,"is_transit":false,"station_id":"PDJ","transit":false,"distance":0,"station_name":"Pondokranji","i_lat":-6.276362},{"time":8,"station_id":"KBY","is_transit":false,"i_lat":-6.237242,"transit":false,"station_name":"Kebayoran","i_long":106.780334,"distance":6218,"line":6},{"transit":false,"time":7,"is_transit":false,"station_name":"Palmerah","i_long":106.79689,"i_lat":-6.207404,"station_id":"PLM","distance":3737,"line":6},{"time":6,"i_lat":-6.185545,"station_name":"Tanah Abang","station_id":"THB","distance":3191,"i_long":106.811091,"line":1,"transit":true,"is_transit":true},{"distance":3632,"i_long":106.800832,"i_lat":-6.155215,"station_name":"Duri","time":8,"station_id":"DU","transit":false,"is_transit":false,"line":1},{"is_transit":false,"line":1,"station_name":"Angke","time":4,"transit":false,"station_id":"AK","i_lat":-6.144674,"i_long":106.79867,"distance":1230},{"i_long":106.826365,"station_id":"KPB","i_lat":-6.132549,"time":9,"transit":true,"distance":4102,"is_transit":true,"line":4,"station_name":"Kampung Bandan"},{"station_name":"Rajawali","transit":false,"distance":1444,"is_transit":false,"i_lat":-6.14505,"i_long":106.836569,"line":11,"station_id":"RJW","time":3},{"is_transit":false,"line":11,"transit":false,"i_long":106.839204,"time":5,"i_lat":-6.161728,"station_id":"KMO","station_name":"Kemayoran","distance":1901},{"line":11,"time":4,"transit":false,"is_transit":false,"station_name":"Pasar Senen","i_lat":-6.174784,"distance":1436,"station_id":"PSE","i_long":106.84368},{"distance":1567,"station_id":"GST","station_name":"Gang Sentiong","is_transit":false,"i_lat":-6.185975,"line":11,"transit":false,"time":8,"i_long":106.850107},{"line":11,"transit":false,"time":1,"station_id":"KMT","i_lat":-6.193792,"distance":973,"i_long":106.855437,"is_transit":false,"station_name":"Kramat"},{"i_long":106.861737,"station_name":"Pondok Jati","line":11,"station_id":"POK","transit":false,"i_lat":-6.209188,"time":2,"distance":1829,"is_transit":false},{"transit":true,"station_name":"Jatinegara","i_lat":-6.215091,"i_long":106.86807400000001,"distance":1236,"line":1,"is_transit":true,"time":9,"station_id":"JNG"},{"station_name":"Matraman","transit":false,"i_lat":-6.212485,"is_transit":false,"station_id":"MTR","i_long":106.858896,"distance":1377,"line":1,"time":2},{"distance":1275,"transit":true,"station_name":"Manggarai","line":2,"i_long":106.84912,"station_id":"MRI","i_lat":-6.209883,"time":2,"is_transit":true},{"distance":2610,"is_transit":false,"i_long":106.857948,"time":4,"transit":false,"i_lat":-6.226659,"line":2,"station_id":"TEB","station_name":"Tebet"},{"time":2,"station_name":"Cawang","i_long":106.856607,"distance":1230,"line":2,"i_lat":-6.242512,"transit":false,"station_id":"CW","is_transit":false},{"i_long":106.85449,"station_id":"DRN","distance":1546,"time":3,"transit":false,"is_transit":false,"station_name":"Duren Kalibata","i_lat":-6.255332,"line":2},{"distance":824,"station_name":"Pasar Minggu Baru","time":2,"line":2,"station_id":"PSMB","i_long":106.851577,"is_transit":false,"transit":false,"i_lat":-6.263214},{"transit":false,"i_long":106.843999,"time":2,"is_transit":false,"line":2,"station_id":"PSM","distance":2380,"station_name":"Pasar Minggu","i_lat":-6.2842400000000005},{"i_long":106.838896,"transit":false,"time":4,"line":2,"distance":2820,"station_name":"Tanjung Barat","station_id":"TNT","i_lat":-6.3080680000000005,"is_transit":false},{"i_lat":-6.330363,"line":2,"time":3,"station_name":"Lenteng Agung","transit":false,"station_id":"LNA","distance":2671,"is_transit":false,"i_long":106.832616},{"transit":false,"i_lat":-6.339291,"time":2,"station_name":"Univ. Pancasila","station_id":"UP","line":2,"is_transit":false,"distance":1029,"i_long":106.834175},{"line":2,"i_long":106.831474,"time":3,"transit":false,"distance":2264,"station_name":"Univ. Indonesia","station_id":"UI","is_transit":false,"i_lat":-6.360749},{"station_name":"Pondok Cina","i_lat":-6.369073,"transit":false,"station_id":"POC","line":2,"distance":1109,"is_transit":false,"time":2,"i_long":106.831114},{"is_transit":false,"station_id":"DPB","time":4,"transit":false,"station_name":"Depokbaru","i_long":106.819451,"distance":2727,"i_lat":-6.391065,"line":2},{"time":3,"transit":false,"is_transit":false,"i_long":106.816926,"line":2,"station_id":"DP","distance":1584,"station_name":"Depok","i_lat":-6.405256}]]}