{"data":[[{"i_lat":-6.276362,"station_id":"PDJ","i_long":106.74273,"is_transit":false,"line":6,"distance":0,"transit":false,"time":0,"station_name":"Pondokranji"},{"line":6,"i_long":106.780334,"i_lat":-6.237242,"station_name":"Kebayoran","transit":false,"is_transit":false,"station_id":"KBY","distance":6218,"time":8},{"i_lat":-6.207404,"station_name":"Palmerah","is_transit":false,"i_long":106.79689,"time":7,"station_id":"PLM","transit":false,"line":6,"distance":3737},{"transit":true,"station_name":"Tanah Abang","i_long":106.811091,"line":1,"is_transit":true,"i_lat":-6.185545,"time":6,"distance":3191,"station_id":"THB"},{"is_transit":true,"i_long":106.800832,"time":8,"line":1,"station_id":"DU","station_name":"Duri","transit":true,"i_lat":-6.155215,"distance":3632},{"time":4,"i_long":106.79867,"distance":1230,"is_transit":false,"station_id":"AK","i_lat":-6.144674,"transit":false,"line":0,"station_name":"Angke"},{"i_long":106.826365,"station_id":"KPB","is_transit":true,"i_lat":-6.132549,"transit":true,"time":9,"station_name":"Kampung Bandan","line":0,"distance":4102},{"time":3,"line":11,"is_transit":false,"i_lat":-6.14505,"station_id":"RJW","station_name":"Rajawali","transit":false,"distance":1444,"i_long":106.836569}],[{"transit":false,"line":6,"is_transit":false,"i_lat":-6.276362,"time":0,"station_name":"Pondokranji","i_long":106.74273,"station_id":"PDJ","distance":0},{"station_name":"Kebayoran","transit":false,"line":6,"i_lat":-6.237242,"distance":6218,"is_transit":false,"time":8,"station_id":"KBY","i_long":106.780334},{"station_name":"Palmerah","time":7,"transit":false,"distance":3737,"line":6,"is_transit":false,"i_long":106.79689,"station_id":"PLM","i_lat":-6.207404},{"i_lat":-6.185545,"station_id":"THB","station_name":"Tanah Abang","time":6,"is_transit":true,"transit":true,"distance":3191,"i_long":106.811091,"line":1},{"station_id":"KAT","station_name":"Karet","distance":2029,"time":5,"is_transit":false,"transit":false,"line":1,"i_lat":-6.20132,"i_long":106.816351},{"time":1,"is_transit":false,"i_lat":-6.201433,"station_id":"SUDB","line":1,"transit":false,"station_name":"Sudirman Baru","distance":471,"i_long":106.819881},{"is_transit":false,"station_name":"Sudirman","time":1,"transit":false,"distance":280,"i_lat":-6.202263,"i_long":106.822649,"line":1,"station_id":"SUD"},{"line":0,"station_id":"MRI","time":4,"is_transit":true,"transit":false,"distance":3186,"station_name":"Manggarai","i_lat":-6.209883,"i_long":106.84912},{"line":1,"time":2,"station_name":"Matraman","i_lat":-6.212485,"distance":1275,"is_transit":false,"transit":false,"i_long":106.858896,"station_id":"MTR"},{"station_name":"Jatinegara","transit":true,"i_lat":-6.215091,"i_long":106.86807400000001,"distance":1377,"time":8,"station_id":"JNG","line":0,"is_transit":true},{"i_lat":-6.209188,"i_long":106.861737,"time":2,"is_transit":false,"station_name":"Pondok Jati","distance":1236,"station_id":"POK","line":11,"transit":false},{"line":11,"transit":false,"time":2,"station_name":"Kramat","i_long":106.855437,"distance":1829,"station_id":"KMT","is_transit":false,"i_lat":-6.193792},{"transit":false,"i_long":106.850107,"station_id":"GST","is_transit":false,"station_name":"Gang Sentiong","time":1,"distance":973,"i_lat":-6.185975,"line":11},{"time":8,"station_name":"Pasar Senen","transit":false,"i_lat":-6.174784,"distance":1567,"line":11,"is_transit":false,"i_long":106.84368,"station_id":"PSE"},{"time":4,"i_long":106.839204,"is_transit":false,"station_id":"KMO","transit":false,"distance":1436,"station_name":"Kemayoran","i_lat":-6.161728,"line":11},{"distance":1901,"time":5,"station_id":"RJW","i_long":106.836569,"i_lat":-6.14505,"is_transit":false,"transit":false,"station_name":"Rajawali","line":11}],[{"station_name":"Pondokranji","transit":false,"time":0,"i_lat":-6.276362,"line":6,"i_long":106.74273,"station_id":"PDJ","distance":0,"is_transit":false},{"time":8,"line":6,"i_long":106.780334,"transit":false,"distance":6218,"i_lat":-6.237242,"is_transit":false,"station_name":"Kebayoran","station_id":"KBY"},{"i_lat":-6.207404,"i_long":106.79689,"station_name":"Palmerah","station_id":"PLM","transit":false,"line":6,"time":7,"is_transit":false,"distance":3737},{"station_name":"Tanah Abang","i_lat":-6.185545,"time":6,"distance":3191,"line":1,"i_long":106.811091,"is_transit":true,"station_id":"THB","transit":true},{"i_lat":-6.20132,"station_name":"Karet","is_transit":false,"distance":2029,"i_long":106.816351,"line":1,"transit":false,"station_id":"KAT","time":5},{"station_id":"SUDB","station_name":"Sudirman Baru","is_transit":false,"distance":471,"transit":false,"line":1,"i_long":106.819881,"i_lat":-6.201433,"time":1},{"i_lat":-6.202263,"time":1,"station_name":"Sudirman","i_long":106.822649,"distance":280,"station_id":"SUD","transit":false,"is_transit":false,"line":1},{"time":4,"station_name":"Manggarai","i_lat":-6.209883,"line":0,"i_long":106.84912,"station_id":"MRI","distance":3186,"is_transit":true,"transit":true},{"line":0,"i_long":106.840169,"i_lat":-6.198556,"transit":false,"station_id":"CKI","is_transit":false,"distance":1590,"time":4,"station_name":"Cikini"},{"transit":false,"is_transit":false,"station_name":"Gondangdia","line":2,"i_long":106.832183,"time":3,"station_id":"GDD","distance":1750,"i_lat":-6.186295},{"i_lat":-6.166716,"transit":false,"distance":2015,"station_id":"JUA","i_long":106.828284,"line":2,"time":4,"is_transit":false,"station_name":"Juanda"},{"station_name":"Sawah Besar","is_transit":false,"line":2,"transit":false,"station_id":"SW","time":2,"i_lat":-6.160725,"i_long":106.827103,"distance":1149},{"i_long":106.82482,"line":2,"time":2,"station_id":"MGB","station_name":"Manggabesar","transit":false,"distance":906,"is_transit":false,"i_lat":-6.149769},{"station_name":"Jayakarta","time":2,"station_id":"JAY","i_lat":-6.141205,"i_long":106.820901,"is_transit":false,"distance":1080,"transit":false,"line":7},{"transit":true,"time":4,"station_id":"JAKK","is_transit":true,"station_name":"Jakarta Kota","i_long":106.812439,"distance":1264,"i_lat":-6.137569,"line":0},{"distance":1364,"station_id":"KPB","i_lat":-6.132549,"is_transit":true,"time":3,"i_long":106.826365,"transit":true,"line":0,"station_name":"Kampung Bandan"},{"line":11,"i_lat":-6.14505,"station_name":"Rajawali","is_transit":false,"transit":false,"i_long":106.836569,"distance":1444,"station_id":"RJW","time":3}],[{"i_lat":-6.276362,"i_long":106.74273,"distance":0,"station_id":"PDJ","line":6,"is_transit":false,"time":0,"transit":false,"station_name":"Pondokranji"},{"i_long":106.780334,"line":6,"i_lat":-6.237242,"time":8,"is_transit":false,"station_name":"Kebayoran","transit":false,"station_id":"KBY","distance":6218},{"time":7,"i_long":106.79689,"i_lat":-6.207404,"station_name":"Palmerah","distance":3737,"line":6,"is_transit":false,"transit":false,"station_id":"PLM"},{"i_long":106.811091,"line":1,"station_id":"THB","i_lat":-6.185545,"transit":true,"time":6,"is_transit":true,"distance":3191,"station_name":"Tanah Abang"},{"line":1,"transit":true,"is_transit":true,"time":8,"station_name":"Duri","distance":3632,"i_lat":-6.155215,"i_long":106.800832,"station_id":"DU"},{"station_id":"AK","transit":false,"line":0,"distance":1230,"is_transit":false,"time":4,"station_name":"Angke","i_lat":-6.144674,"i_long":106.79867},{"distance":4102,"transit":false,"station_id":"KPB","station_name":"Kampung Bandan","is_transit":true,"line":0,"i_lat":-6.132549,"i_long":106.826365,"time":9},{"is_transit":true,"transit":true,"i_lat":-6.137569,"i_long":106.812439,"line":0,"station_name":"Jakarta Kota","distance":1364,"station_id":"JAKK","time":3},{"i_long":106.820901,"time":4,"transit":false,"distance":1264,"i_lat":-6.141205,"station_id":"JAY","is_transit":false,"station_name":"Jayakarta","line":7},{"i_long":106.82482,"time":2,"station_name":"Manggabesar","transit":false,"i_lat":-6.149769,"station_id":"MGB","is_transit":false,"line":2,"distance":1080},{"distance":906,"station_name":"Sawah Besar","i_lat":-6.160725,"station_id":"SW","is_transit":false,"time":2,"transit":false,"line":2,"i_long":106.827103},{"time":2,"distance":1149,"transit":false,"line":2,"station_id":"JUA","i_lat":-6.166716,"i_long":106.828284,"is_transit":false,"station_name":"Juanda"},{"is_transit":false,"time":4,"station_name":"Gondangdia","i_lat":-6.186295,"distance":2015,"i_long":106.832183,"line":2,"station_id":"GDD","transit":false},{"station_id":"CKI","distance":1750,"i_long":106.840169,"line":0,"i_lat":-6.198556,"is_transit":false,"station_name":"Cikini","time":3,"transit":false},{"i_lat":-6.209883,"station_id":"MRI","is_transit":true,"transit":true,"i_long":106.84912,"time":4,"station_name":"Manggarai","distance":1590,"line":0},{"i_lat":-6.212485,"is_transit":false,"transit":false,"station_id":"MTR","i_long":106.858896,"distance":1275,"station_name":"Matraman","line":1,"time":2},{"i_long":106.86807400000001,"transit":true,"station_id":"JNG","distance":1377,"i_lat":-6.215091,"time":8,"station_name":"Jatinegara","is_transit":true,"line":0},{"transit":false,"station_id":"POK","station_name":"Pondok Jati","distance":1236,"i_lat":-6.209188,"i_long":106.861737,"is_transit":false,"time":2,"line":11},{"transit":false,"is_transit":false,"i_long":106.855437,"time":2,"distance":1829,"station_name":"Kramat","i_lat":-6.193792,"line":11,"station_id":"KMT"},{"distance":973,"is_transit":false,"i_long":106.850107,"station_id":"GST","i_lat":-6.185975,"time":1,"line":11,"station_name":"Gang Sentiong","transit":false},{"transit":false,"station_id":"PSE","i_long":106.84368,"is_transit":false,"time":8,"station_name":"Pasar Senen","i_lat":-6.174784,"distance":1567,"line":11},{"distance":1436,"time":4,"station_id":"KMO","is_transit":false,"i_long":106.839204,"i_lat":-6.161728,"line":11,"station_name":"Kemayoran","transit":false},{"distance":1901,"station_name":"Rajawali","transit":false,"i_lat":-6.14505,"i_long":106.836569,"line":11,"is_transit":false,"time":5,"station_id":"RJW"}]]}