{"data":[[{"is_transit":false,"line":6,"time":0,"transit":false,"i_lat":-6.276362,"station_id":"PDJ","station_name":"Pondokranji","i_long":106.74273,"distance":0},{"transit":false,"i_long":106.728916,"line":6,"time":3,"station_name":"Jurangmangu","distance":2179,"is_transit":false,"i_lat":-6.288927,"station_id":"JMU"},{"i_long":106.712277,"time":4,"i_lat":-6.296963,"is_transit":false,"station_id":"SDM","distance":1994,"line":6,"transit":false,"station_name":"Sudimara"},{"i_long":106.675475,"station_id":"RU","time":6,"distance":4566,"transit":false,"i_lat":-6.314823,"line":6,"is_transit":false,"station_name":"Rawa Buntu"},{"i_lat":-6.319871,"distance":2413,"is_transit":false,"station_name":"Serpong","station_id":"SRP","line":6,"transit":false,"time":4,"i_long":106.66566},{"i_lat":-6.32484,"i_long":106.640411,"station_name":"Cisauk","line":0,"station_id":"CSK","is_transit":false,"transit":false,"distance":1784,"time":4},{"transit":false,"time":4,"i_lat":-6.329547,"line":0,"i_long":106.617853,"is_transit":false,"station_id":"CC","distance":2519,"station_name":"Cicayur"}]]}