{"data":[[{"i_lat":-6.276362,"transit":false,"i_long":106.74273,"is_transit":false,"time":0,"distance":0,"line":6,"station_name":"Pondokranji","station_id":"PDJ"},{"i_lat":-6.237242,"transit":false,"station_name":"Kebayoran","is_transit":false,"station_id":"KBY","line":6,"distance":6218,"i_long":106.780334,"time":8},{"i_lat":-6.207404,"station_name":"Palmerah","time":7,"distance":3737,"line":6,"is_transit":false,"transit":false,"i_long":106.79689,"station_id":"PLM"},{"i_lat":-6.185545,"transit":true,"station_name":"Tanah Abang","i_long":106.811091,"distance":3191,"is_transit":true,"station_id":"THB","time":6,"line":1},{"time":5,"i_lat":-6.20132,"line":1,"distance":2029,"i_long":106.816351,"station_id":"KAT","transit":false,"station_name":"Karet","is_transit":false},{"transit":false,"i_lat":-6.201433,"i_long":106.819881,"is_transit":false,"line":1,"station_name":"Sudirman Baru","time":1,"distance":471,"station_id":"SUDB"},{"station_id":"SUD","station_name":"Sudirman","time":1,"i_long":106.822649,"i_lat":-6.202263,"transit":false,"is_transit":false,"line":1,"distance":280},{"station_name":"Manggarai","distance":3186,"line":2,"is_transit":true,"time":4,"i_lat":-6.209883,"i_long":106.84912,"transit":true,"station_id":"MRI"},{"i_lat":-6.198556,"time":4,"i_long":106.840169,"station_id":"CKI","is_transit":false,"line":2,"transit":false,"station_name":"Cikini","distance":1590}],[{"distance":0,"i_long":106.74273,"line":6,"i_lat":-6.276362,"time":0,"station_id":"PDJ","transit":false,"station_name":"Pondokranji","is_transit":false},{"station_name":"Kebayoran","transit":false,"is_transit":false,"time":8,"line":6,"distance":6218,"station_id":"KBY","i_lat":-6.237242,"i_long":106.780334},{"transit":false,"i_lat":-6.207404,"is_transit":false,"station_name":"Palmerah","i_long":106.79689,"distance":3737,"time":7,"station_id":"PLM","line":6},{"time":6,"line":1,"transit":true,"i_long":106.811091,"distance":3191,"station_id":"THB","is_transit":true,"i_lat":-6.185545,"station_name":"Tanah Abang"},{"station_name":"Duri","i_lat":-6.155215,"station_id":"DU","time":8,"distance":3632,"i_long":106.800832,"line":1,"is_transit":false,"transit":false},{"is_transit":false,"i_long":106.79867,"i_lat":-6.144674,"transit":false,"time":4,"station_id":"AK","station_name":"Angke","distance":1230,"line":1},{"transit":true,"i_lat":-6.132549,"line":4,"station_id":"KPB","is_transit":true,"distance":4102,"i_long":106.826365,"station_name":"Kampung Bandan","time":9},{"distance":1364,"line":2,"i_lat":-6.137569,"transit":true,"station_id":"JAKK","station_name":"Jakarta Kota","is_transit":true,"i_long":106.812439,"time":3},{"transit":false,"station_id":"JAY","time":4,"i_lat":-6.141205,"line":2,"station_name":"Jayakarta","is_transit":false,"i_long":106.820901,"distance":1264},{"station_name":"Manggabesar","i_lat":-6.149769,"time":2,"is_transit":false,"line":2,"station_id":"MGB","transit":false,"distance":1080,"i_long":106.82482},{"transit":false,"station_id":"SW","time":2,"station_name":"Sawah Besar","is_transit":false,"line":2,"distance":906,"i_lat":-6.160725,"i_long":106.827103},{"time":2,"i_lat":-6.166716,"is_transit":false,"distance":1149,"station_name":"Juanda","transit":false,"station_id":"JUA","i_long":106.828284,"line":2},{"transit":false,"station_name":"Gondangdia","i_long":106.832183,"distance":2015,"line":2,"time":4,"i_lat":-6.186295,"is_transit":false,"station_id":"GDD"},{"is_transit":false,"station_id":"CKI","transit":false,"i_lat":-6.198556,"station_name":"Cikini","i_long":106.840169,"distance":1750,"line":2,"time":3}],[{"distance":0,"transit":false,"i_lat":-6.276362,"line":6,"is_transit":false,"time":0,"i_long":106.74273,"station_name":"Pondokranji","station_id":"PDJ"},{"distance":6218,"i_long":106.780334,"i_lat":-6.237242,"station_name":"Kebayoran","is_transit":false,"line":6,"time":8,"transit":false,"station_id":"KBY"},{"station_id":"PLM","is_transit":false,"i_lat":-6.207404,"distance":3737,"station_name":"Palmerah","time":7,"i_long":106.79689,"line":6,"transit":false},{"station_name":"Tanah Abang","i_lat":-6.185545,"is_transit":true,"distance":3191,"i_long":106.811091,"transit":true,"time":6,"station_id":"THB","line":1},{"transit":false,"line":1,"time":8,"i_long":106.800832,"i_lat":-6.155215,"is_transit":false,"distance":3632,"station_name":"Duri","station_id":"DU"},{"i_lat":-6.144674,"is_transit":false,"i_long":106.79867,"line":1,"station_name":"Angke","distance":1230,"time":4,"transit":false,"station_id":"AK"},{"i_long":106.826365,"line":4,"station_name":"Kampung Bandan","is_transit":true,"distance":4102,"transit":true,"i_lat":-6.132549,"station_id":"KPB","time":9},{"transit":false,"is_transit":false,"distance":1444,"i_long":106.836569,"station_name":"Rajawali","station_id":"RJW","time":3,"line":11,"i_lat":-6.14505},{"line":11,"transit":false,"station_name":"Kemayoran","station_id":"KMO","time":5,"is_transit":false,"distance":1901,"i_lat":-6.161728,"i_long":106.839204},{"line":11,"i_long":106.84368,"transit":false,"is_transit":false,"time":4,"i_lat":-6.174784,"distance":1436,"station_id":"PSE","station_name":"Pasar Senen"},{"time":8,"i_long":106.850107,"is_transit":false,"transit":false,"i_lat":-6.185975,"station_id":"GST","station_name":"Gang Sentiong","distance":1567,"line":11},{"is_transit":false,"transit":false,"distance":973,"station_name":"Kramat","line":11,"station_id":"KMT","i_lat":-6.193792,"time":1,"i_long":106.855437},{"i_lat":-6.209188,"station_name":"Pondok Jati","time":2,"line":11,"is_transit":false,"i_long":106.861737,"distance":1829,"transit":false,"station_id":"POK"},{"is_transit":true,"i_lat":-6.215091,"i_long":106.86807400000001,"station_id":"JNG","line":1,"transit":true,"distance":1236,"time":9,"station_name":"Jatinegara"},{"i_lat":-6.212485,"i_long":106.858896,"station_name":"Matraman","station_id":"MTR","transit":false,"is_transit":false,"distance":1377,"line":1,"time":2},{"i_lat":-6.209883,"station_id":"MRI","station_name":"Manggarai","distance":1275,"i_long":106.84912,"is_transit":true,"time":2,"transit":true,"line":2},{"i_lat":-6.198556,"distance":1590,"station_name":"Cikini","is_transit":false,"time":4,"line":2,"station_id":"CKI","transit":false,"i_long":106.840169}],[{"transit":false,"line":6,"station_name":"Pondokranji","time":0,"distance":0,"i_lat":-6.276362,"is_transit":false,"station_id":"PDJ","i_long":106.74273},{"i_lat":-6.237242,"station_name":"Kebayoran","i_long":106.780334,"time":8,"is_transit":false,"distance":6218,"line":6,"station_id":"KBY","transit":false},{"time":7,"distance":3737,"transit":false,"station_id":"PLM","line":6,"is_transit":false,"station_name":"Palmerah","i_long":106.79689,"i_lat":-6.207404},{"station_id":"THB","station_name":"Tanah Abang","transit":true,"time":6,"i_lat":-6.185545,"i_long":106.811091,"is_transit":true,"distance":3191,"line":1},{"i_long":106.816351,"station_name":"Karet","time":5,"station_id":"KAT","transit":false,"i_lat":-6.20132,"distance":2029,"line":1,"is_transit":false},{"station_name":"Sudirman Baru","line":1,"transit":false,"station_id":"SUDB","is_transit":false,"time":1,"i_lat":-6.201433,"distance":471,"i_long":106.819881},{"i_lat":-6.202263,"i_long":106.822649,"line":1,"station_id":"SUD","is_transit":false,"transit":false,"distance":280,"station_name":"Sudirman","time":1},{"is_transit":false,"time":4,"i_long":106.84912,"station_name":"Manggarai","station_id":"MRI","distance":3186,"transit":false,"i_lat":-6.209883,"line":2},{"i_long":106.858896,"i_lat":-6.212485,"transit":false,"station_name":"Matraman","line":1,"time":2,"station_id":"MTR","distance":1275,"is_transit":false},{"transit":true,"is_transit":true,"time":8,"i_lat":-6.215091,"station_id":"JNG","i_long":106.86807400000001,"station_name":"Jatinegara","distance":1377,"line":1},{"station_id":"POK","is_transit":false,"time":2,"distance":1236,"line":11,"transit":false,"i_lat":-6.209188,"station_name":"Pondok Jati","i_long":106.861737},{"time":2,"i_long":106.855437,"transit":false,"station_name":"Kramat","i_lat":-6.193792,"line":11,"station_id":"KMT","is_transit":false,"distance":1829},{"i_long":106.850107,"station_id":"GST","time":1,"i_lat":-6.185975,"line":11,"station_name":"Gang Sentiong","is_transit":false,"distance":973,"transit":false},{"transit":false,"station_name":"Pasar Senen","station_id":"PSE","i_lat":-6.174784,"is_transit":false,"i_long":106.84368,"line":11,"time":8,"distance":1567},{"i_long":106.839204,"line":11,"i_lat":-6.161728,"distance":1436,"is_transit":false,"station_id":"KMO","station_name":"Kemayoran","time":4,"transit":false},{"station_name":"Rajawali","station_id":"RJW","is_transit":false,"distance":1901,"i_lat":-6.14505,"i_long":106.836569,"line":11,"transit":false,"time":5},{"i_lat":-6.132549,"i_long":106.826365,"transit":true,"station_id":"KPB","is_transit":true,"time":3,"station_name":"Kampung Bandan","line":4,"distance":1444},{"i_long":106.812439,"is_transit":true,"i_lat":-6.137569,"station_id":"JAKK","line":2,"time":3,"station_name":"Jakarta Kota","distance":1364,"transit":true},{"i_lat":-6.141205,"is_transit":false,"time":4,"distance":1264,"line":2,"station_id":"JAY","transit":false,"station_name":"Jayakarta","i_long":106.820901},{"i_long":106.82482,"line":2,"transit":false,"station_name":"Manggabesar","is_transit":false,"distance":1080,"station_id":"MGB","time":2,"i_lat":-6.149769},{"line":2,"station_name":"Sawah Besar","i_long":106.827103,"time":2,"i_lat":-6.160725,"distance":906,"station_id":"SW","transit":false,"is_transit":false},{"line":2,"i_lat":-6.166716,"station_name":"Juanda","station_id":"JUA","time":2,"is_transit":false,"transit":false,"distance":1149,"i_long":106.828284},{"i_lat":-6.186295,"time":4,"distance":2015,"station_name":"Gondangdia","line":2,"station_id":"GDD","i_long":106.832183,"transit":false,"is_transit":false},{"i_long":106.840169,"station_name":"Cikini","is_transit":false,"transit":false,"station_id":"CKI","distance":1750,"i_lat":-6.198556,"time":3,"line":2}]]}