{"data":[[{"distance":0,"i_long":106.74273,"station_name":"Pondokranji","line":6,"station_id":"PDJ","is_transit":false,"transit":false,"time":0,"i_lat":-6.276362},{"time":8,"i_long":106.780334,"is_transit":false,"station_name":"Kebayoran","line":6,"i_lat":-6.237242,"transit":false,"distance":6218,"station_id":"KBY"},{"i_lat":-6.207404,"transit":false,"station_name":"Palmerah","station_id":"PLM","is_transit":false,"time":7,"distance":3737,"line":6,"i_long":106.79689},{"time":6,"distance":3191,"i_lat":-6.185545,"transit":true,"is_transit":true,"station_name":"Tanah Abang","line":1,"station_id":"THB","i_long":106.811091},{"station_name":"Duri","is_transit":false,"station_id":"DU","i_long":106.800832,"line":1,"distance":3632,"transit":false,"time":8,"i_lat":-6.155215},{"i_lat":-6.144674,"line":1,"is_transit":false,"distance":1230,"i_long":106.79867,"station_id":"AK","station_name":"Angke","transit":false,"time":4},{"transit":false,"distance":4102,"station_id":"KPB","i_lat":-6.132549,"line":4,"i_long":106.826365,"station_name":"Kampung Bandan","is_transit":false,"time":9}],[{"i_lat":-6.276362,"line":6,"station_id":"PDJ","distance":0,"time":0,"transit":false,"i_long":106.74273,"station_name":"Pondokranji","is_transit":false},{"transit":false,"time":8,"line":6,"station_name":"Kebayoran","is_transit":false,"i_long":106.780334,"i_lat":-6.237242,"station_id":"KBY","distance":6218},{"line":6,"i_lat":-6.207404,"transit":false,"is_transit":false,"distance":3737,"i_long":106.79689,"station_name":"Palmerah","station_id":"PLM","time":7},{"line":1,"station_name":"Tanah Abang","i_lat":-6.185545,"time":6,"distance":3191,"i_long":106.811091,"transit":true,"is_transit":true,"station_id":"THB"},{"distance":2029,"is_transit":false,"line":1,"transit":false,"time":5,"i_lat":-6.20132,"i_long":106.816351,"station_id":"KAT","station_name":"Karet"},{"transit":false,"station_id":"SUDB","is_transit":false,"station_name":"Sudirman Baru","i_lat":-6.201433,"time":1,"distance":471,"i_long":106.819881,"line":1},{"station_name":"Sudirman","i_lat":-6.202263,"is_transit":false,"station_id":"SUD","line":1,"transit":false,"distance":280,"time":1,"i_long":106.822649},{"transit":true,"distance":3186,"i_lat":-6.209883,"is_transit":true,"i_long":106.84912,"line":2,"time":4,"station_name":"Manggarai","station_id":"MRI"},{"distance":1590,"i_lat":-6.198556,"line":2,"transit":false,"station_name":"Cikini","station_id":"CKI","time":4,"i_long":106.840169,"is_transit":false},{"i_lat":-6.186295,"is_transit":false,"time":3,"distance":1750,"transit":false,"i_long":106.832183,"station_id":"GDD","station_name":"Gondangdia","line":2},{"station_id":"JUA","distance":2015,"is_transit":false,"transit":false,"i_long":106.828284,"station_name":"Juanda","i_lat":-6.166716,"time":4,"line":2},{"station_id":"SW","i_long":106.827103,"station_name":"Sawah Besar","is_transit":false,"transit":false,"distance":1149,"time":2,"i_lat":-6.160725,"line":2},{"time":2,"i_long":106.82482,"line":2,"transit":false,"station_id":"MGB","station_name":"Manggabesar","distance":906,"is_transit":false,"i_lat":-6.149769},{"distance":1080,"i_long":106.820901,"transit":false,"time":2,"station_id":"JAY","is_transit":false,"i_lat":-6.141205,"line":2,"station_name":"Jayakarta"},{"station_name":"Jakarta Kota","time":4,"transit":true,"station_id":"JAKK","line":2,"i_lat":-6.137569,"i_long":106.812439,"is_transit":true,"distance":1264},{"distance":1364,"station_name":"Kampung Bandan","is_transit":false,"time":3,"transit":false,"i_lat":-6.132549,"i_long":106.826365,"line":4,"station_id":"KPB"}],[{"time":0,"distance":0,"i_long":106.74273,"station_name":"Pondokranji","line":6,"transit":false,"i_lat":-6.276362,"station_id":"PDJ","is_transit":false},{"is_transit":false,"time":8,"distance":6218,"transit":false,"station_name":"Kebayoran","i_lat":-6.237242,"i_long":106.780334,"station_id":"KBY","line":6},{"transit":false,"is_transit":false,"i_lat":-6.207404,"i_long":106.79689,"distance":3737,"station_name":"Palmerah","time":7,"line":6,"station_id":"PLM"},{"transit":true,"i_lat":-6.185545,"station_id":"THB","i_long":106.811091,"time":6,"is_transit":true,"distance":3191,"line":1,"station_name":"Tanah Abang"},{"line":1,"i_long":106.816351,"time":5,"station_name":"Karet","distance":2029,"transit":false,"i_lat":-6.20132,"station_id":"KAT","is_transit":false},{"time":1,"transit":false,"i_lat":-6.201433,"station_name":"Sudirman Baru","is_transit":false,"distance":471,"station_id":"SUDB","line":1,"i_long":106.819881},{"line":1,"distance":280,"station_id":"SUD","i_lat":-6.202263,"time":1,"i_long":106.822649,"is_transit":false,"station_name":"Sudirman","transit":false},{"station_name":"Manggarai","is_transit":false,"time":4,"line":2,"distance":3186,"station_id":"MRI","transit":false,"i_long":106.84912,"i_lat":-6.209883},{"station_name":"Matraman","time":2,"distance":1275,"i_lat":-6.212485,"station_id":"MTR","i_long":106.858896,"line":1,"is_transit":false,"transit":false},{"station_name":"Jatinegara","time":8,"transit":true,"station_id":"JNG","is_transit":true,"i_long":106.86807400000001,"line":1,"distance":1377,"i_lat":-6.215091},{"is_transit":false,"i_lat":-6.209188,"transit":false,"time":2,"station_name":"Pondok Jati","distance":1236,"i_long":106.861737,"line":11,"station_id":"POK"},{"i_long":106.855437,"distance":1829,"station_name":"Kramat","i_lat":-6.193792,"line":11,"is_transit":false,"transit":false,"station_id":"KMT","time":2},{"i_long":106.850107,"distance":973,"i_lat":-6.185975,"transit":false,"station_id":"GST","time":1,"line":11,"station_name":"Gang Sentiong","is_transit":false},{"i_lat":-6.174784,"station_id":"PSE","transit":false,"line":11,"time":8,"distance":1567,"station_name":"Pasar Senen","i_long":106.84368,"is_transit":false},{"station_id":"KMO","i_long":106.839204,"line":11,"transit":false,"is_transit":false,"time":4,"i_lat":-6.161728,"station_name":"Kemayoran","distance":1436},{"distance":1901,"i_long":106.836569,"line":11,"station_name":"Rajawali","i_lat":-6.14505,"time":5,"station_id":"RJW","transit":false,"is_transit":false},{"station_id":"KPB","station_name":"Kampung Bandan","distance":1444,"is_transit":false,"i_long":106.826365,"i_lat":-6.132549,"transit":false,"time":3,"line":4}]]}