{"data":[[{"line":6,"time":0,"station_name":"Pondokranji","station_id":"PDJ","transit":false,"i_lat":-6.276362,"distance":0,"i_long":106.74273,"is_transit":false},{"distance":6218,"i_lat":-6.237242,"i_long":106.780334,"is_transit":false,"station_name":"Kebayoran","time":8,"line":6,"station_id":"KBY","transit":false},{"line":6,"transit":false,"station_id":"PLM","station_name":"Palmerah","distance":3737,"time":7,"i_lat":-6.207404,"is_transit":false,"i_long":106.79689},{"station_id":"THB","transit":true,"station_name":"Tanah Abang","time":6,"is_transit":true,"i_lat":-6.185545,"distance":3191,"i_long":106.811091,"line":1},{"station_name":"Duri","transit":true,"time":8,"i_long":106.800832,"line":1,"station_id":"DU","distance":3632,"is_transit":true,"i_lat":-6.155215},{"time":4,"i_lat":-6.144674,"i_long":106.79867,"line":0,"station_id":"AK","distance":1230,"transit":false,"is_transit":false,"station_name":"Angke"},{"transit":false,"i_lat":-6.132549,"distance":4102,"station_id":"KPB","i_long":106.826365,"line":0,"is_transit":true,"station_name":"Kampung Bandan","time":9}],[{"station_name":"Pondokranji","time":0,"transit":false,"distance":0,"i_long":106.74273,"station_id":"PDJ","i_lat":-6.276362,"line":6,"is_transit":false},{"station_name":"Kebayoran","line":6,"is_transit":false,"i_lat":-6.237242,"station_id":"KBY","time":8,"transit":false,"i_long":106.780334,"distance":6218},{"station_id":"PLM","is_transit":false,"i_long":106.79689,"line":6,"i_lat":-6.207404,"station_name":"Palmerah","time":7,"distance":3737,"transit":false},{"i_long":106.811091,"is_transit":true,"time":6,"line":1,"distance":3191,"transit":true,"station_id":"THB","i_lat":-6.185545,"station_name":"Tanah Abang"},{"distance":2029,"time":5,"station_id":"KAT","i_lat":-6.20132,"transit":false,"is_transit":false,"station_name":"Karet","i_long":106.816351,"line":1},{"station_name":"Sudirman Baru","line":1,"station_id":"SUDB","time":1,"distance":471,"transit":false,"i_lat":-6.201433,"is_transit":false,"i_long":106.819881},{"line":1,"station_id":"SUD","distance":280,"station_name":"Sudirman","transit":false,"is_transit":false,"i_lat":-6.202263,"time":1,"i_long":106.822649},{"is_transit":true,"i_lat":-6.209883,"line":0,"transit":true,"station_id":"MRI","distance":3186,"time":4,"i_long":106.84912,"station_name":"Manggarai"},{"station_id":"CKI","is_transit":false,"transit":false,"i_lat":-6.198556,"i_long":106.840169,"station_name":"Cikini","distance":1590,"time":4,"line":0},{"is_transit":false,"distance":1750,"station_name":"Gondangdia","station_id":"GDD","i_lat":-6.186295,"time":3,"i_long":106.832183,"line":2,"transit":false},{"station_name":"Juanda","is_transit":false,"station_id":"JUA","time":4,"transit":false,"i_lat":-6.166716,"i_long":106.828284,"distance":2015,"line":2},{"i_long":106.827103,"station_id":"SW","line":2,"i_lat":-6.160725,"station_name":"Sawah Besar","time":2,"distance":1149,"is_transit":false,"transit":false},{"i_long":106.82482,"station_name":"Manggabesar","line":2,"transit":false,"time":2,"station_id":"MGB","i_lat":-6.149769,"is_transit":false,"distance":906},{"line":7,"distance":1080,"time":2,"i_long":106.820901,"i_lat":-6.141205,"is_transit":false,"station_name":"Jayakarta","station_id":"JAY","transit":false},{"line":0,"station_id":"JAKK","i_lat":-6.137569,"transit":true,"time":4,"distance":1264,"station_name":"Jakarta Kota","is_transit":true,"i_long":106.812439},{"time":3,"line":0,"i_long":106.826365,"is_transit":true,"distance":1364,"station_id":"KPB","station_name":"Kampung Bandan","transit":false,"i_lat":-6.132549}],[{"transit":false,"is_transit":false,"i_lat":-6.276362,"time":0,"station_name":"Pondokranji","line":6,"station_id":"PDJ","i_long":106.74273,"distance":0},{"station_id":"KBY","i_lat":-6.237242,"line":6,"distance":6218,"is_transit":false,"transit":false,"i_long":106.780334,"station_name":"Kebayoran","time":8},{"line":6,"station_id":"PLM","distance":3737,"i_lat":-6.207404,"transit":false,"station_name":"Palmerah","time":7,"i_long":106.79689,"is_transit":false},{"line":1,"transit":true,"i_long":106.811091,"station_id":"THB","time":6,"station_name":"Tanah Abang","is_transit":true,"i_lat":-6.185545,"distance":3191},{"distance":2029,"is_transit":false,"time":5,"i_lat":-6.20132,"station_id":"KAT","transit":false,"i_long":106.816351,"line":1,"station_name":"Karet"},{"is_transit":false,"distance":471,"i_lat":-6.201433,"station_id":"SUDB","i_long":106.819881,"line":1,"transit":false,"station_name":"Sudirman Baru","time":1},{"distance":280,"station_id":"SUD","line":1,"station_name":"Sudirman","transit":false,"is_transit":false,"i_long":106.822649,"i_lat":-6.202263,"time":1},{"station_name":"Manggarai","distance":3186,"transit":false,"i_lat":-6.209883,"station_id":"MRI","time":4,"is_transit":true,"line":0,"i_long":106.84912},{"i_lat":-6.212485,"time":2,"station_id":"MTR","transit":false,"station_name":"Matraman","is_transit":false,"distance":1275,"line":1,"i_long":106.858896},{"time":8,"station_id":"JNG","distance":1377,"i_lat":-6.215091,"i_long":106.86807400000001,"line":0,"is_transit":true,"transit":true,"station_name":"Jatinegara"},{"station_name":"Pondok Jati","transit":false,"time":2,"distance":1236,"is_transit":false,"i_long":106.861737,"station_id":"POK","line":11,"i_lat":-6.209188},{"station_id":"KMT","time":2,"i_long":106.855437,"line":11,"station_name":"Kramat","transit":false,"i_lat":-6.193792,"is_transit":false,"distance":1829},{"transit":false,"i_lat":-6.185975,"i_long":106.850107,"station_id":"GST","station_name":"Gang Sentiong","time":1,"is_transit":false,"line":11,"distance":973},{"i_lat":-6.174784,"is_transit":false,"station_name":"Pasar Senen","time":8,"station_id":"PSE","line":11,"i_long":106.84368,"distance":1567,"transit":false},{"i_long":106.839204,"line":11,"transit":false,"station_id":"KMO","i_lat":-6.161728,"is_transit":false,"station_name":"Kemayoran","distance":1436,"time":4},{"i_lat":-6.14505,"station_id":"RJW","is_transit":false,"i_long":106.836569,"station_name":"Rajawali","distance":1901,"transit":false,"line":11,"time":5},{"i_long":106.826365,"transit":false,"is_transit":true,"line":0,"station_name":"Kampung Bandan","distance":1444,"time":3,"station_id":"KPB","i_lat":-6.132549}]]}