{"data":[[{"station_id":"PDJ","distance":0,"i_long":106.74273,"i_lat":-6.276362,"transit":false,"station_name":"Pondokranji","time":0,"line":6,"is_transit":false},{"is_transit":false,"transit":false,"line":6,"i_long":106.780334,"station_id":"KBY","station_name":"Kebayoran","distance":6218,"time":8,"i_lat":-6.237242},{"is_transit":false,"line":6,"station_id":"PLM","i_long":106.79689,"i_lat":-6.207404,"time":7,"distance":3737,"station_name":"Palmerah","transit":false},{"station_name":"Tanah Abang","distance":3191,"i_lat":-6.185545,"line":1,"time":6,"i_long":106.811091,"transit":true,"is_transit":true,"station_id":"THB"},{"time":8,"transit":false,"station_name":"Duri","is_transit":false,"line":1,"station_id":"DU","distance":3632,"i_lat":-6.155215,"i_long":106.800832}],[{"transit":false,"is_transit":false,"i_long":106.74273,"line":6,"station_id":"PDJ","station_name":"Pondokranji","distance":0,"time":0,"i_lat":-6.276362},{"station_id":"KBY","transit":false,"line":6,"station_name":"Kebayoran","i_lat":-6.237242,"distance":6218,"is_transit":false,"time":8,"i_long":106.780334},{"station_name":"Palmerah","is_transit":false,"line":6,"transit":false,"i_lat":-6.207404,"station_id":"PLM","time":7,"distance":3737,"i_long":106.79689},{"i_lat":-6.185545,"line":1,"station_name":"Tanah Abang","time":6,"distance":3191,"is_transit":true,"station_id":"THB","transit":true,"i_long":106.811091},{"transit":false,"time":5,"i_lat":-6.20132,"is_transit":false,"line":1,"station_id":"KAT","i_long":106.816351,"distance":2029,"station_name":"Karet"},{"station_id":"SUDB","i_lat":-6.201433,"time":1,"i_long":106.819881,"distance":471,"line":1,"transit":false,"station_name":"Sudirman Baru","is_transit":false},{"station_id":"SUD","i_long":106.822649,"line":1,"distance":280,"station_name":"Sudirman","is_transit":false,"time":1,"i_lat":-6.202263,"transit":false},{"transit":true,"is_transit":true,"station_id":"MRI","time":4,"i_long":106.84912,"distance":3186,"station_name":"Manggarai","line":2,"i_lat":-6.209883},{"distance":1590,"i_long":106.840169,"line":2,"time":4,"station_id":"CKI","transit":false,"station_name":"Cikini","i_lat":-6.198556,"is_transit":false},{"station_name":"Gondangdia","station_id":"GDD","i_lat":-6.186295,"line":2,"transit":false,"i_long":106.832183,"time":3,"is_transit":false,"distance":1750},{"transit":false,"station_id":"JUA","line":2,"time":4,"i_long":106.828284,"station_name":"Juanda","is_transit":false,"distance":2015,"i_lat":-6.166716},{"time":2,"station_name":"Sawah Besar","distance":1149,"is_transit":false,"line":2,"transit":false,"station_id":"SW","i_lat":-6.160725,"i_long":106.827103},{"station_name":"Manggabesar","station_id":"MGB","is_transit":false,"i_lat":-6.149769,"line":2,"time":2,"distance":906,"transit":false,"i_long":106.82482},{"station_name":"Jayakarta","transit":false,"is_transit":false,"station_id":"JAY","i_lat":-6.141205,"i_long":106.820901,"time":2,"distance":1080,"line":2},{"station_name":"Jakarta Kota","is_transit":true,"i_lat":-6.137569,"distance":1264,"time":4,"station_id":"JAKK","transit":true,"line":2,"i_long":106.812439},{"station_name":"Kampung Bandan","transit":true,"distance":1364,"i_long":106.826365,"station_id":"KPB","is_transit":true,"time":3,"i_lat":-6.132549,"line":4},{"line":1,"transit":false,"station_name":"Angke","station_id":"AK","time":9,"is_transit":false,"distance":4102,"i_lat":-6.144674,"i_long":106.79867},{"time":4,"distance":1230,"station_id":"DU","is_transit":false,"transit":false,"station_name":"Duri","i_lat":-6.155215,"i_long":106.800832,"line":1}],[{"transit":false,"i_long":106.74273,"is_transit":false,"distance":0,"i_lat":-6.276362,"station_id":"PDJ","station_name":"Pondokranji","time":0,"line":6},{"is_transit":false,"i_long":106.780334,"station_id":"KBY","transit":false,"line":6,"i_lat":-6.237242,"time":8,"distance":6218,"station_name":"Kebayoran"},{"station_name":"Palmerah","is_transit":false,"i_lat":-6.207404,"i_long":106.79689,"time":7,"transit":false,"line":6,"distance":3737,"station_id":"PLM"},{"station_id":"THB","station_name":"Tanah Abang","is_transit":true,"transit":true,"distance":3191,"time":6,"i_lat":-6.185545,"line":1,"i_long":106.811091},{"station_name":"Karet","transit":false,"i_long":106.816351,"station_id":"KAT","is_transit":false,"distance":2029,"i_lat":-6.20132,"time":5,"line":1},{"station_id":"SUDB","time":1,"i_lat":-6.201433,"i_long":106.819881,"is_transit":false,"distance":471,"transit":false,"station_name":"Sudirman Baru","line":1},{"station_name":"Sudirman","time":1,"i_long":106.822649,"line":1,"i_lat":-6.202263,"station_id":"SUD","transit":false,"is_transit":false,"distance":280},{"i_lat":-6.209883,"line":2,"i_long":106.84912,"station_id":"MRI","transit":false,"is_transit":false,"station_name":"Manggarai","time":4,"distance":3186},{"station_name":"Matraman","station_id":"MTR","transit":false,"is_transit":false,"distance":1275,"i_long":106.858896,"time":2,"line":1,"i_lat":-6.212485},{"time":8,"line":1,"station_id":"JNG","distance":1377,"transit":true,"i_long":106.86807400000001,"station_name":"Jatinegara","is_transit":true,"i_lat":-6.215091},{"transit":false,"station_name":"Pondok Jati","i_long":106.861737,"i_lat":-6.209188,"time":2,"station_id":"POK","is_transit":false,"line":11,"distance":1236},{"station_name":"Kramat","station_id":"KMT","line":11,"transit":false,"is_transit":false,"i_lat":-6.193792,"distance":1829,"i_long":106.855437,"time":2},{"station_name":"Gang Sentiong","transit":false,"i_lat":-6.185975,"is_transit":false,"distance":973,"time":1,"station_id":"GST","i_long":106.850107,"line":11},{"is_transit":false,"line":11,"station_name":"Pasar Senen","i_long":106.84368,"station_id":"PSE","distance":1567,"time":8,"i_lat":-6.174784,"transit":false},{"station_name":"Kemayoran","station_id":"KMO","is_transit":false,"distance":1436,"line":11,"i_long":106.839204,"transit":false,"time":4,"i_lat":-6.161728},{"is_transit":false,"i_lat":-6.14505,"time":5,"line":11,"station_id":"RJW","distance":1901,"transit":false,"station_name":"Rajawali","i_long":106.836569},{"i_long":106.826365,"station_id":"KPB","distance":1444,"i_lat":-6.132549,"time":3,"station_name":"Kampung Bandan","transit":true,"is_transit":true,"line":4},{"transit":false,"station_id":"AK","is_transit":false,"distance":4102,"station_name":"Angke","i_long":106.79867,"time":9,"line":1,"i_lat":-6.144674},{"i_lat":-6.155215,"distance":1230,"transit":false,"station_name":"Duri","line":1,"is_transit":false,"i_long":106.800832,"station_id":"DU","time":4}]]}