{"data":[[{"is_transit":false,"station_name":"Pondokranji","time":0,"line":6,"distance":0,"i_lat":-6.276362,"transit":false,"i_long":106.74273,"station_id":"PDJ"},{"distance":6218,"time":8,"station_name":"Kebayoran","i_lat":-6.237242,"is_transit":false,"line":6,"station_id":"KBY","i_long":106.780334,"transit":false},{"is_transit":false,"i_lat":-6.207404,"i_long":106.79689,"time":7,"transit":false,"station_name":"Palmerah","line":6,"station_id":"PLM","distance":3737},{"time":6,"station_name":"Tanah Abang","station_id":"THB","is_transit":true,"line":1,"i_long":106.811091,"i_lat":-6.185545,"transit":true,"distance":3191},{"distance":2029,"station_id":"KAT","is_transit":false,"station_name":"Karet","time":5,"i_lat":-6.20132,"i_long":106.816351,"transit":false,"line":1},{"transit":false,"distance":471,"i_long":106.819881,"line":1,"i_lat":-6.201433,"station_id":"SUDB","is_transit":false,"station_name":"Sudirman Baru","time":1},{"station_id":"SUD","transit":false,"i_long":106.822649,"station_name":"Sudirman","time":1,"distance":280,"i_lat":-6.202263,"is_transit":false,"line":1},{"station_id":"MRI","i_lat":-6.209883,"i_long":106.84912,"distance":3186,"transit":false,"station_name":"Manggarai","time":4,"line":2,"is_transit":false}],[{"i_long":106.74273,"transit":false,"station_id":"PDJ","distance":0,"line":6,"time":0,"station_name":"Pondokranji","i_lat":-6.276362,"is_transit":false},{"line":6,"time":8,"station_name":"Kebayoran","is_transit":false,"distance":6218,"transit":false,"i_long":106.780334,"i_lat":-6.237242,"station_id":"KBY"},{"i_lat":-6.207404,"station_id":"PLM","i_long":106.79689,"station_name":"Palmerah","time":7,"line":6,"is_transit":false,"transit":false,"distance":3737},{"i_lat":-6.185545,"transit":true,"line":1,"i_long":106.811091,"station_name":"Tanah Abang","time":6,"is_transit":true,"distance":3191,"station_id":"THB"},{"i_long":106.800832,"line":1,"transit":false,"station_name":"Duri","station_id":"DU","i_lat":-6.155215,"is_transit":false,"time":8,"distance":3632},{"time":4,"line":1,"i_long":106.79867,"i_lat":-6.144674,"distance":1230,"station_name":"Angke","station_id":"AK","transit":false,"is_transit":false},{"i_long":106.826365,"station_id":"KPB","time":9,"i_lat":-6.132549,"line":4,"is_transit":true,"distance":4102,"station_name":"Kampung Bandan","transit":true},{"is_transit":true,"line":2,"i_long":106.812439,"distance":1364,"station_name":"Jakarta Kota","station_id":"JAKK","transit":true,"time":3,"i_lat":-6.137569},{"is_transit":false,"distance":1264,"i_lat":-6.141205,"line":2,"transit":false,"time":4,"station_id":"JAY","i_long":106.820901,"station_name":"Jayakarta"},{"station_name":"Manggabesar","transit":false,"distance":1080,"i_lat":-6.149769,"line":2,"time":2,"is_transit":false,"station_id":"MGB","i_long":106.82482},{"station_id":"SW","time":2,"distance":906,"i_long":106.827103,"station_name":"Sawah Besar","line":2,"transit":false,"is_transit":false,"i_lat":-6.160725},{"is_transit":false,"i_lat":-6.166716,"line":2,"station_name":"Juanda","time":2,"distance":1149,"station_id":"JUA","transit":false,"i_long":106.828284},{"distance":2015,"i_lat":-6.186295,"station_id":"GDD","line":2,"i_long":106.832183,"is_transit":false,"station_name":"Gondangdia","time":4,"transit":false},{"i_long":106.840169,"station_name":"Cikini","transit":false,"i_lat":-6.198556,"distance":1750,"is_transit":false,"line":2,"station_id":"CKI","time":3},{"i_long":106.84912,"i_lat":-6.209883,"time":4,"is_transit":false,"station_id":"MRI","line":2,"transit":false,"station_name":"Manggarai","distance":1590}],[{"transit":false,"station_name":"Pondokranji","time":0,"line":6,"is_transit":false,"i_long":106.74273,"i_lat":-6.276362,"station_id":"PDJ","distance":0},{"time":8,"distance":6218,"is_transit":false,"i_lat":-6.237242,"transit":false,"station_name":"Kebayoran","line":6,"i_long":106.780334,"station_id":"KBY"},{"distance":3737,"i_lat":-6.207404,"time":7,"is_transit":false,"i_long":106.79689,"line":6,"transit":false,"station_name":"Palmerah","station_id":"PLM"},{"transit":true,"time":6,"distance":3191,"station_id":"THB","i_long":106.811091,"i_lat":-6.185545,"line":1,"station_name":"Tanah Abang","is_transit":true},{"is_transit":false,"line":1,"i_long":106.800832,"transit":false,"i_lat":-6.155215,"station_name":"Duri","station_id":"DU","distance":3632,"time":8},{"station_id":"AK","station_name":"Angke","transit":false,"distance":1230,"i_lat":-6.144674,"time":4,"i_long":106.79867,"line":1,"is_transit":false},{"line":4,"station_name":"Kampung Bandan","distance":4102,"i_lat":-6.132549,"transit":true,"station_id":"KPB","i_long":106.826365,"time":9,"is_transit":true},{"station_id":"RJW","is_transit":false,"distance":1444,"i_lat":-6.14505,"station_name":"Rajawali","i_long":106.836569,"line":11,"transit":false,"time":3},{"i_lat":-6.161728,"station_name":"Kemayoran","line":11,"transit":false,"station_id":"KMO","is_transit":false,"distance":1901,"time":5,"i_long":106.839204},{"is_transit":false,"i_lat":-6.174784,"station_name":"Pasar Senen","distance":1436,"station_id":"PSE","time":4,"i_long":106.84368,"line":11,"transit":false},{"i_long":106.850107,"distance":1567,"time":8,"i_lat":-6.185975,"line":11,"station_name":"Gang Sentiong","is_transit":false,"transit":false,"station_id":"GST"},{"i_long":106.855437,"time":1,"transit":false,"station_name":"Kramat","line":11,"is_transit":false,"distance":973,"station_id":"KMT","i_lat":-6.193792},{"time":2,"station_id":"POK","is_transit":false,"i_long":106.861737,"i_lat":-6.209188,"transit":false,"station_name":"Pondok Jati","distance":1829,"line":11},{"station_name":"Jatinegara","is_transit":true,"i_lat":-6.215091,"time":9,"distance":1236,"i_long":106.86807400000001,"transit":true,"line":1,"station_id":"JNG"},{"is_transit":false,"station_id":"MTR","i_lat":-6.212485,"i_long":106.858896,"station_name":"Matraman","time":2,"distance":1377,"line":1,"transit":false},{"time":2,"station_id":"MRI","line":2,"transit":false,"i_long":106.84912,"distance":1275,"station_name":"Manggarai","is_transit":false,"i_lat":-6.209883}]]}