{"data":[[{"i_long":106.74273,"station_name":"Pondokranji","station_id":"PDJ","line":6,"i_lat":-6.276362,"time":0,"transit":false,"distance":0,"is_transit":false},{"time":8,"distance":6218,"i_lat":-6.237242,"station_name":"Kebayoran","transit":false,"i_long":106.780334,"station_id":"KBY","line":6,"is_transit":false},{"station_id":"PLM","transit":false,"distance":3737,"station_name":"Palmerah","time":7,"i_lat":-6.207404,"is_transit":false,"line":6,"i_long":106.79689},{"i_lat":-6.185545,"line":1,"time":6,"distance":3191,"is_transit":true,"i_long":106.811091,"station_name":"Tanah Abang","station_id":"THB","transit":true},{"is_transit":false,"transit":false,"station_name":"Karet","distance":2029,"line":1,"i_lat":-6.20132,"station_id":"KAT","time":5,"i_long":106.816351},{"is_transit":false,"distance":471,"time":1,"i_lat":-6.201433,"station_id":"SUDB","station_name":"Sudirman Baru","i_long":106.819881,"line":1,"transit":false},{"is_transit":false,"line":1,"distance":280,"station_id":"SUD","transit":false,"i_lat":-6.202263,"time":1,"i_long":106.822649,"station_name":"Sudirman"},{"is_transit":true,"i_lat":-6.209883,"time":4,"station_name":"Manggarai","transit":true,"distance":3186,"i_long":106.84912,"station_id":"MRI","line":2},{"transit":false,"station_name":"Tebet","station_id":"TEB","distance":2610,"is_transit":false,"i_lat":-6.226659,"i_long":106.857948,"line":2,"time":4},{"time":2,"station_name":"Cawang","station_id":"CW","i_long":106.856607,"distance":1230,"is_transit":false,"transit":false,"line":2,"i_lat":-6.242512},{"transit":false,"line":2,"station_id":"DRN","station_name":"Duren Kalibata","distance":1546,"is_transit":false,"i_lat":-6.255332,"i_long":106.85449,"time":3},{"station_id":"PSMB","time":2,"distance":824,"i_long":106.851577,"i_lat":-6.263214,"line":2,"transit":false,"is_transit":false,"station_name":"Pasar Minggu Baru"},{"station_name":"Pasar Minggu","time":2,"transit":false,"line":2,"distance":2380,"is_transit":false,"station_id":"PSM","i_lat":-6.2842400000000005,"i_long":106.843999},{"station_name":"Tanjung Barat","station_id":"TNT","transit":false,"time":4,"is_transit":false,"distance":2820,"i_lat":-6.3080680000000005,"i_long":106.838896,"line":2},{"distance":2671,"time":3,"i_long":106.832616,"station_id":"LNA","station_name":"Lenteng Agung","i_lat":-6.330363,"line":2,"is_transit":false,"transit":false},{"is_transit":false,"time":2,"i_long":106.834175,"station_name":"Univ. Pancasila","station_id":"UP","transit":false,"distance":1029,"i_lat":-6.339291,"line":2},{"is_transit":false,"station_name":"Univ. Indonesia","time":3,"i_long":106.831474,"station_id":"UI","transit":false,"line":2,"distance":2264,"i_lat":-6.360749},{"i_lat":-6.369073,"line":2,"distance":1109,"station_name":"Pondok Cina","transit":false,"time":2,"i_long":106.831114,"is_transit":false,"station_id":"POC"},{"i_lat":-6.391065,"station_id":"DPB","is_transit":false,"i_long":106.819451,"time":4,"transit":false,"line":2,"distance":2727,"station_name":"Depokbaru"},{"station_name":"Depok","i_lat":-6.405256,"station_id":"DP","time":3,"i_long":106.816926,"transit":false,"line":2,"distance":1584,"is_transit":false}],[{"line":6,"time":0,"distance":0,"station_name":"Pondokranji","transit":false,"i_long":106.74273,"is_transit":false,"station_id":"PDJ","i_lat":-6.276362},{"time":8,"transit":false,"station_name":"Kebayoran","is_transit":false,"i_long":106.780334,"i_lat":-6.237242,"line":6,"station_id":"KBY","distance":6218},{"line":6,"transit":false,"time":7,"station_id":"PLM","i_long":106.79689,"distance":3737,"is_transit":false,"i_lat":-6.207404,"station_name":"Palmerah"},{"transit":true,"time":6,"station_id":"THB","distance":3191,"i_lat":-6.185545,"i_long":106.811091,"line":1,"station_name":"Tanah Abang","is_transit":true},{"i_long":106.800832,"line":1,"time":8,"transit":false,"distance":3632,"i_lat":-6.155215,"station_name":"Duri","station_id":"DU","is_transit":false},{"distance":1230,"station_name":"Angke","time":4,"i_long":106.79867,"is_transit":false,"station_id":"AK","transit":false,"line":1,"i_lat":-6.144674},{"distance":4102,"station_id":"KPB","transit":true,"i_lat":-6.132549,"line":4,"is_transit":true,"time":9,"i_long":106.826365,"station_name":"Kampung Bandan"},{"station_name":"Jakarta Kota","is_transit":true,"time":3,"line":2,"transit":true,"i_lat":-6.137569,"station_id":"JAKK","distance":1364,"i_long":106.812439},{"distance":1264,"i_long":106.820901,"station_name":"Jayakarta","i_lat":-6.141205,"line":2,"time":4,"station_id":"JAY","is_transit":false,"transit":false},{"line":2,"station_name":"Manggabesar","distance":1080,"i_lat":-6.149769,"is_transit":false,"station_id":"MGB","transit":false,"time":2,"i_long":106.82482},{"i_long":106.827103,"station_name":"Sawah Besar","distance":906,"line":2,"time":2,"is_transit":false,"station_id":"SW","transit":false,"i_lat":-6.160725},{"transit":false,"is_transit":false,"time":2,"i_long":106.828284,"distance":1149,"line":2,"station_name":"Juanda","i_lat":-6.166716,"station_id":"JUA"},{"is_transit":false,"transit":false,"time":4,"station_id":"GDD","i_lat":-6.186295,"i_long":106.832183,"station_name":"Gondangdia","line":2,"distance":2015},{"time":3,"is_transit":false,"distance":1750,"station_id":"CKI","i_long":106.840169,"station_name":"Cikini","line":2,"transit":false,"i_lat":-6.198556},{"i_long":106.84912,"station_name":"Manggarai","station_id":"MRI","time":4,"line":2,"i_lat":-6.209883,"is_transit":false,"distance":1590,"transit":false},{"time":4,"i_long":106.857948,"i_lat":-6.226659,"station_id":"TEB","distance":2610,"is_transit":false,"station_name":"Tebet","transit":false,"line":2},{"is_transit":false,"station_name":"Cawang","time":2,"distance":1230,"transit":false,"i_long":106.856607,"i_lat":-6.242512,"station_id":"CW","line":2},{"line":2,"transit":false,"i_long":106.85449,"station_id":"DRN","distance":1546,"station_name":"Duren Kalibata","is_transit":false,"time":3,"i_lat":-6.255332},{"transit":false,"line":2,"i_lat":-6.263214,"time":2,"i_long":106.851577,"is_transit":false,"distance":824,"station_id":"PSMB","station_name":"Pasar Minggu Baru"},{"i_long":106.843999,"station_name":"Pasar Minggu","transit":false,"distance":2380,"time":2,"station_id":"PSM","line":2,"i_lat":-6.2842400000000005,"is_transit":false},{"i_long":106.838896,"line":2,"time":4,"station_id":"TNT","transit":false,"is_transit":false,"station_name":"Tanjung Barat","distance":2820,"i_lat":-6.3080680000000005},{"i_lat":-6.330363,"line":2,"station_name":"Lenteng Agung","station_id":"LNA","transit":false,"is_transit":false,"time":3,"i_long":106.832616,"distance":2671},{"i_long":106.834175,"time":2,"is_transit":false,"distance":1029,"i_lat":-6.339291,"line":2,"transit":false,"station_name":"Univ. Pancasila","station_id":"UP"},{"distance":2264,"i_lat":-6.360749,"station_name":"Univ. Indonesia","time":3,"transit":false,"is_transit":false,"i_long":106.831474,"station_id":"UI","line":2},{"i_long":106.831114,"station_name":"Pondok Cina","i_lat":-6.369073,"time":2,"station_id":"POC","is_transit":false,"distance":1109,"line":2,"transit":false},{"distance":2727,"station_id":"DPB","i_lat":-6.391065,"i_long":106.819451,"is_transit":false,"transit":false,"time":4,"station_name":"Depokbaru","line":2},{"station_id":"DP","time":3,"line":2,"distance":1584,"transit":false,"i_lat":-6.405256,"i_long":106.816926,"station_name":"Depok","is_transit":false}],[{"i_lat":-6.276362,"i_long":106.74273,"station_id":"PDJ","transit":false,"time":0,"line":6,"distance":0,"is_transit":false,"station_name":"Pondokranji"},{"time":8,"is_transit":false,"line":6,"i_lat":-6.237242,"i_long":106.780334,"transit":false,"distance":6218,"station_name":"Kebayoran","station_id":"KBY"},{"distance":3737,"i_lat":-6.207404,"is_transit":false,"time":7,"station_id":"PLM","line":6,"station_name":"Palmerah","transit":false,"i_long":106.79689},{"station_id":"THB","is_transit":true,"i_lat":-6.185545,"transit":true,"time":6,"distance":3191,"i_long":106.811091,"line":1,"station_name":"Tanah Abang"},{"is_transit":false,"distance":3632,"transit":false,"station_id":"DU","i_long":106.800832,"line":1,"i_lat":-6.155215,"station_name":"Duri","time":8},{"time":4,"line":1,"transit":false,"distance":1230,"station_id":"AK","station_name":"Angke","i_long":106.79867,"is_transit":false,"i_lat":-6.144674},{"station_name":"Kampung Bandan","is_transit":true,"transit":true,"time":9,"i_lat":-6.132549,"i_long":106.826365,"station_id":"KPB","line":4,"distance":4102},{"line":11,"i_lat":-6.14505,"transit":false,"station_id":"RJW","time":3,"is_transit":false,"distance":1444,"i_long":106.836569,"station_name":"Rajawali"},{"i_lat":-6.161728,"is_transit":false,"station_id":"KMO","line":11,"transit":false,"station_name":"Kemayoran","time":5,"i_long":106.839204,"distance":1901},{"is_transit":false,"transit":false,"i_lat":-6.174784,"distance":1436,"i_long":106.84368,"line":11,"station_id":"PSE","time":4,"station_name":"Pasar Senen"},{"time":8,"transit":false,"station_id":"GST","station_name":"Gang Sentiong","is_transit":false,"i_lat":-6.185975,"distance":1567,"i_long":106.850107,"line":11},{"station_id":"KMT","i_long":106.855437,"is_transit":false,"distance":973,"station_name":"Kramat","transit":false,"time":1,"i_lat":-6.193792,"line":11},{"distance":1829,"station_name":"Pondok Jati","i_lat":-6.209188,"line":11,"transit":false,"time":2,"station_id":"POK","i_long":106.861737,"is_transit":false},{"distance":1236,"is_transit":true,"i_lat":-6.215091,"i_long":106.86807400000001,"station_id":"JNG","line":1,"station_name":"Jatinegara","time":9,"transit":true},{"is_transit":false,"transit":false,"station_id":"MTR","time":2,"i_lat":-6.212485,"i_long":106.858896,"line":1,"distance":1377,"station_name":"Matraman"},{"station_name":"Manggarai","station_id":"MRI","is_transit":true,"distance":1275,"transit":true,"line":2,"i_long":106.84912,"i_lat":-6.209883,"time":2},{"station_name":"Tebet","i_lat":-6.226659,"i_long":106.857948,"station_id":"TEB","time":4,"line":2,"distance":2610,"transit":false,"is_transit":false},{"i_long":106.856607,"i_lat":-6.242512,"time":2,"station_name":"Cawang","is_transit":false,"transit":false,"distance":1230,"line":2,"station_id":"CW"},{"line":2,"is_transit":false,"station_name":"Duren Kalibata","station_id":"DRN","transit":false,"i_long":106.85449,"distance":1546,"time":3,"i_lat":-6.255332},{"i_lat":-6.263214,"transit":false,"line":2,"station_id":"PSMB","distance":824,"station_name":"Pasar Minggu Baru","is_transit":false,"time":2,"i_long":106.851577},{"station_id":"PSM","line":2,"transit":false,"distance":2380,"i_lat":-6.2842400000000005,"i_long":106.843999,"is_transit":false,"station_name":"Pasar Minggu","time":2},{"time":4,"station_id":"TNT","line":2,"i_lat":-6.3080680000000005,"transit":false,"distance":2820,"is_transit":false,"station_name":"Tanjung Barat","i_long":106.838896},{"station_id":"LNA","is_transit":false,"transit":false,"i_long":106.832616,"line":2,"distance":2671,"station_name":"Lenteng Agung","time":3,"i_lat":-6.330363},{"distance":1029,"station_name":"Univ. Pancasila","transit":false,"time":2,"i_lat":-6.339291,"i_long":106.834175,"line":2,"is_transit":false,"station_id":"UP"},{"station_id":"UI","transit":false,"distance":2264,"is_transit":false,"i_long":106.831474,"station_name":"Univ. Indonesia","time":3,"i_lat":-6.360749,"line":2},{"is_transit":false,"i_lat":-6.369073,"distance":1109,"i_long":106.831114,"transit":false,"time":2,"station_name":"Pondok Cina","line":2,"station_id":"POC"},{"transit":false,"station_name":"Depokbaru","line":2,"i_lat":-6.391065,"is_transit":false,"time":4,"i_long":106.819451,"distance":2727,"station_id":"DPB"},{"station_id":"DP","i_long":106.816926,"line":2,"transit":false,"distance":1584,"i_lat":-6.405256,"station_name":"Depok","is_transit":false,"time":3}]]}