{"data":[[{"is_transit":false,"i_long":106.74273,"station_name":"Pondokranji","line":6,"station_id":"PDJ","time":0,"transit":false,"distance":0,"i_lat":-6.276362},{"station_id":"KBY","distance":6218,"transit":false,"line":6,"time":8,"station_name":"Kebayoran","is_transit":false,"i_lat":-6.237242,"i_long":106.780334},{"station_name":"Palmerah","i_long":106.79689,"line":6,"station_id":"PLM","i_lat":-6.207404,"is_transit":false,"transit":false,"time":7,"distance":3737},{"time":6,"is_transit":true,"distance":3191,"i_long":106.811091,"station_id":"THB","line":1,"transit":true,"i_lat":-6.185545,"station_name":"Tanah Abang"},{"i_long":106.816351,"line":1,"is_transit":false,"station_id":"KAT","station_name":"Karet","i_lat":-6.20132,"transit":false,"time":5,"distance":2029},{"station_id":"SUDB","transit":false,"i_long":106.819881,"line":1,"time":1,"is_transit":false,"distance":471,"i_lat":-6.201433,"station_name":"Sudirman Baru"},{"station_name":"Sudirman","line":1,"i_lat":-6.202263,"is_transit":false,"station_id":"SUD","i_long":106.822649,"transit":false,"time":1,"distance":280},{"line":2,"time":4,"transit":true,"i_lat":-6.209883,"i_long":106.84912,"station_name":"Manggarai","is_transit":true,"station_id":"MRI","distance":3186},{"transit":false,"i_lat":-6.226659,"station_id":"TEB","is_transit":false,"station_name":"Tebet","i_long":106.857948,"distance":2610,"time":4,"line":2},{"distance":1230,"i_lat":-6.242512,"i_long":106.856607,"station_name":"Cawang","time":2,"line":2,"is_transit":false,"transit":false,"station_id":"CW"},{"distance":1546,"line":2,"is_transit":false,"i_long":106.85449,"time":3,"station_name":"Duren Kalibata","transit":false,"station_id":"DRN","i_lat":-6.255332},{"line":2,"time":2,"i_long":106.851577,"distance":824,"i_lat":-6.263214,"station_id":"PSMB","transit":false,"is_transit":false,"station_name":"Pasar Minggu Baru"},{"transit":false,"time":2,"distance":2380,"is_transit":false,"station_name":"Pasar Minggu","i_lat":-6.2842400000000005,"i_long":106.843999,"station_id":"PSM","line":2},{"is_transit":false,"time":4,"station_id":"TNT","line":2,"i_long":106.838896,"transit":false,"distance":2820,"i_lat":-6.3080680000000005,"station_name":"Tanjung Barat"},{"time":3,"is_transit":false,"distance":2671,"station_name":"Lenteng Agung","i_lat":-6.330363,"i_long":106.832616,"line":2,"transit":false,"station_id":"LNA"},{"time":2,"station_id":"UP","transit":false,"station_name":"Univ. Pancasila","distance":1029,"is_transit":false,"i_lat":-6.339291,"i_long":106.834175,"line":2},{"distance":2264,"line":2,"time":3,"transit":false,"station_id":"UI","station_name":"Univ. Indonesia","i_lat":-6.360749,"i_long":106.831474,"is_transit":false},{"time":2,"station_name":"Pondok Cina","transit":false,"is_transit":false,"i_lat":-6.369073,"station_id":"POC","distance":1109,"line":2,"i_long":106.831114},{"station_name":"Depokbaru","transit":false,"is_transit":false,"station_id":"DPB","time":4,"distance":2727,"i_long":106.819451,"line":2,"i_lat":-6.391065},{"line":2,"i_lat":-6.405256,"time":3,"i_long":106.816926,"transit":false,"station_name":"Depok","is_transit":false,"station_id":"DP","distance":1584},{"i_lat":-6.448811,"station_name":"Citayam","transit":true,"time":6,"station_id":"CTA","is_transit":true,"i_long":106.800298,"line":2,"distance":5084},{"is_transit":false,"i_lat":-6.460735,"time":0,"line":21,"transit":false,"station_id":"PDRG","station_name":"Pondok Rajeg","i_long":106.824374,"distance":0}],[{"distance":0,"i_long":106.74273,"station_name":"Pondokranji","i_lat":-6.276362,"line":6,"transit":false,"is_transit":false,"time":0,"station_id":"PDJ"},{"distance":6218,"station_name":"Kebayoran","i_long":106.780334,"is_transit":false,"i_lat":-6.237242,"time":8,"line":6,"transit":false,"station_id":"KBY"},{"station_id":"PLM","station_name":"Palmerah","time":7,"transit":false,"i_long":106.79689,"line":6,"distance":3737,"is_transit":false,"i_lat":-6.207404},{"line":1,"is_transit":true,"i_lat":-6.185545,"station_name":"Tanah Abang","station_id":"THB","distance":3191,"i_long":106.811091,"time":6,"transit":true},{"distance":3632,"transit":false,"time":8,"is_transit":false,"station_id":"DU","i_lat":-6.155215,"i_long":106.800832,"line":1,"station_name":"Duri"},{"station_id":"AK","i_long":106.79867,"transit":false,"time":4,"line":1,"station_name":"Angke","distance":1230,"i_lat":-6.144674,"is_transit":false},{"i_lat":-6.132549,"time":9,"station_id":"KPB","i_long":106.826365,"line":4,"is_transit":true,"station_name":"Kampung Bandan","transit":true,"distance":4102},{"line":2,"transit":true,"is_transit":true,"distance":1364,"station_id":"JAKK","i_long":106.812439,"time":3,"i_lat":-6.137569,"station_name":"Jakarta Kota"},{"station_name":"Jayakarta","line":2,"time":4,"distance":1264,"is_transit":false,"i_long":106.820901,"i_lat":-6.141205,"station_id":"JAY","transit":false},{"station_id":"MGB","distance":1080,"transit":false,"time":2,"i_long":106.82482,"line":2,"station_name":"Manggabesar","is_transit":false,"i_lat":-6.149769},{"time":2,"i_long":106.827103,"transit":false,"line":2,"distance":906,"i_lat":-6.160725,"is_transit":false,"station_id":"SW","station_name":"Sawah Besar"},{"is_transit":false,"transit":false,"station_name":"Juanda","i_lat":-6.166716,"i_long":106.828284,"distance":1149,"line":2,"station_id":"JUA","time":2},{"distance":2015,"station_name":"Gondangdia","i_long":106.832183,"transit":false,"line":2,"is_transit":false,"time":4,"station_id":"GDD","i_lat":-6.186295},{"transit":false,"station_name":"Cikini","is_transit":false,"distance":1750,"line":2,"i_long":106.840169,"station_id":"CKI","i_lat":-6.198556,"time":3},{"time":4,"station_name":"Manggarai","distance":1590,"line":2,"transit":false,"i_long":106.84912,"is_transit":false,"i_lat":-6.209883,"station_id":"MRI"},{"i_lat":-6.226659,"i_long":106.857948,"is_transit":false,"station_id":"TEB","time":4,"station_name":"Tebet","distance":2610,"transit":false,"line":2},{"station_id":"CW","station_name":"Cawang","distance":1230,"line":2,"is_transit":false,"transit":false,"time":2,"i_long":106.856607,"i_lat":-6.242512},{"is_transit":false,"time":3,"line":2,"station_name":"Duren Kalibata","station_id":"DRN","i_long":106.85449,"transit":false,"i_lat":-6.255332,"distance":1546},{"line":2,"is_transit":false,"i_lat":-6.263214,"station_id":"PSMB","station_name":"Pasar Minggu Baru","distance":824,"transit":false,"i_long":106.851577,"time":2},{"station_name":"Pasar Minggu","is_transit":false,"distance":2380,"time":2,"i_lat":-6.2842400000000005,"transit":false,"line":2,"i_long":106.843999,"station_id":"PSM"},{"i_long":106.838896,"station_name":"Tanjung Barat","time":4,"transit":false,"is_transit":false,"station_id":"TNT","distance":2820,"i_lat":-6.3080680000000005,"line":2},{"station_id":"LNA","distance":2671,"i_long":106.832616,"transit":false,"i_lat":-6.330363,"is_transit":false,"station_name":"Lenteng Agung","line":2,"time":3},{"station_name":"Univ. Pancasila","distance":1029,"transit":false,"i_lat":-6.339291,"line":2,"is_transit":false,"time":2,"station_id":"UP","i_long":106.834175},{"distance":2264,"time":3,"is_transit":false,"transit":false,"line":2,"i_lat":-6.360749,"i_long":106.831474,"station_id":"UI","station_name":"Univ. Indonesia"},{"i_long":106.831114,"is_transit":false,"line":2,"i_lat":-6.369073,"transit":false,"time":2,"distance":1109,"station_id":"POC","station_name":"Pondok Cina"},{"time":4,"transit":false,"distance":2727,"station_id":"DPB","i_lat":-6.391065,"i_long":106.819451,"station_name":"Depokbaru","is_transit":false,"line":2},{"time":3,"is_transit":false,"transit":false,"line":2,"station_id":"DP","distance":1584,"station_name":"Depok","i_lat":-6.405256,"i_long":106.816926},{"station_id":"CTA","i_lat":-6.448811,"is_transit":true,"line":2,"time":6,"station_name":"Citayam","i_long":106.800298,"distance":5084,"transit":true},{"transit":false,"line":21,"distance":0,"time":0,"i_long":106.824374,"station_name":"Pondok Rajeg","is_transit":false,"station_id":"PDRG","i_lat":-6.460735}],[{"distance":0,"line":6,"station_name":"Pondokranji","time":0,"station_id":"PDJ","is_transit":false,"transit":false,"i_lat":-6.276362,"i_long":106.74273},{"i_long":106.780334,"station_name":"Kebayoran","line":6,"distance":6218,"station_id":"KBY","i_lat":-6.237242,"is_transit":false,"time":8,"transit":false},{"transit":false,"station_id":"PLM","station_name":"Palmerah","is_transit":false,"time":7,"distance":3737,"i_long":106.79689,"line":6,"i_lat":-6.207404},{"i_lat":-6.185545,"station_name":"Tanah Abang","i_long":106.811091,"line":1,"is_transit":true,"station_id":"THB","time":6,"transit":true,"distance":3191},{"i_long":106.800832,"transit":false,"distance":3632,"i_lat":-6.155215,"line":1,"station_name":"Duri","time":8,"is_transit":false,"station_id":"DU"},{"line":1,"transit":false,"is_transit":false,"time":4,"i_long":106.79867,"station_name":"Angke","distance":1230,"i_lat":-6.144674,"station_id":"AK"},{"station_name":"Kampung Bandan","distance":4102,"is_transit":true,"i_long":106.826365,"transit":true,"line":4,"time":9,"station_id":"KPB","i_lat":-6.132549},{"line":11,"is_transit":false,"transit":false,"station_id":"RJW","distance":1444,"i_lat":-6.14505,"i_long":106.836569,"station_name":"Rajawali","time":3},{"station_id":"KMO","i_lat":-6.161728,"is_transit":false,"station_name":"Kemayoran","distance":1901,"line":11,"time":5,"i_long":106.839204,"transit":false},{"time":4,"is_transit":false,"i_long":106.84368,"station_id":"PSE","distance":1436,"line":11,"station_name":"Pasar Senen","i_lat":-6.174784,"transit":false},{"transit":false,"line":11,"station_name":"Gang Sentiong","is_transit":false,"station_id":"GST","time":8,"i_lat":-6.185975,"i_long":106.850107,"distance":1567},{"i_lat":-6.193792,"is_transit":false,"line":11,"station_name":"Kramat","time":1,"distance":973,"transit":false,"i_long":106.855437,"station_id":"KMT"},{"station_name":"Pondok Jati","i_lat":-6.209188,"time":2,"transit":false,"station_id":"POK","line":11,"distance":1829,"i_long":106.861737,"is_transit":false},{"transit":true,"i_long":106.86807400000001,"time":9,"is_transit":true,"distance":1236,"line":1,"station_name":"Jatinegara","i_lat":-6.215091,"station_id":"JNG"},{"line":1,"is_transit":false,"station_id":"MTR","transit":false,"time":2,"distance":1377,"i_lat":-6.212485,"i_long":106.858896,"station_name":"Matraman"},{"station_name":"Manggarai","station_id":"MRI","i_lat":-6.209883,"time":2,"is_transit":true,"distance":1275,"i_long":106.84912,"line":2,"transit":true},{"line":2,"distance":2610,"transit":false,"i_lat":-6.226659,"time":4,"i_long":106.857948,"station_id":"TEB","station_name":"Tebet","is_transit":false},{"is_transit":false,"distance":1230,"station_id":"CW","i_lat":-6.242512,"transit":false,"station_name":"Cawang","i_long":106.856607,"time":2,"line":2},{"transit":false,"time":3,"is_transit":false,"i_lat":-6.255332,"station_id":"DRN","line":2,"station_name":"Duren Kalibata","i_long":106.85449,"distance":1546},{"is_transit":false,"station_id":"PSMB","line":2,"transit":false,"time":2,"i_lat":-6.263214,"distance":824,"station_name":"Pasar Minggu Baru","i_long":106.851577},{"line":2,"transit":false,"i_long":106.843999,"station_id":"PSM","distance":2380,"time":2,"station_name":"Pasar Minggu","i_lat":-6.2842400000000005,"is_transit":false},{"station_name":"Tanjung Barat","i_long":106.838896,"i_lat":-6.3080680000000005,"transit":false,"line":2,"is_transit":false,"time":4,"distance":2820,"station_id":"TNT"},{"distance":2671,"i_long":106.832616,"time":3,"i_lat":-6.330363,"is_transit":false,"station_name":"Lenteng Agung","line":2,"transit":false,"station_id":"LNA"},{"time":2,"i_lat":-6.339291,"transit":false,"station_name":"Univ. Pancasila","station_id":"UP","distance":1029,"is_transit":false,"line":2,"i_long":106.834175},{"i_long":106.831474,"i_lat":-6.360749,"line":2,"station_name":"Univ. Indonesia","transit":false,"time":3,"station_id":"UI","distance":2264,"is_transit":false},{"time":2,"is_transit":false,"station_id":"POC","distance":1109,"line":2,"i_lat":-6.369073,"transit":false,"station_name":"Pondok Cina","i_long":106.831114},{"is_transit":false,"time":4,"transit":false,"i_lat":-6.391065,"station_id":"DPB","distance":2727,"station_name":"Depokbaru","line":2,"i_long":106.819451},{"station_id":"DP","time":3,"station_name":"Depok","i_lat":-6.405256,"i_long":106.816926,"distance":1584,"transit":false,"line":2,"is_transit":false},{"i_lat":-6.448811,"i_long":106.800298,"distance":5084,"is_transit":true,"transit":true,"station_id":"CTA","station_name":"Citayam","line":2,"time":6},{"station_id":"PDRG","distance":0,"is_transit":false,"transit":false,"i_lat":-6.460735,"i_long":106.824374,"station_name":"Pondok Rajeg","line":21,"time":0}]]}