{"data":[[{"line":6,"is_transit":false,"distance":0,"time":0,"station_name":"Pondokranji","transit":false,"station_id":"PDJ","i_lat":-6.276362,"i_long":106.74273},{"i_long":106.780334,"station_name":"Kebayoran","distance":6218,"station_id":"KBY","time":8,"is_transit":false,"i_lat":-6.237242,"line":6,"transit":false},{"line":6,"station_id":"PLM","station_name":"Palmerah","i_long":106.79689,"is_transit":false,"transit":false,"distance":3737,"i_lat":-6.207404,"time":7},{"i_long":106.811091,"station_name":"Tanah Abang","station_id":"THB","is_transit":true,"transit":true,"time":6,"i_lat":-6.185545,"line":1,"distance":3191},{"transit":false,"i_lat":-6.20132,"i_long":106.816351,"time":5,"station_id":"KAT","is_transit":false,"distance":2029,"station_name":"Karet","line":1},{"transit":false,"time":1,"is_transit":false,"i_lat":-6.201433,"i_long":106.819881,"station_id":"SUDB","line":1,"distance":471,"station_name":"Sudirman Baru"},{"is_transit":false,"i_lat":-6.202263,"i_long":106.822649,"distance":280,"station_name":"Sudirman","line":1,"station_id":"SUD","transit":false,"time":1},{"distance":3186,"station_name":"Manggarai","transit":true,"i_lat":-6.209883,"station_id":"MRI","i_long":106.84912,"line":0,"is_transit":true,"time":4},{"i_lat":-6.198556,"i_long":106.840169,"distance":1590,"time":4,"station_id":"CKI","line":0,"is_transit":false,"station_name":"Cikini","transit":false}],[{"is_transit":false,"station_name":"Pondokranji","transit":false,"i_lat":-6.276362,"i_long":106.74273,"time":0,"line":6,"station_id":"PDJ","distance":0},{"station_name":"Kebayoran","is_transit":false,"distance":6218,"transit":false,"line":6,"station_id":"KBY","i_long":106.780334,"time":8,"i_lat":-6.237242},{"station_name":"Palmerah","time":7,"i_long":106.79689,"transit":false,"i_lat":-6.207404,"is_transit":false,"line":6,"station_id":"PLM","distance":3737},{"distance":3191,"station_id":"THB","time":6,"station_name":"Tanah Abang","transit":true,"i_lat":-6.185545,"i_long":106.811091,"is_transit":true,"line":1},{"transit":true,"station_id":"DU","i_lat":-6.155215,"line":1,"is_transit":true,"time":8,"station_name":"Duri","distance":3632,"i_long":106.800832},{"time":4,"distance":1230,"transit":false,"station_id":"AK","station_name":"Angke","i_long":106.79867,"is_transit":false,"i_lat":-6.144674,"line":0},{"time":9,"transit":false,"distance":4102,"i_lat":-6.132549,"station_name":"Kampung Bandan","line":0,"is_transit":true,"station_id":"KPB","i_long":106.826365},{"line":0,"is_transit":true,"station_name":"Jakarta Kota","i_long":106.812439,"transit":true,"i_lat":-6.137569,"time":3,"distance":1364,"station_id":"JAKK"},{"station_id":"JAY","distance":1264,"station_name":"Jayakarta","transit":false,"is_transit":false,"time":4,"i_lat":-6.141205,"i_long":106.820901,"line":7},{"station_id":"MGB","i_long":106.82482,"station_name":"Manggabesar","line":2,"i_lat":-6.149769,"transit":false,"is_transit":false,"distance":1080,"time":2},{"transit":false,"i_long":106.827103,"station_name":"Sawah Besar","time":2,"i_lat":-6.160725,"is_transit":false,"line":2,"distance":906,"station_id":"SW"},{"transit":false,"i_long":106.828284,"line":2,"is_transit":false,"station_name":"Juanda","i_lat":-6.166716,"station_id":"JUA","time":2,"distance":1149},{"station_name":"Gondangdia","i_lat":-6.186295,"is_transit":false,"station_id":"GDD","transit":false,"line":2,"i_long":106.832183,"distance":2015,"time":4},{"station_id":"CKI","is_transit":false,"i_long":106.840169,"line":0,"i_lat":-6.198556,"time":3,"distance":1750,"transit":false,"station_name":"Cikini"}],[{"line":6,"i_lat":-6.276362,"distance":0,"station_name":"Pondokranji","transit":false,"time":0,"i_long":106.74273,"station_id":"PDJ","is_transit":false},{"i_long":106.780334,"i_lat":-6.237242,"line":6,"time":8,"station_name":"Kebayoran","transit":false,"is_transit":false,"distance":6218,"station_id":"KBY"},{"transit":false,"distance":3737,"station_id":"PLM","is_transit":false,"i_long":106.79689,"station_name":"Palmerah","time":7,"i_lat":-6.207404,"line":6},{"time":6,"i_lat":-6.185545,"distance":3191,"station_name":"Tanah Abang","station_id":"THB","is_transit":true,"transit":true,"i_long":106.811091,"line":1},{"is_transit":true,"station_id":"DU","time":8,"line":1,"transit":true,"station_name":"Duri","i_lat":-6.155215,"distance":3632,"i_long":106.800832},{"line":0,"station_id":"AK","is_transit":false,"time":4,"i_long":106.79867,"transit":false,"distance":1230,"i_lat":-6.144674,"station_name":"Angke"},{"transit":true,"station_id":"KPB","line":0,"station_name":"Kampung Bandan","i_lat":-6.132549,"is_transit":true,"i_long":106.826365,"time":9,"distance":4102},{"i_lat":-6.14505,"i_long":106.836569,"transit":false,"station_name":"Rajawali","line":11,"station_id":"RJW","is_transit":false,"distance":1444,"time":3},{"time":5,"transit":false,"i_lat":-6.161728,"distance":1901,"line":11,"station_id":"KMO","is_transit":false,"i_long":106.839204,"station_name":"Kemayoran"},{"line":11,"transit":false,"is_transit":false,"distance":1436,"i_long":106.84368,"station_name":"Pasar Senen","station_id":"PSE","i_lat":-6.174784,"time":4},{"station_id":"GST","time":8,"distance":1567,"is_transit":false,"station_name":"Gang Sentiong","transit":false,"i_lat":-6.185975,"i_long":106.850107,"line":11},{"transit":false,"i_long":106.855437,"station_id":"KMT","is_transit":false,"line":11,"i_lat":-6.193792,"distance":973,"time":1,"station_name":"Kramat"},{"line":11,"transit":false,"station_id":"POK","distance":1829,"station_name":"Pondok Jati","i_lat":-6.209188,"is_transit":false,"time":2,"i_long":106.861737},{"distance":1236,"station_name":"Jatinegara","i_lat":-6.215091,"transit":true,"i_long":106.86807400000001,"is_transit":true,"time":9,"station_id":"JNG","line":0},{"i_lat":-6.212485,"distance":1377,"time":2,"line":1,"transit":false,"station_name":"Matraman","is_transit":false,"i_long":106.858896,"station_id":"MTR"},{"line":0,"station_id":"MRI","station_name":"Manggarai","i_lat":-6.209883,"i_long":106.84912,"is_transit":true,"distance":1275,"transit":true,"time":2},{"line":0,"time":4,"station_name":"Cikini","station_id":"CKI","transit":false,"i_lat":-6.198556,"distance":1590,"i_long":106.840169,"is_transit":false}],[{"station_name":"Pondokranji","i_lat":-6.276362,"station_id":"PDJ","i_long":106.74273,"time":0,"distance":0,"is_transit":false,"line":6,"transit":false},{"station_id":"KBY","line":6,"i_long":106.780334,"is_transit":false,"distance":6218,"station_name":"Kebayoran","transit":false,"time":8,"i_lat":-6.237242},{"i_lat":-6.207404,"station_name":"Palmerah","i_long":106.79689,"station_id":"PLM","is_transit":false,"distance":3737,"transit":false,"line":6,"time":7},{"is_transit":true,"i_lat":-6.185545,"time":6,"distance":3191,"station_name":"Tanah Abang","transit":true,"station_id":"THB","i_long":106.811091,"line":1},{"station_id":"KAT","is_transit":false,"i_long":106.816351,"distance":2029,"i_lat":-6.20132,"time":5,"transit":false,"station_name":"Karet","line":1},{"transit":false,"station_id":"SUDB","is_transit":false,"distance":471,"time":1,"i_lat":-6.201433,"station_name":"Sudirman Baru","i_long":106.819881,"line":1},{"station_name":"Sudirman","i_lat":-6.202263,"time":1,"distance":280,"transit":false,"station_id":"SUD","is_transit":false,"i_long":106.822649,"line":1},{"is_transit":true,"distance":3186,"transit":false,"i_long":106.84912,"station_name":"Manggarai","time":4,"station_id":"MRI","line":0,"i_lat":-6.209883},{"is_transit":false,"distance":1275,"time":2,"station_name":"Matraman","line":1,"i_lat":-6.212485,"station_id":"MTR","i_long":106.858896,"transit":false},{"station_id":"JNG","i_long":106.86807400000001,"distance":1377,"station_name":"Jatinegara","i_lat":-6.215091,"time":8,"is_transit":true,"line":0,"transit":true},{"station_id":"POK","station_name":"Pondok Jati","is_transit":false,"i_long":106.861737,"line":11,"transit":false,"i_lat":-6.209188,"distance":1236,"time":2},{"i_lat":-6.193792,"time":2,"transit":false,"station_name":"Kramat","i_long":106.855437,"distance":1829,"station_id":"KMT","is_transit":false,"line":11},{"i_lat":-6.185975,"line":11,"distance":973,"is_transit":false,"time":1,"station_id":"GST","i_long":106.850107,"station_name":"Gang Sentiong","transit":false},{"is_transit":false,"time":8,"i_lat":-6.174784,"i_long":106.84368,"station_name":"Pasar Senen","transit":false,"station_id":"PSE","distance":1567,"line":11},{"transit":false,"is_transit":false,"line":11,"station_name":"Kemayoran","time":4,"i_long":106.839204,"distance":1436,"i_lat":-6.161728,"station_id":"KMO"},{"i_long":106.836569,"time":5,"station_id":"RJW","distance":1901,"transit":false,"station_name":"Rajawali","i_lat":-6.14505,"line":11,"is_transit":false},{"i_long":106.826365,"station_id":"KPB","is_transit":true,"station_name":"Kampung Bandan","time":3,"i_lat":-6.132549,"transit":true,"distance":1444,"line":0},{"station_id":"JAKK","station_name":"Jakarta Kota","time":3,"distance":1364,"is_transit":true,"line":0,"transit":true,"i_lat":-6.137569,"i_long":106.812439},{"station_id":"JAY","station_name":"Jayakarta","line":7,"is_transit":false,"distance":1264,"transit":false,"i_lat":-6.141205,"i_long":106.820901,"time":4},{"station_id":"MGB","i_lat":-6.149769,"time":2,"distance":1080,"station_name":"Manggabesar","line":2,"is_transit":false,"transit":false,"i_long":106.82482},{"transit":false,"time":2,"i_lat":-6.160725,"i_long":106.827103,"line":2,"station_id":"SW","distance":906,"station_name":"Sawah Besar","is_transit":false},{"time":2,"distance":1149,"is_transit":false,"line":2,"transit":false,"station_id":"JUA","i_lat":-6.166716,"station_name":"Juanda","i_long":106.828284},{"station_name":"Gondangdia","time":4,"i_long":106.832183,"is_transit":false,"transit":false,"station_id":"GDD","distance":2015,"i_lat":-6.186295,"line":2},{"station_id":"CKI","i_long":106.840169,"is_transit":false,"station_name":"Cikini","transit":false,"line":0,"i_lat":-6.198556,"time":3,"distance":1750}]]}