{"data":[[{"time":0,"i_long":106.74273,"transit":false,"line":6,"i_lat":-6.276362,"station_id":"PDJ","station_name":"Pondokranji","is_transit":false,"distance":0},{"is_transit":false,"transit":false,"station_name":"Jurangmangu","line":6,"time":3,"distance":2179,"i_lat":-6.288927,"i_long":106.728916,"station_id":"JMU"},{"transit":false,"time":4,"i_lat":-6.296963,"is_transit":false,"line":6,"station_name":"Sudimara","i_long":106.712277,"station_id":"SDM","distance":1994},{"time":6,"i_lat":-6.314823,"line":6,"i_long":106.675475,"distance":4566,"station_name":"Rawa Buntu","transit":false,"station_id":"RU","is_transit":false},{"station_id":"SRP","station_name":"Serpong","time":4,"line":6,"is_transit":false,"distance":2413,"i_lat":-6.319871,"transit":false,"i_long":106.66566},{"station_id":"CSK","distance":1784,"i_lat":-6.32484,"line":3,"i_long":106.640411,"station_name":"Cisauk","transit":false,"time":4,"is_transit":false},{"time":4,"station_name":"Cicayur","is_transit":false,"distance":2519,"i_long":106.617853,"line":3,"transit":false,"station_id":"CC","i_lat":-6.329547}]]}