{"data":[[{"station_name":"Pondokranji","station_id":"PDJ","i_lat":-6.276362,"is_transit":false,"i_long":106.74273,"line":6,"time":0,"distance":0,"transit":false},{"distance":6218,"transit":false,"station_id":"KBY","is_transit":false,"i_long":106.780334,"line":6,"time":8,"station_name":"Kebayoran","i_lat":-6.237242},{"station_name":"Palmerah","line":6,"time":7,"i_lat":-6.207404,"distance":3737,"i_long":106.79689,"station_id":"PLM","is_transit":false,"transit":false},{"distance":3191,"is_transit":true,"station_name":"Tanah Abang","transit":true,"time":6,"i_long":106.811091,"i_lat":-6.185545,"station_id":"THB","line":1},{"station_name":"Karet","transit":false,"station_id":"KAT","is_transit":false,"distance":2029,"i_long":106.816351,"line":1,"i_lat":-6.20132,"time":5},{"i_lat":-6.201433,"line":1,"i_long":106.819881,"is_transit":false,"station_id":"SUDB","distance":471,"time":1,"transit":false,"station_name":"Sudirman Baru"},{"distance":280,"is_transit":false,"transit":false,"i_long":106.822649,"time":1,"station_id":"SUD","station_name":"Sudirman","line":1,"i_lat":-6.202263},{"station_name":"Manggarai","station_id":"MRI","distance":3186,"line":0,"time":4,"is_transit":true,"transit":true,"i_long":106.84912,"i_lat":-6.209883},{"i_lat":-6.226659,"line":2,"transit":false,"station_name":"Tebet","i_long":106.857948,"time":4,"distance":2610,"station_id":"TEB","is_transit":false},{"is_transit":false,"distance":1230,"station_name":"Cawang","i_long":106.856607,"time":2,"station_id":"CW","i_lat":-6.242512,"line":0,"transit":false},{"station_name":"Duren Kalibata","is_transit":false,"i_lat":-6.255332,"station_id":"DRN","i_long":106.85449,"transit":false,"time":3,"line":0,"distance":1546},{"line":2,"distance":824,"i_lat":-6.263214,"i_long":106.851577,"time":2,"station_name":"Pasar Minggu Baru","station_id":"PSMB","is_transit":false,"transit":false},{"station_id":"PSM","station_name":"Pasar Minggu","i_lat":-6.2842400000000005,"time":2,"i_long":106.843999,"is_transit":false,"distance":2380,"transit":false,"line":2},{"distance":2820,"i_long":106.838896,"station_name":"Tanjung Barat","line":2,"station_id":"TNT","transit":false,"i_lat":-6.3080680000000005,"time":4,"is_transit":false},{"i_lat":-6.330363,"station_id":"LNA","station_name":"Lenteng Agung","distance":2671,"transit":false,"time":3,"is_transit":false,"i_long":106.832616,"line":2},{"line":2,"station_name":"Univ. Pancasila","distance":1029,"is_transit":false,"i_lat":-6.339291,"station_id":"UP","i_long":106.834175,"transit":false,"time":2},{"time":3,"line":2,"i_long":106.831474,"i_lat":-6.360749,"station_name":"Univ. Indonesia","station_id":"UI","is_transit":false,"distance":2264,"transit":false}],[{"time":0,"distance":0,"i_long":106.74273,"station_name":"Pondokranji","i_lat":-6.276362,"line":6,"transit":false,"station_id":"PDJ","is_transit":false},{"i_lat":-6.237242,"is_transit":false,"distance":6218,"station_id":"KBY","station_name":"Kebayoran","time":8,"i_long":106.780334,"line":6,"transit":false},{"i_lat":-6.207404,"i_long":106.79689,"time":7,"is_transit":false,"transit":false,"station_name":"Palmerah","station_id":"PLM","distance":3737,"line":6},{"i_lat":-6.185545,"transit":true,"line":1,"i_long":106.811091,"time":6,"station_id":"THB","is_transit":true,"distance":3191,"station_name":"Tanah Abang"},{"i_lat":-6.155215,"line":1,"i_long":106.800832,"time":8,"distance":3632,"station_name":"Duri","is_transit":true,"transit":true,"station_id":"DU"},{"i_lat":-6.144674,"time":4,"transit":false,"station_name":"Angke","distance":1230,"i_long":106.79867,"is_transit":false,"line":0,"station_id":"AK"},{"transit":false,"is_transit":true,"station_id":"KPB","i_long":106.826365,"line":0,"distance":4102,"time":9,"station_name":"Kampung Bandan","i_lat":-6.132549},{"distance":1364,"line":0,"time":3,"is_transit":true,"station_name":"Jakarta Kota","station_id":"JAKK","transit":true,"i_lat":-6.137569,"i_long":106.812439},{"time":4,"is_transit":false,"i_long":106.820901,"line":7,"i_lat":-6.141205,"distance":1264,"transit":false,"station_id":"JAY","station_name":"Jayakarta"},{"distance":1080,"transit":false,"i_long":106.82482,"station_id":"MGB","line":2,"station_name":"Manggabesar","time":2,"is_transit":false,"i_lat":-6.149769},{"is_transit":false,"transit":false,"i_lat":-6.160725,"station_name":"Sawah Besar","line":2,"time":2,"distance":906,"i_long":106.827103,"station_id":"SW"},{"station_id":"JUA","i_lat":-6.166716,"i_long":106.828284,"transit":false,"line":2,"station_name":"Juanda","is_transit":false,"time":2,"distance":1149},{"time":4,"distance":2015,"transit":false,"station_name":"Gondangdia","i_long":106.832183,"station_id":"GDD","i_lat":-6.186295,"line":2,"is_transit":false},{"distance":1750,"station_name":"Cikini","line":0,"is_transit":false,"transit":false,"time":3,"station_id":"CKI","i_lat":-6.198556,"i_long":106.840169},{"distance":1590,"i_long":106.84912,"time":4,"station_name":"Manggarai","i_lat":-6.209883,"station_id":"MRI","line":0,"transit":true,"is_transit":true},{"is_transit":false,"transit":false,"station_name":"Tebet","i_lat":-6.226659,"line":2,"station_id":"TEB","time":4,"distance":2610,"i_long":106.857948},{"transit":false,"i_lat":-6.242512,"is_transit":false,"station_name":"Cawang","distance":1230,"i_long":106.856607,"time":2,"line":0,"station_id":"CW"},{"station_id":"DRN","i_long":106.85449,"transit":false,"distance":1546,"time":3,"i_lat":-6.255332,"is_transit":false,"station_name":"Duren Kalibata","line":0},{"station_id":"PSMB","time":2,"distance":824,"is_transit":false,"station_name":"Pasar Minggu Baru","transit":false,"i_lat":-6.263214,"line":2,"i_long":106.851577},{"transit":false,"i_long":106.843999,"station_name":"Pasar Minggu","line":2,"is_transit":false,"station_id":"PSM","time":2,"i_lat":-6.2842400000000005,"distance":2380},{"i_lat":-6.3080680000000005,"time":4,"is_transit":false,"station_name":"Tanjung Barat","transit":false,"i_long":106.838896,"line":2,"distance":2820,"station_id":"TNT"},{"line":2,"i_long":106.832616,"distance":2671,"time":3,"station_id":"LNA","station_name":"Lenteng Agung","is_transit":false,"transit":false,"i_lat":-6.330363},{"time":2,"distance":1029,"i_long":106.834175,"i_lat":-6.339291,"transit":false,"station_name":"Univ. Pancasila","line":2,"station_id":"UP","is_transit":false},{"line":2,"time":3,"station_id":"UI","i_long":106.831474,"distance":2264,"transit":false,"i_lat":-6.360749,"station_name":"Univ. Indonesia","is_transit":false}],[{"is_transit":false,"station_id":"PDJ","time":0,"i_lat":-6.276362,"distance":0,"station_name":"Pondokranji","transit":false,"i_long":106.74273,"line":6},{"station_id":"KBY","i_long":106.780334,"station_name":"Kebayoran","time":8,"line":6,"i_lat":-6.237242,"is_transit":false,"transit":false,"distance":6218},{"time":7,"station_name":"Palmerah","station_id":"PLM","i_long":106.79689,"line":6,"transit":false,"i_lat":-6.207404,"distance":3737,"is_transit":false},{"line":1,"transit":true,"time":6,"station_id":"THB","station_name":"Tanah Abang","distance":3191,"i_lat":-6.185545,"i_long":106.811091,"is_transit":true},{"station_name":"Duri","station_id":"DU","is_transit":true,"transit":true,"line":1,"time":8,"i_lat":-6.155215,"i_long":106.800832,"distance":3632},{"time":4,"line":0,"distance":1230,"i_long":106.79867,"station_id":"AK","station_name":"Angke","is_transit":false,"i_lat":-6.144674,"transit":false},{"distance":4102,"time":9,"i_lat":-6.132549,"line":0,"is_transit":true,"transit":true,"i_long":106.826365,"station_id":"KPB","station_name":"Kampung Bandan"},{"distance":1444,"transit":false,"i_long":106.836569,"i_lat":-6.14505,"is_transit":false,"line":11,"time":3,"station_name":"Rajawali","station_id":"RJW"},{"line":11,"time":5,"transit":false,"i_lat":-6.161728,"is_transit":false,"i_long":106.839204,"station_name":"Kemayoran","station_id":"KMO","distance":1901},{"line":11,"time":4,"station_id":"PSE","is_transit":false,"station_name":"Pasar Senen","distance":1436,"transit":false,"i_long":106.84368,"i_lat":-6.174784},{"is_transit":false,"transit":false,"i_lat":-6.185975,"distance":1567,"station_name":"Gang Sentiong","station_id":"GST","line":11,"time":8,"i_long":106.850107},{"distance":973,"station_name":"Kramat","i_lat":-6.193792,"i_long":106.855437,"is_transit":false,"transit":false,"line":11,"time":1,"station_id":"KMT"},{"transit":false,"station_id":"POK","i_lat":-6.209188,"distance":1829,"station_name":"Pondok Jati","line":11,"is_transit":false,"i_long":106.861737,"time":2},{"distance":1236,"line":0,"time":9,"station_id":"JNG","i_long":106.86807400000001,"station_name":"Jatinegara","is_transit":true,"transit":true,"i_lat":-6.215091},{"time":2,"distance":1377,"line":1,"station_name":"Matraman","station_id":"MTR","is_transit":false,"transit":false,"i_lat":-6.212485,"i_long":106.858896},{"time":2,"distance":1275,"i_long":106.84912,"station_name":"Manggarai","line":0,"transit":true,"is_transit":true,"station_id":"MRI","i_lat":-6.209883},{"i_long":106.857948,"station_name":"Tebet","i_lat":-6.226659,"transit":false,"is_transit":false,"distance":2610,"time":4,"line":2,"station_id":"TEB"},{"i_long":106.856607,"is_transit":false,"transit":false,"distance":1230,"line":0,"station_name":"Cawang","i_lat":-6.242512,"time":2,"station_id":"CW"},{"is_transit":false,"i_long":106.85449,"transit":false,"line":0,"time":3,"i_lat":-6.255332,"distance":1546,"station_name":"Duren Kalibata","station_id":"DRN"},{"i_lat":-6.263214,"station_name":"Pasar Minggu Baru","transit":false,"time":2,"station_id":"PSMB","is_transit":false,"distance":824,"line":2,"i_long":106.851577},{"transit":false,"i_lat":-6.2842400000000005,"time":2,"station_id":"PSM","distance":2380,"line":2,"is_transit":false,"i_long":106.843999,"station_name":"Pasar Minggu"},{"i_long":106.838896,"distance":2820,"line":2,"transit":false,"station_name":"Tanjung Barat","is_transit":false,"time":4,"station_id":"TNT","i_lat":-6.3080680000000005},{"distance":2671,"station_name":"Lenteng Agung","station_id":"LNA","transit":false,"line":2,"i_long":106.832616,"i_lat":-6.330363,"time":3,"is_transit":false},{"i_long":106.834175,"i_lat":-6.339291,"transit":false,"line":2,"station_name":"Univ. Pancasila","is_transit":false,"station_id":"UP","distance":1029,"time":2},{"i_long":106.831474,"distance":2264,"time":3,"line":2,"transit":false,"i_lat":-6.360749,"is_transit":false,"station_id":"UI","station_name":"Univ. Indonesia"}]]}