{"data":[[{"is_transit":false,"transit":false,"time":0,"i_long":106.74273,"station_name":"Pondokranji","station_id":"PDJ","i_lat":-6.276362,"line":6,"distance":0},{"i_long":106.780334,"station_id":"KBY","i_lat":-6.237242,"line":6,"distance":6218,"is_transit":false,"transit":false,"time":8,"station_name":"Kebayoran"},{"i_long":106.79689,"station_id":"PLM","is_transit":false,"distance":3737,"time":7,"transit":false,"line":6,"i_lat":-6.207404,"station_name":"Palmerah"},{"i_lat":-6.185545,"is_transit":true,"time":6,"distance":3191,"line":1,"station_name":"Tanah Abang","transit":true,"i_long":106.811091,"station_id":"THB"},{"time":8,"i_lat":-6.155215,"station_id":"DU","i_long":106.800832,"line":1,"is_transit":true,"distance":3632,"transit":true,"station_name":"Duri"},{"transit":false,"time":3,"i_lat":-6.162021,"is_transit":false,"line":5,"i_long":106.788277,"station_id":"GRG","distance":1700,"station_name":"Grogol"},{"distance":2036,"station_id":"PSG","transit":false,"time":2,"is_transit":false,"i_lat":-6.161433,"station_name":"Pesing","i_long":106.771379,"line":5},{"transit":false,"line":5,"station_name":"Taman Kota","is_transit":false,"distance":1614,"station_id":"TKO","i_long":106.756522,"i_lat":-6.1587309999999995,"time":2},{"distance":2334,"is_transit":false,"line":5,"station_name":"Bojongindah","transit":false,"i_long":106.737035,"time":2,"station_id":"BOI","i_lat":-6.159876},{"distance":1152,"station_name":"Rawa Buaya","i_lat":-6.162758,"station_id":"RW","i_long":106.723064,"is_transit":false,"line":5,"time":4,"transit":false},{"i_long":106.701612,"time":3,"distance":2504,"i_lat":-6.166068,"station_name":"Kalideres","transit":false,"is_transit":false,"station_id":"KDS","line":5},{"is_transit":false,"i_lat":-6.169933,"station_name":"Poris","line":5,"distance":2548,"i_long":106.679458,"time":3,"transit":false,"station_id":"PI"},{"distance":1834,"time":3,"transit":false,"i_long":106.665036,"i_lat":-6.171811,"station_name":"Batuceper","station_id":"BPR","is_transit":false,"line":5},{"i_long":106.64657,"transit":false,"line":5,"station_name":"Tanah Tinggi","time":3,"i_lat":-6.17331,"station_id":"TTI","is_transit":false,"distance":2028},{"is_transit":false,"transit":false,"distance":1547,"station_name":"Tangerang","station_id":"TNG","line":5,"time":3,"i_lat":-6.176583,"i_long":106.632761}],[{"i_lat":-6.276362,"station_name":"Pondokranji","i_long":106.74273,"transit":false,"is_transit":false,"line":6,"time":0,"station_id":"PDJ","distance":0},{"transit":false,"line":6,"time":8,"station_name":"Kebayoran","station_id":"KBY","distance":6218,"i_lat":-6.237242,"is_transit":false,"i_long":106.780334},{"i_long":106.79689,"i_lat":-6.207404,"line":6,"station_id":"PLM","station_name":"Palmerah","time":7,"distance":3737,"is_transit":false,"transit":false},{"time":6,"i_lat":-6.185545,"transit":true,"i_long":106.811091,"distance":3191,"station_name":"Tanah Abang","is_transit":true,"station_id":"THB","line":1},{"i_lat":-6.20132,"station_id":"KAT","time":5,"station_name":"Karet","distance":2029,"i_long":106.816351,"transit":false,"line":1,"is_transit":false},{"transit":false,"station_id":"SUDB","is_transit":false,"distance":471,"i_long":106.819881,"line":1,"time":1,"station_name":"Sudirman Baru","i_lat":-6.201433},{"distance":280,"station_name":"Sudirman","transit":false,"i_lat":-6.202263,"is_transit":false,"station_id":"SUD","time":1,"i_long":106.822649,"line":1},{"station_id":"MRI","i_lat":-6.209883,"transit":true,"station_name":"Manggarai","is_transit":true,"i_long":106.84912,"time":4,"distance":3186,"line":2},{"time":4,"station_name":"Cikini","transit":false,"i_long":106.840169,"distance":1590,"is_transit":false,"line":2,"i_lat":-6.198556,"station_id":"CKI"},{"distance":1750,"i_long":106.832183,"line":2,"station_id":"GDD","station_name":"Gondangdia","i_lat":-6.186295,"transit":false,"time":3,"is_transit":false},{"transit":false,"i_lat":-6.166716,"is_transit":false,"i_long":106.828284,"line":2,"time":4,"distance":2015,"station_name":"Juanda","station_id":"JUA"},{"station_id":"SW","i_lat":-6.160725,"is_transit":false,"time":2,"distance":1149,"transit":false,"station_name":"Sawah Besar","i_long":106.827103,"line":2},{"line":2,"i_long":106.82482,"station_name":"Manggabesar","transit":false,"is_transit":false,"station_id":"MGB","time":2,"i_lat":-6.149769,"distance":906},{"i_lat":-6.141205,"is_transit":false,"station_id":"JAY","line":2,"i_long":106.820901,"time":2,"distance":1080,"transit":false,"station_name":"Jayakarta"},{"i_lat":-6.137569,"i_long":106.812439,"transit":true,"time":4,"distance":1264,"line":2,"is_transit":true,"station_id":"JAKK","station_name":"Jakarta Kota"},{"i_lat":-6.132549,"time":3,"i_long":106.826365,"is_transit":true,"distance":1364,"station_id":"KPB","station_name":"Kampung Bandan","transit":true,"line":4},{"station_id":"AK","station_name":"Angke","transit":false,"time":9,"i_long":106.79867,"i_lat":-6.144674,"distance":4102,"line":1,"is_transit":false},{"i_long":106.800832,"station_name":"Duri","station_id":"DU","line":1,"time":4,"i_lat":-6.155215,"transit":true,"is_transit":true,"distance":1230},{"i_long":106.788277,"is_transit":false,"line":5,"station_id":"GRG","time":3,"distance":1700,"transit":false,"station_name":"Grogol","i_lat":-6.162021},{"is_transit":false,"distance":2036,"i_lat":-6.161433,"line":5,"time":2,"station_name":"Pesing","transit":false,"i_long":106.771379,"station_id":"PSG"},{"transit":false,"station_name":"Taman Kota","station_id":"TKO","is_transit":false,"line":5,"distance":1614,"time":2,"i_lat":-6.1587309999999995,"i_long":106.756522},{"i_long":106.737035,"distance":2334,"i_lat":-6.159876,"line":5,"station_name":"Bojongindah","time":2,"transit":false,"station_id":"BOI","is_transit":false},{"distance":1152,"i_long":106.723064,"line":5,"station_id":"RW","station_name":"Rawa Buaya","time":4,"is_transit":false,"transit":false,"i_lat":-6.162758},{"time":3,"is_transit":false,"line":5,"i_lat":-6.166068,"i_long":106.701612,"distance":2504,"station_name":"Kalideres","station_id":"KDS","transit":false},{"i_long":106.679458,"line":5,"time":3,"is_transit":false,"transit":false,"station_name":"Poris","i_lat":-6.169933,"station_id":"PI","distance":2548},{"distance":1834,"i_long":106.665036,"is_transit":false,"time":3,"station_name":"Batuceper","station_id":"BPR","transit":false,"line":5,"i_lat":-6.171811},{"line":5,"i_lat":-6.17331,"is_transit":false,"station_id":"TTI","distance":2028,"time":3,"transit":false,"station_name":"Tanah Tinggi","i_long":106.64657},{"time":3,"line":5,"station_name":"Tangerang","station_id":"TNG","distance":1547,"i_long":106.632761,"transit":false,"is_transit":false,"i_lat":-6.176583}],[{"i_long":106.74273,"distance":0,"is_transit":false,"station_name":"Pondokranji","i_lat":-6.276362,"line":6,"transit":false,"station_id":"PDJ","time":0},{"transit":false,"time":8,"is_transit":false,"station_id":"KBY","i_long":106.780334,"distance":6218,"line":6,"station_name":"Kebayoran","i_lat":-6.237242},{"station_id":"PLM","i_long":106.79689,"i_lat":-6.207404,"distance":3737,"line":6,"station_name":"Palmerah","time":7,"is_transit":false,"transit":false},{"is_transit":true,"station_name":"Tanah Abang","i_long":106.811091,"i_lat":-6.185545,"line":1,"distance":3191,"station_id":"THB","time":6,"transit":true},{"station_id":"KAT","i_lat":-6.20132,"time":5,"is_transit":false,"distance":2029,"transit":false,"line":1,"station_name":"Karet","i_long":106.816351},{"time":1,"distance":471,"is_transit":false,"station_name":"Sudirman Baru","transit":false,"line":1,"station_id":"SUDB","i_lat":-6.201433,"i_long":106.819881},{"station_id":"SUD","i_long":106.822649,"time":1,"transit":false,"line":1,"distance":280,"station_name":"Sudirman","i_lat":-6.202263,"is_transit":false},{"station_name":"Manggarai","time":4,"is_transit":false,"station_id":"MRI","i_lat":-6.209883,"transit":false,"i_long":106.84912,"line":2,"distance":3186},{"line":1,"distance":1275,"station_id":"MTR","transit":false,"station_name":"Matraman","i_long":106.858896,"time":2,"i_lat":-6.212485,"is_transit":false},{"time":8,"i_lat":-6.215091,"i_long":106.86807400000001,"station_name":"Jatinegara","distance":1377,"is_transit":true,"transit":true,"station_id":"JNG","line":1},{"time":2,"distance":1236,"station_name":"Pondok Jati","line":11,"station_id":"POK","transit":false,"i_long":106.861737,"i_lat":-6.209188,"is_transit":false},{"is_transit":false,"distance":1829,"station_id":"KMT","time":2,"station_name":"Kramat","i_lat":-6.193792,"transit":false,"i_long":106.855437,"line":11},{"i_lat":-6.185975,"line":11,"station_id":"GST","transit":false,"is_transit":false,"station_name":"Gang Sentiong","time":1,"i_long":106.850107,"distance":973},{"i_long":106.84368,"is_transit":false,"station_name":"Pasar Senen","distance":1567,"station_id":"PSE","line":11,"time":8,"transit":false,"i_lat":-6.174784},{"station_id":"KMO","distance":1436,"i_lat":-6.161728,"i_long":106.839204,"is_transit":false,"line":11,"transit":false,"station_name":"Kemayoran","time":4},{"time":5,"transit":false,"i_lat":-6.14505,"station_name":"Rajawali","station_id":"RJW","i_long":106.836569,"line":11,"is_transit":false,"distance":1901},{"station_id":"KPB","distance":1444,"time":3,"transit":true,"station_name":"Kampung Bandan","i_lat":-6.132549,"i_long":106.826365,"line":4,"is_transit":true},{"i_long":106.79867,"transit":false,"station_name":"Angke","time":9,"line":1,"i_lat":-6.144674,"station_id":"AK","is_transit":false,"distance":4102},{"transit":true,"station_name":"Duri","i_long":106.800832,"time":4,"i_lat":-6.155215,"line":1,"distance":1230,"is_transit":true,"station_id":"DU"},{"is_transit":false,"station_id":"GRG","time":3,"i_long":106.788277,"line":5,"i_lat":-6.162021,"distance":1700,"station_name":"Grogol","transit":false},{"is_transit":false,"time":2,"transit":false,"station_id":"PSG","i_long":106.771379,"station_name":"Pesing","distance":2036,"i_lat":-6.161433,"line":5},{"station_name":"Taman Kota","time":2,"i_long":106.756522,"i_lat":-6.1587309999999995,"station_id":"TKO","is_transit":false,"line":5,"distance":1614,"transit":false},{"station_name":"Bojongindah","station_id":"BOI","transit":false,"time":2,"i_long":106.737035,"i_lat":-6.159876,"line":5,"distance":2334,"is_transit":false},{"transit":false,"time":4,"station_id":"RW","i_lat":-6.162758,"station_name":"Rawa Buaya","is_transit":false,"i_long":106.723064,"line":5,"distance":1152},{"i_lat":-6.166068,"distance":2504,"station_name":"Kalideres","line":5,"is_transit":false,"time":3,"transit":false,"station_id":"KDS","i_long":106.701612},{"distance":2548,"i_lat":-6.169933,"transit":false,"time":3,"i_long":106.679458,"line":5,"is_transit":false,"station_name":"Poris","station_id":"PI"},{"i_long":106.665036,"distance":1834,"station_name":"Batuceper","is_transit":false,"station_id":"BPR","transit":false,"i_lat":-6.171811,"line":5,"time":3},{"time":3,"station_id":"TTI","i_lat":-6.17331,"is_transit":false,"transit":false,"i_long":106.64657,"distance":2028,"station_name":"Tanah Tinggi","line":5},{"distance":1547,"time":3,"i_lat":-6.176583,"i_long":106.632761,"line":5,"station_name":"Tangerang","transit":false,"station_id":"TNG","is_transit":false}]]}