{"data":[[{"i_long":106.74273,"transit":false,"station_id":"PDJ","distance":0,"line":6,"is_transit":false,"station_name":"Pondokranji","i_lat":-6.276362,"time":0},{"station_name":"Kebayoran","station_id":"KBY","i_long":106.780334,"time":8,"distance":6218,"i_lat":-6.237242,"line":6,"transit":false,"is_transit":false},{"station_name":"Palmerah","transit":false,"is_transit":false,"distance":3737,"station_id":"PLM","line":6,"time":7,"i_lat":-6.207404,"i_long":106.79689},{"time":6,"distance":3191,"transit":true,"i_long":106.811091,"station_id":"THB","is_transit":true,"i_lat":-6.185545,"station_name":"Tanah Abang","line":1},{"station_name":"Karet","line":1,"station_id":"KAT","i_lat":-6.20132,"time":5,"i_long":106.816351,"transit":false,"distance":2029,"is_transit":false},{"i_lat":-6.201433,"station_name":"Sudirman Baru","transit":false,"time":1,"i_long":106.819881,"is_transit":false,"distance":471,"station_id":"SUDB","line":1},{"station_name":"Sudirman","station_id":"SUD","distance":280,"is_transit":false,"transit":false,"line":1,"i_long":106.822649,"time":1,"i_lat":-6.202263},{"is_transit":true,"i_long":106.84912,"i_lat":-6.209883,"line":2,"station_id":"MRI","time":4,"distance":3186,"station_name":"Manggarai","transit":true},{"is_transit":false,"time":4,"distance":2610,"station_name":"Tebet","station_id":"TEB","i_lat":-6.226659,"line":2,"transit":false,"i_long":106.857948},{"distance":1230,"station_name":"Cawang","transit":false,"i_long":106.856607,"line":2,"time":2,"is_transit":false,"i_lat":-6.242512,"station_id":"CW"},{"i_lat":-6.255332,"i_long":106.85449,"station_name":"Duren Kalibata","time":3,"station_id":"DRN","line":2,"transit":false,"distance":1546,"is_transit":false},{"is_transit":false,"time":2,"station_id":"PSMB","i_lat":-6.263214,"distance":824,"station_name":"Pasar Minggu Baru","transit":false,"line":2,"i_long":106.851577},{"time":2,"i_long":106.843999,"is_transit":false,"i_lat":-6.2842400000000005,"distance":2380,"station_name":"Pasar Minggu","station_id":"PSM","line":2,"transit":false},{"i_long":106.838896,"station_id":"TNT","station_name":"Tanjung Barat","line":2,"time":4,"is_transit":false,"transit":false,"i_lat":-6.3080680000000005,"distance":2820},{"station_id":"LNA","is_transit":false,"transit":false,"station_name":"Lenteng Agung","distance":2671,"i_long":106.832616,"line":2,"time":3,"i_lat":-6.330363},{"time":2,"is_transit":false,"transit":false,"i_long":106.834175,"line":2,"station_name":"Univ. Pancasila","i_lat":-6.339291,"distance":1029,"station_id":"UP"},{"station_name":"Univ. Indonesia","is_transit":false,"transit":false,"line":2,"i_lat":-6.360749,"i_long":106.831474,"distance":2264,"time":3,"station_id":"UI"}],[{"station_name":"Pondokranji","time":0,"i_long":106.74273,"line":6,"distance":0,"is_transit":false,"station_id":"PDJ","i_lat":-6.276362,"transit":false},{"time":8,"is_transit":false,"transit":false,"station_name":"Kebayoran","station_id":"KBY","i_long":106.780334,"i_lat":-6.237242,"line":6,"distance":6218},{"time":7,"i_long":106.79689,"is_transit":false,"station_id":"PLM","station_name":"Palmerah","distance":3737,"i_lat":-6.207404,"line":6,"transit":false},{"station_id":"THB","i_lat":-6.185545,"station_name":"Tanah Abang","distance":3191,"transit":true,"i_long":106.811091,"time":6,"is_transit":true,"line":1},{"i_lat":-6.155215,"time":8,"station_name":"Duri","line":1,"distance":3632,"transit":false,"station_id":"DU","i_long":106.800832,"is_transit":false},{"station_id":"AK","is_transit":false,"station_name":"Angke","distance":1230,"i_lat":-6.144674,"transit":false,"line":1,"i_long":106.79867,"time":4},{"station_name":"Kampung Bandan","time":9,"station_id":"KPB","i_long":106.826365,"is_transit":true,"line":4,"transit":true,"distance":4102,"i_lat":-6.132549},{"transit":true,"i_long":106.812439,"time":3,"line":2,"station_name":"Jakarta Kota","station_id":"JAKK","i_lat":-6.137569,"is_transit":true,"distance":1364},{"distance":1264,"transit":false,"i_lat":-6.141205,"time":4,"station_name":"Jayakarta","line":2,"is_transit":false,"station_id":"JAY","i_long":106.820901},{"is_transit":false,"line":2,"i_lat":-6.149769,"i_long":106.82482,"time":2,"station_name":"Manggabesar","station_id":"MGB","distance":1080,"transit":false},{"distance":906,"station_name":"Sawah Besar","i_lat":-6.160725,"line":2,"i_long":106.827103,"station_id":"SW","time":2,"is_transit":false,"transit":false},{"i_lat":-6.166716,"transit":false,"line":2,"time":2,"i_long":106.828284,"is_transit":false,"distance":1149,"station_id":"JUA","station_name":"Juanda"},{"i_lat":-6.186295,"is_transit":false,"station_name":"Gondangdia","time":4,"distance":2015,"station_id":"GDD","i_long":106.832183,"line":2,"transit":false},{"time":3,"i_long":106.840169,"is_transit":false,"station_id":"CKI","i_lat":-6.198556,"distance":1750,"transit":false,"line":2,"station_name":"Cikini"},{"i_lat":-6.209883,"i_long":106.84912,"time":4,"transit":false,"station_name":"Manggarai","is_transit":false,"station_id":"MRI","line":2,"distance":1590},{"is_transit":false,"transit":false,"station_name":"Tebet","distance":2610,"i_long":106.857948,"line":2,"time":4,"station_id":"TEB","i_lat":-6.226659},{"station_id":"CW","station_name":"Cawang","time":2,"i_long":106.856607,"distance":1230,"line":2,"is_transit":false,"transit":false,"i_lat":-6.242512},{"distance":1546,"station_id":"DRN","transit":false,"station_name":"Duren Kalibata","i_lat":-6.255332,"time":3,"i_long":106.85449,"is_transit":false,"line":2},{"time":2,"i_lat":-6.263214,"line":2,"station_name":"Pasar Minggu Baru","transit":false,"station_id":"PSMB","distance":824,"is_transit":false,"i_long":106.851577},{"time":2,"station_id":"PSM","i_lat":-6.2842400000000005,"i_long":106.843999,"station_name":"Pasar Minggu","is_transit":false,"transit":false,"line":2,"distance":2380},{"i_long":106.838896,"line":2,"station_id":"TNT","is_transit":false,"time":4,"i_lat":-6.3080680000000005,"station_name":"Tanjung Barat","distance":2820,"transit":false},{"station_id":"LNA","transit":false,"i_long":106.832616,"line":2,"is_transit":false,"distance":2671,"station_name":"Lenteng Agung","i_lat":-6.330363,"time":3},{"line":2,"distance":1029,"i_lat":-6.339291,"transit":false,"time":2,"station_id":"UP","is_transit":false,"i_long":106.834175,"station_name":"Univ. Pancasila"},{"is_transit":false,"line":2,"i_long":106.831474,"time":3,"distance":2264,"station_name":"Univ. Indonesia","station_id":"UI","i_lat":-6.360749,"transit":false}],[{"distance":0,"station_name":"Pondokranji","i_long":106.74273,"is_transit":false,"station_id":"PDJ","line":6,"transit":false,"i_lat":-6.276362,"time":0},{"distance":6218,"i_lat":-6.237242,"line":6,"station_name":"Kebayoran","i_long":106.780334,"station_id":"KBY","is_transit":false,"transit":false,"time":8},{"i_lat":-6.207404,"line":6,"station_id":"PLM","transit":false,"distance":3737,"i_long":106.79689,"time":7,"station_name":"Palmerah","is_transit":false},{"station_id":"THB","line":1,"i_lat":-6.185545,"station_name":"Tanah Abang","transit":true,"is_transit":true,"distance":3191,"i_long":106.811091,"time":6},{"time":8,"distance":3632,"transit":false,"station_name":"Duri","is_transit":false,"line":1,"i_lat":-6.155215,"station_id":"DU","i_long":106.800832},{"transit":false,"i_long":106.79867,"station_name":"Angke","is_transit":false,"line":1,"i_lat":-6.144674,"station_id":"AK","distance":1230,"time":4},{"distance":4102,"is_transit":true,"time":9,"i_lat":-6.132549,"i_long":106.826365,"station_name":"Kampung Bandan","transit":true,"station_id":"KPB","line":4},{"station_id":"RJW","distance":1444,"station_name":"Rajawali","time":3,"is_transit":false,"line":11,"i_long":106.836569,"transit":false,"i_lat":-6.14505},{"i_long":106.839204,"is_transit":false,"time":5,"i_lat":-6.161728,"transit":false,"line":11,"distance":1901,"station_name":"Kemayoran","station_id":"KMO"},{"transit":false,"is_transit":false,"i_lat":-6.174784,"line":11,"station_name":"Pasar Senen","distance":1436,"i_long":106.84368,"time":4,"station_id":"PSE"},{"i_lat":-6.185975,"time":8,"distance":1567,"station_id":"GST","station_name":"Gang Sentiong","transit":false,"is_transit":false,"line":11,"i_long":106.850107},{"station_id":"KMT","station_name":"Kramat","distance":973,"transit":false,"is_transit":false,"i_lat":-6.193792,"i_long":106.855437,"time":1,"line":11},{"station_id":"POK","is_transit":false,"i_long":106.861737,"i_lat":-6.209188,"time":2,"line":11,"station_name":"Pondok Jati","distance":1829,"transit":false},{"station_name":"Jatinegara","is_transit":true,"i_long":106.86807400000001,"line":1,"transit":true,"station_id":"JNG","time":9,"distance":1236,"i_lat":-6.215091},{"distance":1377,"transit":false,"station_id":"MTR","is_transit":false,"i_long":106.858896,"line":1,"time":2,"i_lat":-6.212485,"station_name":"Matraman"},{"i_lat":-6.209883,"distance":1275,"transit":true,"station_id":"MRI","station_name":"Manggarai","line":2,"time":2,"is_transit":true,"i_long":106.84912},{"line":2,"station_id":"TEB","i_long":106.857948,"time":4,"i_lat":-6.226659,"station_name":"Tebet","distance":2610,"is_transit":false,"transit":false},{"time":2,"station_id":"CW","i_lat":-6.242512,"i_long":106.856607,"is_transit":false,"distance":1230,"transit":false,"line":2,"station_name":"Cawang"},{"is_transit":false,"station_name":"Duren Kalibata","transit":false,"station_id":"DRN","i_lat":-6.255332,"distance":1546,"line":2,"i_long":106.85449,"time":3},{"transit":false,"station_id":"PSMB","distance":824,"time":2,"i_long":106.851577,"station_name":"Pasar Minggu Baru","is_transit":false,"i_lat":-6.263214,"line":2},{"i_long":106.843999,"is_transit":false,"station_name":"Pasar Minggu","i_lat":-6.2842400000000005,"line":2,"station_id":"PSM","distance":2380,"transit":false,"time":2},{"distance":2820,"line":2,"time":4,"station_name":"Tanjung Barat","transit":false,"is_transit":false,"i_lat":-6.3080680000000005,"i_long":106.838896,"station_id":"TNT"},{"line":2,"time":3,"i_long":106.832616,"distance":2671,"is_transit":false,"transit":false,"i_lat":-6.330363,"station_name":"Lenteng Agung","station_id":"LNA"},{"distance":1029,"time":2,"i_lat":-6.339291,"i_long":106.834175,"transit":false,"line":2,"station_name":"Univ. Pancasila","station_id":"UP","is_transit":false},{"station_name":"Univ. Indonesia","i_lat":-6.360749,"is_transit":false,"transit":false,"time":3,"line":2,"station_id":"UI","distance":2264,"i_long":106.831474}]]}