{"data":[[{"i_long":106.74273,"station_id":"PDJ","station_name":"Pondokranji","transit":false,"i_lat":-6.276362,"line":6,"distance":0,"is_transit":false,"time":0},{"distance":6218,"i_lat":-6.237242,"station_name":"Kebayoran","time":8,"i_long":106.780334,"transit":false,"station_id":"KBY","is_transit":false,"line":6},{"distance":3737,"station_name":"Palmerah","station_id":"PLM","i_lat":-6.207404,"time":7,"transit":false,"is_transit":false,"i_long":106.79689,"line":6},{"distance":3191,"station_id":"THB","station_name":"Tanah Abang","is_transit":true,"time":6,"transit":true,"i_lat":-6.185545,"i_long":106.811091,"line":1},{"line":1,"is_transit":false,"time":5,"i_lat":-6.20132,"station_name":"Karet","transit":false,"station_id":"KAT","distance":2029,"i_long":106.816351},{"time":1,"line":1,"station_name":"Sudirman Baru","transit":false,"station_id":"SUDB","i_long":106.819881,"i_lat":-6.201433,"is_transit":false,"distance":471},{"station_name":"Sudirman","is_transit":false,"time":1,"i_long":106.822649,"line":1,"distance":280,"transit":false,"i_lat":-6.202263,"station_id":"SUD"},{"station_name":"Manggarai","is_transit":false,"transit":false,"i_long":106.84912,"line":2,"station_id":"MRI","i_lat":-6.209883,"time":4,"distance":3186},{"i_lat":-6.212485,"transit":false,"is_transit":false,"line":1,"distance":1275,"station_name":"Matraman","i_long":106.858896,"station_id":"MTR","time":2},{"transit":true,"station_name":"Jatinegara","i_long":106.86807400000001,"distance":1377,"line":1,"time":8,"is_transit":true,"station_id":"JNG","i_lat":-6.215091},{"station_id":"POK","time":2,"is_transit":false,"transit":false,"i_lat":-6.209188,"i_long":106.861737,"line":11,"station_name":"Pondok Jati","distance":1236}],[{"station_id":"PDJ","transit":false,"station_name":"Pondokranji","distance":0,"i_long":106.74273,"line":6,"i_lat":-6.276362,"is_transit":false,"time":0},{"station_id":"KBY","is_transit":false,"line":6,"time":8,"distance":6218,"i_lat":-6.237242,"i_long":106.780334,"station_name":"Kebayoran","transit":false},{"station_id":"PLM","distance":3737,"i_long":106.79689,"line":6,"transit":false,"time":7,"is_transit":false,"i_lat":-6.207404,"station_name":"Palmerah"},{"line":1,"transit":true,"station_name":"Tanah Abang","distance":3191,"time":6,"i_lat":-6.185545,"station_id":"THB","i_long":106.811091,"is_transit":true},{"line":1,"transit":false,"is_transit":false,"distance":3632,"i_lat":-6.155215,"time":8,"station_name":"Duri","station_id":"DU","i_long":106.800832},{"line":1,"is_transit":false,"time":4,"distance":1230,"transit":false,"i_long":106.79867,"i_lat":-6.144674,"station_name":"Angke","station_id":"AK"},{"i_long":106.826365,"line":4,"transit":true,"distance":4102,"is_transit":true,"station_id":"KPB","time":9,"i_lat":-6.132549,"station_name":"Kampung Bandan"},{"line":11,"distance":1444,"i_lat":-6.14505,"i_long":106.836569,"time":3,"transit":false,"station_id":"RJW","station_name":"Rajawali","is_transit":false},{"station_name":"Kemayoran","station_id":"KMO","distance":1901,"i_long":106.839204,"time":5,"transit":false,"is_transit":false,"line":11,"i_lat":-6.161728},{"station_name":"Pasar Senen","i_lat":-6.174784,"line":11,"time":4,"is_transit":false,"distance":1436,"transit":false,"station_id":"PSE","i_long":106.84368},{"transit":false,"station_id":"GST","is_transit":false,"line":11,"i_lat":-6.185975,"i_long":106.850107,"time":8,"distance":1567,"station_name":"Gang Sentiong"},{"is_transit":false,"time":1,"i_long":106.855437,"station_id":"KMT","line":11,"distance":973,"i_lat":-6.193792,"station_name":"Kramat","transit":false},{"is_transit":false,"distance":1829,"i_long":106.861737,"transit":false,"station_name":"Pondok Jati","line":11,"station_id":"POK","i_lat":-6.209188,"time":2}],[{"i_long":106.74273,"transit":false,"distance":0,"time":0,"station_name":"Pondokranji","is_transit":false,"i_lat":-6.276362,"line":6,"station_id":"PDJ"},{"is_transit":false,"time":8,"distance":6218,"line":6,"station_name":"Kebayoran","i_long":106.780334,"i_lat":-6.237242,"station_id":"KBY","transit":false},{"distance":3737,"station_id":"PLM","time":7,"i_long":106.79689,"is_transit":false,"line":6,"transit":false,"station_name":"Palmerah","i_lat":-6.207404},{"distance":3191,"station_id":"THB","i_lat":-6.185545,"station_name":"Tanah Abang","i_long":106.811091,"time":6,"is_transit":true,"line":1,"transit":true},{"i_long":106.800832,"transit":false,"station_name":"Duri","station_id":"DU","is_transit":false,"i_lat":-6.155215,"line":1,"time":8,"distance":3632},{"transit":false,"time":4,"distance":1230,"is_transit":false,"i_long":106.79867,"i_lat":-6.144674,"station_name":"Angke","line":1,"station_id":"AK"},{"time":9,"distance":4102,"is_transit":true,"i_lat":-6.132549,"line":4,"station_id":"KPB","i_long":106.826365,"transit":true,"station_name":"Kampung Bandan"},{"time":3,"distance":1364,"i_lat":-6.137569,"i_long":106.812439,"transit":true,"station_name":"Jakarta Kota","station_id":"JAKK","is_transit":true,"line":2},{"time":4,"station_id":"JAY","is_transit":false,"distance":1264,"station_name":"Jayakarta","transit":false,"i_lat":-6.141205,"i_long":106.820901,"line":2},{"i_lat":-6.149769,"station_name":"Manggabesar","i_long":106.82482,"line":2,"station_id":"MGB","is_transit":false,"distance":1080,"time":2,"transit":false},{"time":2,"i_long":106.827103,"line":2,"station_name":"Sawah Besar","distance":906,"transit":false,"i_lat":-6.160725,"is_transit":false,"station_id":"SW"},{"time":2,"transit":false,"line":2,"i_lat":-6.166716,"i_long":106.828284,"station_id":"JUA","station_name":"Juanda","distance":1149,"is_transit":false},{"time":4,"station_name":"Gondangdia","is_transit":false,"distance":2015,"station_id":"GDD","i_lat":-6.186295,"transit":false,"i_long":106.832183,"line":2},{"line":2,"station_name":"Cikini","i_long":106.840169,"distance":1750,"station_id":"CKI","i_lat":-6.198556,"transit":false,"time":3,"is_transit":false},{"i_lat":-6.209883,"is_transit":true,"line":2,"station_id":"MRI","transit":true,"station_name":"Manggarai","i_long":106.84912,"time":4,"distance":1590},{"distance":1275,"station_id":"MTR","i_lat":-6.212485,"time":2,"i_long":106.858896,"station_name":"Matraman","line":1,"transit":false,"is_transit":false},{"line":1,"i_long":106.86807400000001,"transit":true,"station_id":"JNG","is_transit":true,"i_lat":-6.215091,"station_name":"Jatinegara","time":8,"distance":1377},{"station_name":"Pondok Jati","is_transit":false,"line":11,"distance":1236,"time":2,"i_lat":-6.209188,"station_id":"POK","i_long":106.861737,"transit":false}],[{"station_id":"PDJ","is_transit":false,"i_long":106.74273,"line":6,"transit":false,"station_name":"Pondokranji","i_lat":-6.276362,"time":0,"distance":0},{"is_transit":false,"transit":false,"i_lat":-6.237242,"i_long":106.780334,"distance":6218,"station_name":"Kebayoran","line":6,"station_id":"KBY","time":8},{"transit":false,"line":6,"distance":3737,"station_name":"Palmerah","station_id":"PLM","i_lat":-6.207404,"i_long":106.79689,"is_transit":false,"time":7},{"is_transit":true,"i_long":106.811091,"time":6,"distance":3191,"transit":true,"station_id":"THB","station_name":"Tanah Abang","line":1,"i_lat":-6.185545},{"station_name":"Karet","line":1,"time":5,"i_long":106.816351,"is_transit":false,"transit":false,"distance":2029,"station_id":"KAT","i_lat":-6.20132},{"i_lat":-6.201433,"station_name":"Sudirman Baru","station_id":"SUDB","time":1,"distance":471,"line":1,"transit":false,"i_long":106.819881,"is_transit":false},{"i_lat":-6.202263,"station_name":"Sudirman","distance":280,"line":1,"transit":false,"station_id":"SUD","is_transit":false,"time":1,"i_long":106.822649},{"time":4,"i_long":106.84912,"transit":true,"is_transit":true,"i_lat":-6.209883,"line":2,"station_id":"MRI","station_name":"Manggarai","distance":3186},{"is_transit":false,"transit":false,"time":4,"station_id":"CKI","station_name":"Cikini","distance":1590,"i_lat":-6.198556,"i_long":106.840169,"line":2},{"station_name":"Gondangdia","i_lat":-6.186295,"is_transit":false,"time":3,"line":2,"transit":false,"distance":1750,"station_id":"GDD","i_long":106.832183},{"time":4,"is_transit":false,"distance":2015,"i_long":106.828284,"transit":false,"station_id":"JUA","i_lat":-6.166716,"line":2,"station_name":"Juanda"},{"transit":false,"line":2,"time":2,"station_name":"Sawah Besar","station_id":"SW","distance":1149,"is_transit":false,"i_lat":-6.160725,"i_long":106.827103},{"i_long":106.82482,"is_transit":false,"i_lat":-6.149769,"line":2,"time":2,"station_id":"MGB","distance":906,"station_name":"Manggabesar","transit":false},{"i_lat":-6.141205,"i_long":106.820901,"station_name":"Jayakarta","time":2,"distance":1080,"transit":false,"line":2,"is_transit":false,"station_id":"JAY"},{"station_id":"JAKK","time":4,"is_transit":true,"transit":true,"station_name":"Jakarta Kota","i_lat":-6.137569,"distance":1264,"i_long":106.812439,"line":2},{"station_name":"Kampung Bandan","time":3,"distance":1364,"i_lat":-6.132549,"line":4,"station_id":"KPB","is_transit":true,"transit":true,"i_long":106.826365},{"i_lat":-6.14505,"line":11,"station_id":"RJW","time":3,"station_name":"Rajawali","transit":false,"i_long":106.836569,"is_transit":false,"distance":1444},{"line":11,"i_long":106.839204,"is_transit":false,"transit":false,"time":5,"i_lat":-6.161728,"station_id":"KMO","distance":1901,"station_name":"Kemayoran"},{"station_id":"PSE","transit":false,"i_lat":-6.174784,"i_long":106.84368,"time":4,"station_name":"Pasar Senen","line":11,"is_transit":false,"distance":1436},{"time":8,"line":11,"station_name":"Gang Sentiong","distance":1567,"i_long":106.850107,"i_lat":-6.185975,"station_id":"GST","is_transit":false,"transit":false},{"station_name":"Kramat","time":1,"distance":973,"is_transit":false,"i_lat":-6.193792,"i_long":106.855437,"transit":false,"line":11,"station_id":"KMT"},{"transit":false,"station_name":"Pondok Jati","is_transit":false,"i_long":106.861737,"line":11,"time":2,"i_lat":-6.209188,"station_id":"POK","distance":1829}]]}