{"data":[[{"is_transit":false,"distance":0,"i_lat":-6.276362,"transit":false,"time":0,"station_name":"Pondokranji","station_id":"PDJ","i_long":106.74273,"line":6},{"transit":false,"station_id":"KBY","time":8,"i_long":106.780334,"station_name":"Kebayoran","is_transit":false,"distance":6218,"line":6,"i_lat":-6.237242},{"transit":false,"i_long":106.79689,"station_name":"Palmerah","i_lat":-6.207404,"station_id":"PLM","is_transit":false,"time":7,"line":6,"distance":3737},{"i_lat":-6.185545,"i_long":106.811091,"time":6,"transit":true,"line":1,"station_id":"THB","station_name":"Tanah Abang","is_transit":true,"distance":3191},{"i_long":106.816351,"time":5,"station_id":"KAT","transit":false,"station_name":"Karet","is_transit":false,"i_lat":-6.20132,"line":1,"distance":2029},{"i_long":106.819881,"is_transit":false,"station_id":"SUDB","transit":false,"line":1,"time":1,"station_name":"Sudirman Baru","i_lat":-6.201433,"distance":471},{"i_lat":-6.202263,"station_id":"SUD","i_long":106.822649,"distance":280,"time":1,"station_name":"Sudirman","transit":false,"line":1,"is_transit":false},{"time":4,"line":0,"station_name":"Manggarai","distance":3186,"transit":true,"is_transit":true,"i_lat":-6.209883,"i_long":106.84912,"station_id":"MRI"},{"time":4,"station_name":"Tebet","station_id":"TEB","distance":2610,"is_transit":false,"i_long":106.857948,"line":2,"transit":false,"i_lat":-6.226659},{"line":0,"station_name":"Cawang","i_lat":-6.242512,"time":2,"station_id":"CW","transit":false,"is_transit":false,"distance":1230,"i_long":106.856607}],[{"station_name":"Pondokranji","is_transit":false,"i_lat":-6.276362,"time":0,"line":6,"i_long":106.74273,"transit":false,"distance":0,"station_id":"PDJ"},{"is_transit":false,"distance":6218,"transit":false,"i_lat":-6.237242,"i_long":106.780334,"line":6,"time":8,"station_name":"Kebayoran","station_id":"KBY"},{"is_transit":false,"station_id":"PLM","i_long":106.79689,"station_name":"Palmerah","time":7,"line":6,"transit":false,"i_lat":-6.207404,"distance":3737},{"is_transit":true,"station_id":"THB","distance":3191,"time":6,"i_long":106.811091,"station_name":"Tanah Abang","transit":true,"i_lat":-6.185545,"line":1},{"i_lat":-6.155215,"i_long":106.800832,"station_name":"Duri","is_transit":true,"line":1,"transit":true,"time":8,"distance":3632,"station_id":"DU"},{"is_transit":false,"station_id":"AK","time":4,"transit":false,"i_lat":-6.144674,"i_long":106.79867,"station_name":"Angke","line":0,"distance":1230},{"station_name":"Kampung Bandan","line":0,"time":9,"station_id":"KPB","transit":false,"distance":4102,"i_lat":-6.132549,"i_long":106.826365,"is_transit":true},{"distance":1364,"time":3,"station_id":"JAKK","i_lat":-6.137569,"transit":true,"is_transit":true,"i_long":106.812439,"line":0,"station_name":"Jakarta Kota"},{"station_id":"JAY","i_long":106.820901,"time":4,"i_lat":-6.141205,"transit":false,"distance":1264,"station_name":"Jayakarta","line":7,"is_transit":false},{"line":2,"time":2,"is_transit":false,"station_id":"MGB","station_name":"Manggabesar","i_lat":-6.149769,"i_long":106.82482,"distance":1080,"transit":false},{"is_transit":false,"transit":false,"distance":906,"time":2,"station_name":"Sawah Besar","i_lat":-6.160725,"i_long":106.827103,"station_id":"SW","line":2},{"time":2,"station_name":"Juanda","station_id":"JUA","line":2,"is_transit":false,"i_long":106.828284,"distance":1149,"i_lat":-6.166716,"transit":false},{"station_id":"GDD","distance":2015,"is_transit":false,"i_long":106.832183,"station_name":"Gondangdia","time":4,"line":2,"i_lat":-6.186295,"transit":false},{"is_transit":false,"station_id":"CKI","transit":false,"distance":1750,"time":3,"i_lat":-6.198556,"line":0,"station_name":"Cikini","i_long":106.840169},{"transit":true,"i_lat":-6.209883,"is_transit":true,"time":4,"station_name":"Manggarai","line":0,"distance":1590,"station_id":"MRI","i_long":106.84912},{"line":2,"distance":2610,"is_transit":false,"station_id":"TEB","transit":false,"i_long":106.857948,"time":4,"station_name":"Tebet","i_lat":-6.226659},{"station_id":"CW","i_lat":-6.242512,"is_transit":false,"line":0,"i_long":106.856607,"transit":false,"time":2,"distance":1230,"station_name":"Cawang"}],[{"station_name":"Pondokranji","i_long":106.74273,"distance":0,"time":0,"is_transit":false,"transit":false,"i_lat":-6.276362,"station_id":"PDJ","line":6},{"line":6,"transit":false,"station_id":"KBY","i_long":106.780334,"distance":6218,"i_lat":-6.237242,"station_name":"Kebayoran","is_transit":false,"time":8},{"station_id":"PLM","time":7,"is_transit":false,"line":6,"i_lat":-6.207404,"station_name":"Palmerah","distance":3737,"transit":false,"i_long":106.79689},{"transit":true,"is_transit":true,"station_name":"Tanah Abang","time":6,"line":1,"i_lat":-6.185545,"i_long":106.811091,"distance":3191,"station_id":"THB"},{"i_lat":-6.155215,"i_long":106.800832,"line":1,"time":8,"transit":true,"distance":3632,"station_name":"Duri","station_id":"DU","is_transit":true},{"station_id":"AK","is_transit":false,"station_name":"Angke","distance":1230,"time":4,"i_lat":-6.144674,"line":0,"transit":false,"i_long":106.79867},{"station_name":"Kampung Bandan","time":9,"i_long":106.826365,"station_id":"KPB","is_transit":true,"transit":true,"distance":4102,"line":0,"i_lat":-6.132549},{"distance":1444,"transit":false,"i_lat":-6.14505,"station_id":"RJW","line":11,"station_name":"Rajawali","is_transit":false,"i_long":106.836569,"time":3},{"time":5,"i_long":106.839204,"line":11,"station_id":"KMO","station_name":"Kemayoran","i_lat":-6.161728,"is_transit":false,"distance":1901,"transit":false},{"station_id":"PSE","station_name":"Pasar Senen","transit":false,"time":4,"i_lat":-6.174784,"i_long":106.84368,"distance":1436,"is_transit":false,"line":11},{"distance":1567,"i_lat":-6.185975,"i_long":106.850107,"station_name":"Gang Sentiong","station_id":"GST","line":11,"transit":false,"time":8,"is_transit":false},{"station_id":"KMT","station_name":"Kramat","i_lat":-6.193792,"distance":973,"time":1,"is_transit":false,"i_long":106.855437,"line":11,"transit":false},{"distance":1829,"is_transit":false,"i_long":106.861737,"station_id":"POK","transit":false,"time":2,"station_name":"Pondok Jati","i_lat":-6.209188,"line":11},{"i_long":106.86807400000001,"transit":true,"i_lat":-6.215091,"station_id":"JNG","distance":1236,"time":9,"line":0,"station_name":"Jatinegara","is_transit":true},{"distance":1377,"i_lat":-6.212485,"transit":false,"station_name":"Matraman","station_id":"MTR","is_transit":false,"time":2,"i_long":106.858896,"line":1},{"transit":true,"station_id":"MRI","time":2,"i_long":106.84912,"station_name":"Manggarai","is_transit":true,"i_lat":-6.209883,"distance":1275,"line":0},{"station_id":"TEB","distance":2610,"transit":false,"i_long":106.857948,"line":2,"i_lat":-6.226659,"time":4,"station_name":"Tebet","is_transit":false},{"station_name":"Cawang","is_transit":false,"station_id":"CW","time":2,"transit":false,"i_lat":-6.242512,"i_long":106.856607,"distance":1230,"line":0}]]}