{"data":[[{"distance":0,"transit":false,"line":6,"station_id":"PDJ","is_transit":false,"station_name":"Pondokranji","i_long":106.74273,"i_lat":-6.276362,"time":0},{"station_name":"Kebayoran","distance":6218,"i_lat":-6.237242,"line":6,"transit":false,"station_id":"KBY","i_long":106.780334,"time":8,"is_transit":false},{"distance":3737,"line":6,"is_transit":false,"time":7,"i_lat":-6.207404,"transit":false,"station_id":"PLM","station_name":"Palmerah","i_long":106.79689},{"distance":3191,"i_lat":-6.185545,"is_transit":true,"transit":true,"time":6,"station_id":"THB","i_long":106.811091,"station_name":"Tanah Abang","line":1},{"distance":2029,"time":5,"station_id":"KAT","station_name":"Karet","is_transit":false,"line":1,"i_lat":-6.20132,"transit":false,"i_long":106.816351},{"station_id":"SUDB","is_transit":false,"time":1,"station_name":"Sudirman Baru","distance":471,"i_long":106.819881,"transit":false,"i_lat":-6.201433,"line":1},{"i_long":106.822649,"station_id":"SUD","distance":280,"time":1,"is_transit":false,"station_name":"Sudirman","i_lat":-6.202263,"line":1,"transit":false},{"line":2,"i_long":106.84912,"time":4,"station_name":"Manggarai","is_transit":true,"distance":3186,"i_lat":-6.209883,"transit":true,"station_id":"MRI"},{"is_transit":false,"transit":false,"i_long":106.840169,"i_lat":-6.198556,"station_id":"CKI","line":2,"distance":1590,"time":4,"station_name":"Cikini"}],[{"distance":0,"i_lat":-6.276362,"line":6,"is_transit":false,"station_name":"Pondokranji","transit":false,"i_long":106.74273,"time":0,"station_id":"PDJ"},{"i_long":106.780334,"is_transit":false,"time":8,"line":6,"station_id":"KBY","distance":6218,"transit":false,"i_lat":-6.237242,"station_name":"Kebayoran"},{"station_name":"Palmerah","i_lat":-6.207404,"line":6,"is_transit":false,"distance":3737,"i_long":106.79689,"time":7,"station_id":"PLM","transit":false},{"distance":3191,"transit":true,"line":1,"time":6,"i_lat":-6.185545,"i_long":106.811091,"is_transit":true,"station_id":"THB","station_name":"Tanah Abang"},{"station_id":"DU","distance":3632,"time":8,"i_lat":-6.155215,"i_long":106.800832,"line":1,"transit":false,"is_transit":false,"station_name":"Duri"},{"station_name":"Angke","time":4,"is_transit":false,"i_lat":-6.144674,"station_id":"AK","distance":1230,"i_long":106.79867,"line":1,"transit":false},{"station_name":"Kampung Bandan","i_long":106.826365,"station_id":"KPB","time":9,"line":4,"i_lat":-6.132549,"distance":4102,"is_transit":true,"transit":true},{"line":2,"station_id":"JAKK","distance":1364,"station_name":"Jakarta Kota","time":3,"transit":true,"is_transit":true,"i_long":106.812439,"i_lat":-6.137569},{"i_lat":-6.141205,"distance":1264,"station_name":"Jayakarta","transit":false,"i_long":106.820901,"is_transit":false,"time":4,"line":2,"station_id":"JAY"},{"line":2,"transit":false,"station_name":"Manggabesar","station_id":"MGB","time":2,"is_transit":false,"i_lat":-6.149769,"i_long":106.82482,"distance":1080},{"distance":906,"i_lat":-6.160725,"i_long":106.827103,"time":2,"transit":false,"line":2,"station_name":"Sawah Besar","is_transit":false,"station_id":"SW"},{"i_lat":-6.166716,"line":2,"is_transit":false,"station_name":"Juanda","distance":1149,"time":2,"transit":false,"i_long":106.828284,"station_id":"JUA"},{"line":2,"station_id":"GDD","distance":2015,"time":4,"transit":false,"i_lat":-6.186295,"i_long":106.832183,"is_transit":false,"station_name":"Gondangdia"},{"station_name":"Cikini","transit":false,"station_id":"CKI","i_lat":-6.198556,"i_long":106.840169,"line":2,"time":3,"distance":1750,"is_transit":false}],[{"station_name":"Pondokranji","line":6,"is_transit":false,"time":0,"i_long":106.74273,"i_lat":-6.276362,"distance":0,"transit":false,"station_id":"PDJ"},{"distance":6218,"is_transit":false,"station_name":"Kebayoran","time":8,"i_long":106.780334,"line":6,"station_id":"KBY","transit":false,"i_lat":-6.237242},{"i_lat":-6.207404,"i_long":106.79689,"station_id":"PLM","distance":3737,"time":7,"station_name":"Palmerah","transit":false,"line":6,"is_transit":false},{"station_id":"THB","time":6,"is_transit":true,"distance":3191,"transit":true,"station_name":"Tanah Abang","i_lat":-6.185545,"line":1,"i_long":106.811091},{"line":1,"station_id":"DU","transit":false,"distance":3632,"i_lat":-6.155215,"is_transit":false,"i_long":106.800832,"time":8,"station_name":"Duri"},{"distance":1230,"time":4,"station_id":"AK","station_name":"Angke","transit":false,"line":1,"i_long":106.79867,"i_lat":-6.144674,"is_transit":false},{"station_name":"Kampung Bandan","transit":true,"i_long":106.826365,"line":4,"i_lat":-6.132549,"station_id":"KPB","is_transit":true,"distance":4102,"time":9},{"station_id":"RJW","i_lat":-6.14505,"i_long":106.836569,"line":11,"distance":1444,"station_name":"Rajawali","time":3,"is_transit":false,"transit":false},{"transit":false,"line":11,"is_transit":false,"i_long":106.839204,"i_lat":-6.161728,"station_name":"Kemayoran","station_id":"KMO","distance":1901,"time":5},{"time":4,"i_lat":-6.174784,"station_name":"Pasar Senen","i_long":106.84368,"is_transit":false,"distance":1436,"line":11,"transit":false,"station_id":"PSE"},{"station_name":"Gang Sentiong","is_transit":false,"time":8,"transit":false,"distance":1567,"line":11,"i_lat":-6.185975,"i_long":106.850107,"station_id":"GST"},{"i_lat":-6.193792,"station_id":"KMT","i_long":106.855437,"distance":973,"time":1,"is_transit":false,"station_name":"Kramat","transit":false,"line":11},{"distance":1829,"is_transit":false,"transit":false,"time":2,"station_id":"POK","station_name":"Pondok Jati","i_lat":-6.209188,"i_long":106.861737,"line":11},{"station_name":"Jatinegara","is_transit":true,"distance":1236,"station_id":"JNG","i_lat":-6.215091,"line":1,"i_long":106.86807400000001,"time":9,"transit":true},{"is_transit":false,"line":1,"transit":false,"i_lat":-6.212485,"station_name":"Matraman","station_id":"MTR","distance":1377,"i_long":106.858896,"time":2},{"line":2,"time":2,"is_transit":true,"station_name":"Manggarai","i_long":106.84912,"distance":1275,"station_id":"MRI","transit":true,"i_lat":-6.209883},{"station_id":"CKI","distance":1590,"transit":false,"line":2,"i_lat":-6.198556,"is_transit":false,"station_name":"Cikini","time":4,"i_long":106.840169}],[{"i_long":106.74273,"i_lat":-6.276362,"line":6,"is_transit":false,"time":0,"station_id":"PDJ","distance":0,"transit":false,"station_name":"Pondokranji"},{"i_long":106.780334,"distance":6218,"time":8,"transit":false,"station_id":"KBY","i_lat":-6.237242,"is_transit":false,"line":6,"station_name":"Kebayoran"},{"station_name":"Palmerah","i_lat":-6.207404,"distance":3737,"i_long":106.79689,"is_transit":false,"transit":false,"line":6,"time":7,"station_id":"PLM"},{"transit":true,"distance":3191,"i_lat":-6.185545,"line":1,"station_name":"Tanah Abang","time":6,"i_long":106.811091,"station_id":"THB","is_transit":true},{"distance":2029,"transit":false,"i_lat":-6.20132,"i_long":106.816351,"time":5,"line":1,"station_name":"Karet","is_transit":false,"station_id":"KAT"},{"distance":471,"is_transit":false,"line":1,"station_name":"Sudirman Baru","station_id":"SUDB","time":1,"transit":false,"i_long":106.819881,"i_lat":-6.201433},{"transit":false,"line":1,"i_lat":-6.202263,"is_transit":false,"i_long":106.822649,"station_name":"Sudirman","time":1,"distance":280,"station_id":"SUD"},{"station_id":"MRI","station_name":"Manggarai","transit":false,"i_lat":-6.209883,"line":2,"distance":3186,"i_long":106.84912,"is_transit":false,"time":4},{"is_transit":false,"station_id":"MTR","distance":1275,"i_lat":-6.212485,"time":2,"i_long":106.858896,"transit":false,"station_name":"Matraman","line":1},{"i_long":106.86807400000001,"station_id":"JNG","distance":1377,"transit":true,"time":8,"station_name":"Jatinegara","line":1,"is_transit":true,"i_lat":-6.215091},{"station_name":"Pondok Jati","distance":1236,"station_id":"POK","transit":false,"i_lat":-6.209188,"i_long":106.861737,"time":2,"line":11,"is_transit":false},{"i_long":106.855437,"line":11,"is_transit":false,"time":2,"distance":1829,"i_lat":-6.193792,"station_id":"KMT","station_name":"Kramat","transit":false},{"is_transit":false,"station_name":"Gang Sentiong","i_long":106.850107,"distance":973,"time":1,"line":11,"transit":false,"station_id":"GST","i_lat":-6.185975},{"transit":false,"station_id":"PSE","time":8,"i_lat":-6.174784,"line":11,"station_name":"Pasar Senen","is_transit":false,"i_long":106.84368,"distance":1567},{"line":11,"station_id":"KMO","i_long":106.839204,"transit":false,"time":4,"i_lat":-6.161728,"is_transit":false,"distance":1436,"station_name":"Kemayoran"},{"i_lat":-6.14505,"line":11,"i_long":106.836569,"transit":false,"station_name":"Rajawali","distance":1901,"is_transit":false,"station_id":"RJW","time":5},{"station_name":"Kampung Bandan","time":3,"station_id":"KPB","distance":1444,"transit":true,"i_long":106.826365,"line":4,"is_transit":true,"i_lat":-6.132549},{"time":3,"i_lat":-6.137569,"station_name":"Jakarta Kota","i_long":106.812439,"line":2,"is_transit":true,"station_id":"JAKK","distance":1364,"transit":true},{"is_transit":false,"station_id":"JAY","time":4,"transit":false,"i_long":106.820901,"line":2,"station_name":"Jayakarta","distance":1264,"i_lat":-6.141205},{"is_transit":false,"station_id":"MGB","i_long":106.82482,"time":2,"distance":1080,"station_name":"Manggabesar","transit":false,"i_lat":-6.149769,"line":2},{"i_long":106.827103,"time":2,"distance":906,"i_lat":-6.160725,"line":2,"is_transit":false,"station_id":"SW","station_name":"Sawah Besar","transit":false},{"line":2,"time":2,"distance":1149,"station_id":"JUA","station_name":"Juanda","transit":false,"i_lat":-6.166716,"i_long":106.828284,"is_transit":false},{"station_id":"GDD","distance":2015,"transit":false,"station_name":"Gondangdia","is_transit":false,"time":4,"i_long":106.832183,"line":2,"i_lat":-6.186295},{"i_lat":-6.198556,"is_transit":false,"distance":1750,"station_id":"CKI","line":2,"i_long":106.840169,"transit":false,"station_name":"Cikini","time":3}]]}