{"data":[[{"line":6,"time":0,"i_lat":-6.276362,"distance":0,"transit":false,"is_transit":false,"station_name":"Pondokranji","station_id":"PDJ","i_long":106.74273},{"time":8,"transit":false,"line":6,"distance":6218,"i_long":106.780334,"i_lat":-6.237242,"station_id":"KBY","station_name":"Kebayoran","is_transit":false},{"station_name":"Palmerah","i_long":106.79689,"station_id":"PLM","i_lat":-6.207404,"transit":false,"line":6,"time":7,"distance":3737,"is_transit":false},{"station_id":"THB","is_transit":true,"transit":true,"distance":3191,"station_name":"Tanah Abang","i_lat":-6.185545,"i_long":106.811091,"time":6,"line":1},{"is_transit":false,"station_id":"KAT","time":5,"line":1,"station_name":"Karet","distance":2029,"transit":false,"i_lat":-6.20132,"i_long":106.816351},{"station_name":"Sudirman Baru","station_id":"SUDB","transit":false,"i_lat":-6.201433,"distance":471,"i_long":106.819881,"is_transit":false,"time":1,"line":1},{"station_id":"SUD","i_lat":-6.202263,"i_long":106.822649,"is_transit":false,"line":1,"time":1,"distance":280,"station_name":"Sudirman","transit":false},{"is_transit":true,"station_id":"MRI","i_lat":-6.209883,"station_name":"Manggarai","i_long":106.84912,"distance":3186,"transit":false,"time":4,"line":0},{"i_long":106.858896,"i_lat":-6.212485,"transit":false,"station_id":"MTR","is_transit":false,"distance":1275,"time":2,"station_name":"Matraman","line":1},{"transit":false,"station_name":"Jatinegara","i_lat":-6.215091,"line":0,"distance":1377,"is_transit":true,"i_long":106.86807400000001,"station_id":"JNG","time":8},{"time":3,"is_transit":false,"station_name":"Klender","station_id":"KLD","distance":3395,"transit":false,"i_lat":-6.2135,"line":1,"i_long":106.899548},{"station_name":"Buaran","line":0,"is_transit":false,"time":2,"distance":3100,"i_lat":-6.215568,"station_id":"BUA","i_long":106.922662,"transit":false},{"station_id":"KLDB","distance":1305,"station_name":"Klenderbaru","i_long":106.939679,"time":1,"transit":false,"i_lat":-6.217455,"line":1,"is_transit":false},{"station_id":"CUK","line":0,"distance":1385,"station_name":"Cakung","is_transit":false,"transit":false,"i_lat":-6.219053,"time":8,"i_long":106.951283},{"i_long":106.977657,"line":1,"station_name":"Kranji","time":3,"i_lat":-6.224515,"is_transit":false,"transit":false,"distance":3097,"station_id":"KRI"}],[{"transit":false,"station_name":"Pondokranji","time":0,"distance":0,"station_id":"PDJ","i_long":106.74273,"i_lat":-6.276362,"line":6,"is_transit":false},{"distance":6218,"station_name":"Kebayoran","i_lat":-6.237242,"i_long":106.780334,"line":6,"station_id":"KBY","is_transit":false,"transit":false,"time":8},{"is_transit":false,"station_name":"Palmerah","i_lat":-6.207404,"time":7,"distance":3737,"transit":false,"station_id":"PLM","i_long":106.79689,"line":6},{"distance":3191,"is_transit":true,"i_lat":-6.185545,"i_long":106.811091,"time":6,"station_id":"THB","transit":true,"station_name":"Tanah Abang","line":1},{"is_transit":true,"station_id":"DU","distance":3632,"transit":true,"station_name":"Duri","i_lat":-6.155215,"line":1,"i_long":106.800832,"time":8},{"station_id":"AK","transit":false,"is_transit":false,"time":4,"station_name":"Angke","i_lat":-6.144674,"distance":1230,"line":0,"i_long":106.79867},{"station_id":"KPB","is_transit":true,"distance":4102,"station_name":"Kampung Bandan","transit":true,"i_lat":-6.132549,"line":0,"i_long":106.826365,"time":9},{"transit":false,"distance":1444,"station_id":"RJW","i_long":106.836569,"station_name":"Rajawali","time":3,"is_transit":false,"line":11,"i_lat":-6.14505},{"station_id":"KMO","distance":1901,"is_transit":false,"transit":false,"station_name":"Kemayoran","i_long":106.839204,"time":5,"i_lat":-6.161728,"line":11},{"is_transit":false,"i_lat":-6.174784,"station_id":"PSE","transit":false,"distance":1436,"time":4,"station_name":"Pasar Senen","i_long":106.84368,"line":11},{"transit":false,"station_name":"Gang Sentiong","time":8,"distance":1567,"i_lat":-6.185975,"station_id":"GST","is_transit":false,"i_long":106.850107,"line":11},{"line":11,"station_id":"KMT","station_name":"Kramat","i_long":106.855437,"is_transit":false,"transit":false,"distance":973,"i_lat":-6.193792,"time":1},{"is_transit":false,"distance":1829,"transit":false,"i_lat":-6.209188,"i_long":106.861737,"station_id":"POK","time":2,"line":11,"station_name":"Pondok Jati"},{"time":9,"distance":1236,"i_long":106.86807400000001,"is_transit":true,"station_id":"JNG","station_name":"Jatinegara","transit":true,"i_lat":-6.215091,"line":0},{"transit":false,"station_id":"KLD","i_long":106.899548,"station_name":"Klender","time":3,"line":1,"distance":3395,"is_transit":false,"i_lat":-6.2135},{"distance":3100,"i_lat":-6.215568,"station_id":"BUA","station_name":"Buaran","line":0,"is_transit":false,"time":2,"transit":false,"i_long":106.922662},{"station_name":"Klenderbaru","is_transit":false,"time":1,"transit":false,"station_id":"KLDB","distance":1305,"i_lat":-6.217455,"i_long":106.939679,"line":1},{"is_transit":false,"station_name":"Cakung","line":0,"distance":1385,"station_id":"CUK","i_lat":-6.219053,"i_long":106.951283,"time":8,"transit":false},{"line":1,"time":3,"transit":false,"distance":3097,"i_lat":-6.224515,"station_id":"KRI","i_long":106.977657,"is_transit":false,"station_name":"Kranji"}],[{"distance":0,"time":0,"station_id":"PDJ","is_transit":false,"transit":false,"i_lat":-6.276362,"i_long":106.74273,"line":6,"station_name":"Pondokranji"},{"i_long":106.780334,"is_transit":false,"i_lat":-6.237242,"distance":6218,"line":6,"transit":false,"station_name":"Kebayoran","station_id":"KBY","time":8},{"distance":3737,"station_id":"PLM","transit":false,"is_transit":false,"station_name":"Palmerah","i_lat":-6.207404,"line":6,"time":7,"i_long":106.79689},{"transit":true,"i_lat":-6.185545,"i_long":106.811091,"station_id":"THB","is_transit":true,"distance":3191,"station_name":"Tanah Abang","line":1,"time":6},{"time":8,"is_transit":true,"distance":3632,"transit":true,"i_lat":-6.155215,"line":1,"station_id":"DU","station_name":"Duri","i_long":106.800832},{"i_long":106.79867,"transit":false,"station_name":"Angke","i_lat":-6.144674,"station_id":"AK","is_transit":false,"time":4,"distance":1230,"line":0},{"station_name":"Kampung Bandan","i_lat":-6.132549,"station_id":"KPB","i_long":106.826365,"distance":4102,"transit":false,"time":9,"line":0,"is_transit":true},{"distance":1364,"station_name":"Jakarta Kota","station_id":"JAKK","is_transit":true,"transit":true,"i_long":106.812439,"line":0,"i_lat":-6.137569,"time":3},{"station_id":"JAY","time":4,"distance":1264,"station_name":"Jayakarta","transit":false,"line":7,"i_lat":-6.141205,"is_transit":false,"i_long":106.820901},{"station_name":"Manggabesar","time":2,"distance":1080,"i_lat":-6.149769,"line":2,"is_transit":false,"transit":false,"i_long":106.82482,"station_id":"MGB"},{"line":2,"station_name":"Sawah Besar","i_lat":-6.160725,"i_long":106.827103,"station_id":"SW","time":2,"distance":906,"is_transit":false,"transit":false},{"is_transit":false,"station_id":"JUA","time":2,"transit":false,"i_lat":-6.166716,"i_long":106.828284,"distance":1149,"station_name":"Juanda","line":2},{"distance":2015,"station_name":"Gondangdia","i_long":106.832183,"time":4,"line":2,"i_lat":-6.186295,"transit":false,"station_id":"GDD","is_transit":false},{"is_transit":false,"distance":1750,"station_name":"Cikini","station_id":"CKI","transit":false,"i_lat":-6.198556,"line":0,"time":3,"i_long":106.840169},{"station_name":"Manggarai","time":4,"is_transit":true,"station_id":"MRI","line":0,"transit":true,"i_lat":-6.209883,"distance":1590,"i_long":106.84912},{"transit":false,"station_id":"MTR","time":2,"i_long":106.858896,"is_transit":false,"line":1,"i_lat":-6.212485,"station_name":"Matraman","distance":1275},{"i_long":106.86807400000001,"station_id":"JNG","time":8,"distance":1377,"transit":false,"line":0,"is_transit":true,"station_name":"Jatinegara","i_lat":-6.215091},{"i_long":106.899548,"transit":false,"station_id":"KLD","is_transit":false,"station_name":"Klender","i_lat":-6.2135,"time":3,"distance":3395,"line":1},{"time":2,"i_lat":-6.215568,"station_id":"BUA","transit":false,"is_transit":false,"distance":3100,"i_long":106.922662,"line":0,"station_name":"Buaran"},{"time":1,"is_transit":false,"i_lat":-6.217455,"station_name":"Klenderbaru","i_long":106.939679,"transit":false,"line":1,"station_id":"KLDB","distance":1305},{"time":8,"is_transit":false,"station_name":"Cakung","station_id":"CUK","transit":false,"i_long":106.951283,"distance":1385,"line":0,"i_lat":-6.219053},{"line":1,"station_id":"KRI","time":3,"distance":3097,"is_transit":false,"transit":false,"i_long":106.977657,"i_lat":-6.224515,"station_name":"Kranji"}],[{"time":0,"station_name":"Pondokranji","is_transit":false,"i_lat":-6.276362,"i_long":106.74273,"distance":0,"line":6,"station_id":"PDJ","transit":false},{"is_transit":false,"distance":6218,"station_name":"Kebayoran","i_lat":-6.237242,"transit":false,"i_long":106.780334,"time":8,"station_id":"KBY","line":6},{"station_id":"PLM","i_lat":-6.207404,"is_transit":false,"i_long":106.79689,"station_name":"Palmerah","time":7,"distance":3737,"line":6,"transit":false},{"transit":true,"time":6,"is_transit":true,"station_name":"Tanah Abang","i_long":106.811091,"line":1,"station_id":"THB","distance":3191,"i_lat":-6.185545},{"station_id":"KAT","distance":2029,"i_lat":-6.20132,"i_long":106.816351,"line":1,"time":5,"is_transit":false,"station_name":"Karet","transit":false},{"is_transit":false,"transit":false,"station_name":"Sudirman Baru","time":1,"line":1,"i_long":106.819881,"station_id":"SUDB","i_lat":-6.201433,"distance":471},{"time":1,"distance":280,"station_name":"Sudirman","transit":false,"i_lat":-6.202263,"is_transit":false,"line":1,"station_id":"SUD","i_long":106.822649},{"i_long":106.84912,"line":0,"is_transit":true,"time":4,"distance":3186,"station_id":"MRI","transit":true,"station_name":"Manggarai","i_lat":-6.209883},{"i_lat":-6.198556,"station_id":"CKI","line":0,"station_name":"Cikini","i_long":106.840169,"is_transit":false,"transit":false,"distance":1590,"time":4},{"is_transit":false,"i_lat":-6.186295,"line":2,"i_long":106.832183,"station_id":"GDD","transit":false,"station_name":"Gondangdia","time":3,"distance":1750},{"transit":false,"station_name":"Juanda","i_long":106.828284,"i_lat":-6.166716,"distance":2015,"line":2,"station_id":"JUA","is_transit":false,"time":4},{"station_id":"SW","is_transit":false,"time":2,"i_long":106.827103,"line":2,"i_lat":-6.160725,"station_name":"Sawah Besar","distance":1149,"transit":false},{"line":2,"distance":906,"station_id":"MGB","is_transit":false,"i_long":106.82482,"time":2,"station_name":"Manggabesar","i_lat":-6.149769,"transit":false},{"station_id":"JAY","time":2,"i_long":106.820901,"line":7,"is_transit":false,"i_lat":-6.141205,"distance":1080,"transit":false,"station_name":"Jayakarta"},{"i_lat":-6.137569,"i_long":106.812439,"is_transit":true,"transit":true,"line":0,"distance":1264,"station_name":"Jakarta Kota","station_id":"JAKK","time":4},{"station_id":"KPB","time":3,"i_lat":-6.132549,"i_long":106.826365,"transit":true,"is_transit":true,"line":0,"distance":1364,"station_name":"Kampung Bandan"},{"transit":false,"station_id":"RJW","time":3,"line":11,"i_long":106.836569,"distance":1444,"i_lat":-6.14505,"station_name":"Rajawali","is_transit":false},{"i_lat":-6.161728,"time":5,"station_id":"KMO","line":11,"i_long":106.839204,"distance":1901,"transit":false,"station_name":"Kemayoran","is_transit":false},{"station_name":"Pasar Senen","station_id":"PSE","time":4,"is_transit":false,"i_lat":-6.174784,"line":11,"distance":1436,"transit":false,"i_long":106.84368},{"i_lat":-6.185975,"i_long":106.850107,"line":11,"distance":1567,"is_transit":false,"station_id":"GST","time":8,"transit":false,"station_name":"Gang Sentiong"},{"station_name":"Kramat","i_lat":-6.193792,"line":11,"is_transit":false,"distance":973,"transit":false,"i_long":106.855437,"time":1,"station_id":"KMT"},{"line":11,"is_transit":false,"i_lat":-6.209188,"transit":false,"time":2,"distance":1829,"station_id":"POK","station_name":"Pondok Jati","i_long":106.861737},{"line":0,"distance":1236,"station_id":"JNG","time":9,"transit":true,"station_name":"Jatinegara","i_lat":-6.215091,"is_transit":true,"i_long":106.86807400000001},{"station_name":"Klender","line":1,"is_transit":false,"transit":false,"distance":3395,"station_id":"KLD","i_long":106.899548,"i_lat":-6.2135,"time":3},{"distance":3100,"station_name":"Buaran","i_long":106.922662,"line":0,"time":2,"i_lat":-6.215568,"transit":false,"station_id":"BUA","is_transit":false},{"transit":false,"station_name":"Klenderbaru","i_lat":-6.217455,"line":1,"i_long":106.939679,"is_transit":false,"time":1,"station_id":"KLDB","distance":1305},{"transit":false,"is_transit":false,"time":8,"station_name":"Cakung","station_id":"CUK","line":0,"distance":1385,"i_lat":-6.219053,"i_long":106.951283},{"transit":false,"station_name":"Kranji","time":3,"station_id":"KRI","line":1,"is_transit":false,"distance":3097,"i_lat":-6.224515,"i_long":106.977657}]]}