{"data":[[{"time":0,"distance":0,"is_transit":false,"station_name":"Pondokranji","i_lat":-6.276362,"i_long":106.74273,"station_id":"PDJ","transit":false,"line":6},{"station_name":"Kebayoran","distance":6218,"i_long":106.780334,"i_lat":-6.237242,"time":8,"transit":false,"line":6,"is_transit":false,"station_id":"KBY"},{"i_long":106.79689,"transit":false,"station_name":"Palmerah","time":7,"line":6,"distance":3737,"is_transit":false,"i_lat":-6.207404,"station_id":"PLM"},{"i_lat":-6.185545,"time":6,"station_name":"Tanah Abang","transit":true,"is_transit":true,"station_id":"THB","distance":3191,"line":1,"i_long":106.811091},{"station_id":"DU","i_lat":-6.155215,"is_transit":false,"distance":3632,"station_name":"Duri","time":8,"i_long":106.800832,"transit":false,"line":1},{"distance":1230,"station_name":"Angke","time":4,"transit":false,"i_lat":-6.144674,"i_long":106.79867,"line":1,"is_transit":false,"station_id":"AK"},{"station_id":"KPB","transit":true,"time":9,"i_long":106.826365,"line":4,"is_transit":true,"i_lat":-6.132549,"station_name":"Kampung Bandan","distance":4102},{"is_transit":false,"i_lat":-6.128023,"line":4,"station_name":"Ancol","distance":2185,"transit":false,"time":4,"station_id":"AC","i_long":106.84464},{"i_lat":-6.1109480000000005,"i_long":106.880089,"station_id":"TPK","station_name":"Tanjung Priuk","time":9,"is_transit":false,"distance":4566,"line":4,"transit":false}],[{"is_transit":false,"station_id":"PDJ","distance":0,"i_lat":-6.276362,"i_long":106.74273,"transit":false,"station_name":"Pondokranji","line":6,"time":0},{"i_long":106.780334,"line":6,"is_transit":false,"distance":6218,"time":8,"station_id":"KBY","station_name":"Kebayoran","transit":false,"i_lat":-6.237242},{"transit":false,"i_long":106.79689,"distance":3737,"is_transit":false,"station_name":"Palmerah","time":7,"station_id":"PLM","i_lat":-6.207404,"line":6},{"transit":true,"time":6,"i_lat":-6.185545,"distance":3191,"station_name":"Tanah Abang","i_long":106.811091,"station_id":"THB","line":1,"is_transit":true},{"time":5,"transit":false,"distance":2029,"i_long":106.816351,"i_lat":-6.20132,"is_transit":false,"station_name":"Karet","line":1,"station_id":"KAT"},{"station_name":"Sudirman Baru","distance":471,"i_long":106.819881,"line":1,"station_id":"SUDB","time":1,"transit":false,"i_lat":-6.201433,"is_transit":false},{"station_id":"SUD","i_long":106.822649,"i_lat":-6.202263,"time":1,"line":1,"station_name":"Sudirman","is_transit":false,"distance":280,"transit":false},{"i_lat":-6.209883,"transit":true,"station_id":"MRI","i_long":106.84912,"line":2,"time":4,"distance":3186,"is_transit":true,"station_name":"Manggarai"},{"i_long":106.840169,"i_lat":-6.198556,"time":4,"is_transit":false,"station_id":"CKI","distance":1590,"transit":false,"station_name":"Cikini","line":2},{"i_lat":-6.186295,"station_id":"GDD","i_long":106.832183,"distance":1750,"transit":false,"is_transit":false,"line":2,"time":3,"station_name":"Gondangdia"},{"station_id":"JUA","station_name":"Juanda","time":4,"i_lat":-6.166716,"i_long":106.828284,"is_transit":false,"line":2,"transit":false,"distance":2015},{"station_name":"Sawah Besar","station_id":"SW","i_long":106.827103,"is_transit":false,"transit":false,"line":2,"i_lat":-6.160725,"time":2,"distance":1149},{"distance":906,"time":2,"i_lat":-6.149769,"line":2,"station_id":"MGB","is_transit":false,"station_name":"Manggabesar","transit":false,"i_long":106.82482},{"station_id":"JAY","station_name":"Jayakarta","distance":1080,"is_transit":false,"time":2,"transit":false,"i_lat":-6.141205,"i_long":106.820901,"line":2},{"is_transit":true,"transit":true,"distance":1264,"station_id":"JAKK","i_lat":-6.137569,"i_long":106.812439,"line":2,"station_name":"Jakarta Kota","time":4},{"time":3,"i_long":106.826365,"distance":1364,"station_name":"Kampung Bandan","is_transit":true,"station_id":"KPB","line":4,"transit":true,"i_lat":-6.132549},{"is_transit":false,"transit":false,"station_id":"AC","station_name":"Ancol","i_lat":-6.128023,"line":4,"time":4,"distance":2185,"i_long":106.84464},{"station_id":"TPK","is_transit":false,"transit":false,"station_name":"Tanjung Priuk","i_lat":-6.1109480000000005,"i_long":106.880089,"time":9,"line":4,"distance":4566}],[{"is_transit":false,"i_lat":-6.276362,"transit":false,"line":6,"station_id":"PDJ","distance":0,"i_long":106.74273,"time":0,"station_name":"Pondokranji"},{"station_id":"KBY","transit":false,"time":8,"is_transit":false,"station_name":"Kebayoran","distance":6218,"line":6,"i_lat":-6.237242,"i_long":106.780334},{"line":6,"transit":false,"station_name":"Palmerah","time":7,"distance":3737,"station_id":"PLM","i_long":106.79689,"i_lat":-6.207404,"is_transit":false},{"distance":3191,"i_lat":-6.185545,"is_transit":true,"station_id":"THB","line":1,"transit":true,"time":6,"i_long":106.811091,"station_name":"Tanah Abang"},{"station_name":"Karet","is_transit":false,"time":5,"station_id":"KAT","line":1,"transit":false,"distance":2029,"i_lat":-6.20132,"i_long":106.816351},{"distance":471,"time":1,"transit":false,"i_long":106.819881,"station_id":"SUDB","i_lat":-6.201433,"line":1,"station_name":"Sudirman Baru","is_transit":false},{"time":1,"is_transit":false,"station_name":"Sudirman","station_id":"SUD","i_long":106.822649,"transit":false,"line":1,"distance":280,"i_lat":-6.202263},{"time":4,"station_id":"MRI","transit":false,"station_name":"Manggarai","distance":3186,"i_long":106.84912,"is_transit":false,"line":2,"i_lat":-6.209883},{"station_name":"Matraman","is_transit":false,"time":2,"distance":1275,"line":1,"transit":false,"station_id":"MTR","i_long":106.858896,"i_lat":-6.212485},{"distance":1377,"is_transit":true,"transit":true,"i_lat":-6.215091,"station_id":"JNG","i_long":106.86807400000001,"station_name":"Jatinegara","line":1,"time":8},{"station_id":"POK","distance":1236,"is_transit":false,"i_lat":-6.209188,"station_name":"Pondok Jati","transit":false,"line":11,"time":2,"i_long":106.861737},{"line":11,"station_id":"KMT","i_lat":-6.193792,"i_long":106.855437,"station_name":"Kramat","transit":false,"is_transit":false,"time":2,"distance":1829},{"station_id":"GST","station_name":"Gang Sentiong","distance":973,"i_long":106.850107,"line":11,"i_lat":-6.185975,"transit":false,"time":1,"is_transit":false},{"i_long":106.84368,"line":11,"station_name":"Pasar Senen","is_transit":false,"transit":false,"time":8,"distance":1567,"station_id":"PSE","i_lat":-6.174784},{"line":11,"distance":1436,"time":4,"station_name":"Kemayoran","i_lat":-6.161728,"i_long":106.839204,"station_id":"KMO","is_transit":false,"transit":false},{"station_name":"Rajawali","transit":false,"line":11,"time":5,"i_lat":-6.14505,"station_id":"RJW","i_long":106.836569,"distance":1901,"is_transit":false},{"time":3,"station_name":"Kampung Bandan","transit":true,"is_transit":true,"distance":1444,"i_lat":-6.132549,"line":4,"station_id":"KPB","i_long":106.826365},{"time":4,"transit":false,"distance":2185,"is_transit":false,"station_name":"Ancol","i_long":106.84464,"line":4,"station_id":"AC","i_lat":-6.128023},{"line":4,"is_transit":false,"i_long":106.880089,"distance":4566,"transit":false,"station_id":"TPK","time":9,"station_name":"Tanjung Priuk","i_lat":-6.1109480000000005}]]}