{"data":[[{"station_id":"PDJ","time":0,"station_name":"Pondokranji","line":6,"i_lat":-6.276362,"i_long":106.74273,"transit":false,"is_transit":false,"distance":0},{"line":6,"station_name":"Jurangmangu","time":3,"transit":false,"is_transit":false,"distance":2179,"station_id":"JMU","i_lat":-6.288927,"i_long":106.728916},{"i_lat":-6.296963,"time":4,"station_id":"SDM","station_name":"Sudimara","transit":false,"distance":1994,"line":6,"i_long":106.712277,"is_transit":false},{"station_name":"Rawa Buntu","time":6,"i_lat":-6.314823,"transit":false,"line":6,"distance":4566,"station_id":"RU","i_long":106.675475,"is_transit":false},{"distance":2413,"station_id":"SRP","i_lat":-6.319871,"is_transit":false,"time":4,"i_long":106.66566,"station_name":"Serpong","transit":false,"line":6}]]}