{"data":[[{"is_transit":false,"distance":0,"line":6,"station_name":"Pondokranji","i_long":106.74273,"transit":false,"station_id":"PDJ","i_lat":-6.276362,"time":0},{"i_lat":-6.237242,"station_name":"Kebayoran","transit":false,"station_id":"KBY","i_long":106.780334,"time":8,"line":6,"is_transit":false,"distance":6218},{"time":7,"transit":false,"distance":3737,"i_lat":-6.207404,"is_transit":false,"i_long":106.79689,"line":6,"station_name":"Palmerah","station_id":"PLM"},{"is_transit":true,"station_name":"Tanah Abang","distance":3191,"line":1,"i_lat":-6.185545,"time":6,"transit":true,"station_id":"THB","i_long":106.811091},{"distance":2029,"is_transit":false,"time":5,"line":1,"i_lat":-6.20132,"transit":false,"i_long":106.816351,"station_id":"KAT","station_name":"Karet"},{"time":1,"distance":471,"i_lat":-6.201433,"i_long":106.819881,"is_transit":false,"transit":false,"station_id":"SUDB","line":1,"station_name":"Sudirman Baru"},{"distance":280,"transit":false,"i_lat":-6.202263,"station_name":"Sudirman","i_long":106.822649,"is_transit":false,"line":1,"time":1,"station_id":"SUD"}],[{"is_transit":false,"transit":false,"station_id":"PDJ","distance":0,"station_name":"Pondokranji","i_lat":-6.276362,"line":6,"i_long":106.74273,"time":0},{"station_id":"KBY","time":8,"distance":6218,"i_lat":-6.237242,"is_transit":false,"i_long":106.780334,"transit":false,"line":6,"station_name":"Kebayoran"},{"station_name":"Palmerah","i_lat":-6.207404,"station_id":"PLM","distance":3737,"time":7,"i_long":106.79689,"is_transit":false,"transit":false,"line":6},{"i_lat":-6.185545,"station_name":"Tanah Abang","distance":3191,"line":1,"transit":true,"is_transit":true,"time":6,"station_id":"THB","i_long":106.811091},{"station_name":"Duri","i_lat":-6.155215,"i_long":106.800832,"time":8,"station_id":"DU","line":1,"transit":false,"distance":3632,"is_transit":false},{"station_id":"AK","station_name":"Angke","line":1,"i_lat":-6.144674,"i_long":106.79867,"is_transit":false,"time":4,"distance":1230,"transit":false},{"station_id":"KPB","is_transit":true,"line":4,"distance":4102,"i_long":106.826365,"i_lat":-6.132549,"transit":true,"station_name":"Kampung Bandan","time":9},{"is_transit":true,"transit":true,"station_name":"Jakarta Kota","station_id":"JAKK","i_lat":-6.137569,"i_long":106.812439,"line":2,"distance":1364,"time":3},{"i_lat":-6.141205,"station_id":"JAY","station_name":"Jayakarta","time":4,"transit":false,"line":2,"is_transit":false,"i_long":106.820901,"distance":1264},{"distance":1080,"time":2,"line":2,"is_transit":false,"i_long":106.82482,"station_id":"MGB","station_name":"Manggabesar","i_lat":-6.149769,"transit":false},{"station_name":"Sawah Besar","i_long":106.827103,"time":2,"station_id":"SW","distance":906,"is_transit":false,"i_lat":-6.160725,"line":2,"transit":false},{"is_transit":false,"station_id":"JUA","line":2,"time":2,"transit":false,"station_name":"Juanda","i_long":106.828284,"i_lat":-6.166716,"distance":1149},{"time":4,"line":2,"station_id":"GDD","station_name":"Gondangdia","distance":2015,"i_lat":-6.186295,"transit":false,"is_transit":false,"i_long":106.832183},{"station_name":"Cikini","is_transit":false,"distance":1750,"station_id":"CKI","time":3,"i_long":106.840169,"transit":false,"i_lat":-6.198556,"line":2},{"station_id":"MRI","distance":1590,"is_transit":true,"i_long":106.84912,"transit":true,"line":2,"time":4,"i_lat":-6.209883,"station_name":"Manggarai"},{"transit":false,"i_long":106.822649,"station_name":"Sudirman","line":1,"i_lat":-6.202263,"distance":3186,"is_transit":false,"time":4,"station_id":"SUD"}],[{"transit":false,"station_name":"Pondokranji","is_transit":false,"distance":0,"time":0,"station_id":"PDJ","i_long":106.74273,"line":6,"i_lat":-6.276362},{"line":6,"station_name":"Kebayoran","station_id":"KBY","time":8,"is_transit":false,"i_lat":-6.237242,"transit":false,"i_long":106.780334,"distance":6218},{"distance":3737,"station_name":"Palmerah","transit":false,"i_lat":-6.207404,"station_id":"PLM","i_long":106.79689,"line":6,"is_transit":false,"time":7},{"i_lat":-6.185545,"station_id":"THB","distance":3191,"i_long":106.811091,"station_name":"Tanah Abang","is_transit":true,"transit":true,"line":1,"time":6},{"time":8,"i_lat":-6.155215,"distance":3632,"station_id":"DU","line":1,"station_name":"Duri","i_long":106.800832,"is_transit":false,"transit":false},{"is_transit":false,"distance":1230,"transit":false,"line":1,"time":4,"i_long":106.79867,"station_name":"Angke","station_id":"AK","i_lat":-6.144674},{"time":9,"distance":4102,"i_lat":-6.132549,"line":4,"transit":true,"station_name":"Kampung Bandan","station_id":"KPB","is_transit":true,"i_long":106.826365},{"i_long":106.836569,"station_id":"RJW","station_name":"Rajawali","is_transit":false,"distance":1444,"i_lat":-6.14505,"time":3,"transit":false,"line":11},{"transit":false,"station_id":"KMO","distance":1901,"i_lat":-6.161728,"is_transit":false,"i_long":106.839204,"line":11,"station_name":"Kemayoran","time":5},{"i_lat":-6.174784,"station_id":"PSE","line":11,"i_long":106.84368,"station_name":"Pasar Senen","transit":false,"distance":1436,"is_transit":false,"time":4},{"time":8,"station_id":"GST","is_transit":false,"station_name":"Gang Sentiong","i_long":106.850107,"distance":1567,"transit":false,"i_lat":-6.185975,"line":11},{"station_name":"Kramat","time":1,"distance":973,"line":11,"i_long":106.855437,"i_lat":-6.193792,"is_transit":false,"station_id":"KMT","transit":false},{"station_id":"POK","is_transit":false,"transit":false,"line":11,"distance":1829,"i_long":106.861737,"station_name":"Pondok Jati","time":2,"i_lat":-6.209188},{"transit":true,"i_long":106.86807400000001,"station_id":"JNG","time":9,"is_transit":true,"line":1,"station_name":"Jatinegara","distance":1236,"i_lat":-6.215091},{"i_long":106.858896,"station_name":"Matraman","transit":false,"station_id":"MTR","line":1,"distance":1377,"is_transit":false,"time":2,"i_lat":-6.212485},{"line":2,"distance":1275,"time":2,"i_lat":-6.209883,"i_long":106.84912,"station_name":"Manggarai","is_transit":false,"transit":false,"station_id":"MRI"},{"station_name":"Sudirman","is_transit":false,"time":4,"i_lat":-6.202263,"line":1,"distance":3186,"transit":false,"i_long":106.822649,"station_id":"SUD"}]]}