{"data":[[{"is_transit":false,"time":0,"distance":0,"i_long":106.74273,"line":6,"i_lat":-6.276362,"transit":false,"station_name":"Pondokranji","station_id":"PDJ"},{"i_lat":-6.237242,"transit":false,"is_transit":false,"i_long":106.780334,"time":8,"station_name":"Kebayoran","distance":6218,"line":6,"station_id":"KBY"},{"transit":false,"i_lat":-6.207404,"station_id":"PLM","is_transit":false,"time":7,"i_long":106.79689,"line":6,"station_name":"Palmerah","distance":3737},{"transit":true,"station_name":"Tanah Abang","time":6,"station_id":"THB","i_lat":-6.185545,"line":1,"is_transit":true,"distance":3191,"i_long":106.811091},{"line":1,"station_id":"DU","time":8,"transit":false,"station_name":"Duri","distance":3632,"is_transit":false,"i_lat":-6.155215,"i_long":106.800832},{"transit":false,"station_name":"Angke","i_long":106.79867,"is_transit":false,"distance":1230,"line":1,"i_lat":-6.144674,"station_id":"AK","time":4},{"station_id":"KPB","time":9,"line":4,"distance":4102,"station_name":"Kampung Bandan","i_long":106.826365,"i_lat":-6.132549,"is_transit":true,"transit":true},{"distance":1364,"i_lat":-6.137569,"station_id":"JAKK","is_transit":false,"i_long":106.812439,"transit":false,"station_name":"Jakarta Kota","line":2,"time":3}],[{"line":6,"transit":false,"distance":0,"station_name":"Pondokranji","is_transit":false,"i_long":106.74273,"time":0,"i_lat":-6.276362,"station_id":"PDJ"},{"distance":6218,"i_lat":-6.237242,"line":6,"station_name":"Kebayoran","transit":false,"i_long":106.780334,"is_transit":false,"station_id":"KBY","time":8},{"time":7,"station_name":"Palmerah","is_transit":false,"i_lat":-6.207404,"distance":3737,"i_long":106.79689,"transit":false,"line":6,"station_id":"PLM"},{"time":6,"station_name":"Tanah Abang","i_long":106.811091,"transit":true,"line":1,"is_transit":true,"i_lat":-6.185545,"station_id":"THB","distance":3191},{"time":5,"distance":2029,"is_transit":false,"station_name":"Karet","transit":false,"line":1,"i_long":106.816351,"station_id":"KAT","i_lat":-6.20132},{"is_transit":false,"time":1,"station_id":"SUDB","station_name":"Sudirman Baru","distance":471,"transit":false,"i_long":106.819881,"line":1,"i_lat":-6.201433},{"is_transit":false,"station_id":"SUD","i_long":106.822649,"line":1,"distance":280,"station_name":"Sudirman","time":1,"i_lat":-6.202263,"transit":false},{"time":4,"i_lat":-6.209883,"station_name":"Manggarai","i_long":106.84912,"line":2,"transit":true,"station_id":"MRI","distance":3186,"is_transit":true},{"i_lat":-6.198556,"i_long":106.840169,"is_transit":false,"distance":1590,"transit":false,"line":2,"time":4,"station_id":"CKI","station_name":"Cikini"},{"i_long":106.832183,"distance":1750,"time":3,"station_name":"Gondangdia","line":2,"is_transit":false,"i_lat":-6.186295,"station_id":"GDD","transit":false},{"transit":false,"station_id":"JUA","distance":2015,"time":4,"line":2,"i_long":106.828284,"station_name":"Juanda","is_transit":false,"i_lat":-6.166716},{"i_long":106.827103,"station_name":"Sawah Besar","time":2,"is_transit":false,"station_id":"SW","line":2,"transit":false,"distance":1149,"i_lat":-6.160725},{"time":2,"is_transit":false,"i_long":106.82482,"i_lat":-6.149769,"line":2,"station_id":"MGB","transit":false,"distance":906,"station_name":"Manggabesar"},{"transit":false,"station_id":"JAY","distance":1080,"station_name":"Jayakarta","is_transit":false,"time":2,"i_long":106.820901,"line":2,"i_lat":-6.141205},{"distance":1264,"transit":false,"station_name":"Jakarta Kota","is_transit":false,"i_lat":-6.137569,"i_long":106.812439,"time":4,"station_id":"JAKK","line":2}],[{"station_id":"PDJ","station_name":"Pondokranji","distance":0,"i_long":106.74273,"is_transit":false,"transit":false,"i_lat":-6.276362,"time":0,"line":6},{"i_lat":-6.237242,"transit":false,"station_id":"KBY","i_long":106.780334,"station_name":"Kebayoran","distance":6218,"is_transit":false,"line":6,"time":8},{"station_name":"Palmerah","is_transit":false,"time":7,"i_long":106.79689,"distance":3737,"transit":false,"i_lat":-6.207404,"line":6,"station_id":"PLM"},{"line":1,"station_name":"Tanah Abang","is_transit":true,"station_id":"THB","i_lat":-6.185545,"transit":true,"distance":3191,"time":6,"i_long":106.811091},{"transit":false,"station_name":"Karet","time":5,"is_transit":false,"i_lat":-6.20132,"i_long":106.816351,"station_id":"KAT","distance":2029,"line":1},{"is_transit":false,"distance":471,"line":1,"station_id":"SUDB","time":1,"station_name":"Sudirman Baru","transit":false,"i_long":106.819881,"i_lat":-6.201433},{"i_lat":-6.202263,"line":1,"is_transit":false,"time":1,"distance":280,"i_long":106.822649,"station_name":"Sudirman","station_id":"SUD","transit":false},{"station_id":"MRI","time":4,"station_name":"Manggarai","i_long":106.84912,"distance":3186,"transit":false,"is_transit":false,"line":2,"i_lat":-6.209883},{"i_long":106.858896,"transit":false,"time":2,"station_id":"MTR","is_transit":false,"i_lat":-6.212485,"distance":1275,"line":1,"station_name":"Matraman"},{"i_lat":-6.215091,"station_name":"Jatinegara","is_transit":true,"distance":1377,"line":1,"transit":true,"station_id":"JNG","i_long":106.86807400000001,"time":8},{"station_name":"Pondok Jati","distance":1236,"station_id":"POK","transit":false,"time":2,"i_lat":-6.209188,"line":11,"is_transit":false,"i_long":106.861737},{"distance":1829,"station_id":"KMT","transit":false,"time":2,"is_transit":false,"i_long":106.855437,"i_lat":-6.193792,"line":11,"station_name":"Kramat"},{"i_long":106.850107,"station_name":"Gang Sentiong","is_transit":false,"time":1,"i_lat":-6.185975,"line":11,"station_id":"GST","transit":false,"distance":973},{"station_name":"Pasar Senen","distance":1567,"is_transit":false,"i_long":106.84368,"transit":false,"i_lat":-6.174784,"station_id":"PSE","line":11,"time":8},{"line":11,"is_transit":false,"transit":false,"distance":1436,"station_id":"KMO","time":4,"i_lat":-6.161728,"i_long":106.839204,"station_name":"Kemayoran"},{"i_long":106.836569,"line":11,"transit":false,"is_transit":false,"station_name":"Rajawali","station_id":"RJW","time":5,"i_lat":-6.14505,"distance":1901},{"line":4,"is_transit":true,"time":3,"station_id":"KPB","i_long":106.826365,"transit":true,"station_name":"Kampung Bandan","i_lat":-6.132549,"distance":1444},{"station_name":"Jakarta Kota","is_transit":false,"i_lat":-6.137569,"transit":false,"i_long":106.812439,"time":3,"distance":1364,"line":2,"station_id":"JAKK"}],[{"station_name":"Pondokranji","i_long":106.74273,"is_transit":false,"station_id":"PDJ","i_lat":-6.276362,"line":6,"transit":false,"time":0,"distance":0},{"time":8,"distance":6218,"transit":false,"station_id":"KBY","line":6,"station_name":"Kebayoran","i_lat":-6.237242,"i_long":106.780334,"is_transit":false},{"station_id":"PLM","distance":3737,"i_lat":-6.207404,"transit":false,"line":6,"time":7,"station_name":"Palmerah","i_long":106.79689,"is_transit":false},{"time":6,"distance":3191,"i_long":106.811091,"line":1,"station_name":"Tanah Abang","i_lat":-6.185545,"station_id":"THB","is_transit":true,"transit":true},{"distance":3632,"transit":false,"station_name":"Duri","is_transit":false,"i_long":106.800832,"i_lat":-6.155215,"line":1,"time":8,"station_id":"DU"},{"i_lat":-6.144674,"i_long":106.79867,"is_transit":false,"transit":false,"station_id":"AK","time":4,"station_name":"Angke","distance":1230,"line":1},{"i_long":106.826365,"transit":true,"line":4,"station_id":"KPB","is_transit":true,"i_lat":-6.132549,"time":9,"distance":4102,"station_name":"Kampung Bandan"},{"is_transit":false,"station_id":"RJW","station_name":"Rajawali","i_lat":-6.14505,"i_long":106.836569,"transit":false,"line":11,"distance":1444,"time":3},{"line":11,"distance":1901,"i_long":106.839204,"station_id":"KMO","transit":false,"i_lat":-6.161728,"station_name":"Kemayoran","time":5,"is_transit":false},{"station_name":"Pasar Senen","line":11,"i_long":106.84368,"distance":1436,"time":4,"transit":false,"is_transit":false,"station_id":"PSE","i_lat":-6.174784},{"line":11,"i_lat":-6.185975,"i_long":106.850107,"distance":1567,"station_name":"Gang Sentiong","is_transit":false,"time":8,"transit":false,"station_id":"GST"},{"time":1,"station_name":"Kramat","station_id":"KMT","line":11,"transit":false,"is_transit":false,"distance":973,"i_lat":-6.193792,"i_long":106.855437},{"is_transit":false,"line":11,"station_name":"Pondok Jati","distance":1829,"transit":false,"i_long":106.861737,"time":2,"station_id":"POK","i_lat":-6.209188},{"line":1,"i_lat":-6.215091,"station_name":"Jatinegara","station_id":"JNG","time":9,"distance":1236,"is_transit":true,"i_long":106.86807400000001,"transit":true},{"line":1,"station_name":"Matraman","transit":false,"station_id":"MTR","distance":1377,"i_lat":-6.212485,"is_transit":false,"i_long":106.858896,"time":2},{"station_id":"MRI","distance":1275,"station_name":"Manggarai","is_transit":true,"i_long":106.84912,"transit":true,"time":2,"i_lat":-6.209883,"line":2},{"time":4,"is_transit":false,"station_id":"CKI","i_long":106.840169,"distance":1590,"line":2,"transit":false,"i_lat":-6.198556,"station_name":"Cikini"},{"transit":false,"i_lat":-6.186295,"station_name":"Gondangdia","time":3,"distance":1750,"line":2,"station_id":"GDD","i_long":106.832183,"is_transit":false},{"distance":2015,"transit":false,"station_name":"Juanda","station_id":"JUA","is_transit":false,"time":4,"i_lat":-6.166716,"line":2,"i_long":106.828284},{"distance":1149,"time":2,"transit":false,"station_id":"SW","i_lat":-6.160725,"is_transit":false,"station_name":"Sawah Besar","i_long":106.827103,"line":2},{"distance":906,"transit":false,"line":2,"station_name":"Manggabesar","is_transit":false,"time":2,"station_id":"MGB","i_lat":-6.149769,"i_long":106.82482},{"line":2,"i_lat":-6.141205,"distance":1080,"is_transit":false,"i_long":106.820901,"station_name":"Jayakarta","time":2,"transit":false,"station_id":"JAY"},{"distance":1264,"i_long":106.812439,"station_name":"Jakarta Kota","time":4,"i_lat":-6.137569,"line":2,"station_id":"JAKK","is_transit":false,"transit":false}]]}