{"data":[[{"line":6,"station_id":"PDJ","is_transit":false,"station_name":"Pondokranji","i_lat":-6.276362,"i_long":106.74273,"time":0,"transit":false,"distance":0},{"time":8,"transit":false,"i_long":106.780334,"is_transit":false,"station_name":"Kebayoran","i_lat":-6.237242,"distance":6218,"line":6,"station_id":"KBY"},{"is_transit":false,"line":6,"distance":3737,"i_lat":-6.207404,"station_name":"Palmerah","time":7,"i_long":106.79689,"transit":false,"station_id":"PLM"},{"is_transit":true,"station_id":"THB","i_lat":-6.185545,"distance":3191,"line":1,"time":6,"station_name":"Tanah Abang","transit":true,"i_long":106.811091},{"time":5,"i_lat":-6.20132,"station_name":"Karet","is_transit":false,"distance":2029,"station_id":"KAT","i_long":106.816351,"line":1,"transit":false},{"station_id":"SUDB","time":1,"distance":471,"is_transit":false,"transit":false,"i_lat":-6.201433,"i_long":106.819881,"line":1,"station_name":"Sudirman Baru"},{"transit":false,"distance":280,"line":1,"i_lat":-6.202263,"is_transit":false,"time":1,"station_id":"SUD","i_long":106.822649,"station_name":"Sudirman"},{"station_name":"Manggarai","time":4,"i_long":106.84912,"distance":3186,"line":2,"i_lat":-6.209883,"transit":false,"is_transit":false,"station_id":"MRI"}],[{"transit":false,"station_id":"PDJ","time":0,"line":6,"station_name":"Pondokranji","distance":0,"i_lat":-6.276362,"i_long":106.74273,"is_transit":false},{"station_name":"Kebayoran","is_transit":false,"time":8,"station_id":"KBY","i_lat":-6.237242,"distance":6218,"i_long":106.780334,"transit":false,"line":6},{"is_transit":false,"station_name":"Palmerah","i_lat":-6.207404,"i_long":106.79689,"time":7,"line":6,"distance":3737,"transit":false,"station_id":"PLM"},{"line":1,"station_name":"Tanah Abang","distance":3191,"station_id":"THB","transit":true,"time":6,"is_transit":true,"i_lat":-6.185545,"i_long":106.811091},{"station_id":"DU","station_name":"Duri","time":8,"distance":3632,"i_long":106.800832,"line":1,"transit":false,"is_transit":false,"i_lat":-6.155215},{"transit":false,"line":1,"distance":1230,"i_long":106.79867,"station_id":"AK","time":4,"station_name":"Angke","i_lat":-6.144674,"is_transit":false},{"distance":4102,"i_long":106.826365,"is_transit":true,"time":9,"station_name":"Kampung Bandan","line":4,"station_id":"KPB","transit":true,"i_lat":-6.132549},{"i_long":106.812439,"line":2,"distance":1364,"station_name":"Jakarta Kota","transit":true,"i_lat":-6.137569,"is_transit":true,"station_id":"JAKK","time":3},{"i_long":106.820901,"line":2,"time":4,"is_transit":false,"station_id":"JAY","distance":1264,"transit":false,"station_name":"Jayakarta","i_lat":-6.141205},{"distance":1080,"transit":false,"station_id":"MGB","is_transit":false,"station_name":"Manggabesar","time":2,"i_lat":-6.149769,"i_long":106.82482,"line":2},{"transit":false,"is_transit":false,"line":2,"station_id":"SW","distance":906,"station_name":"Sawah Besar","time":2,"i_lat":-6.160725,"i_long":106.827103},{"is_transit":false,"line":2,"transit":false,"station_name":"Juanda","station_id":"JUA","distance":1149,"i_lat":-6.166716,"i_long":106.828284,"time":2},{"time":4,"i_long":106.832183,"is_transit":false,"line":2,"station_id":"GDD","transit":false,"distance":2015,"i_lat":-6.186295,"station_name":"Gondangdia"},{"is_transit":false,"distance":1750,"station_name":"Cikini","time":3,"i_lat":-6.198556,"transit":false,"i_long":106.840169,"station_id":"CKI","line":2},{"i_lat":-6.209883,"station_id":"MRI","time":4,"i_long":106.84912,"line":2,"station_name":"Manggarai","distance":1590,"is_transit":false,"transit":false}],[{"i_lat":-6.276362,"is_transit":false,"transit":false,"station_id":"PDJ","time":0,"line":6,"distance":0,"station_name":"Pondokranji","i_long":106.74273},{"i_lat":-6.237242,"time":8,"is_transit":false,"station_name":"Kebayoran","i_long":106.780334,"transit":false,"distance":6218,"station_id":"KBY","line":6},{"time":7,"is_transit":false,"station_name":"Palmerah","station_id":"PLM","i_lat":-6.207404,"distance":3737,"i_long":106.79689,"line":6,"transit":false},{"i_lat":-6.185545,"transit":true,"station_name":"Tanah Abang","station_id":"THB","time":6,"line":1,"i_long":106.811091,"is_transit":true,"distance":3191},{"line":1,"time":8,"i_long":106.800832,"station_id":"DU","is_transit":false,"station_name":"Duri","transit":false,"distance":3632,"i_lat":-6.155215},{"station_id":"AK","i_long":106.79867,"i_lat":-6.144674,"line":1,"time":4,"transit":false,"station_name":"Angke","is_transit":false,"distance":1230},{"time":9,"i_long":106.826365,"transit":true,"station_name":"Kampung Bandan","i_lat":-6.132549,"line":4,"station_id":"KPB","is_transit":true,"distance":4102},{"i_lat":-6.14505,"transit":false,"station_id":"RJW","is_transit":false,"line":11,"time":3,"i_long":106.836569,"station_name":"Rajawali","distance":1444},{"i_lat":-6.161728,"distance":1901,"i_long":106.839204,"time":5,"transit":false,"station_id":"KMO","line":11,"station_name":"Kemayoran","is_transit":false},{"i_lat":-6.174784,"is_transit":false,"i_long":106.84368,"time":4,"station_id":"PSE","distance":1436,"line":11,"transit":false,"station_name":"Pasar Senen"},{"i_long":106.850107,"line":11,"is_transit":false,"station_name":"Gang Sentiong","time":8,"station_id":"GST","transit":false,"distance":1567,"i_lat":-6.185975},{"is_transit":false,"i_lat":-6.193792,"i_long":106.855437,"station_name":"Kramat","time":1,"distance":973,"station_id":"KMT","line":11,"transit":false},{"time":2,"is_transit":false,"distance":1829,"i_lat":-6.209188,"i_long":106.861737,"line":11,"transit":false,"station_id":"POK","station_name":"Pondok Jati"},{"i_lat":-6.215091,"line":1,"i_long":106.86807400000001,"is_transit":true,"transit":true,"station_id":"JNG","station_name":"Jatinegara","time":9,"distance":1236},{"i_lat":-6.212485,"station_id":"MTR","i_long":106.858896,"station_name":"Matraman","line":1,"is_transit":false,"time":2,"distance":1377,"transit":false},{"station_name":"Manggarai","line":2,"i_lat":-6.209883,"distance":1275,"i_long":106.84912,"transit":false,"is_transit":false,"time":2,"station_id":"MRI"}]]}