{"data":[[{"transit":false,"i_long":106.74273,"time":0,"is_transit":false,"i_lat":-6.276362,"station_name":"Pondokranji","line":6,"station_id":"PDJ","distance":0},{"distance":6218,"transit":false,"i_lat":-6.237242,"station_name":"Kebayoran","is_transit":false,"i_long":106.780334,"line":6,"time":8,"station_id":"KBY"},{"transit":false,"i_long":106.79689,"line":6,"i_lat":-6.207404,"time":7,"distance":3737,"is_transit":false,"station_name":"Palmerah","station_id":"PLM"},{"station_name":"Tanah Abang","station_id":"THB","distance":3191,"time":6,"i_lat":-6.185545,"is_transit":true,"transit":true,"i_long":106.811091,"line":1},{"time":5,"i_lat":-6.20132,"i_long":106.816351,"transit":false,"distance":2029,"is_transit":false,"station_name":"Karet","station_id":"KAT","line":1},{"station_id":"SUDB","i_lat":-6.201433,"i_long":106.819881,"distance":471,"station_name":"Sudirman Baru","time":1,"line":1,"transit":false,"is_transit":false},{"i_lat":-6.202263,"is_transit":false,"station_id":"SUD","transit":false,"line":1,"time":1,"station_name":"Sudirman","i_long":106.822649,"distance":280},{"is_transit":true,"time":4,"distance":3186,"transit":true,"station_name":"Manggarai","i_lat":-6.209883,"i_long":106.84912,"line":2,"station_id":"MRI"},{"is_transit":false,"station_name":"Tebet","distance":2610,"station_id":"TEB","time":4,"i_lat":-6.226659,"transit":false,"line":2,"i_long":106.857948},{"station_id":"CW","is_transit":false,"distance":1230,"transit":false,"i_long":106.856607,"i_lat":-6.242512,"line":2,"station_name":"Cawang","time":2},{"time":3,"station_name":"Duren Kalibata","is_transit":false,"station_id":"DRN","distance":1546,"transit":false,"i_lat":-6.255332,"i_long":106.85449,"line":2},{"is_transit":false,"i_lat":-6.263214,"transit":false,"distance":824,"line":2,"station_id":"PSMB","time":2,"station_name":"Pasar Minggu Baru","i_long":106.851577},{"time":2,"i_lat":-6.2842400000000005,"is_transit":false,"station_name":"Pasar Minggu","i_long":106.843999,"transit":false,"station_id":"PSM","line":2,"distance":2380},{"station_id":"TNT","distance":2820,"transit":false,"is_transit":false,"station_name":"Tanjung Barat","i_lat":-6.3080680000000005,"line":2,"i_long":106.838896,"time":4},{"station_name":"Lenteng Agung","is_transit":false,"transit":false,"i_lat":-6.330363,"station_id":"LNA","distance":2671,"time":3,"i_long":106.832616,"line":2},{"distance":1029,"time":2,"transit":false,"station_name":"Univ. Pancasila","station_id":"UP","i_lat":-6.339291,"i_long":106.834175,"is_transit":false,"line":2},{"distance":2264,"is_transit":false,"transit":false,"station_id":"UI","station_name":"Univ. Indonesia","i_long":106.831474,"i_lat":-6.360749,"time":3,"line":2}],[{"transit":false,"station_id":"PDJ","i_long":106.74273,"station_name":"Pondokranji","distance":0,"is_transit":false,"i_lat":-6.276362,"line":6,"time":0},{"station_id":"KBY","is_transit":false,"i_long":106.780334,"time":8,"transit":false,"i_lat":-6.237242,"line":6,"distance":6218,"station_name":"Kebayoran"},{"time":7,"i_long":106.79689,"line":6,"is_transit":false,"station_name":"Palmerah","i_lat":-6.207404,"station_id":"PLM","transit":false,"distance":3737},{"is_transit":true,"i_lat":-6.185545,"station_name":"Tanah Abang","station_id":"THB","time":6,"line":1,"distance":3191,"transit":true,"i_long":106.811091},{"station_id":"DU","line":1,"station_name":"Duri","distance":3632,"transit":false,"is_transit":false,"time":8,"i_lat":-6.155215,"i_long":106.800832},{"i_lat":-6.144674,"transit":false,"line":1,"distance":1230,"station_name":"Angke","station_id":"AK","is_transit":false,"i_long":106.79867,"time":4},{"is_transit":true,"time":9,"i_long":106.826365,"transit":true,"line":4,"station_id":"KPB","distance":4102,"i_lat":-6.132549,"station_name":"Kampung Bandan"},{"transit":true,"i_lat":-6.137569,"is_transit":true,"time":3,"station_id":"JAKK","distance":1364,"station_name":"Jakarta Kota","i_long":106.812439,"line":2},{"line":2,"i_lat":-6.141205,"i_long":106.820901,"time":4,"is_transit":false,"station_id":"JAY","transit":false,"distance":1264,"station_name":"Jayakarta"},{"distance":1080,"transit":false,"station_name":"Manggabesar","station_id":"MGB","i_long":106.82482,"line":2,"is_transit":false,"time":2,"i_lat":-6.149769},{"station_id":"SW","i_lat":-6.160725,"time":2,"is_transit":false,"line":2,"distance":906,"transit":false,"station_name":"Sawah Besar","i_long":106.827103},{"station_id":"JUA","transit":false,"i_long":106.828284,"time":2,"distance":1149,"i_lat":-6.166716,"line":2,"station_name":"Juanda","is_transit":false},{"transit":false,"time":4,"i_lat":-6.186295,"distance":2015,"line":2,"station_id":"GDD","station_name":"Gondangdia","is_transit":false,"i_long":106.832183},{"station_id":"CKI","time":3,"i_long":106.840169,"is_transit":false,"line":2,"station_name":"Cikini","transit":false,"distance":1750,"i_lat":-6.198556},{"distance":1590,"i_long":106.84912,"station_id":"MRI","time":4,"line":2,"transit":false,"i_lat":-6.209883,"is_transit":false,"station_name":"Manggarai"},{"transit":false,"time":4,"station_id":"TEB","i_long":106.857948,"station_name":"Tebet","is_transit":false,"line":2,"i_lat":-6.226659,"distance":2610},{"time":2,"station_id":"CW","i_long":106.856607,"distance":1230,"transit":false,"station_name":"Cawang","line":2,"i_lat":-6.242512,"is_transit":false},{"station_name":"Duren Kalibata","transit":false,"station_id":"DRN","line":2,"distance":1546,"i_long":106.85449,"is_transit":false,"time":3,"i_lat":-6.255332},{"time":2,"station_name":"Pasar Minggu Baru","i_lat":-6.263214,"i_long":106.851577,"transit":false,"station_id":"PSMB","line":2,"distance":824,"is_transit":false},{"i_lat":-6.2842400000000005,"distance":2380,"transit":false,"i_long":106.843999,"line":2,"time":2,"station_name":"Pasar Minggu","station_id":"PSM","is_transit":false},{"transit":false,"is_transit":false,"station_id":"TNT","i_lat":-6.3080680000000005,"time":4,"distance":2820,"i_long":106.838896,"station_name":"Tanjung Barat","line":2},{"i_lat":-6.330363,"station_name":"Lenteng Agung","distance":2671,"i_long":106.832616,"line":2,"time":3,"is_transit":false,"transit":false,"station_id":"LNA"},{"time":2,"station_id":"UP","distance":1029,"station_name":"Univ. Pancasila","i_long":106.834175,"transit":false,"is_transit":false,"line":2,"i_lat":-6.339291},{"station_name":"Univ. Indonesia","line":2,"is_transit":false,"distance":2264,"transit":false,"station_id":"UI","i_lat":-6.360749,"time":3,"i_long":106.831474}],[{"time":0,"station_name":"Pondokranji","distance":0,"i_lat":-6.276362,"is_transit":false,"line":6,"station_id":"PDJ","i_long":106.74273,"transit":false},{"station_name":"Kebayoran","i_long":106.780334,"line":6,"station_id":"KBY","is_transit":false,"i_lat":-6.237242,"time":8,"transit":false,"distance":6218},{"line":6,"distance":3737,"transit":false,"i_lat":-6.207404,"station_name":"Palmerah","is_transit":false,"time":7,"station_id":"PLM","i_long":106.79689},{"transit":true,"station_name":"Tanah Abang","station_id":"THB","i_long":106.811091,"i_lat":-6.185545,"line":1,"time":6,"distance":3191,"is_transit":true},{"transit":false,"station_name":"Duri","distance":3632,"i_lat":-6.155215,"line":1,"is_transit":false,"time":8,"station_id":"DU","i_long":106.800832},{"line":1,"distance":1230,"transit":false,"is_transit":false,"time":4,"station_name":"Angke","i_long":106.79867,"i_lat":-6.144674,"station_id":"AK"},{"line":4,"time":9,"station_name":"Kampung Bandan","i_lat":-6.132549,"distance":4102,"is_transit":true,"i_long":106.826365,"station_id":"KPB","transit":true},{"station_name":"Rajawali","station_id":"RJW","is_transit":false,"distance":1444,"transit":false,"line":11,"i_long":106.836569,"time":3,"i_lat":-6.14505},{"i_lat":-6.161728,"line":11,"transit":false,"station_id":"KMO","time":5,"is_transit":false,"distance":1901,"station_name":"Kemayoran","i_long":106.839204},{"time":4,"station_name":"Pasar Senen","line":11,"is_transit":false,"i_long":106.84368,"distance":1436,"i_lat":-6.174784,"transit":false,"station_id":"PSE"},{"transit":false,"station_id":"GST","i_lat":-6.185975,"distance":1567,"time":8,"station_name":"Gang Sentiong","line":11,"is_transit":false,"i_long":106.850107},{"transit":false,"station_id":"KMT","time":1,"distance":973,"i_long":106.855437,"i_lat":-6.193792,"line":11,"is_transit":false,"station_name":"Kramat"},{"line":11,"station_id":"POK","i_lat":-6.209188,"i_long":106.861737,"distance":1829,"time":2,"station_name":"Pondok Jati","transit":false,"is_transit":false},{"line":1,"is_transit":true,"station_id":"JNG","i_lat":-6.215091,"i_long":106.86807400000001,"time":9,"transit":true,"distance":1236,"station_name":"Jatinegara"},{"time":2,"transit":false,"line":1,"station_name":"Matraman","i_lat":-6.212485,"distance":1377,"is_transit":false,"station_id":"MTR","i_long":106.858896},{"station_id":"MRI","i_long":106.84912,"time":2,"transit":true,"is_transit":true,"i_lat":-6.209883,"distance":1275,"station_name":"Manggarai","line":2},{"is_transit":false,"line":2,"distance":2610,"i_lat":-6.226659,"transit":false,"station_name":"Tebet","station_id":"TEB","time":4,"i_long":106.857948},{"is_transit":false,"distance":1230,"station_name":"Cawang","line":2,"station_id":"CW","i_lat":-6.242512,"i_long":106.856607,"time":2,"transit":false},{"time":3,"line":2,"distance":1546,"i_long":106.85449,"is_transit":false,"i_lat":-6.255332,"station_id":"DRN","station_name":"Duren Kalibata","transit":false},{"time":2,"station_name":"Pasar Minggu Baru","station_id":"PSMB","i_long":106.851577,"distance":824,"is_transit":false,"i_lat":-6.263214,"transit":false,"line":2},{"station_name":"Pasar Minggu","transit":false,"i_lat":-6.2842400000000005,"line":2,"i_long":106.843999,"is_transit":false,"time":2,"station_id":"PSM","distance":2380},{"i_lat":-6.3080680000000005,"is_transit":false,"time":4,"distance":2820,"station_id":"TNT","i_long":106.838896,"line":2,"station_name":"Tanjung Barat","transit":false},{"i_lat":-6.330363,"line":2,"distance":2671,"is_transit":false,"transit":false,"time":3,"station_name":"Lenteng Agung","station_id":"LNA","i_long":106.832616},{"is_transit":false,"transit":false,"i_long":106.834175,"line":2,"time":2,"i_lat":-6.339291,"distance":1029,"station_name":"Univ. Pancasila","station_id":"UP"},{"distance":2264,"station_id":"UI","time":3,"line":2,"is_transit":false,"i_lat":-6.360749,"i_long":106.831474,"transit":false,"station_name":"Univ. Indonesia"}]]}