{"data":[[{"distance":0,"is_transit":false,"i_lat":-6.276362,"transit":false,"i_long":106.74273,"station_name":"Pondokranji","time":0,"line":6,"station_id":"PDJ"},{"station_name":"Kebayoran","transit":false,"i_lat":-6.237242,"distance":6218,"is_transit":false,"i_long":106.780334,"line":6,"time":8,"station_id":"KBY"},{"time":7,"distance":3737,"transit":false,"i_long":106.79689,"line":6,"station_name":"Palmerah","i_lat":-6.207404,"is_transit":false,"station_id":"PLM"},{"i_lat":-6.185545,"i_long":106.811091,"distance":3191,"time":6,"is_transit":true,"station_name":"Tanah Abang","transit":true,"station_id":"THB","line":1},{"station_id":"KAT","i_lat":-6.20132,"time":5,"i_long":106.816351,"transit":false,"line":1,"distance":2029,"is_transit":false,"station_name":"Karet"},{"station_id":"SUDB","transit":false,"station_name":"Sudirman Baru","distance":471,"is_transit":false,"time":1,"i_long":106.819881,"line":1,"i_lat":-6.201433},{"is_transit":false,"i_long":106.822649,"transit":false,"distance":280,"station_id":"SUD","line":1,"time":1,"station_name":"Sudirman","i_lat":-6.202263},{"i_lat":-6.209883,"i_long":106.84912,"station_name":"Manggarai","line":2,"distance":3186,"station_id":"MRI","time":4,"transit":false,"is_transit":false},{"line":1,"station_id":"MTR","station_name":"Matraman","i_lat":-6.212485,"i_long":106.858896,"transit":false,"distance":1275,"is_transit":false,"time":2},{"time":8,"station_name":"Jatinegara","station_id":"JNG","transit":true,"i_lat":-6.215091,"i_long":106.86807400000001,"line":1,"distance":1377,"is_transit":true},{"line":11,"transit":false,"i_long":106.861737,"station_id":"POK","distance":1236,"station_name":"Pondok Jati","is_transit":false,"time":2,"i_lat":-6.209188}],[{"transit":false,"line":6,"i_lat":-6.276362,"time":0,"i_long":106.74273,"station_id":"PDJ","is_transit":false,"distance":0,"station_name":"Pondokranji"},{"i_long":106.780334,"station_name":"Kebayoran","transit":false,"distance":6218,"time":8,"station_id":"KBY","line":6,"i_lat":-6.237242,"is_transit":false},{"i_long":106.79689,"line":6,"time":7,"station_id":"PLM","transit":false,"is_transit":false,"station_name":"Palmerah","distance":3737,"i_lat":-6.207404},{"i_lat":-6.185545,"line":1,"transit":true,"station_id":"THB","station_name":"Tanah Abang","is_transit":true,"time":6,"i_long":106.811091,"distance":3191},{"i_long":106.800832,"time":8,"is_transit":false,"distance":3632,"i_lat":-6.155215,"line":1,"transit":false,"station_id":"DU","station_name":"Duri"},{"distance":1230,"i_lat":-6.144674,"station_name":"Angke","time":4,"transit":false,"is_transit":false,"i_long":106.79867,"station_id":"AK","line":1},{"i_long":106.826365,"station_name":"Kampung Bandan","i_lat":-6.132549,"time":9,"station_id":"KPB","is_transit":true,"distance":4102,"line":4,"transit":true},{"distance":1444,"station_id":"RJW","i_lat":-6.14505,"i_long":106.836569,"transit":false,"is_transit":false,"time":3,"station_name":"Rajawali","line":11},{"station_name":"Kemayoran","time":5,"line":11,"transit":false,"distance":1901,"i_lat":-6.161728,"i_long":106.839204,"is_transit":false,"station_id":"KMO"},{"i_lat":-6.174784,"i_long":106.84368,"transit":false,"station_id":"PSE","time":4,"line":11,"is_transit":false,"distance":1436,"station_name":"Pasar Senen"},{"time":8,"is_transit":false,"line":11,"i_lat":-6.185975,"i_long":106.850107,"transit":false,"station_name":"Gang Sentiong","distance":1567,"station_id":"GST"},{"distance":973,"i_lat":-6.193792,"is_transit":false,"time":1,"station_id":"KMT","line":11,"transit":false,"station_name":"Kramat","i_long":106.855437},{"station_id":"POK","is_transit":false,"i_lat":-6.209188,"transit":false,"time":2,"distance":1829,"i_long":106.861737,"line":11,"station_name":"Pondok Jati"}],[{"is_transit":false,"distance":0,"transit":false,"station_id":"PDJ","i_long":106.74273,"line":6,"i_lat":-6.276362,"station_name":"Pondokranji","time":0},{"time":8,"line":6,"transit":false,"distance":6218,"station_id":"KBY","station_name":"Kebayoran","i_long":106.780334,"is_transit":false,"i_lat":-6.237242},{"station_name":"Palmerah","transit":false,"is_transit":false,"time":7,"i_lat":-6.207404,"i_long":106.79689,"station_id":"PLM","line":6,"distance":3737},{"line":1,"i_lat":-6.185545,"transit":true,"station_id":"THB","time":6,"is_transit":true,"distance":3191,"i_long":106.811091,"station_name":"Tanah Abang"},{"i_lat":-6.155215,"is_transit":false,"station_id":"DU","line":1,"transit":false,"station_name":"Duri","time":8,"i_long":106.800832,"distance":3632},{"transit":false,"station_name":"Angke","i_lat":-6.144674,"distance":1230,"i_long":106.79867,"line":1,"station_id":"AK","time":4,"is_transit":false},{"time":9,"transit":true,"station_id":"KPB","station_name":"Kampung Bandan","is_transit":true,"i_lat":-6.132549,"distance":4102,"i_long":106.826365,"line":4},{"station_id":"JAKK","i_long":106.812439,"is_transit":true,"distance":1364,"transit":true,"station_name":"Jakarta Kota","time":3,"i_lat":-6.137569,"line":2},{"distance":1264,"station_name":"Jayakarta","i_lat":-6.141205,"line":2,"transit":false,"time":4,"station_id":"JAY","i_long":106.820901,"is_transit":false},{"is_transit":false,"distance":1080,"i_lat":-6.149769,"i_long":106.82482,"station_id":"MGB","line":2,"station_name":"Manggabesar","time":2,"transit":false},{"is_transit":false,"distance":906,"station_id":"SW","time":2,"i_lat":-6.160725,"i_long":106.827103,"line":2,"station_name":"Sawah Besar","transit":false},{"station_id":"JUA","station_name":"Juanda","is_transit":false,"distance":1149,"transit":false,"line":2,"i_long":106.828284,"i_lat":-6.166716,"time":2},{"station_name":"Gondangdia","i_lat":-6.186295,"i_long":106.832183,"station_id":"GDD","time":4,"line":2,"transit":false,"distance":2015,"is_transit":false},{"station_name":"Cikini","station_id":"CKI","i_lat":-6.198556,"is_transit":false,"distance":1750,"time":3,"line":2,"transit":false,"i_long":106.840169},{"station_id":"MRI","transit":true,"station_name":"Manggarai","time":4,"line":2,"distance":1590,"i_lat":-6.209883,"is_transit":true,"i_long":106.84912},{"station_id":"MTR","line":1,"distance":1275,"transit":false,"is_transit":false,"i_lat":-6.212485,"time":2,"i_long":106.858896,"station_name":"Matraman"},{"is_transit":true,"i_long":106.86807400000001,"transit":true,"station_name":"Jatinegara","station_id":"JNG","distance":1377,"i_lat":-6.215091,"time":8,"line":1},{"time":2,"station_id":"POK","line":11,"i_lat":-6.209188,"transit":false,"is_transit":false,"distance":1236,"station_name":"Pondok Jati","i_long":106.861737}],[{"station_id":"PDJ","transit":false,"is_transit":false,"i_long":106.74273,"line":6,"distance":0,"station_name":"Pondokranji","time":0,"i_lat":-6.276362},{"distance":6218,"station_name":"Kebayoran","transit":false,"time":8,"i_lat":-6.237242,"i_long":106.780334,"line":6,"is_transit":false,"station_id":"KBY"},{"transit":false,"station_id":"PLM","is_transit":false,"distance":3737,"i_long":106.79689,"station_name":"Palmerah","time":7,"i_lat":-6.207404,"line":6},{"is_transit":true,"i_lat":-6.185545,"distance":3191,"i_long":106.811091,"transit":true,"time":6,"station_name":"Tanah Abang","line":1,"station_id":"THB"},{"station_id":"KAT","station_name":"Karet","line":1,"i_lat":-6.20132,"is_transit":false,"time":5,"i_long":106.816351,"distance":2029,"transit":false},{"station_id":"SUDB","i_long":106.819881,"line":1,"transit":false,"distance":471,"i_lat":-6.201433,"is_transit":false,"station_name":"Sudirman Baru","time":1},{"i_long":106.822649,"station_id":"SUD","transit":false,"time":1,"is_transit":false,"station_name":"Sudirman","i_lat":-6.202263,"line":1,"distance":280},{"is_transit":true,"line":2,"station_name":"Manggarai","distance":3186,"transit":true,"i_lat":-6.209883,"time":4,"i_long":106.84912,"station_id":"MRI"},{"time":4,"distance":1590,"i_lat":-6.198556,"station_id":"CKI","station_name":"Cikini","i_long":106.840169,"transit":false,"is_transit":false,"line":2},{"i_long":106.832183,"station_id":"GDD","distance":1750,"station_name":"Gondangdia","is_transit":false,"line":2,"transit":false,"time":3,"i_lat":-6.186295},{"i_lat":-6.166716,"i_long":106.828284,"is_transit":false,"line":2,"distance":2015,"station_id":"JUA","time":4,"station_name":"Juanda","transit":false},{"time":2,"distance":1149,"i_long":106.827103,"i_lat":-6.160725,"transit":false,"station_id":"SW","line":2,"is_transit":false,"station_name":"Sawah Besar"},{"time":2,"i_long":106.82482,"transit":false,"station_id":"MGB","station_name":"Manggabesar","i_lat":-6.149769,"distance":906,"is_transit":false,"line":2},{"is_transit":false,"transit":false,"station_id":"JAY","station_name":"Jayakarta","line":2,"time":2,"i_lat":-6.141205,"i_long":106.820901,"distance":1080},{"transit":true,"time":4,"is_transit":true,"i_lat":-6.137569,"station_id":"JAKK","line":2,"station_name":"Jakarta Kota","i_long":106.812439,"distance":1264},{"station_name":"Kampung Bandan","station_id":"KPB","i_long":106.826365,"i_lat":-6.132549,"is_transit":true,"time":3,"transit":true,"line":4,"distance":1364},{"line":11,"station_name":"Rajawali","transit":false,"time":3,"distance":1444,"i_lat":-6.14505,"station_id":"RJW","i_long":106.836569,"is_transit":false},{"station_name":"Kemayoran","distance":1901,"transit":false,"line":11,"i_lat":-6.161728,"station_id":"KMO","time":5,"is_transit":false,"i_long":106.839204},{"station_id":"PSE","station_name":"Pasar Senen","i_long":106.84368,"distance":1436,"line":11,"transit":false,"is_transit":false,"i_lat":-6.174784,"time":4},{"i_long":106.850107,"station_id":"GST","distance":1567,"transit":false,"station_name":"Gang Sentiong","is_transit":false,"line":11,"time":8,"i_lat":-6.185975},{"line":11,"transit":false,"station_name":"Kramat","time":1,"distance":973,"is_transit":false,"i_lat":-6.193792,"i_long":106.855437,"station_id":"KMT"},{"station_name":"Pondok Jati","is_transit":false,"transit":false,"time":2,"distance":1829,"i_lat":-6.209188,"line":11,"i_long":106.861737,"station_id":"POK"}]]}