{"data":[[{"i_long":106.74273,"distance":0,"i_lat":-6.276362,"time":0,"line":6,"transit":false,"is_transit":false,"station_id":"PDJ","station_name":"Pondokranji"},{"is_transit":false,"distance":6218,"time":8,"i_lat":-6.237242,"i_long":106.780334,"station_id":"KBY","transit":false,"station_name":"Kebayoran","line":6},{"station_name":"Palmerah","line":6,"distance":3737,"time":7,"i_lat":-6.207404,"is_transit":false,"transit":false,"i_long":106.79689,"station_id":"PLM"},{"station_id":"THB","transit":true,"time":6,"i_lat":-6.185545,"is_transit":true,"line":1,"station_name":"Tanah Abang","distance":3191,"i_long":106.811091},{"station_name":"Duri","i_long":106.800832,"i_lat":-6.155215,"line":1,"is_transit":true,"station_id":"DU","transit":true,"distance":3632,"time":8},{"station_name":"Grogol","line":5,"time":3,"transit":false,"is_transit":false,"i_long":106.788277,"i_lat":-6.162021,"station_id":"GGL","distance":1700},{"station_name":"Pesing","transit":false,"i_long":106.771379,"line":5,"is_transit":false,"distance":2036,"station_id":"PSG","i_lat":-6.161433,"time":2},{"i_lat":-6.1587309999999995,"i_long":106.756522,"transit":false,"station_name":"Taman Kota","station_id":"TKO","time":2,"is_transit":false,"distance":1614,"line":5},{"transit":false,"time":2,"distance":2334,"line":5,"is_transit":false,"station_id":"BOI","station_name":"Bojongindah","i_long":106.737035,"i_lat":-6.159876},{"i_lat":-6.162758,"distance":1152,"is_transit":false,"time":4,"station_name":"Rawa Buaya","station_id":"RW","line":5,"i_long":106.723064,"transit":false},{"distance":2504,"time":3,"i_long":106.701612,"transit":false,"station_id":"KDS","line":5,"i_lat":-6.166068,"is_transit":false,"station_name":"Kalideres"},{"line":5,"station_id":"PI","distance":2548,"is_transit":false,"station_name":"Poris","time":3,"i_long":106.679458,"transit":false,"i_lat":-6.169933}],[{"station_id":"PDJ","transit":false,"i_lat":-6.276362,"line":6,"station_name":"Pondokranji","i_long":106.74273,"time":0,"is_transit":false,"distance":0},{"i_long":106.780334,"distance":6218,"transit":false,"station_name":"Kebayoran","station_id":"KBY","line":6,"is_transit":false,"i_lat":-6.237242,"time":8},{"is_transit":false,"distance":3737,"line":6,"time":7,"station_id":"PLM","i_lat":-6.207404,"transit":false,"station_name":"Palmerah","i_long":106.79689},{"i_lat":-6.185545,"i_long":106.811091,"time":6,"station_id":"THB","line":1,"transit":true,"station_name":"Tanah Abang","distance":3191,"is_transit":true},{"line":1,"station_name":"Karet","time":5,"transit":false,"station_id":"KAT","is_transit":false,"distance":2029,"i_lat":-6.20132,"i_long":106.816351},{"i_long":106.819881,"i_lat":-6.201433,"station_name":"Sudirman Baru","is_transit":false,"station_id":"SUDB","distance":471,"time":1,"line":1,"transit":false},{"i_long":106.822649,"transit":false,"is_transit":false,"time":1,"i_lat":-6.202263,"station_id":"SUD","station_name":"Sudirman","distance":280,"line":1},{"station_name":"Manggarai","i_long":106.84912,"i_lat":-6.209883,"line":2,"time":4,"station_id":"MRI","is_transit":true,"distance":3186,"transit":true},{"distance":1590,"transit":false,"i_long":106.840169,"station_id":"CKI","time":4,"station_name":"Cikini","line":2,"i_lat":-6.198556,"is_transit":false},{"line":2,"distance":1750,"transit":false,"station_name":"Gondangdia","i_lat":-6.186295,"i_long":106.832183,"is_transit":false,"station_id":"GDD","time":3},{"i_lat":-6.166716,"transit":false,"station_name":"Juanda","distance":2015,"station_id":"JUA","time":4,"line":2,"is_transit":false,"i_long":106.828284},{"is_transit":false,"distance":1149,"station_id":"SW","i_lat":-6.160725,"time":2,"station_name":"Sawah Besar","transit":false,"i_long":106.827103,"line":2},{"distance":906,"is_transit":false,"station_name":"Manggabesar","i_long":106.82482,"time":2,"transit":false,"station_id":"MGB","line":2,"i_lat":-6.149769},{"line":2,"transit":false,"distance":1080,"station_id":"JAY","station_name":"Jayakarta","time":2,"is_transit":false,"i_lat":-6.141205,"i_long":106.820901},{"i_lat":-6.137569,"i_long":106.812439,"line":2,"station_id":"JAKK","distance":1264,"time":4,"is_transit":true,"station_name":"Jakarta Kota","transit":true},{"transit":true,"line":4,"distance":1364,"station_name":"Kampung Bandan","station_id":"KPB","is_transit":true,"time":3,"i_long":106.826365,"i_lat":-6.132549},{"time":9,"distance":4102,"is_transit":false,"station_id":"AK","i_lat":-6.144674,"line":1,"transit":false,"i_long":106.79867,"station_name":"Angke"},{"transit":true,"distance":1230,"is_transit":true,"station_name":"Duri","line":1,"i_lat":-6.155215,"time":4,"station_id":"DU","i_long":106.800832},{"is_transit":false,"transit":false,"station_id":"GGL","time":3,"i_long":106.788277,"i_lat":-6.162021,"station_name":"Grogol","line":5,"distance":1700},{"station_id":"PSG","line":5,"i_long":106.771379,"is_transit":false,"transit":false,"time":2,"station_name":"Pesing","distance":2036,"i_lat":-6.161433},{"distance":1614,"station_id":"TKO","line":5,"station_name":"Taman Kota","is_transit":false,"transit":false,"time":2,"i_lat":-6.1587309999999995,"i_long":106.756522},{"time":2,"i_long":106.737035,"transit":false,"distance":2334,"is_transit":false,"line":5,"station_id":"BOI","station_name":"Bojongindah","i_lat":-6.159876},{"time":4,"station_id":"RW","i_long":106.723064,"transit":false,"distance":1152,"station_name":"Rawa Buaya","i_lat":-6.162758,"is_transit":false,"line":5},{"station_id":"KDS","i_lat":-6.166068,"time":3,"distance":2504,"transit":false,"station_name":"Kalideres","is_transit":false,"i_long":106.701612,"line":5},{"distance":2548,"time":3,"station_id":"PI","is_transit":false,"transit":false,"station_name":"Poris","i_lat":-6.169933,"line":5,"i_long":106.679458}],[{"line":6,"is_transit":false,"transit":false,"i_long":106.74273,"station_name":"Pondokranji","station_id":"PDJ","i_lat":-6.276362,"distance":0,"time":0},{"i_long":106.780334,"transit":false,"time":8,"distance":6218,"station_id":"KBY","is_transit":false,"station_name":"Kebayoran","i_lat":-6.237242,"line":6},{"i_lat":-6.207404,"line":6,"i_long":106.79689,"transit":false,"distance":3737,"is_transit":false,"station_id":"PLM","station_name":"Palmerah","time":7},{"distance":3191,"transit":true,"line":1,"i_long":106.811091,"is_transit":true,"time":6,"station_name":"Tanah Abang","station_id":"THB","i_lat":-6.185545},{"distance":2029,"station_name":"Karet","i_lat":-6.20132,"line":1,"station_id":"KAT","is_transit":false,"i_long":106.816351,"time":5,"transit":false},{"station_name":"Sudirman Baru","time":1,"transit":false,"distance":471,"line":1,"station_id":"SUDB","is_transit":false,"i_lat":-6.201433,"i_long":106.819881},{"station_name":"Sudirman","i_long":106.822649,"distance":280,"transit":false,"time":1,"station_id":"SUD","is_transit":false,"i_lat":-6.202263,"line":1},{"station_id":"MRI","is_transit":false,"transit":false,"station_name":"Manggarai","time":4,"distance":3186,"i_long":106.84912,"line":2,"i_lat":-6.209883},{"transit":false,"distance":1275,"line":1,"is_transit":false,"station_id":"MTR","i_lat":-6.212485,"station_name":"Matraman","time":2,"i_long":106.858896},{"i_long":106.86807400000001,"station_id":"JNG","distance":1377,"is_transit":true,"i_lat":-6.215091,"time":8,"transit":true,"line":1,"station_name":"Jatinegara"},{"distance":1236,"time":2,"i_lat":-6.209188,"is_transit":false,"line":11,"transit":false,"i_long":106.861737,"station_id":"POK","station_name":"Pondok Jati"},{"i_lat":-6.193792,"i_long":106.855437,"distance":1829,"line":11,"is_transit":false,"transit":false,"time":2,"station_id":"KMT","station_name":"Kramat"},{"distance":973,"station_id":"GST","transit":false,"is_transit":false,"i_long":106.850107,"i_lat":-6.185975,"station_name":"Gang Sentiong","time":1,"line":11},{"station_name":"Pasar Senen","line":11,"distance":1567,"time":8,"i_lat":-6.174784,"transit":false,"i_long":106.84368,"is_transit":false,"station_id":"PSE"},{"time":4,"line":11,"i_long":106.839204,"is_transit":false,"distance":1436,"i_lat":-6.161728,"station_name":"Kemayoran","station_id":"KMO","transit":false},{"station_id":"RJW","line":11,"is_transit":false,"transit":false,"distance":1901,"i_lat":-6.14505,"time":5,"station_name":"Rajawali","i_long":106.836569},{"time":3,"transit":true,"is_transit":true,"i_lat":-6.132549,"line":4,"station_id":"KPB","station_name":"Kampung Bandan","i_long":106.826365,"distance":1444},{"time":9,"i_lat":-6.144674,"is_transit":false,"station_name":"Angke","line":1,"transit":false,"distance":4102,"station_id":"AK","i_long":106.79867},{"i_lat":-6.155215,"time":4,"is_transit":true,"line":1,"station_id":"DU","station_name":"Duri","transit":true,"i_long":106.800832,"distance":1230},{"transit":false,"time":3,"station_id":"GGL","station_name":"Grogol","i_long":106.788277,"i_lat":-6.162021,"is_transit":false,"line":5,"distance":1700},{"transit":false,"station_id":"PSG","station_name":"Pesing","time":2,"i_lat":-6.161433,"i_long":106.771379,"is_transit":false,"line":5,"distance":2036},{"distance":1614,"time":2,"is_transit":false,"i_long":106.756522,"station_id":"TKO","line":5,"transit":false,"i_lat":-6.1587309999999995,"station_name":"Taman Kota"},{"transit":false,"distance":2334,"i_lat":-6.159876,"station_name":"Bojongindah","station_id":"BOI","i_long":106.737035,"line":5,"is_transit":false,"time":2},{"i_lat":-6.162758,"i_long":106.723064,"line":5,"distance":1152,"transit":false,"is_transit":false,"station_id":"RW","time":4,"station_name":"Rawa Buaya"},{"transit":false,"line":5,"station_name":"Kalideres","distance":2504,"time":3,"station_id":"KDS","i_lat":-6.166068,"i_long":106.701612,"is_transit":false},{"station_name":"Poris","transit":false,"is_transit":false,"distance":2548,"i_long":106.679458,"i_lat":-6.169933,"line":5,"time":3,"station_id":"PI"}]]}