{"data":[[{"transit":false,"station_name":"Pondokranji","i_long":106.74273,"i_lat":-6.276362,"time":0,"station_id":"PDJ","is_transit":false,"line":6,"distance":0},{"station_name":"Kebayoran","station_id":"KBY","line":6,"transit":false,"is_transit":false,"i_lat":-6.237242,"distance":6218,"i_long":106.780334,"time":8},{"station_name":"Palmerah","transit":false,"i_lat":-6.207404,"distance":3737,"is_transit":false,"time":7,"station_id":"PLM","i_long":106.79689,"line":6},{"is_transit":true,"line":1,"station_name":"Tanah Abang","i_long":106.811091,"station_id":"THB","distance":3191,"time":6,"i_lat":-6.185545,"transit":true},{"station_id":"KAT","station_name":"Karet","distance":2029,"is_transit":false,"line":1,"i_long":106.816351,"transit":false,"time":5,"i_lat":-6.20132},{"is_transit":false,"i_lat":-6.201433,"time":1,"line":1,"station_id":"SUDB","distance":471,"transit":false,"station_name":"Sudirman Baru","i_long":106.819881},{"i_long":106.822649,"station_id":"SUD","distance":280,"i_lat":-6.202263,"time":1,"station_name":"Sudirman","transit":false,"is_transit":false,"line":1},{"line":2,"station_id":"MRI","i_lat":-6.209883,"station_name":"Manggarai","is_transit":true,"distance":3186,"transit":true,"time":4,"i_long":106.84912},{"distance":2610,"transit":false,"i_lat":-6.226659,"i_long":106.857948,"is_transit":false,"line":2,"time":4,"station_id":"TEB","station_name":"Tebet"}],[{"transit":false,"time":0,"station_id":"PDJ","i_long":106.74273,"station_name":"Pondokranji","distance":0,"is_transit":false,"line":6,"i_lat":-6.276362},{"station_id":"KBY","time":8,"is_transit":false,"distance":6218,"station_name":"Kebayoran","transit":false,"i_lat":-6.237242,"i_long":106.780334,"line":6},{"station_name":"Palmerah","is_transit":false,"distance":3737,"line":6,"time":7,"i_long":106.79689,"station_id":"PLM","transit":false,"i_lat":-6.207404},{"station_name":"Tanah Abang","distance":3191,"line":1,"station_id":"THB","is_transit":true,"transit":true,"i_lat":-6.185545,"i_long":106.811091,"time":6},{"distance":3632,"station_name":"Duri","time":8,"i_long":106.800832,"line":1,"transit":false,"station_id":"DU","is_transit":false,"i_lat":-6.155215},{"line":1,"station_id":"AK","i_long":106.79867,"is_transit":false,"transit":false,"i_lat":-6.144674,"time":4,"station_name":"Angke","distance":1230},{"transit":true,"is_transit":true,"i_lat":-6.132549,"line":4,"distance":4102,"i_long":106.826365,"time":9,"station_name":"Kampung Bandan","station_id":"KPB"},{"time":3,"transit":true,"i_lat":-6.137569,"distance":1364,"line":2,"i_long":106.812439,"is_transit":true,"station_id":"JAKK","station_name":"Jakarta Kota"},{"station_name":"Jayakarta","i_long":106.820901,"time":4,"station_id":"JAY","transit":false,"line":2,"i_lat":-6.141205,"distance":1264,"is_transit":false},{"transit":false,"distance":1080,"station_id":"MGB","is_transit":false,"i_long":106.82482,"line":2,"station_name":"Manggabesar","time":2,"i_lat":-6.149769},{"distance":906,"transit":false,"i_lat":-6.160725,"line":2,"i_long":106.827103,"time":2,"station_id":"SW","station_name":"Sawah Besar","is_transit":false},{"is_transit":false,"i_long":106.828284,"line":2,"station_name":"Juanda","time":2,"i_lat":-6.166716,"station_id":"JUA","distance":1149,"transit":false},{"time":4,"line":2,"transit":false,"station_name":"Gondangdia","is_transit":false,"i_long":106.832183,"station_id":"GDD","i_lat":-6.186295,"distance":2015},{"i_long":106.840169,"line":2,"station_id":"CKI","is_transit":false,"time":3,"distance":1750,"transit":false,"i_lat":-6.198556,"station_name":"Cikini"},{"i_long":106.84912,"station_name":"Manggarai","time":4,"line":2,"distance":1590,"is_transit":false,"station_id":"MRI","transit":false,"i_lat":-6.209883},{"time":4,"i_lat":-6.226659,"station_id":"TEB","i_long":106.857948,"is_transit":false,"transit":false,"distance":2610,"station_name":"Tebet","line":2}],[{"time":0,"i_lat":-6.276362,"i_long":106.74273,"station_name":"Pondokranji","is_transit":false,"station_id":"PDJ","distance":0,"transit":false,"line":6},{"station_name":"Kebayoran","time":8,"distance":6218,"is_transit":false,"i_lat":-6.237242,"line":6,"transit":false,"station_id":"KBY","i_long":106.780334},{"is_transit":false,"i_lat":-6.207404,"station_id":"PLM","distance":3737,"time":7,"line":6,"station_name":"Palmerah","i_long":106.79689,"transit":false},{"transit":true,"i_lat":-6.185545,"line":1,"station_id":"THB","is_transit":true,"i_long":106.811091,"distance":3191,"time":6,"station_name":"Tanah Abang"},{"i_long":106.800832,"line":1,"station_name":"Duri","station_id":"DU","is_transit":false,"time":8,"distance":3632,"transit":false,"i_lat":-6.155215},{"i_long":106.79867,"time":4,"is_transit":false,"station_name":"Angke","distance":1230,"transit":false,"i_lat":-6.144674,"station_id":"AK","line":1},{"station_name":"Kampung Bandan","i_lat":-6.132549,"transit":true,"time":9,"line":4,"is_transit":true,"i_long":106.826365,"station_id":"KPB","distance":4102},{"i_long":106.836569,"station_id":"RJW","station_name":"Rajawali","distance":1444,"line":11,"transit":false,"i_lat":-6.14505,"time":3,"is_transit":false},{"distance":1901,"station_id":"KMO","i_long":106.839204,"transit":false,"station_name":"Kemayoran","time":5,"is_transit":false,"i_lat":-6.161728,"line":11},{"is_transit":false,"time":4,"distance":1436,"station_name":"Pasar Senen","transit":false,"i_long":106.84368,"station_id":"PSE","line":11,"i_lat":-6.174784},{"distance":1567,"i_lat":-6.185975,"time":8,"station_id":"GST","station_name":"Gang Sentiong","i_long":106.850107,"line":11,"is_transit":false,"transit":false},{"time":1,"is_transit":false,"i_long":106.855437,"transit":false,"i_lat":-6.193792,"distance":973,"station_name":"Kramat","line":11,"station_id":"KMT"},{"time":2,"i_long":106.861737,"transit":false,"line":11,"station_name":"Pondok Jati","distance":1829,"is_transit":false,"i_lat":-6.209188,"station_id":"POK"},{"distance":1236,"line":1,"time":9,"is_transit":true,"station_name":"Jatinegara","transit":true,"i_long":106.86807400000001,"station_id":"JNG","i_lat":-6.215091},{"i_lat":-6.212485,"transit":false,"distance":1377,"station_id":"MTR","is_transit":false,"i_long":106.858896,"line":1,"time":2,"station_name":"Matraman"},{"i_long":106.84912,"is_transit":true,"station_name":"Manggarai","i_lat":-6.209883,"line":2,"station_id":"MRI","time":2,"transit":true,"distance":1275},{"i_lat":-6.226659,"station_name":"Tebet","is_transit":false,"time":4,"distance":2610,"i_long":106.857948,"station_id":"TEB","line":2,"transit":false}]]}