{"data":[[{"time":0,"station_name":"Pondokranji","is_transit":false,"station_id":"PDJ","i_lat":-6.276362,"i_long":106.74273,"line":6,"distance":0,"transit":false},{"transit":false,"station_name":"Kebayoran","line":6,"i_lat":-6.237242,"i_long":106.780334,"time":8,"distance":6218,"is_transit":false,"station_id":"KBY"},{"time":7,"line":6,"distance":3737,"i_lat":-6.207404,"station_id":"PLM","station_name":"Palmerah","i_long":106.79689,"transit":false,"is_transit":false},{"is_transit":true,"line":1,"station_name":"Tanah Abang","i_long":106.811091,"distance":3191,"time":6,"i_lat":-6.185545,"transit":true,"station_id":"THB"},{"transit":false,"distance":2029,"time":5,"station_name":"Karet","is_transit":false,"i_long":106.816351,"line":1,"station_id":"KAT","i_lat":-6.20132},{"i_lat":-6.201433,"is_transit":false,"line":1,"distance":471,"time":1,"i_long":106.819881,"transit":false,"station_id":"SUDB","station_name":"Sudirman Baru"},{"distance":280,"transit":false,"i_lat":-6.202263,"is_transit":false,"station_name":"Sudirman","line":1,"station_id":"SUD","time":1,"i_long":106.822649},{"line":2,"distance":3186,"station_id":"MRI","time":4,"i_lat":-6.209883,"is_transit":false,"transit":false,"i_long":106.84912,"station_name":"Manggarai"},{"station_id":"MTR","line":1,"distance":1275,"transit":false,"is_transit":false,"i_lat":-6.212485,"time":2,"station_name":"Matraman","i_long":106.858896},{"line":1,"station_id":"JNG","transit":false,"i_long":106.86807400000001,"time":8,"i_lat":-6.215091,"distance":1377,"station_name":"Jatinegara","is_transit":false},{"is_transit":false,"i_lat":-6.2135,"i_long":106.899548,"station_id":"KLD","line":1,"transit":false,"time":3,"station_name":"Klender","distance":3395}],[{"is_transit":false,"i_lat":-6.276362,"line":6,"station_id":"PDJ","distance":0,"station_name":"Pondokranji","time":0,"i_long":106.74273,"transit":false},{"i_long":106.780334,"transit":false,"time":8,"i_lat":-6.237242,"line":6,"distance":6218,"is_transit":false,"station_id":"KBY","station_name":"Kebayoran"},{"line":6,"station_name":"Palmerah","i_long":106.79689,"is_transit":false,"transit":false,"distance":3737,"station_id":"PLM","i_lat":-6.207404,"time":7},{"i_lat":-6.185545,"distance":3191,"station_name":"Tanah Abang","time":6,"line":1,"station_id":"THB","is_transit":true,"transit":true,"i_long":106.811091},{"station_id":"DU","i_lat":-6.155215,"line":1,"transit":false,"is_transit":false,"distance":3632,"time":8,"station_name":"Duri","i_long":106.800832},{"i_long":106.79867,"is_transit":false,"station_id":"AK","time":4,"station_name":"Angke","transit":false,"i_lat":-6.144674,"line":1,"distance":1230},{"is_transit":true,"line":4,"time":9,"station_id":"KPB","station_name":"Kampung Bandan","i_lat":-6.132549,"distance":4102,"transit":true,"i_long":106.826365},{"i_lat":-6.14505,"station_id":"RJW","station_name":"Rajawali","distance":1444,"time":3,"line":11,"is_transit":false,"i_long":106.836569,"transit":false},{"line":11,"is_transit":false,"distance":1901,"i_lat":-6.161728,"station_id":"KMO","transit":false,"time":5,"i_long":106.839204,"station_name":"Kemayoran"},{"transit":false,"time":4,"is_transit":false,"distance":1436,"station_id":"PSE","station_name":"Pasar Senen","i_lat":-6.174784,"line":11,"i_long":106.84368},{"time":8,"transit":false,"is_transit":false,"line":11,"station_id":"GST","distance":1567,"i_lat":-6.185975,"station_name":"Gang Sentiong","i_long":106.850107},{"station_name":"Kramat","station_id":"KMT","i_lat":-6.193792,"i_long":106.855437,"time":1,"line":11,"is_transit":false,"transit":false,"distance":973},{"time":2,"transit":false,"i_long":106.861737,"is_transit":false,"distance":1829,"station_id":"POK","i_lat":-6.209188,"line":11,"station_name":"Pondok Jati"},{"line":1,"is_transit":true,"station_id":"JNG","i_long":106.86807400000001,"transit":true,"i_lat":-6.215091,"distance":1236,"time":9,"station_name":"Jatinegara"},{"i_lat":-6.2135,"i_long":106.899548,"transit":false,"station_name":"Klender","distance":3395,"station_id":"KLD","line":1,"time":3,"is_transit":false}],[{"station_name":"Pondokranji","distance":0,"i_lat":-6.276362,"transit":false,"is_transit":false,"station_id":"PDJ","time":0,"line":6,"i_long":106.74273},{"i_long":106.780334,"station_id":"KBY","line":6,"station_name":"Kebayoran","is_transit":false,"distance":6218,"i_lat":-6.237242,"transit":false,"time":8},{"transit":false,"i_long":106.79689,"time":7,"is_transit":false,"station_id":"PLM","station_name":"Palmerah","i_lat":-6.207404,"line":6,"distance":3737},{"i_long":106.811091,"i_lat":-6.185545,"line":1,"station_id":"THB","distance":3191,"is_transit":true,"transit":true,"time":6,"station_name":"Tanah Abang"},{"is_transit":false,"station_name":"Duri","transit":false,"i_lat":-6.155215,"distance":3632,"i_long":106.800832,"time":8,"station_id":"DU","line":1},{"transit":false,"is_transit":false,"distance":1230,"line":1,"station_name":"Angke","time":4,"station_id":"AK","i_long":106.79867,"i_lat":-6.144674},{"distance":4102,"i_lat":-6.132549,"i_long":106.826365,"station_name":"Kampung Bandan","is_transit":true,"station_id":"KPB","time":9,"transit":true,"line":4},{"station_name":"Jakarta Kota","transit":true,"i_lat":-6.137569,"time":3,"station_id":"JAKK","is_transit":true,"line":2,"distance":1364,"i_long":106.812439},{"distance":1264,"i_long":106.820901,"time":4,"is_transit":false,"station_name":"Jayakarta","i_lat":-6.141205,"station_id":"JAY","transit":false,"line":2},{"station_id":"MGB","is_transit":false,"distance":1080,"station_name":"Manggabesar","i_lat":-6.149769,"line":2,"time":2,"transit":false,"i_long":106.82482},{"distance":906,"i_lat":-6.160725,"line":2,"transit":false,"station_name":"Sawah Besar","is_transit":false,"time":2,"i_long":106.827103,"station_id":"SW"},{"distance":1149,"time":2,"i_lat":-6.166716,"is_transit":false,"station_id":"JUA","transit":false,"station_name":"Juanda","i_long":106.828284,"line":2},{"time":4,"transit":false,"is_transit":false,"i_lat":-6.186295,"i_long":106.832183,"line":2,"station_id":"GDD","distance":2015,"station_name":"Gondangdia"},{"station_name":"Cikini","station_id":"CKI","i_long":106.840169,"line":2,"transit":false,"time":3,"distance":1750,"i_lat":-6.198556,"is_transit":false},{"i_long":106.84912,"station_id":"MRI","line":2,"i_lat":-6.209883,"time":4,"station_name":"Manggarai","transit":true,"is_transit":true,"distance":1590},{"transit":false,"distance":1275,"station_name":"Matraman","i_long":106.858896,"time":2,"is_transit":false,"station_id":"MTR","i_lat":-6.212485,"line":1},{"i_long":106.86807400000001,"time":8,"line":1,"is_transit":false,"distance":1377,"station_id":"JNG","transit":false,"station_name":"Jatinegara","i_lat":-6.215091},{"transit":false,"i_lat":-6.2135,"line":1,"is_transit":false,"time":3,"station_name":"Klender","distance":3395,"station_id":"KLD","i_long":106.899548}],[{"station_id":"PDJ","i_long":106.74273,"transit":false,"is_transit":false,"time":0,"distance":0,"line":6,"station_name":"Pondokranji","i_lat":-6.276362},{"time":8,"distance":6218,"is_transit":false,"station_name":"Kebayoran","transit":false,"i_long":106.780334,"station_id":"KBY","line":6,"i_lat":-6.237242},{"time":7,"station_name":"Palmerah","distance":3737,"i_long":106.79689,"line":6,"transit":false,"is_transit":false,"station_id":"PLM","i_lat":-6.207404},{"line":1,"distance":3191,"station_id":"THB","time":6,"station_name":"Tanah Abang","i_lat":-6.185545,"is_transit":true,"transit":true,"i_long":106.811091},{"is_transit":false,"distance":2029,"station_id":"KAT","station_name":"Karet","transit":false,"i_lat":-6.20132,"time":5,"i_long":106.816351,"line":1},{"station_name":"Sudirman Baru","station_id":"SUDB","line":1,"distance":471,"transit":false,"is_transit":false,"i_lat":-6.201433,"i_long":106.819881,"time":1},{"line":1,"station_id":"SUD","time":1,"is_transit":false,"station_name":"Sudirman","i_long":106.822649,"distance":280,"transit":false,"i_lat":-6.202263},{"station_name":"Manggarai","time":4,"i_lat":-6.209883,"i_long":106.84912,"line":2,"station_id":"MRI","is_transit":true,"transit":true,"distance":3186},{"distance":1590,"station_name":"Cikini","i_lat":-6.198556,"line":2,"time":4,"transit":false,"station_id":"CKI","is_transit":false,"i_long":106.840169},{"distance":1750,"is_transit":false,"transit":false,"i_long":106.832183,"line":2,"station_name":"Gondangdia","time":3,"station_id":"GDD","i_lat":-6.186295},{"transit":false,"i_long":106.828284,"is_transit":false,"line":2,"time":4,"station_id":"JUA","station_name":"Juanda","i_lat":-6.166716,"distance":2015},{"time":2,"station_name":"Sawah Besar","i_long":106.827103,"is_transit":false,"station_id":"SW","i_lat":-6.160725,"line":2,"transit":false,"distance":1149},{"distance":906,"i_long":106.82482,"time":2,"i_lat":-6.149769,"transit":false,"line":2,"station_id":"MGB","is_transit":false,"station_name":"Manggabesar"},{"is_transit":false,"i_lat":-6.141205,"time":2,"distance":1080,"station_id":"JAY","transit":false,"i_long":106.820901,"line":2,"station_name":"Jayakarta"},{"distance":1264,"line":2,"station_id":"JAKK","station_name":"Jakarta Kota","transit":true,"i_long":106.812439,"is_transit":true,"i_lat":-6.137569,"time":4},{"i_long":106.826365,"station_id":"KPB","i_lat":-6.132549,"line":4,"transit":true,"distance":1364,"time":3,"is_transit":true,"station_name":"Kampung Bandan"},{"i_long":106.836569,"line":11,"station_id":"RJW","station_name":"Rajawali","distance":1444,"is_transit":false,"transit":false,"time":3,"i_lat":-6.14505},{"is_transit":false,"i_long":106.839204,"distance":1901,"line":11,"time":5,"station_name":"Kemayoran","station_id":"KMO","i_lat":-6.161728,"transit":false},{"time":4,"station_name":"Pasar Senen","line":11,"station_id":"PSE","i_lat":-6.174784,"distance":1436,"transit":false,"i_long":106.84368,"is_transit":false},{"time":8,"i_long":106.850107,"is_transit":false,"transit":false,"i_lat":-6.185975,"station_id":"GST","station_name":"Gang Sentiong","distance":1567,"line":11},{"station_name":"Kramat","i_lat":-6.193792,"time":1,"distance":973,"line":11,"is_transit":false,"station_id":"KMT","i_long":106.855437,"transit":false},{"is_transit":false,"station_id":"POK","i_long":106.861737,"i_lat":-6.209188,"time":2,"station_name":"Pondok Jati","transit":false,"distance":1829,"line":11},{"is_transit":true,"i_long":106.86807400000001,"line":1,"station_name":"Jatinegara","i_lat":-6.215091,"transit":true,"time":9,"distance":1236,"station_id":"JNG"},{"is_transit":false,"distance":3395,"i_long":106.899548,"station_id":"KLD","time":3,"station_name":"Klender","transit":false,"i_lat":-6.2135,"line":1}]]}