{"data":[[{"distance":0,"line":6,"time":0,"i_lat":-6.276362,"station_id":"PDJ","i_long":106.74273,"is_transit":false,"transit":false,"station_name":"Pondokranji"},{"time":8,"station_name":"Kebayoran","line":6,"transit":false,"i_long":106.780334,"distance":6218,"station_id":"KBY","is_transit":false,"i_lat":-6.237242},{"i_lat":-6.207404,"station_id":"PLM","is_transit":false,"time":7,"distance":3737,"transit":false,"line":6,"station_name":"Palmerah","i_long":106.79689},{"i_long":106.811091,"is_transit":true,"station_name":"Tanah Abang","distance":3191,"transit":true,"line":1,"i_lat":-6.185545,"station_id":"THB","time":6},{"i_long":106.816351,"time":5,"is_transit":false,"i_lat":-6.20132,"station_id":"KAT","line":1,"distance":2029,"station_name":"Karet","transit":false},{"transit":false,"i_long":106.819881,"time":1,"line":1,"is_transit":false,"distance":471,"station_id":"SUDB","i_lat":-6.201433,"station_name":"Sudirman Baru"},{"time":1,"station_name":"Sudirman","i_long":106.822649,"line":1,"i_lat":-6.202263,"transit":false,"distance":280,"station_id":"SUD","is_transit":false},{"distance":3186,"station_name":"Manggarai","time":4,"is_transit":false,"transit":false,"i_long":106.84912,"line":2,"i_lat":-6.209883,"station_id":"MRI"},{"station_name":"Matraman","i_long":106.858896,"station_id":"MTR","time":2,"is_transit":false,"i_lat":-6.212485,"line":1,"distance":1275,"transit":false},{"is_transit":false,"line":1,"station_name":"Jatinegara","transit":false,"i_long":106.86807400000001,"distance":1377,"station_id":"JNG","i_lat":-6.215091,"time":8},{"transit":false,"line":1,"is_transit":false,"station_id":"KLD","i_long":106.899548,"station_name":"Klender","distance":3395,"time":3,"i_lat":-6.2135},{"time":2,"station_name":"Buaran","station_id":"BUA","distance":3100,"transit":false,"i_lat":-6.215568,"i_long":106.922662,"line":1,"is_transit":false},{"distance":1305,"transit":false,"time":1,"i_lat":-6.217455,"i_long":106.939679,"is_transit":false,"station_id":"KLDB","station_name":"Klenderbaru","line":1},{"is_transit":false,"line":1,"station_id":"CUK","transit":false,"distance":1385,"time":8,"i_long":106.951283,"i_lat":-6.219053,"station_name":"Cakung"},{"station_id":"KRI","station_name":"Kranji","i_long":106.977657,"is_transit":false,"transit":false,"line":1,"i_lat":-6.224515,"time":3,"distance":3097},{"station_id":"BKS","station_name":"Bekasi","line":1,"i_lat":-6.236616,"i_long":106.997013,"is_transit":false,"distance":2520,"transit":false,"time":4},{"station_id":"BKST","i_lat":-6.248029,"line":1,"time":2,"is_transit":false,"distance":2368,"transit":false,"i_long":107.016735,"station_name":"Bekasi Timur"},{"station_id":"TB","time":7,"is_transit":false,"line":1,"i_lat":-6.258864,"transit":false,"station_name":"Tambun","distance":4460,"i_long":107.055722}],[{"station_id":"PDJ","i_long":106.74273,"i_lat":-6.276362,"transit":false,"line":6,"is_transit":false,"distance":0,"time":0,"station_name":"Pondokranji"},{"is_transit":false,"i_lat":-6.237242,"line":6,"transit":false,"distance":6218,"station_name":"Kebayoran","time":8,"i_long":106.780334,"station_id":"KBY"},{"station_name":"Palmerah","distance":3737,"is_transit":false,"time":7,"transit":false,"i_lat":-6.207404,"i_long":106.79689,"line":6,"station_id":"PLM"},{"distance":3191,"i_lat":-6.185545,"station_name":"Tanah Abang","is_transit":true,"transit":true,"time":6,"station_id":"THB","i_long":106.811091,"line":1},{"is_transit":false,"station_name":"Duri","transit":false,"station_id":"DU","i_lat":-6.155215,"i_long":106.800832,"line":1,"time":8,"distance":3632},{"i_lat":-6.144674,"transit":false,"line":1,"station_id":"AK","is_transit":false,"station_name":"Angke","time":4,"i_long":106.79867,"distance":1230},{"i_long":106.826365,"time":9,"station_id":"KPB","station_name":"Kampung Bandan","i_lat":-6.132549,"distance":4102,"line":4,"is_transit":true,"transit":true},{"time":3,"transit":false,"station_id":"RJW","i_long":106.836569,"station_name":"Rajawali","line":11,"i_lat":-6.14505,"is_transit":false,"distance":1444},{"i_lat":-6.161728,"time":5,"distance":1901,"transit":false,"station_id":"KMO","i_long":106.839204,"is_transit":false,"line":11,"station_name":"Kemayoran"},{"line":11,"transit":false,"is_transit":false,"station_id":"PSE","time":4,"distance":1436,"i_lat":-6.174784,"station_name":"Pasar Senen","i_long":106.84368},{"distance":1567,"time":8,"i_long":106.850107,"is_transit":false,"i_lat":-6.185975,"line":11,"transit":false,"station_name":"Gang Sentiong","station_id":"GST"},{"i_lat":-6.193792,"i_long":106.855437,"station_name":"Kramat","is_transit":false,"line":11,"station_id":"KMT","distance":973,"time":1,"transit":false},{"time":2,"transit":false,"distance":1829,"station_id":"POK","i_lat":-6.209188,"i_long":106.861737,"line":11,"station_name":"Pondok Jati","is_transit":false},{"station_id":"JNG","distance":1236,"line":1,"time":9,"i_long":106.86807400000001,"transit":true,"station_name":"Jatinegara","i_lat":-6.215091,"is_transit":true},{"station_id":"KLD","station_name":"Klender","i_lat":-6.2135,"line":1,"time":3,"is_transit":false,"transit":false,"distance":3395,"i_long":106.899548},{"line":1,"station_id":"BUA","distance":3100,"i_long":106.922662,"i_lat":-6.215568,"time":2,"station_name":"Buaran","transit":false,"is_transit":false},{"distance":1305,"is_transit":false,"station_name":"Klenderbaru","time":1,"station_id":"KLDB","transit":false,"i_long":106.939679,"i_lat":-6.217455,"line":1},{"distance":1385,"is_transit":false,"transit":false,"i_lat":-6.219053,"station_id":"CUK","line":1,"time":8,"i_long":106.951283,"station_name":"Cakung"},{"i_long":106.977657,"time":3,"distance":3097,"station_id":"KRI","line":1,"transit":false,"is_transit":false,"i_lat":-6.224515,"station_name":"Kranji"},{"line":1,"transit":false,"i_lat":-6.236616,"station_name":"Bekasi","is_transit":false,"distance":2520,"i_long":106.997013,"time":4,"station_id":"BKS"},{"station_name":"Bekasi Timur","line":1,"time":2,"transit":false,"i_long":107.016735,"is_transit":false,"i_lat":-6.248029,"distance":2368,"station_id":"BKST"},{"is_transit":false,"line":1,"time":7,"transit":false,"station_name":"Tambun","i_lat":-6.258864,"distance":4460,"station_id":"TB","i_long":107.055722}],[{"line":6,"distance":0,"i_long":106.74273,"time":0,"station_id":"PDJ","is_transit":false,"station_name":"Pondokranji","transit":false,"i_lat":-6.276362},{"time":8,"transit":false,"station_name":"Kebayoran","station_id":"KBY","distance":6218,"i_lat":-6.237242,"i_long":106.780334,"is_transit":false,"line":6},{"distance":3737,"i_long":106.79689,"station_name":"Palmerah","i_lat":-6.207404,"is_transit":false,"line":6,"time":7,"transit":false,"station_id":"PLM"},{"distance":3191,"i_lat":-6.185545,"is_transit":true,"i_long":106.811091,"time":6,"station_id":"THB","line":1,"station_name":"Tanah Abang","transit":true},{"station_id":"DU","transit":false,"i_lat":-6.155215,"station_name":"Duri","distance":3632,"time":8,"is_transit":false,"line":1,"i_long":106.800832},{"station_id":"AK","line":1,"distance":1230,"is_transit":false,"i_lat":-6.144674,"time":4,"i_long":106.79867,"station_name":"Angke","transit":false},{"transit":true,"time":9,"is_transit":true,"i_long":106.826365,"i_lat":-6.132549,"station_name":"Kampung Bandan","line":4,"distance":4102,"station_id":"KPB"},{"distance":1364,"line":2,"station_name":"Jakarta Kota","transit":true,"station_id":"JAKK","i_long":106.812439,"is_transit":true,"time":3,"i_lat":-6.137569},{"i_lat":-6.141205,"station_name":"Jayakarta","transit":false,"time":4,"distance":1264,"i_long":106.820901,"station_id":"JAY","is_transit":false,"line":2},{"is_transit":false,"station_name":"Manggabesar","time":2,"station_id":"MGB","transit":false,"i_long":106.82482,"distance":1080,"i_lat":-6.149769,"line":2},{"distance":906,"station_id":"SW","is_transit":false,"i_lat":-6.160725,"i_long":106.827103,"time":2,"transit":false,"station_name":"Sawah Besar","line":2},{"transit":false,"station_name":"Juanda","station_id":"JUA","distance":1149,"i_lat":-6.166716,"line":2,"time":2,"i_long":106.828284,"is_transit":false},{"i_long":106.832183,"station_name":"Gondangdia","line":2,"is_transit":false,"station_id":"GDD","distance":2015,"transit":false,"time":4,"i_lat":-6.186295},{"is_transit":false,"i_long":106.840169,"transit":false,"time":3,"station_name":"Cikini","line":2,"distance":1750,"i_lat":-6.198556,"station_id":"CKI"},{"i_long":106.84912,"line":2,"time":4,"station_id":"MRI","distance":1590,"i_lat":-6.209883,"is_transit":true,"transit":true,"station_name":"Manggarai"},{"transit":false,"station_id":"MTR","station_name":"Matraman","i_lat":-6.212485,"time":2,"i_long":106.858896,"line":1,"distance":1275,"is_transit":false},{"station_name":"Jatinegara","distance":1377,"time":8,"line":1,"is_transit":false,"i_lat":-6.215091,"i_long":106.86807400000001,"transit":false,"station_id":"JNG"},{"station_id":"KLD","i_long":106.899548,"line":1,"is_transit":false,"i_lat":-6.2135,"distance":3395,"transit":false,"station_name":"Klender","time":3},{"transit":false,"station_id":"BUA","station_name":"Buaran","distance":3100,"i_long":106.922662,"i_lat":-6.215568,"time":2,"line":1,"is_transit":false},{"distance":1305,"time":1,"station_id":"KLDB","transit":false,"is_transit":false,"station_name":"Klenderbaru","i_lat":-6.217455,"i_long":106.939679,"line":1},{"station_name":"Cakung","station_id":"CUK","distance":1385,"transit":false,"is_transit":false,"line":1,"i_long":106.951283,"i_lat":-6.219053,"time":8},{"transit":false,"is_transit":false,"time":3,"distance":3097,"i_lat":-6.224515,"station_id":"KRI","i_long":106.977657,"station_name":"Kranji","line":1},{"i_long":106.997013,"line":1,"distance":2520,"station_id":"BKS","time":4,"transit":false,"station_name":"Bekasi","is_transit":false,"i_lat":-6.236616},{"station_name":"Bekasi Timur","i_long":107.016735,"distance":2368,"transit":false,"is_transit":false,"time":2,"station_id":"BKST","line":1,"i_lat":-6.248029},{"time":7,"station_id":"TB","is_transit":false,"transit":false,"i_long":107.055722,"distance":4460,"line":1,"station_name":"Tambun","i_lat":-6.258864}],[{"transit":false,"station_name":"Pondokranji","is_transit":false,"distance":0,"i_long":106.74273,"i_lat":-6.276362,"line":6,"time":0,"station_id":"PDJ"},{"i_long":106.780334,"transit":false,"station_name":"Kebayoran","line":6,"distance":6218,"i_lat":-6.237242,"is_transit":false,"time":8,"station_id":"KBY"},{"time":7,"station_name":"Palmerah","station_id":"PLM","line":6,"distance":3737,"transit":false,"i_lat":-6.207404,"is_transit":false,"i_long":106.79689},{"transit":true,"station_id":"THB","line":1,"station_name":"Tanah Abang","time":6,"i_long":106.811091,"is_transit":true,"distance":3191,"i_lat":-6.185545},{"station_id":"KAT","i_long":106.816351,"line":1,"transit":false,"station_name":"Karet","distance":2029,"time":5,"is_transit":false,"i_lat":-6.20132},{"transit":false,"is_transit":false,"line":1,"station_id":"SUDB","i_lat":-6.201433,"distance":471,"time":1,"i_long":106.819881,"station_name":"Sudirman Baru"},{"i_long":106.822649,"i_lat":-6.202263,"line":1,"time":1,"station_name":"Sudirman","transit":false,"distance":280,"station_id":"SUD","is_transit":false},{"distance":3186,"time":4,"transit":true,"is_transit":true,"i_long":106.84912,"station_name":"Manggarai","line":2,"station_id":"MRI","i_lat":-6.209883},{"line":2,"station_id":"CKI","i_lat":-6.198556,"is_transit":false,"transit":false,"distance":1590,"time":4,"station_name":"Cikini","i_long":106.840169},{"i_long":106.832183,"time":3,"transit":false,"station_name":"Gondangdia","station_id":"GDD","distance":1750,"i_lat":-6.186295,"is_transit":false,"line":2},{"i_lat":-6.166716,"distance":2015,"line":2,"station_id":"JUA","i_long":106.828284,"transit":false,"time":4,"is_transit":false,"station_name":"Juanda"},{"i_lat":-6.160725,"time":2,"station_id":"SW","i_long":106.827103,"line":2,"is_transit":false,"transit":false,"station_name":"Sawah Besar","distance":1149},{"time":2,"station_name":"Manggabesar","line":2,"distance":906,"is_transit":false,"i_long":106.82482,"transit":false,"i_lat":-6.149769,"station_id":"MGB"},{"i_lat":-6.141205,"time":2,"transit":false,"line":2,"station_name":"Jayakarta","distance":1080,"i_long":106.820901,"is_transit":false,"station_id":"JAY"},{"transit":true,"station_name":"Jakarta Kota","i_lat":-6.137569,"is_transit":true,"i_long":106.812439,"distance":1264,"station_id":"JAKK","time":4,"line":2},{"station_id":"KPB","is_transit":true,"distance":1364,"time":3,"i_long":106.826365,"station_name":"Kampung Bandan","i_lat":-6.132549,"line":4,"transit":true},{"station_name":"Rajawali","i_long":106.836569,"i_lat":-6.14505,"transit":false,"distance":1444,"time":3,"line":11,"is_transit":false,"station_id":"RJW"},{"station_id":"KMO","station_name":"Kemayoran","distance":1901,"i_lat":-6.161728,"line":11,"transit":false,"is_transit":false,"time":5,"i_long":106.839204},{"i_lat":-6.174784,"station_name":"Pasar Senen","distance":1436,"is_transit":false,"i_long":106.84368,"line":11,"time":4,"station_id":"PSE","transit":false},{"station_name":"Gang Sentiong","line":11,"distance":1567,"i_lat":-6.185975,"is_transit":false,"time":8,"station_id":"GST","transit":false,"i_long":106.850107},{"station_name":"Kramat","transit":false,"time":1,"is_transit":false,"station_id":"KMT","i_lat":-6.193792,"line":11,"distance":973,"i_long":106.855437},{"time":2,"distance":1829,"line":11,"is_transit":false,"station_id":"POK","i_lat":-6.209188,"station_name":"Pondok Jati","i_long":106.861737,"transit":false},{"line":1,"transit":true,"distance":1236,"i_lat":-6.215091,"i_long":106.86807400000001,"station_id":"JNG","is_transit":true,"station_name":"Jatinegara","time":9},{"i_long":106.899548,"time":3,"transit":false,"i_lat":-6.2135,"station_name":"Klender","line":1,"is_transit":false,"distance":3395,"station_id":"KLD"},{"is_transit":false,"time":2,"station_id":"BUA","i_lat":-6.215568,"line":1,"distance":3100,"i_long":106.922662,"station_name":"Buaran","transit":false},{"transit":false,"i_long":106.939679,"distance":1305,"i_lat":-6.217455,"line":1,"station_id":"KLDB","station_name":"Klenderbaru","is_transit":false,"time":1},{"time":8,"is_transit":false,"i_long":106.951283,"line":1,"station_name":"Cakung","transit":false,"distance":1385,"station_id":"CUK","i_lat":-6.219053},{"distance":3097,"station_id":"KRI","line":1,"station_name":"Kranji","time":3,"i_long":106.977657,"is_transit":false,"i_lat":-6.224515,"transit":false},{"station_id":"BKS","distance":2520,"i_lat":-6.236616,"station_name":"Bekasi","time":4,"i_long":106.997013,"line":1,"transit":false,"is_transit":false},{"i_lat":-6.248029,"i_long":107.016735,"distance":2368,"time":2,"line":1,"is_transit":false,"station_id":"BKST","transit":false,"station_name":"Bekasi Timur"},{"station_id":"TB","line":1,"distance":4460,"station_name":"Tambun","is_transit":false,"i_lat":-6.258864,"i_long":107.055722,"time":7,"transit":false}]]}