{"data":[[{"is_transit":false,"i_lat":-6.276362,"distance":0,"station_id":"PDJ","i_long":106.74273,"transit":false,"time":0,"station_name":"Pondokranji","line":6},{"station_name":"Kebayoran","is_transit":false,"time":8,"i_lat":-6.237242,"distance":6218,"station_id":"KBY","i_long":106.780334,"line":6,"transit":false},{"is_transit":false,"distance":3737,"transit":false,"i_lat":-6.207404,"line":6,"station_id":"PLM","station_name":"Palmerah","i_long":106.79689,"time":7},{"i_lat":-6.185545,"is_transit":true,"line":1,"time":6,"distance":3191,"transit":true,"station_id":"THB","i_long":106.811091,"station_name":"Tanah Abang"},{"i_lat":-6.155215,"i_long":106.800832,"time":8,"line":1,"station_name":"Duri","distance":3632,"station_id":"DU","transit":false,"is_transit":true}],[{"time":0,"station_name":"Pondokranji","station_id":"PDJ","transit":false,"is_transit":false,"line":6,"i_long":106.74273,"i_lat":-6.276362,"distance":0},{"station_id":"KBY","i_long":106.780334,"distance":6218,"is_transit":false,"i_lat":-6.237242,"station_name":"Kebayoran","transit":false,"time":8,"line":6},{"time":7,"transit":false,"distance":3737,"is_transit":false,"i_long":106.79689,"station_id":"PLM","line":6,"i_lat":-6.207404,"station_name":"Palmerah"},{"station_id":"THB","is_transit":true,"distance":3191,"transit":true,"time":6,"station_name":"Tanah Abang","i_long":106.811091,"i_lat":-6.185545,"line":1},{"station_id":"KAT","is_transit":false,"station_name":"Karet","transit":false,"i_lat":-6.20132,"time":5,"distance":2029,"i_long":106.816351,"line":1},{"i_long":106.819881,"station_name":"Sudirman Baru","distance":471,"time":1,"transit":false,"i_lat":-6.201433,"station_id":"SUDB","line":1,"is_transit":false},{"i_lat":-6.202263,"time":1,"station_id":"SUD","transit":false,"i_long":106.822649,"distance":280,"line":1,"station_name":"Sudirman","is_transit":false},{"time":4,"station_name":"Manggarai","i_long":106.84912,"transit":true,"station_id":"MRI","line":0,"is_transit":true,"i_lat":-6.209883,"distance":3186},{"time":4,"i_lat":-6.198556,"i_long":106.840169,"line":0,"transit":false,"is_transit":false,"distance":1590,"station_name":"Cikini","station_id":"CKI"},{"time":3,"i_long":106.832183,"station_name":"Gondangdia","station_id":"GDD","i_lat":-6.186295,"distance":1750,"transit":false,"line":2,"is_transit":false},{"line":2,"transit":false,"i_long":106.828284,"is_transit":false,"i_lat":-6.166716,"station_name":"Juanda","distance":2015,"time":4,"station_id":"JUA"},{"transit":false,"time":2,"station_id":"SW","station_name":"Sawah Besar","is_transit":false,"distance":1149,"i_long":106.827103,"i_lat":-6.160725,"line":2},{"i_long":106.82482,"distance":906,"station_name":"Manggabesar","station_id":"MGB","i_lat":-6.149769,"line":2,"time":2,"is_transit":false,"transit":false},{"time":2,"station_id":"JAY","line":7,"distance":1080,"i_long":106.820901,"transit":false,"station_name":"Jayakarta","is_transit":false,"i_lat":-6.141205},{"i_long":106.812439,"station_name":"Jakarta Kota","is_transit":true,"time":4,"line":0,"transit":true,"station_id":"JAKK","i_lat":-6.137569,"distance":1264},{"transit":false,"distance":1364,"i_long":106.826365,"line":0,"i_lat":-6.132549,"is_transit":true,"station_id":"KPB","station_name":"Kampung Bandan","time":3},{"time":9,"is_transit":false,"i_lat":-6.144674,"line":0,"station_name":"Angke","transit":false,"station_id":"AK","distance":4102,"i_long":106.79867},{"station_id":"DU","station_name":"Duri","transit":false,"time":4,"i_lat":-6.155215,"i_long":106.800832,"distance":1230,"line":1,"is_transit":true}],[{"station_id":"PDJ","is_transit":false,"line":6,"i_long":106.74273,"i_lat":-6.276362,"time":0,"transit":false,"station_name":"Pondokranji","distance":0},{"is_transit":false,"time":8,"station_id":"KBY","line":6,"distance":6218,"transit":false,"i_long":106.780334,"station_name":"Kebayoran","i_lat":-6.237242},{"transit":false,"time":7,"i_lat":-6.207404,"distance":3737,"i_long":106.79689,"line":6,"station_name":"Palmerah","is_transit":false,"station_id":"PLM"},{"time":6,"is_transit":true,"distance":3191,"station_name":"Tanah Abang","i_lat":-6.185545,"transit":true,"i_long":106.811091,"line":1,"station_id":"THB"},{"distance":2029,"line":1,"transit":false,"station_name":"Karet","station_id":"KAT","is_transit":false,"i_lat":-6.20132,"i_long":106.816351,"time":5},{"time":1,"distance":471,"station_name":"Sudirman Baru","i_long":106.819881,"is_transit":false,"line":1,"i_lat":-6.201433,"station_id":"SUDB","transit":false},{"station_id":"SUD","line":1,"time":1,"transit":false,"is_transit":false,"i_lat":-6.202263,"station_name":"Sudirman","distance":280,"i_long":106.822649},{"transit":false,"time":4,"station_id":"MRI","i_lat":-6.209883,"line":0,"distance":3186,"i_long":106.84912,"station_name":"Manggarai","is_transit":true},{"distance":1275,"station_name":"Matraman","station_id":"MTR","i_long":106.858896,"line":1,"is_transit":false,"time":2,"transit":false,"i_lat":-6.212485},{"station_id":"JNG","is_transit":true,"i_lat":-6.215091,"distance":1377,"time":8,"i_long":106.86807400000001,"station_name":"Jatinegara","transit":true,"line":0},{"i_long":106.861737,"station_name":"Pondok Jati","transit":false,"time":2,"is_transit":false,"station_id":"POK","line":11,"distance":1236,"i_lat":-6.209188},{"i_lat":-6.193792,"i_long":106.855437,"is_transit":false,"station_id":"KMT","distance":1829,"transit":false,"station_name":"Kramat","time":2,"line":11},{"transit":false,"is_transit":false,"time":1,"distance":973,"station_id":"GST","i_lat":-6.185975,"i_long":106.850107,"station_name":"Gang Sentiong","line":11},{"station_name":"Pasar Senen","distance":1567,"i_lat":-6.174784,"is_transit":false,"line":11,"time":8,"transit":false,"i_long":106.84368,"station_id":"PSE"},{"i_lat":-6.161728,"station_id":"KMO","is_transit":false,"station_name":"Kemayoran","transit":false,"time":4,"distance":1436,"line":11,"i_long":106.839204},{"distance":1901,"i_lat":-6.14505,"station_name":"Rajawali","transit":false,"i_long":106.836569,"is_transit":false,"line":11,"station_id":"RJW","time":5},{"i_lat":-6.132549,"station_id":"KPB","is_transit":true,"time":3,"transit":true,"i_long":106.826365,"line":0,"distance":1444,"station_name":"Kampung Bandan"},{"station_name":"Angke","time":9,"transit":false,"is_transit":false,"station_id":"AK","i_lat":-6.144674,"line":0,"distance":4102,"i_long":106.79867},{"station_name":"Duri","i_lat":-6.155215,"line":1,"distance":1230,"is_transit":true,"i_long":106.800832,"station_id":"DU","time":4,"transit":false}]]}