{"data":[[{"station_name":"Pondokranji","is_transit":false,"time":0,"i_long":106.74273,"line":6,"station_id":"PDJ","distance":0,"transit":false,"i_lat":-6.276362},{"transit":false,"i_long":106.780334,"time":8,"line":6,"distance":6218,"station_name":"Kebayoran","station_id":"KBY","is_transit":false,"i_lat":-6.237242},{"i_lat":-6.207404,"station_id":"PLM","time":7,"distance":3737,"transit":false,"line":6,"i_long":106.79689,"is_transit":false,"station_name":"Palmerah"},{"i_long":106.811091,"i_lat":-6.185545,"is_transit":true,"transit":true,"station_name":"Tanah Abang","distance":3191,"time":6,"station_id":"THB","line":1},{"distance":3632,"transit":true,"station_id":"DU","time":8,"station_name":"Duri","i_long":106.800832,"is_transit":true,"i_lat":-6.155215,"line":1},{"i_lat":-6.144674,"time":4,"transit":false,"station_name":"Angke","line":0,"distance":1230,"is_transit":false,"station_id":"AK","i_long":106.79867},{"time":9,"distance":4102,"is_transit":true,"station_id":"KPB","i_lat":-6.132549,"i_long":106.826365,"transit":false,"station_name":"Kampung Bandan","line":0},{"station_name":"Jakarta Kota","line":0,"time":3,"i_lat":-6.137569,"is_transit":true,"station_id":"JAKK","i_long":106.812439,"transit":false,"distance":1364}],[{"distance":0,"i_lat":-6.276362,"station_name":"Pondokranji","time":0,"station_id":"PDJ","line":6,"is_transit":false,"i_long":106.74273,"transit":false},{"station_name":"Kebayoran","time":8,"i_lat":-6.237242,"line":6,"is_transit":false,"transit":false,"distance":6218,"station_id":"KBY","i_long":106.780334},{"distance":3737,"time":7,"is_transit":false,"i_lat":-6.207404,"i_long":106.79689,"station_id":"PLM","station_name":"Palmerah","line":6,"transit":false},{"distance":3191,"time":6,"i_lat":-6.185545,"station_name":"Tanah Abang","is_transit":true,"transit":true,"station_id":"THB","i_long":106.811091,"line":1},{"is_transit":false,"time":5,"distance":2029,"transit":false,"station_id":"KAT","i_lat":-6.20132,"station_name":"Karet","i_long":106.816351,"line":1},{"station_id":"SUDB","time":1,"i_lat":-6.201433,"line":1,"i_long":106.819881,"transit":false,"station_name":"Sudirman Baru","distance":471,"is_transit":false},{"station_name":"Sudirman","transit":false,"station_id":"SUD","time":1,"is_transit":false,"i_lat":-6.202263,"distance":280,"i_long":106.822649,"line":1},{"station_name":"Manggarai","i_lat":-6.209883,"line":0,"time":4,"i_long":106.84912,"distance":3186,"is_transit":true,"station_id":"MRI","transit":true},{"station_id":"CKI","line":0,"i_long":106.840169,"distance":1590,"is_transit":false,"time":4,"transit":false,"i_lat":-6.198556,"station_name":"Cikini"},{"i_long":106.832183,"line":2,"station_name":"Gondangdia","distance":1750,"is_transit":false,"i_lat":-6.186295,"station_id":"GDD","transit":false,"time":3},{"distance":2015,"i_long":106.828284,"transit":false,"station_name":"Juanda","station_id":"JUA","line":2,"time":4,"i_lat":-6.166716,"is_transit":false},{"station_name":"Sawah Besar","time":2,"i_long":106.827103,"line":2,"station_id":"SW","i_lat":-6.160725,"distance":1149,"is_transit":false,"transit":false},{"distance":906,"line":2,"i_long":106.82482,"is_transit":false,"station_id":"MGB","transit":false,"i_lat":-6.149769,"time":2,"station_name":"Manggabesar"},{"line":7,"distance":1080,"is_transit":false,"time":2,"i_lat":-6.141205,"i_long":106.820901,"station_name":"Jayakarta","transit":false,"station_id":"JAY"},{"distance":1264,"transit":false,"time":4,"is_transit":true,"station_id":"JAKK","i_long":106.812439,"line":0,"station_name":"Jakarta Kota","i_lat":-6.137569}],[{"i_long":106.74273,"is_transit":false,"station_name":"Pondokranji","distance":0,"station_id":"PDJ","line":6,"i_lat":-6.276362,"time":0,"transit":false},{"transit":false,"distance":6218,"is_transit":false,"station_id":"KBY","station_name":"Kebayoran","line":6,"i_lat":-6.237242,"i_long":106.780334,"time":8},{"i_lat":-6.207404,"transit":false,"line":6,"station_name":"Palmerah","distance":3737,"i_long":106.79689,"time":7,"station_id":"PLM","is_transit":false},{"time":6,"i_long":106.811091,"distance":3191,"line":1,"station_id":"THB","transit":true,"station_name":"Tanah Abang","is_transit":true,"i_lat":-6.185545},{"transit":false,"line":1,"time":5,"i_long":106.816351,"distance":2029,"station_name":"Karet","i_lat":-6.20132,"is_transit":false,"station_id":"KAT"},{"time":1,"line":1,"transit":false,"distance":471,"station_name":"Sudirman Baru","is_transit":false,"i_lat":-6.201433,"i_long":106.819881,"station_id":"SUDB"},{"station_name":"Sudirman","transit":false,"station_id":"SUD","i_lat":-6.202263,"is_transit":false,"i_long":106.822649,"time":1,"line":1,"distance":280},{"station_id":"MRI","i_lat":-6.209883,"station_name":"Manggarai","is_transit":true,"i_long":106.84912,"transit":false,"line":0,"time":4,"distance":3186},{"i_lat":-6.212485,"time":2,"i_long":106.858896,"transit":false,"line":1,"distance":1275,"station_name":"Matraman","station_id":"MTR","is_transit":false},{"station_name":"Jatinegara","is_transit":true,"transit":true,"station_id":"JNG","time":8,"i_long":106.86807400000001,"i_lat":-6.215091,"line":0,"distance":1377},{"i_long":106.861737,"is_transit":false,"time":2,"i_lat":-6.209188,"station_name":"Pondok Jati","transit":false,"distance":1236,"station_id":"POK","line":11},{"distance":1829,"transit":false,"i_long":106.855437,"is_transit":false,"i_lat":-6.193792,"time":2,"station_name":"Kramat","station_id":"KMT","line":11},{"time":1,"i_long":106.850107,"distance":973,"station_id":"GST","transit":false,"line":11,"station_name":"Gang Sentiong","i_lat":-6.185975,"is_transit":false},{"line":11,"time":8,"station_name":"Pasar Senen","distance":1567,"i_lat":-6.174784,"i_long":106.84368,"transit":false,"is_transit":false,"station_id":"PSE"},{"i_long":106.839204,"line":11,"station_id":"KMO","i_lat":-6.161728,"transit":false,"time":4,"station_name":"Kemayoran","distance":1436,"is_transit":false},{"is_transit":false,"station_name":"Rajawali","line":11,"distance":1901,"time":5,"i_lat":-6.14505,"i_long":106.836569,"station_id":"RJW","transit":false},{"station_name":"Kampung Bandan","time":3,"distance":1444,"station_id":"KPB","i_lat":-6.132549,"is_transit":true,"i_long":106.826365,"line":0,"transit":true},{"transit":false,"is_transit":true,"i_long":106.812439,"i_lat":-6.137569,"station_id":"JAKK","time":3,"line":0,"distance":1364,"station_name":"Jakarta Kota"}],[{"transit":false,"distance":0,"is_transit":false,"time":0,"station_name":"Pondokranji","station_id":"PDJ","i_lat":-6.276362,"i_long":106.74273,"line":6},{"is_transit":false,"station_id":"KBY","i_lat":-6.237242,"station_name":"Kebayoran","distance":6218,"i_long":106.780334,"line":6,"transit":false,"time":8},{"time":7,"i_lat":-6.207404,"transit":false,"i_long":106.79689,"line":6,"is_transit":false,"distance":3737,"station_id":"PLM","station_name":"Palmerah"},{"i_lat":-6.185545,"line":1,"time":6,"station_id":"THB","transit":true,"is_transit":true,"distance":3191,"station_name":"Tanah Abang","i_long":106.811091},{"i_lat":-6.155215,"station_id":"DU","time":8,"distance":3632,"station_name":"Duri","transit":true,"is_transit":true,"i_long":106.800832,"line":1},{"time":4,"is_transit":false,"i_long":106.79867,"i_lat":-6.144674,"station_name":"Angke","transit":false,"distance":1230,"station_id":"AK","line":0},{"is_transit":true,"i_long":106.826365,"distance":4102,"station_id":"KPB","transit":true,"time":9,"i_lat":-6.132549,"line":0,"station_name":"Kampung Bandan"},{"i_long":106.836569,"transit":false,"station_name":"Rajawali","station_id":"RJW","distance":1444,"i_lat":-6.14505,"is_transit":false,"line":11,"time":3},{"transit":false,"time":5,"is_transit":false,"station_id":"KMO","line":11,"distance":1901,"i_lat":-6.161728,"station_name":"Kemayoran","i_long":106.839204},{"line":11,"i_long":106.84368,"station_id":"PSE","distance":1436,"time":4,"transit":false,"is_transit":false,"station_name":"Pasar Senen","i_lat":-6.174784},{"time":8,"transit":false,"distance":1567,"is_transit":false,"i_lat":-6.185975,"i_long":106.850107,"line":11,"station_id":"GST","station_name":"Gang Sentiong"},{"is_transit":false,"i_lat":-6.193792,"transit":false,"time":1,"i_long":106.855437,"distance":973,"station_id":"KMT","station_name":"Kramat","line":11},{"station_id":"POK","station_name":"Pondok Jati","time":2,"i_lat":-6.209188,"transit":false,"distance":1829,"i_long":106.861737,"line":11,"is_transit":false},{"i_lat":-6.215091,"time":9,"station_name":"Jatinegara","i_long":106.86807400000001,"distance":1236,"station_id":"JNG","line":0,"transit":true,"is_transit":true},{"i_long":106.858896,"station_name":"Matraman","i_lat":-6.212485,"is_transit":false,"station_id":"MTR","time":2,"line":1,"transit":false,"distance":1377},{"i_lat":-6.209883,"line":0,"transit":true,"station_name":"Manggarai","is_transit":true,"station_id":"MRI","time":2,"i_long":106.84912,"distance":1275},{"time":4,"i_lat":-6.198556,"line":0,"transit":false,"i_long":106.840169,"station_name":"Cikini","is_transit":false,"station_id":"CKI","distance":1590},{"time":3,"i_lat":-6.186295,"transit":false,"distance":1750,"station_name":"Gondangdia","station_id":"GDD","is_transit":false,"line":2,"i_long":106.832183},{"i_lat":-6.166716,"station_id":"JUA","transit":false,"time":4,"i_long":106.828284,"distance":2015,"line":2,"station_name":"Juanda","is_transit":false},{"transit":false,"i_lat":-6.160725,"is_transit":false,"station_id":"SW","time":2,"line":2,"distance":1149,"station_name":"Sawah Besar","i_long":106.827103},{"i_long":106.82482,"time":2,"station_id":"MGB","transit":false,"station_name":"Manggabesar","i_lat":-6.149769,"distance":906,"is_transit":false,"line":2},{"transit":false,"i_lat":-6.141205,"distance":1080,"station_name":"Jayakarta","line":7,"i_long":106.820901,"station_id":"JAY","is_transit":false,"time":2},{"transit":false,"distance":1264,"is_transit":true,"station_id":"JAKK","time":4,"i_lat":-6.137569,"i_long":106.812439,"line":0,"station_name":"Jakarta Kota"}]]}