{"data":[[{"time":0,"i_lat":-6.276362,"i_long":106.74273,"line":6,"transit":false,"station_name":"Pondokranji","station_id":"PDJ","is_transit":false,"distance":0},{"station_name":"Kebayoran","transit":false,"line":6,"station_id":"KBY","distance":6218,"i_long":106.780334,"is_transit":false,"time":8,"i_lat":-6.237242},{"i_lat":-6.207404,"transit":false,"is_transit":false,"station_name":"Palmerah","i_long":106.79689,"line":6,"station_id":"PLM","time":7,"distance":3737},{"station_id":"THB","time":6,"i_long":106.811091,"distance":3191,"line":1,"i_lat":-6.185545,"station_name":"Tanah Abang","transit":true,"is_transit":true},{"is_transit":false,"station_name":"Karet","station_id":"KAT","transit":false,"distance":2029,"time":5,"line":1,"i_lat":-6.20132,"i_long":106.816351},{"time":1,"is_transit":false,"station_name":"Sudirman Baru","i_long":106.819881,"distance":471,"i_lat":-6.201433,"transit":false,"station_id":"SUDB","line":1},{"is_transit":false,"station_id":"SUD","distance":280,"i_long":106.822649,"line":1,"transit":false,"station_name":"Sudirman","i_lat":-6.202263,"time":1},{"i_lat":-6.209883,"time":4,"is_transit":true,"i_long":106.84912,"station_id":"MRI","distance":3186,"station_name":"Manggarai","line":2,"transit":true},{"station_name":"Cikini","is_transit":false,"transit":false,"distance":1590,"line":2,"station_id":"CKI","i_lat":-6.198556,"time":4,"i_long":106.840169},{"line":2,"station_id":"GDD","distance":1750,"i_long":106.832183,"station_name":"Gondangdia","transit":false,"is_transit":false,"i_lat":-6.186295,"time":3}],[{"distance":0,"i_lat":-6.276362,"time":0,"line":6,"transit":false,"i_long":106.74273,"is_transit":false,"station_name":"Pondokranji","station_id":"PDJ"},{"i_long":106.780334,"is_transit":false,"time":8,"station_name":"Kebayoran","transit":false,"distance":6218,"line":6,"station_id":"KBY","i_lat":-6.237242},{"i_lat":-6.207404,"transit":false,"line":6,"time":7,"distance":3737,"station_name":"Palmerah","i_long":106.79689,"station_id":"PLM","is_transit":false},{"is_transit":true,"station_name":"Tanah Abang","line":1,"transit":true,"time":6,"station_id":"THB","i_lat":-6.185545,"i_long":106.811091,"distance":3191},{"distance":3632,"transit":false,"i_long":106.800832,"time":8,"is_transit":false,"station_id":"DU","station_name":"Duri","i_lat":-6.155215,"line":1},{"line":1,"station_id":"AK","transit":false,"is_transit":false,"time":4,"distance":1230,"i_lat":-6.144674,"station_name":"Angke","i_long":106.79867},{"station_name":"Kampung Bandan","i_lat":-6.132549,"i_long":106.826365,"transit":true,"line":4,"is_transit":true,"station_id":"KPB","time":9,"distance":4102},{"station_name":"Jakarta Kota","i_long":106.812439,"time":3,"distance":1364,"is_transit":true,"transit":true,"station_id":"JAKK","i_lat":-6.137569,"line":2},{"i_lat":-6.141205,"line":2,"station_name":"Jayakarta","is_transit":false,"i_long":106.820901,"station_id":"JAY","time":4,"transit":false,"distance":1264},{"line":2,"time":2,"i_long":106.82482,"is_transit":false,"distance":1080,"i_lat":-6.149769,"station_id":"MGB","station_name":"Manggabesar","transit":false},{"station_id":"SW","is_transit":false,"transit":false,"line":2,"time":2,"distance":906,"i_lat":-6.160725,"station_name":"Sawah Besar","i_long":106.827103},{"is_transit":false,"station_id":"JUA","time":2,"station_name":"Juanda","distance":1149,"i_long":106.828284,"i_lat":-6.166716,"transit":false,"line":2},{"station_name":"Gondangdia","i_lat":-6.186295,"line":2,"transit":false,"is_transit":false,"station_id":"GDD","time":4,"distance":2015,"i_long":106.832183}],[{"i_lat":-6.276362,"transit":false,"station_name":"Pondokranji","i_long":106.74273,"station_id":"PDJ","time":0,"line":6,"is_transit":false,"distance":0},{"time":8,"line":6,"i_lat":-6.237242,"is_transit":false,"transit":false,"station_name":"Kebayoran","i_long":106.780334,"station_id":"KBY","distance":6218},{"distance":3737,"is_transit":false,"station_id":"PLM","i_long":106.79689,"station_name":"Palmerah","i_lat":-6.207404,"line":6,"transit":false,"time":7},{"time":6,"station_name":"Tanah Abang","transit":true,"station_id":"THB","is_transit":true,"i_lat":-6.185545,"distance":3191,"line":1,"i_long":106.811091},{"station_id":"DU","is_transit":false,"distance":3632,"i_long":106.800832,"i_lat":-6.155215,"transit":false,"line":1,"time":8,"station_name":"Duri"},{"i_lat":-6.144674,"time":4,"station_id":"AK","distance":1230,"station_name":"Angke","i_long":106.79867,"line":1,"is_transit":false,"transit":false},{"station_name":"Kampung Bandan","i_long":106.826365,"is_transit":true,"line":4,"time":9,"station_id":"KPB","transit":true,"i_lat":-6.132549,"distance":4102},{"transit":false,"time":3,"station_id":"RJW","is_transit":false,"station_name":"Rajawali","distance":1444,"i_lat":-6.14505,"i_long":106.836569,"line":11},{"i_long":106.839204,"transit":false,"station_id":"KMO","i_lat":-6.161728,"line":11,"station_name":"Kemayoran","time":5,"distance":1901,"is_transit":false},{"distance":1436,"time":4,"i_lat":-6.174784,"is_transit":false,"station_name":"Pasar Senen","transit":false,"station_id":"PSE","i_long":106.84368,"line":11},{"time":8,"is_transit":false,"distance":1567,"transit":false,"station_id":"GST","i_long":106.850107,"i_lat":-6.185975,"station_name":"Gang Sentiong","line":11},{"station_name":"Kramat","station_id":"KMT","line":11,"transit":false,"i_long":106.855437,"is_transit":false,"distance":973,"i_lat":-6.193792,"time":1},{"distance":1829,"is_transit":false,"i_long":106.861737,"line":11,"transit":false,"station_name":"Pondok Jati","station_id":"POK","time":2,"i_lat":-6.209188},{"time":9,"distance":1236,"i_lat":-6.215091,"station_id":"JNG","is_transit":true,"station_name":"Jatinegara","line":1,"i_long":106.86807400000001,"transit":true},{"distance":1377,"transit":false,"station_name":"Matraman","i_long":106.858896,"i_lat":-6.212485,"line":1,"station_id":"MTR","is_transit":false,"time":2},{"time":2,"i_lat":-6.209883,"line":2,"distance":1275,"is_transit":true,"i_long":106.84912,"transit":true,"station_id":"MRI","station_name":"Manggarai"},{"distance":1590,"transit":false,"i_lat":-6.198556,"i_long":106.840169,"is_transit":false,"line":2,"station_id":"CKI","time":4,"station_name":"Cikini"},{"station_id":"GDD","line":2,"is_transit":false,"station_name":"Gondangdia","time":3,"i_lat":-6.186295,"i_long":106.832183,"distance":1750,"transit":false}],[{"station_name":"Pondokranji","i_lat":-6.276362,"transit":false,"station_id":"PDJ","time":0,"line":6,"distance":0,"is_transit":false,"i_long":106.74273},{"transit":false,"i_lat":-6.237242,"distance":6218,"line":6,"station_name":"Kebayoran","is_transit":false,"station_id":"KBY","i_long":106.780334,"time":8},{"is_transit":false,"distance":3737,"station_id":"PLM","time":7,"i_lat":-6.207404,"i_long":106.79689,"transit":false,"line":6,"station_name":"Palmerah"},{"transit":true,"station_id":"THB","time":6,"distance":3191,"station_name":"Tanah Abang","is_transit":true,"i_long":106.811091,"i_lat":-6.185545,"line":1},{"i_lat":-6.20132,"i_long":106.816351,"station_name":"Karet","line":1,"station_id":"KAT","transit":false,"is_transit":false,"time":5,"distance":2029},{"station_id":"SUDB","line":1,"time":1,"is_transit":false,"distance":471,"i_long":106.819881,"transit":false,"i_lat":-6.201433,"station_name":"Sudirman Baru"},{"line":1,"transit":false,"station_name":"Sudirman","i_long":106.822649,"is_transit":false,"time":1,"i_lat":-6.202263,"distance":280,"station_id":"SUD"},{"transit":false,"station_id":"MRI","station_name":"Manggarai","distance":3186,"i_lat":-6.209883,"i_long":106.84912,"time":4,"line":2,"is_transit":false},{"distance":1275,"station_id":"MTR","transit":false,"station_name":"Matraman","i_lat":-6.212485,"i_long":106.858896,"line":1,"is_transit":false,"time":2},{"station_name":"Jatinegara","transit":true,"line":1,"i_lat":-6.215091,"i_long":106.86807400000001,"station_id":"JNG","distance":1377,"time":8,"is_transit":true},{"is_transit":false,"distance":1236,"transit":false,"line":11,"i_lat":-6.209188,"station_id":"POK","time":2,"station_name":"Pondok Jati","i_long":106.861737},{"is_transit":false,"time":2,"line":11,"station_name":"Kramat","i_long":106.855437,"station_id":"KMT","i_lat":-6.193792,"transit":false,"distance":1829},{"is_transit":false,"transit":false,"line":11,"i_long":106.850107,"time":1,"distance":973,"station_id":"GST","i_lat":-6.185975,"station_name":"Gang Sentiong"},{"line":11,"time":8,"i_long":106.84368,"transit":false,"station_name":"Pasar Senen","i_lat":-6.174784,"station_id":"PSE","is_transit":false,"distance":1567},{"time":4,"transit":false,"station_name":"Kemayoran","distance":1436,"i_long":106.839204,"line":11,"i_lat":-6.161728,"is_transit":false,"station_id":"KMO"},{"i_long":106.836569,"station_id":"RJW","transit":false,"i_lat":-6.14505,"time":5,"distance":1901,"is_transit":false,"line":11,"station_name":"Rajawali"},{"i_long":106.826365,"transit":true,"i_lat":-6.132549,"time":3,"distance":1444,"line":4,"station_id":"KPB","station_name":"Kampung Bandan","is_transit":true},{"line":2,"station_name":"Jakarta Kota","distance":1364,"transit":true,"station_id":"JAKK","is_transit":true,"time":3,"i_lat":-6.137569,"i_long":106.812439},{"i_long":106.820901,"time":4,"is_transit":false,"station_name":"Jayakarta","distance":1264,"line":2,"transit":false,"station_id":"JAY","i_lat":-6.141205},{"transit":false,"line":2,"station_id":"MGB","i_lat":-6.149769,"i_long":106.82482,"time":2,"distance":1080,"is_transit":false,"station_name":"Manggabesar"},{"is_transit":false,"distance":906,"i_long":106.827103,"station_name":"Sawah Besar","line":2,"time":2,"i_lat":-6.160725,"transit":false,"station_id":"SW"},{"is_transit":false,"i_lat":-6.166716,"transit":false,"distance":1149,"i_long":106.828284,"line":2,"time":2,"station_name":"Juanda","station_id":"JUA"},{"time":4,"distance":2015,"line":2,"i_lat":-6.186295,"transit":false,"is_transit":false,"station_name":"Gondangdia","station_id":"GDD","i_long":106.832183}]]}