{"data":[[{"station_id":"PDJ","transit":false,"i_lat":-6.276362,"is_transit":false,"distance":0,"station_name":"Pondokranji","line":6,"time":0,"i_long":106.74273},{"transit":false,"is_transit":false,"line":6,"time":8,"station_id":"KBY","station_name":"Kebayoran","distance":6218,"i_lat":-6.237242,"i_long":106.780334},{"time":7,"i_lat":-6.207404,"is_transit":false,"station_id":"PLM","transit":false,"station_name":"Palmerah","line":6,"distance":3737,"i_long":106.79689},{"transit":true,"i_lat":-6.185545,"line":1,"distance":3191,"time":6,"is_transit":true,"i_long":106.811091,"station_id":"THB","station_name":"Tanah Abang"},{"i_lat":-6.20132,"distance":2029,"station_id":"KAT","is_transit":false,"station_name":"Karet","line":1,"time":5,"transit":false,"i_long":106.816351},{"line":1,"transit":false,"station_id":"SUDB","is_transit":false,"station_name":"Sudirman Baru","distance":471,"i_lat":-6.201433,"time":1,"i_long":106.819881},{"transit":false,"line":1,"station_id":"SUD","i_lat":-6.202263,"is_transit":false,"time":1,"station_name":"Sudirman","distance":280,"i_long":106.822649},{"is_transit":false,"i_lat":-6.209883,"line":2,"transit":false,"time":4,"station_name":"Manggarai","station_id":"MRI","i_long":106.84912,"distance":3186},{"i_long":106.858896,"station_id":"MTR","station_name":"Matraman","time":2,"is_transit":false,"i_lat":-6.212485,"distance":1275,"transit":false,"line":1},{"station_id":"JNG","station_name":"Jatinegara","line":1,"i_long":106.86807400000001,"is_transit":false,"distance":1377,"transit":false,"i_lat":-6.215091,"time":8},{"line":1,"transit":false,"distance":3395,"time":3,"station_id":"KLD","is_transit":false,"station_name":"Klender","i_lat":-6.2135,"i_long":106.899548},{"station_name":"Buaran","i_long":106.922662,"is_transit":false,"transit":false,"station_id":"BUA","distance":3100,"i_lat":-6.215568,"line":1,"time":2},{"station_name":"Klenderbaru","i_lat":-6.217455,"i_long":106.939679,"is_transit":false,"transit":false,"distance":1305,"station_id":"KLDB","time":1,"line":1},{"is_transit":false,"i_long":106.951283,"line":1,"distance":1385,"i_lat":-6.219053,"station_name":"Cakung","time":8,"transit":false,"station_id":"CUK"},{"line":1,"is_transit":false,"station_name":"Kranji","station_id":"KRI","time":3,"distance":3097,"i_lat":-6.224515,"i_long":106.977657,"transit":false}],[{"i_long":106.74273,"time":0,"line":6,"distance":0,"i_lat":-6.276362,"station_name":"Pondokranji","transit":false,"station_id":"PDJ","is_transit":false},{"time":8,"i_lat":-6.237242,"line":6,"station_id":"KBY","distance":6218,"i_long":106.780334,"is_transit":false,"transit":false,"station_name":"Kebayoran"},{"distance":3737,"station_id":"PLM","is_transit":false,"transit":false,"i_long":106.79689,"station_name":"Palmerah","line":6,"time":7,"i_lat":-6.207404},{"station_id":"THB","station_name":"Tanah Abang","distance":3191,"i_long":106.811091,"line":1,"is_transit":true,"time":6,"i_lat":-6.185545,"transit":true},{"time":8,"i_lat":-6.155215,"line":1,"transit":false,"station_id":"DU","station_name":"Duri","i_long":106.800832,"is_transit":false,"distance":3632},{"transit":false,"line":1,"i_long":106.79867,"station_name":"Angke","station_id":"AK","is_transit":false,"time":4,"i_lat":-6.144674,"distance":1230},{"station_name":"Kampung Bandan","distance":4102,"station_id":"KPB","time":9,"transit":true,"line":4,"is_transit":true,"i_long":106.826365,"i_lat":-6.132549},{"is_transit":false,"time":3,"station_id":"RJW","transit":false,"i_lat":-6.14505,"station_name":"Rajawali","i_long":106.836569,"distance":1444,"line":11},{"station_id":"KMO","transit":false,"time":5,"distance":1901,"line":11,"is_transit":false,"i_lat":-6.161728,"i_long":106.839204,"station_name":"Kemayoran"},{"i_lat":-6.174784,"station_name":"Pasar Senen","is_transit":false,"time":4,"distance":1436,"station_id":"PSE","transit":false,"i_long":106.84368,"line":11},{"station_name":"Gang Sentiong","distance":1567,"i_long":106.850107,"is_transit":false,"line":11,"time":8,"i_lat":-6.185975,"station_id":"GST","transit":false},{"station_id":"KMT","i_long":106.855437,"i_lat":-6.193792,"distance":973,"time":1,"station_name":"Kramat","line":11,"transit":false,"is_transit":false},{"line":11,"transit":false,"i_lat":-6.209188,"i_long":106.861737,"time":2,"station_name":"Pondok Jati","station_id":"POK","is_transit":false,"distance":1829},{"i_long":106.86807400000001,"i_lat":-6.215091,"line":1,"transit":true,"station_name":"Jatinegara","time":9,"station_id":"JNG","is_transit":true,"distance":1236},{"i_lat":-6.2135,"line":1,"station_name":"Klender","i_long":106.899548,"distance":3395,"station_id":"KLD","time":3,"transit":false,"is_transit":false},{"time":2,"transit":false,"i_long":106.922662,"line":1,"station_name":"Buaran","distance":3100,"is_transit":false,"i_lat":-6.215568,"station_id":"BUA"},{"distance":1305,"i_lat":-6.217455,"transit":false,"is_transit":false,"station_name":"Klenderbaru","i_long":106.939679,"station_id":"KLDB","line":1,"time":1},{"station_name":"Cakung","line":1,"i_lat":-6.219053,"i_long":106.951283,"transit":false,"time":8,"distance":1385,"is_transit":false,"station_id":"CUK"},{"is_transit":false,"distance":3097,"time":3,"station_id":"KRI","station_name":"Kranji","i_long":106.977657,"line":1,"transit":false,"i_lat":-6.224515}],[{"i_lat":-6.276362,"station_name":"Pondokranji","distance":0,"i_long":106.74273,"line":6,"time":0,"transit":false,"is_transit":false,"station_id":"PDJ"},{"is_transit":false,"transit":false,"station_name":"Kebayoran","i_long":106.780334,"line":6,"i_lat":-6.237242,"time":8,"station_id":"KBY","distance":6218},{"i_long":106.79689,"station_id":"PLM","time":7,"distance":3737,"line":6,"transit":false,"i_lat":-6.207404,"is_transit":false,"station_name":"Palmerah"},{"is_transit":true,"time":6,"i_long":106.811091,"station_name":"Tanah Abang","station_id":"THB","transit":true,"i_lat":-6.185545,"distance":3191,"line":1},{"station_name":"Duri","i_long":106.800832,"line":1,"transit":false,"time":8,"distance":3632,"i_lat":-6.155215,"station_id":"DU","is_transit":false},{"distance":1230,"station_id":"AK","time":4,"is_transit":false,"transit":false,"i_long":106.79867,"station_name":"Angke","i_lat":-6.144674,"line":1},{"station_id":"KPB","station_name":"Kampung Bandan","is_transit":true,"distance":4102,"time":9,"transit":true,"i_lat":-6.132549,"i_long":106.826365,"line":4},{"time":3,"station_name":"Jakarta Kota","distance":1364,"station_id":"JAKK","is_transit":true,"transit":true,"i_lat":-6.137569,"i_long":106.812439,"line":2},{"station_name":"Jayakarta","distance":1264,"line":2,"is_transit":false,"time":4,"station_id":"JAY","transit":false,"i_long":106.820901,"i_lat":-6.141205},{"i_lat":-6.149769,"i_long":106.82482,"is_transit":false,"line":2,"transit":false,"station_name":"Manggabesar","time":2,"station_id":"MGB","distance":1080},{"distance":906,"station_id":"SW","station_name":"Sawah Besar","transit":false,"is_transit":false,"i_lat":-6.160725,"time":2,"i_long":106.827103,"line":2},{"i_lat":-6.166716,"i_long":106.828284,"station_name":"Juanda","time":2,"station_id":"JUA","is_transit":false,"distance":1149,"transit":false,"line":2},{"distance":2015,"time":4,"line":2,"is_transit":false,"station_name":"Gondangdia","station_id":"GDD","transit":false,"i_long":106.832183,"i_lat":-6.186295},{"station_id":"CKI","is_transit":false,"distance":1750,"i_lat":-6.198556,"transit":false,"i_long":106.840169,"time":3,"line":2,"station_name":"Cikini"},{"station_id":"MRI","time":4,"i_long":106.84912,"i_lat":-6.209883,"line":2,"transit":true,"station_name":"Manggarai","is_transit":true,"distance":1590},{"station_id":"MTR","transit":false,"is_transit":false,"time":2,"station_name":"Matraman","line":1,"distance":1275,"i_lat":-6.212485,"i_long":106.858896},{"i_lat":-6.215091,"i_long":106.86807400000001,"is_transit":false,"station_name":"Jatinegara","station_id":"JNG","line":1,"distance":1377,"time":8,"transit":false},{"station_id":"KLD","is_transit":false,"transit":false,"time":3,"line":1,"station_name":"Klender","i_long":106.899548,"i_lat":-6.2135,"distance":3395},{"time":2,"transit":false,"i_lat":-6.215568,"is_transit":false,"i_long":106.922662,"distance":3100,"station_name":"Buaran","line":1,"station_id":"BUA"},{"line":1,"station_name":"Klenderbaru","transit":false,"is_transit":false,"station_id":"KLDB","i_long":106.939679,"time":1,"distance":1305,"i_lat":-6.217455},{"distance":1385,"station_name":"Cakung","time":8,"i_long":106.951283,"station_id":"CUK","i_lat":-6.219053,"line":1,"is_transit":false,"transit":false},{"is_transit":false,"time":3,"transit":false,"i_lat":-6.224515,"station_name":"Kranji","distance":3097,"line":1,"i_long":106.977657,"station_id":"KRI"}],[{"transit":false,"distance":0,"i_long":106.74273,"line":6,"station_id":"PDJ","is_transit":false,"station_name":"Pondokranji","i_lat":-6.276362,"time":0},{"is_transit":false,"distance":6218,"station_name":"Kebayoran","transit":false,"i_lat":-6.237242,"i_long":106.780334,"time":8,"line":6,"station_id":"KBY"},{"is_transit":false,"time":7,"station_id":"PLM","transit":false,"line":6,"i_lat":-6.207404,"station_name":"Palmerah","i_long":106.79689,"distance":3737},{"station_id":"THB","is_transit":true,"transit":true,"distance":3191,"i_lat":-6.185545,"time":6,"i_long":106.811091,"line":1,"station_name":"Tanah Abang"},{"is_transit":false,"station_id":"KAT","i_lat":-6.20132,"time":5,"station_name":"Karet","line":1,"transit":false,"i_long":106.816351,"distance":2029},{"i_long":106.819881,"line":1,"is_transit":false,"time":1,"distance":471,"station_name":"Sudirman Baru","transit":false,"station_id":"SUDB","i_lat":-6.201433},{"station_name":"Sudirman","is_transit":false,"distance":280,"i_lat":-6.202263,"line":1,"station_id":"SUD","transit":false,"i_long":106.822649,"time":1},{"station_id":"MRI","is_transit":true,"time":4,"station_name":"Manggarai","transit":true,"line":2,"i_long":106.84912,"distance":3186,"i_lat":-6.209883},{"distance":1590,"line":2,"station_id":"CKI","station_name":"Cikini","i_lat":-6.198556,"is_transit":false,"i_long":106.840169,"time":4,"transit":false},{"time":3,"is_transit":false,"station_id":"GDD","transit":false,"station_name":"Gondangdia","line":2,"distance":1750,"i_long":106.832183,"i_lat":-6.186295},{"i_lat":-6.166716,"is_transit":false,"time":4,"i_long":106.828284,"station_id":"JUA","station_name":"Juanda","transit":false,"distance":2015,"line":2},{"station_id":"SW","i_lat":-6.160725,"distance":1149,"i_long":106.827103,"line":2,"time":2,"is_transit":false,"station_name":"Sawah Besar","transit":false},{"i_lat":-6.149769,"is_transit":false,"time":2,"station_name":"Manggabesar","transit":false,"line":2,"i_long":106.82482,"station_id":"MGB","distance":906},{"i_long":106.820901,"line":2,"time":2,"distance":1080,"is_transit":false,"transit":false,"station_name":"Jayakarta","i_lat":-6.141205,"station_id":"JAY"},{"station_id":"JAKK","transit":true,"line":2,"time":4,"i_lat":-6.137569,"is_transit":true,"station_name":"Jakarta Kota","distance":1264,"i_long":106.812439},{"distance":1364,"i_lat":-6.132549,"time":3,"i_long":106.826365,"is_transit":true,"station_id":"KPB","transit":true,"station_name":"Kampung Bandan","line":4},{"transit":false,"time":3,"station_id":"RJW","line":11,"station_name":"Rajawali","is_transit":false,"distance":1444,"i_lat":-6.14505,"i_long":106.836569},{"station_name":"Kemayoran","i_lat":-6.161728,"line":11,"transit":false,"time":5,"station_id":"KMO","i_long":106.839204,"is_transit":false,"distance":1901},{"line":11,"station_id":"PSE","i_long":106.84368,"is_transit":false,"i_lat":-6.174784,"transit":false,"distance":1436,"time":4,"station_name":"Pasar Senen"},{"station_name":"Gang Sentiong","i_long":106.850107,"is_transit":false,"station_id":"GST","time":8,"distance":1567,"transit":false,"i_lat":-6.185975,"line":11},{"station_id":"KMT","i_long":106.855437,"station_name":"Kramat","transit":false,"is_transit":false,"i_lat":-6.193792,"line":11,"time":1,"distance":973},{"time":2,"is_transit":false,"distance":1829,"i_lat":-6.209188,"station_id":"POK","station_name":"Pondok Jati","i_long":106.861737,"line":11,"transit":false},{"i_long":106.86807400000001,"station_id":"JNG","is_transit":true,"station_name":"Jatinegara","i_lat":-6.215091,"line":1,"distance":1236,"transit":true,"time":9},{"distance":3395,"i_long":106.899548,"transit":false,"i_lat":-6.2135,"is_transit":false,"station_name":"Klender","time":3,"line":1,"station_id":"KLD"},{"transit":false,"i_lat":-6.215568,"line":1,"station_name":"Buaran","station_id":"BUA","is_transit":false,"time":2,"distance":3100,"i_long":106.922662},{"is_transit":false,"station_name":"Klenderbaru","station_id":"KLDB","transit":false,"distance":1305,"i_lat":-6.217455,"i_long":106.939679,"line":1,"time":1},{"station_id":"CUK","station_name":"Cakung","i_long":106.951283,"line":1,"distance":1385,"is_transit":false,"i_lat":-6.219053,"time":8,"transit":false},{"i_lat":-6.224515,"station_name":"Kranji","i_long":106.977657,"time":3,"station_id":"KRI","transit":false,"line":1,"is_transit":false,"distance":3097}]]}