{"data":[[{"station_name":"Pondokranji","line":6,"i_lat":-6.276362,"transit":false,"station_id":"PDJ","time":0,"i_long":106.74273,"distance":0,"is_transit":false},{"i_lat":-6.237242,"i_long":106.780334,"is_transit":false,"time":8,"station_id":"KBY","station_name":"Kebayoran","transit":false,"line":6,"distance":6218},{"distance":3737,"i_lat":-6.207404,"i_long":106.79689,"transit":false,"line":6,"is_transit":false,"station_name":"Palmerah","station_id":"PLM","time":7},{"i_lat":-6.185545,"is_transit":true,"transit":true,"station_id":"THB","i_long":106.811091,"line":1,"station_name":"Tanah Abang","distance":3191,"time":6},{"transit":false,"is_transit":false,"distance":2029,"station_name":"Karet","time":5,"line":1,"i_lat":-6.20132,"station_id":"KAT","i_long":106.816351},{"i_long":106.819881,"is_transit":false,"time":1,"station_id":"SUDB","distance":471,"line":1,"station_name":"Sudirman Baru","i_lat":-6.201433,"transit":false},{"station_name":"Sudirman","i_lat":-6.202263,"i_long":106.822649,"transit":false,"is_transit":false,"time":1,"station_id":"SUD","line":1,"distance":280},{"line":2,"is_transit":true,"time":4,"distance":3186,"i_lat":-6.209883,"station_name":"Manggarai","i_long":106.84912,"transit":true,"station_id":"MRI"},{"i_long":106.840169,"line":2,"is_transit":false,"time":4,"i_lat":-6.198556,"station_id":"CKI","transit":false,"distance":1590,"station_name":"Cikini"},{"time":3,"line":2,"distance":1750,"station_name":"Gondangdia","is_transit":false,"i_long":106.832183,"i_lat":-6.186295,"station_id":"GDD","transit":false}],[{"distance":0,"station_name":"Pondokranji","is_transit":false,"line":6,"time":0,"transit":false,"station_id":"PDJ","i_long":106.74273,"i_lat":-6.276362},{"line":6,"transit":false,"station_id":"KBY","is_transit":false,"time":8,"distance":6218,"station_name":"Kebayoran","i_long":106.780334,"i_lat":-6.237242},{"station_id":"PLM","i_lat":-6.207404,"line":6,"distance":3737,"i_long":106.79689,"is_transit":false,"station_name":"Palmerah","transit":false,"time":7},{"line":1,"time":6,"station_id":"THB","transit":true,"station_name":"Tanah Abang","i_lat":-6.185545,"is_transit":true,"distance":3191,"i_long":106.811091},{"station_id":"DU","station_name":"Duri","is_transit":false,"i_lat":-6.155215,"time":8,"distance":3632,"i_long":106.800832,"transit":false,"line":1},{"i_lat":-6.144674,"station_name":"Angke","is_transit":false,"station_id":"AK","time":4,"i_long":106.79867,"line":1,"transit":false,"distance":1230},{"line":4,"is_transit":true,"time":9,"station_id":"KPB","i_long":106.826365,"i_lat":-6.132549,"station_name":"Kampung Bandan","distance":4102,"transit":true},{"transit":true,"station_id":"JAKK","is_transit":true,"i_long":106.812439,"i_lat":-6.137569,"distance":1364,"time":3,"station_name":"Jakarta Kota","line":2},{"line":2,"station_name":"Jayakarta","station_id":"JAY","is_transit":false,"transit":false,"i_long":106.820901,"time":4,"i_lat":-6.141205,"distance":1264},{"line":2,"is_transit":false,"station_id":"MGB","station_name":"Manggabesar","time":2,"distance":1080,"transit":false,"i_long":106.82482,"i_lat":-6.149769},{"time":2,"station_name":"Sawah Besar","i_lat":-6.160725,"distance":906,"line":2,"station_id":"SW","transit":false,"i_long":106.827103,"is_transit":false},{"time":2,"station_name":"Juanda","is_transit":false,"station_id":"JUA","distance":1149,"i_lat":-6.166716,"i_long":106.828284,"line":2,"transit":false},{"transit":false,"line":2,"station_name":"Gondangdia","time":4,"distance":2015,"i_lat":-6.186295,"is_transit":false,"station_id":"GDD","i_long":106.832183}],[{"i_lat":-6.276362,"station_name":"Pondokranji","i_long":106.74273,"time":0,"is_transit":false,"distance":0,"line":6,"station_id":"PDJ","transit":false},{"time":8,"distance":6218,"transit":false,"station_id":"KBY","line":6,"is_transit":false,"station_name":"Kebayoran","i_long":106.780334,"i_lat":-6.237242},{"station_id":"PLM","station_name":"Palmerah","transit":false,"time":7,"i_lat":-6.207404,"i_long":106.79689,"is_transit":false,"distance":3737,"line":6},{"i_long":106.811091,"station_name":"Tanah Abang","time":6,"station_id":"THB","transit":true,"i_lat":-6.185545,"distance":3191,"line":1,"is_transit":true},{"station_name":"Duri","line":1,"transit":false,"station_id":"DU","is_transit":false,"time":8,"i_lat":-6.155215,"distance":3632,"i_long":106.800832},{"i_lat":-6.144674,"i_long":106.79867,"line":1,"station_id":"AK","is_transit":false,"transit":false,"distance":1230,"station_name":"Angke","time":4},{"is_transit":true,"time":9,"i_long":106.826365,"station_name":"Kampung Bandan","station_id":"KPB","distance":4102,"transit":true,"i_lat":-6.132549,"line":4},{"i_long":106.836569,"i_lat":-6.14505,"transit":false,"station_name":"Rajawali","line":11,"time":3,"station_id":"RJW","distance":1444,"is_transit":false},{"transit":false,"is_transit":false,"time":5,"i_lat":-6.161728,"station_id":"KMO","i_long":106.839204,"station_name":"Kemayoran","distance":1901,"line":11},{"station_id":"PSE","is_transit":false,"time":4,"distance":1436,"line":11,"transit":false,"i_lat":-6.174784,"station_name":"Pasar Senen","i_long":106.84368},{"time":8,"i_long":106.850107,"transit":false,"station_name":"Gang Sentiong","i_lat":-6.185975,"line":11,"station_id":"GST","is_transit":false,"distance":1567},{"i_long":106.855437,"station_id":"KMT","time":1,"i_lat":-6.193792,"line":11,"station_name":"Kramat","is_transit":false,"distance":973,"transit":false},{"transit":false,"station_name":"Pondok Jati","station_id":"POK","i_lat":-6.209188,"is_transit":false,"i_long":106.861737,"line":11,"time":2,"distance":1829},{"i_long":106.86807400000001,"line":1,"i_lat":-6.215091,"distance":1236,"is_transit":true,"station_id":"JNG","station_name":"Jatinegara","time":9,"transit":true},{"station_name":"Matraman","station_id":"MTR","is_transit":false,"distance":1377,"i_lat":-6.212485,"i_long":106.858896,"line":1,"transit":false,"time":2},{"i_lat":-6.209883,"i_long":106.84912,"transit":true,"station_id":"MRI","is_transit":true,"time":2,"station_name":"Manggarai","line":2,"distance":1275},{"station_name":"Cikini","time":4,"i_long":106.840169,"line":2,"is_transit":false,"station_id":"CKI","distance":1590,"i_lat":-6.198556,"transit":false},{"i_lat":-6.186295,"is_transit":false,"time":3,"distance":1750,"line":2,"station_id":"GDD","transit":false,"station_name":"Gondangdia","i_long":106.832183}],[{"i_long":106.74273,"line":6,"transit":false,"station_name":"Pondokranji","is_transit":false,"distance":0,"station_id":"PDJ","time":0,"i_lat":-6.276362},{"line":6,"station_name":"Kebayoran","i_long":106.780334,"time":8,"i_lat":-6.237242,"distance":6218,"station_id":"KBY","transit":false,"is_transit":false},{"line":6,"i_lat":-6.207404,"station_name":"Palmerah","station_id":"PLM","time":7,"is_transit":false,"transit":false,"distance":3737,"i_long":106.79689},{"i_lat":-6.185545,"time":6,"distance":3191,"station_name":"Tanah Abang","line":1,"station_id":"THB","i_long":106.811091,"transit":true,"is_transit":true},{"i_long":106.816351,"station_name":"Karet","is_transit":false,"transit":false,"station_id":"KAT","distance":2029,"i_lat":-6.20132,"time":5,"line":1},{"time":1,"i_long":106.819881,"station_id":"SUDB","transit":false,"distance":471,"i_lat":-6.201433,"station_name":"Sudirman Baru","is_transit":false,"line":1},{"line":1,"station_name":"Sudirman","transit":false,"distance":280,"is_transit":false,"i_lat":-6.202263,"station_id":"SUD","time":1,"i_long":106.822649},{"i_lat":-6.209883,"line":2,"is_transit":false,"time":4,"transit":false,"distance":3186,"station_id":"MRI","i_long":106.84912,"station_name":"Manggarai"},{"is_transit":false,"transit":false,"station_id":"MTR","distance":1275,"i_lat":-6.212485,"time":2,"i_long":106.858896,"station_name":"Matraman","line":1},{"station_name":"Jatinegara","i_long":106.86807400000001,"line":1,"time":8,"transit":true,"is_transit":true,"distance":1377,"station_id":"JNG","i_lat":-6.215091},{"i_lat":-6.209188,"station_id":"POK","i_long":106.861737,"station_name":"Pondok Jati","transit":false,"time":2,"line":11,"is_transit":false,"distance":1236},{"transit":false,"i_long":106.855437,"line":11,"time":2,"distance":1829,"is_transit":false,"i_lat":-6.193792,"station_id":"KMT","station_name":"Kramat"},{"line":11,"distance":973,"station_id":"GST","is_transit":false,"transit":false,"time":1,"i_lat":-6.185975,"i_long":106.850107,"station_name":"Gang Sentiong"},{"i_long":106.84368,"is_transit":false,"transit":false,"station_id":"PSE","distance":1567,"line":11,"time":8,"station_name":"Pasar Senen","i_lat":-6.174784},{"i_long":106.839204,"is_transit":false,"distance":1436,"line":11,"station_id":"KMO","transit":false,"time":4,"station_name":"Kemayoran","i_lat":-6.161728},{"i_lat":-6.14505,"distance":1901,"station_id":"RJW","time":5,"i_long":106.836569,"line":11,"station_name":"Rajawali","transit":false,"is_transit":false},{"i_long":106.826365,"station_name":"Kampung Bandan","line":4,"i_lat":-6.132549,"station_id":"KPB","is_transit":true,"time":3,"distance":1444,"transit":true},{"is_transit":true,"time":3,"i_long":106.812439,"station_id":"JAKK","line":2,"distance":1364,"i_lat":-6.137569,"station_name":"Jakarta Kota","transit":true},{"is_transit":false,"distance":1264,"i_long":106.820901,"transit":false,"station_name":"Jayakarta","line":2,"station_id":"JAY","i_lat":-6.141205,"time":4},{"i_long":106.82482,"transit":false,"distance":1080,"time":2,"station_name":"Manggabesar","is_transit":false,"i_lat":-6.149769,"line":2,"station_id":"MGB"},{"is_transit":false,"time":2,"distance":906,"line":2,"station_name":"Sawah Besar","i_long":106.827103,"i_lat":-6.160725,"station_id":"SW","transit":false},{"distance":1149,"station_id":"JUA","time":2,"i_long":106.828284,"is_transit":false,"line":2,"transit":false,"station_name":"Juanda","i_lat":-6.166716},{"distance":2015,"station_id":"GDD","i_lat":-6.186295,"station_name":"Gondangdia","i_long":106.832183,"time":4,"is_transit":false,"line":2,"transit":false}]]}