{"data":[[{"distance":0,"transit":false,"i_lat":-6.276362,"i_long":106.74273,"is_transit":false,"line":6,"station_id":"PDJ","time":0,"station_name":"Pondokranji"},{"station_name":"Kebayoran","line":6,"i_lat":-6.237242,"distance":6218,"is_transit":false,"transit":false,"station_id":"KBY","i_long":106.780334,"time":8},{"line":6,"time":7,"distance":3737,"station_id":"PLM","station_name":"Palmerah","i_lat":-6.207404,"i_long":106.79689,"is_transit":false,"transit":false},{"transit":true,"is_transit":true,"i_lat":-6.185545,"station_id":"THB","distance":3191,"time":6,"i_long":106.811091,"station_name":"Tanah Abang","line":1},{"i_long":106.800832,"transit":true,"station_id":"DU","is_transit":true,"i_lat":-6.155215,"line":1,"time":8,"distance":3632,"station_name":"Duri"},{"station_name":"Grogol","is_transit":false,"transit":false,"time":3,"i_long":106.788277,"i_lat":-6.162021,"distance":1700,"line":5,"station_id":"GGL"},{"line":5,"i_lat":-6.161433,"is_transit":false,"station_id":"PSG","distance":2036,"transit":false,"station_name":"Pesing","i_long":106.771379,"time":2},{"station_name":"Taman Kota","distance":1614,"line":5,"transit":false,"is_transit":false,"i_long":106.756522,"station_id":"TKO","i_lat":-6.1587309999999995,"time":2},{"station_name":"Bojongindah","transit":false,"i_lat":-6.159876,"time":2,"i_long":106.737035,"station_id":"BOI","distance":2334,"line":5,"is_transit":false},{"time":4,"distance":1152,"line":5,"is_transit":false,"station_id":"RW","i_long":106.723064,"i_lat":-6.162758,"transit":false,"station_name":"Rawa Buaya"},{"station_name":"Kalideres","transit":false,"i_lat":-6.166068,"is_transit":false,"distance":2504,"line":5,"time":3,"station_id":"KDS","i_long":106.701612},{"is_transit":false,"i_long":106.679458,"line":5,"station_id":"PI","distance":2548,"time":3,"i_lat":-6.169933,"station_name":"Poris","transit":false},{"station_id":"BPR","time":3,"distance":1834,"i_long":106.665036,"line":5,"i_lat":-6.171811,"is_transit":false,"station_name":"Batuceper","transit":false},{"is_transit":false,"station_id":"TTI","distance":2028,"i_long":106.64657,"i_lat":-6.17331,"station_name":"Tanah Tinggi","time":3,"transit":false,"line":5},{"station_id":"TNG","station_name":"Tangerang","i_long":106.632761,"distance":1547,"transit":false,"line":5,"i_lat":-6.176583,"is_transit":false,"time":3}],[{"station_name":"Pondokranji","line":6,"i_lat":-6.276362,"distance":0,"is_transit":false,"station_id":"PDJ","time":0,"transit":false,"i_long":106.74273},{"distance":6218,"line":6,"i_long":106.780334,"is_transit":false,"station_id":"KBY","transit":false,"i_lat":-6.237242,"station_name":"Kebayoran","time":8},{"i_lat":-6.207404,"line":6,"time":7,"transit":false,"station_id":"PLM","i_long":106.79689,"station_name":"Palmerah","is_transit":false,"distance":3737},{"i_lat":-6.185545,"time":6,"distance":3191,"i_long":106.811091,"line":1,"station_name":"Tanah Abang","station_id":"THB","transit":true,"is_transit":true},{"i_lat":-6.20132,"station_name":"Karet","transit":false,"distance":2029,"line":1,"i_long":106.816351,"station_id":"KAT","is_transit":false,"time":5},{"transit":false,"line":1,"station_name":"Sudirman Baru","i_lat":-6.201433,"time":1,"station_id":"SUDB","i_long":106.819881,"is_transit":false,"distance":471},{"station_name":"Sudirman","station_id":"SUD","time":1,"line":1,"i_lat":-6.202263,"i_long":106.822649,"distance":280,"transit":false,"is_transit":false},{"is_transit":true,"line":2,"i_lat":-6.209883,"station_id":"MRI","time":4,"station_name":"Manggarai","distance":3186,"transit":true,"i_long":106.84912},{"transit":false,"i_long":106.840169,"line":2,"station_name":"Cikini","i_lat":-6.198556,"is_transit":false,"station_id":"CKI","distance":1590,"time":4},{"distance":1750,"station_name":"Gondangdia","transit":false,"line":2,"station_id":"GDD","time":3,"is_transit":false,"i_long":106.832183,"i_lat":-6.186295},{"i_long":106.828284,"line":2,"station_id":"JUA","time":4,"transit":false,"distance":2015,"i_lat":-6.166716,"is_transit":false,"station_name":"Juanda"},{"station_id":"SW","distance":1149,"time":2,"station_name":"Sawah Besar","i_lat":-6.160725,"is_transit":false,"transit":false,"i_long":106.827103,"line":2},{"station_id":"MGB","i_lat":-6.149769,"is_transit":false,"transit":false,"distance":906,"i_long":106.82482,"line":2,"station_name":"Manggabesar","time":2},{"transit":false,"i_lat":-6.141205,"i_long":106.820901,"line":2,"time":2,"station_name":"Jayakarta","distance":1080,"is_transit":false,"station_id":"JAY"},{"station_id":"JAKK","is_transit":true,"station_name":"Jakarta Kota","i_long":106.812439,"line":2,"distance":1264,"transit":true,"i_lat":-6.137569,"time":4},{"i_lat":-6.132549,"i_long":106.826365,"line":4,"station_id":"KPB","station_name":"Kampung Bandan","is_transit":true,"distance":1364,"transit":true,"time":3},{"i_long":106.79867,"station_name":"Angke","distance":4102,"transit":false,"time":9,"is_transit":false,"i_lat":-6.144674,"line":1,"station_id":"AK"},{"i_long":106.800832,"time":4,"transit":true,"i_lat":-6.155215,"station_name":"Duri","line":1,"is_transit":true,"station_id":"DU","distance":1230},{"transit":false,"i_long":106.788277,"is_transit":false,"station_id":"GGL","i_lat":-6.162021,"line":5,"station_name":"Grogol","distance":1700,"time":3},{"time":2,"distance":2036,"line":5,"transit":false,"i_long":106.771379,"is_transit":false,"station_id":"PSG","i_lat":-6.161433,"station_name":"Pesing"},{"is_transit":false,"transit":false,"time":2,"i_long":106.756522,"line":5,"station_name":"Taman Kota","distance":1614,"i_lat":-6.1587309999999995,"station_id":"TKO"},{"transit":false,"time":2,"line":5,"station_name":"Bojongindah","station_id":"BOI","is_transit":false,"distance":2334,"i_lat":-6.159876,"i_long":106.737035},{"station_name":"Rawa Buaya","is_transit":false,"i_lat":-6.162758,"time":4,"distance":1152,"station_id":"RW","transit":false,"line":5,"i_long":106.723064},{"is_transit":false,"station_name":"Kalideres","transit":false,"distance":2504,"station_id":"KDS","line":5,"time":3,"i_long":106.701612,"i_lat":-6.166068},{"is_transit":false,"i_lat":-6.169933,"station_id":"PI","transit":false,"station_name":"Poris","distance":2548,"i_long":106.679458,"line":5,"time":3},{"time":3,"i_lat":-6.171811,"is_transit":false,"distance":1834,"station_id":"BPR","line":5,"station_name":"Batuceper","transit":false,"i_long":106.665036},{"transit":false,"i_lat":-6.17331,"station_name":"Tanah Tinggi","time":3,"distance":2028,"i_long":106.64657,"line":5,"is_transit":false,"station_id":"TTI"},{"distance":1547,"station_name":"Tangerang","transit":false,"i_lat":-6.176583,"station_id":"TNG","line":5,"i_long":106.632761,"time":3,"is_transit":false}],[{"time":0,"i_long":106.74273,"station_name":"Pondokranji","is_transit":false,"distance":0,"station_id":"PDJ","i_lat":-6.276362,"transit":false,"line":6},{"station_id":"KBY","transit":false,"i_lat":-6.237242,"line":6,"time":8,"i_long":106.780334,"station_name":"Kebayoran","distance":6218,"is_transit":false},{"station_id":"PLM","distance":3737,"station_name":"Palmerah","is_transit":false,"line":6,"i_lat":-6.207404,"time":7,"transit":false,"i_long":106.79689},{"i_long":106.811091,"line":1,"station_name":"Tanah Abang","time":6,"transit":true,"i_lat":-6.185545,"is_transit":true,"distance":3191,"station_id":"THB"},{"station_id":"KAT","i_long":106.816351,"line":1,"time":5,"distance":2029,"station_name":"Karet","i_lat":-6.20132,"is_transit":false,"transit":false},{"is_transit":false,"line":1,"station_id":"SUDB","i_long":106.819881,"transit":false,"station_name":"Sudirman Baru","distance":471,"i_lat":-6.201433,"time":1},{"time":1,"is_transit":false,"i_lat":-6.202263,"line":1,"station_name":"Sudirman","distance":280,"i_long":106.822649,"station_id":"SUD","transit":false},{"distance":3186,"i_lat":-6.209883,"is_transit":false,"station_name":"Manggarai","time":4,"i_long":106.84912,"station_id":"MRI","line":2,"transit":false},{"distance":1275,"line":1,"time":2,"i_long":106.858896,"i_lat":-6.212485,"transit":false,"station_id":"MTR","is_transit":false,"station_name":"Matraman"},{"transit":true,"station_id":"JNG","time":8,"is_transit":true,"i_lat":-6.215091,"i_long":106.86807400000001,"station_name":"Jatinegara","distance":1377,"line":1},{"station_id":"POK","is_transit":false,"station_name":"Pondok Jati","time":2,"distance":1236,"i_lat":-6.209188,"line":11,"i_long":106.861737,"transit":false},{"is_transit":false,"station_id":"KMT","time":2,"distance":1829,"station_name":"Kramat","transit":false,"line":11,"i_lat":-6.193792,"i_long":106.855437},{"i_lat":-6.185975,"time":1,"line":11,"station_name":"Gang Sentiong","distance":973,"is_transit":false,"i_long":106.850107,"station_id":"GST","transit":false},{"i_lat":-6.174784,"transit":false,"is_transit":false,"distance":1567,"line":11,"station_name":"Pasar Senen","station_id":"PSE","i_long":106.84368,"time":8},{"line":11,"transit":false,"time":4,"is_transit":false,"station_name":"Kemayoran","i_long":106.839204,"station_id":"KMO","i_lat":-6.161728,"distance":1436},{"station_id":"RJW","is_transit":false,"transit":false,"line":11,"time":5,"distance":1901,"station_name":"Rajawali","i_lat":-6.14505,"i_long":106.836569},{"transit":true,"i_long":106.826365,"station_name":"Kampung Bandan","station_id":"KPB","is_transit":true,"i_lat":-6.132549,"time":3,"distance":1444,"line":4},{"station_id":"AK","time":9,"line":1,"i_lat":-6.144674,"station_name":"Angke","distance":4102,"i_long":106.79867,"transit":false,"is_transit":false},{"i_long":106.800832,"transit":true,"station_name":"Duri","time":4,"i_lat":-6.155215,"line":1,"distance":1230,"station_id":"DU","is_transit":true},{"i_lat":-6.162021,"transit":false,"distance":1700,"i_long":106.788277,"line":5,"station_id":"GGL","station_name":"Grogol","is_transit":false,"time":3},{"time":2,"is_transit":false,"station_name":"Pesing","distance":2036,"i_long":106.771379,"line":5,"station_id":"PSG","transit":false,"i_lat":-6.161433},{"station_name":"Taman Kota","i_lat":-6.1587309999999995,"station_id":"TKO","is_transit":false,"transit":false,"time":2,"distance":1614,"i_long":106.756522,"line":5},{"line":5,"distance":2334,"transit":false,"station_id":"BOI","i_lat":-6.159876,"station_name":"Bojongindah","is_transit":false,"time":2,"i_long":106.737035},{"i_long":106.723064,"line":5,"station_id":"RW","distance":1152,"i_lat":-6.162758,"is_transit":false,"station_name":"Rawa Buaya","transit":false,"time":4},{"distance":2504,"time":3,"is_transit":false,"transit":false,"line":5,"station_id":"KDS","i_lat":-6.166068,"station_name":"Kalideres","i_long":106.701612},{"transit":false,"station_id":"PI","distance":2548,"line":5,"i_long":106.679458,"i_lat":-6.169933,"station_name":"Poris","time":3,"is_transit":false},{"i_lat":-6.171811,"line":5,"station_name":"Batuceper","is_transit":false,"transit":false,"i_long":106.665036,"station_id":"BPR","distance":1834,"time":3},{"transit":false,"distance":2028,"station_name":"Tanah Tinggi","is_transit":false,"station_id":"TTI","time":3,"i_long":106.64657,"line":5,"i_lat":-6.17331},{"station_id":"TNG","station_name":"Tangerang","i_lat":-6.176583,"line":5,"time":3,"i_long":106.632761,"transit":false,"distance":1547,"is_transit":false}]]}