{"data":[[{"is_transit":false,"distance":0,"station_id":"PDJ","time":0,"station_name":"Pondokranji","i_lat":-6.276362,"i_long":106.74273,"line":6,"transit":false},{"is_transit":false,"distance":6218,"transit":false,"i_long":106.780334,"time":8,"line":6,"station_name":"Kebayoran","i_lat":-6.237242,"station_id":"KBY"},{"transit":false,"station_id":"PLM","distance":3737,"time":7,"i_long":106.79689,"is_transit":false,"i_lat":-6.207404,"line":6,"station_name":"Palmerah"},{"line":1,"transit":true,"station_id":"THB","i_long":106.811091,"distance":3191,"time":6,"is_transit":true,"station_name":"Tanah Abang","i_lat":-6.185545},{"time":5,"i_lat":-6.20132,"i_long":106.816351,"is_transit":false,"distance":2029,"station_id":"KAT","line":1,"station_name":"Karet","transit":false},{"station_name":"Sudirman Baru","i_lat":-6.201433,"transit":false,"is_transit":false,"time":1,"distance":471,"i_long":106.819881,"line":1,"station_id":"SUDB"},{"line":1,"transit":false,"station_name":"Sudirman","station_id":"SUD","i_lat":-6.202263,"time":1,"is_transit":false,"distance":280,"i_long":106.822649},{"distance":3186,"time":4,"i_long":106.84912,"line":2,"station_name":"Manggarai","i_lat":-6.209883,"transit":false,"is_transit":false,"station_id":"MRI"},{"station_id":"MTR","line":1,"transit":false,"i_lat":-6.212485,"station_name":"Matraman","i_long":106.858896,"distance":1275,"is_transit":false,"time":2},{"station_id":"JNG","i_lat":-6.215091,"i_long":106.86807400000001,"is_transit":false,"line":1,"time":8,"transit":false,"station_name":"Jatinegara","distance":1377},{"line":1,"i_long":106.899548,"transit":false,"time":3,"station_id":"KLD","is_transit":false,"distance":3395,"station_name":"Klender","i_lat":-6.2135},{"station_id":"BUA","distance":3100,"i_lat":-6.215568,"i_long":106.922662,"is_transit":false,"line":1,"transit":false,"time":2,"station_name":"Buaran"}],[{"i_long":106.74273,"station_name":"Pondokranji","transit":false,"line":6,"is_transit":false,"time":0,"station_id":"PDJ","distance":0,"i_lat":-6.276362},{"station_id":"KBY","time":8,"transit":false,"is_transit":false,"station_name":"Kebayoran","distance":6218,"i_long":106.780334,"i_lat":-6.237242,"line":6},{"i_lat":-6.207404,"station_id":"PLM","time":7,"distance":3737,"line":6,"transit":false,"i_long":106.79689,"is_transit":false,"station_name":"Palmerah"},{"transit":true,"station_name":"Tanah Abang","line":1,"station_id":"THB","i_long":106.811091,"time":6,"i_lat":-6.185545,"is_transit":true,"distance":3191},{"line":1,"time":8,"transit":false,"station_id":"DU","i_lat":-6.155215,"is_transit":false,"distance":3632,"station_name":"Duri","i_long":106.800832},{"transit":false,"distance":1230,"line":1,"station_id":"AK","i_long":106.79867,"is_transit":false,"station_name":"Angke","i_lat":-6.144674,"time":4},{"line":4,"transit":true,"distance":4102,"i_long":106.826365,"time":9,"i_lat":-6.132549,"station_id":"KPB","station_name":"Kampung Bandan","is_transit":true},{"is_transit":false,"station_name":"Rajawali","i_long":106.836569,"station_id":"RJW","transit":false,"time":3,"distance":1444,"i_lat":-6.14505,"line":11},{"station_id":"KMO","distance":1901,"is_transit":false,"i_lat":-6.161728,"station_name":"Kemayoran","line":11,"i_long":106.839204,"transit":false,"time":5},{"distance":1436,"time":4,"station_id":"PSE","station_name":"Pasar Senen","i_long":106.84368,"line":11,"i_lat":-6.174784,"transit":false,"is_transit":false},{"i_lat":-6.185975,"i_long":106.850107,"line":11,"distance":1567,"transit":false,"is_transit":false,"station_id":"GST","time":8,"station_name":"Gang Sentiong"},{"station_name":"Kramat","station_id":"KMT","i_lat":-6.193792,"i_long":106.855437,"line":11,"distance":973,"time":1,"is_transit":false,"transit":false},{"i_lat":-6.209188,"is_transit":false,"line":11,"time":2,"transit":false,"i_long":106.861737,"station_name":"Pondok Jati","station_id":"POK","distance":1829},{"transit":true,"is_transit":true,"station_id":"JNG","i_long":106.86807400000001,"station_name":"Jatinegara","time":9,"line":1,"distance":1236,"i_lat":-6.215091},{"line":1,"station_name":"Klender","distance":3395,"i_long":106.899548,"time":3,"is_transit":false,"i_lat":-6.2135,"station_id":"KLD","transit":false},{"station_name":"Buaran","transit":false,"is_transit":false,"station_id":"BUA","line":1,"i_long":106.922662,"time":2,"i_lat":-6.215568,"distance":3100}],[{"station_name":"Pondokranji","transit":false,"is_transit":false,"time":0,"station_id":"PDJ","distance":0,"i_long":106.74273,"i_lat":-6.276362,"line":6},{"i_lat":-6.237242,"is_transit":false,"station_name":"Kebayoran","distance":6218,"line":6,"station_id":"KBY","transit":false,"i_long":106.780334,"time":8},{"transit":false,"i_lat":-6.207404,"station_name":"Palmerah","i_long":106.79689,"time":7,"is_transit":false,"line":6,"station_id":"PLM","distance":3737},{"transit":true,"distance":3191,"i_lat":-6.185545,"i_long":106.811091,"station_name":"Tanah Abang","time":6,"is_transit":true,"line":1,"station_id":"THB"},{"distance":3632,"is_transit":false,"line":1,"station_name":"Duri","i_lat":-6.155215,"i_long":106.800832,"transit":false,"time":8,"station_id":"DU"},{"transit":false,"station_id":"AK","time":4,"station_name":"Angke","i_lat":-6.144674,"distance":1230,"i_long":106.79867,"is_transit":false,"line":1},{"transit":true,"i_lat":-6.132549,"i_long":106.826365,"station_name":"Kampung Bandan","time":9,"line":4,"distance":4102,"station_id":"KPB","is_transit":true},{"transit":true,"i_lat":-6.137569,"time":3,"station_id":"JAKK","distance":1364,"station_name":"Jakarta Kota","is_transit":true,"i_long":106.812439,"line":2},{"distance":1264,"transit":false,"station_name":"Jayakarta","i_lat":-6.141205,"i_long":106.820901,"time":4,"is_transit":false,"line":2,"station_id":"JAY"},{"transit":false,"distance":1080,"time":2,"i_lat":-6.149769,"i_long":106.82482,"station_name":"Manggabesar","is_transit":false,"line":2,"station_id":"MGB"},{"i_lat":-6.160725,"is_transit":false,"station_name":"Sawah Besar","i_long":106.827103,"line":2,"transit":false,"time":2,"station_id":"SW","distance":906},{"distance":1149,"i_long":106.828284,"i_lat":-6.166716,"transit":false,"station_name":"Juanda","time":2,"is_transit":false,"station_id":"JUA","line":2},{"i_long":106.832183,"transit":false,"i_lat":-6.186295,"distance":2015,"time":4,"station_name":"Gondangdia","station_id":"GDD","line":2,"is_transit":false},{"time":3,"i_long":106.840169,"is_transit":false,"distance":1750,"line":2,"transit":false,"station_name":"Cikini","station_id":"CKI","i_lat":-6.198556},{"station_id":"MRI","i_lat":-6.209883,"i_long":106.84912,"line":2,"is_transit":true,"time":4,"station_name":"Manggarai","distance":1590,"transit":true},{"i_lat":-6.212485,"time":2,"is_transit":false,"transit":false,"station_name":"Matraman","station_id":"MTR","distance":1275,"i_long":106.858896,"line":1},{"station_name":"Jatinegara","i_lat":-6.215091,"station_id":"JNG","i_long":106.86807400000001,"line":1,"is_transit":false,"distance":1377,"transit":false,"time":8},{"time":3,"is_transit":false,"station_id":"KLD","transit":false,"station_name":"Klender","distance":3395,"line":1,"i_long":106.899548,"i_lat":-6.2135},{"time":2,"i_lat":-6.215568,"distance":3100,"line":1,"station_name":"Buaran","i_long":106.922662,"station_id":"BUA","is_transit":false,"transit":false}],[{"i_lat":-6.276362,"time":0,"station_name":"Pondokranji","i_long":106.74273,"station_id":"PDJ","is_transit":false,"distance":0,"line":6,"transit":false},{"i_long":106.780334,"is_transit":false,"station_id":"KBY","i_lat":-6.237242,"station_name":"Kebayoran","distance":6218,"transit":false,"line":6,"time":8},{"i_lat":-6.207404,"station_id":"PLM","time":7,"is_transit":false,"line":6,"transit":false,"station_name":"Palmerah","distance":3737,"i_long":106.79689},{"transit":true,"station_name":"Tanah Abang","distance":3191,"i_long":106.811091,"station_id":"THB","is_transit":true,"i_lat":-6.185545,"time":6,"line":1},{"line":1,"station_id":"KAT","is_transit":false,"distance":2029,"i_long":106.816351,"transit":false,"station_name":"Karet","i_lat":-6.20132,"time":5},{"i_long":106.819881,"station_name":"Sudirman Baru","distance":471,"station_id":"SUDB","time":1,"is_transit":false,"transit":false,"i_lat":-6.201433,"line":1},{"station_name":"Sudirman","station_id":"SUD","i_long":106.822649,"distance":280,"transit":false,"time":1,"line":1,"i_lat":-6.202263,"is_transit":false},{"time":4,"i_long":106.84912,"line":2,"is_transit":true,"station_name":"Manggarai","transit":true,"station_id":"MRI","i_lat":-6.209883,"distance":3186},{"transit":false,"is_transit":false,"station_name":"Cikini","distance":1590,"i_long":106.840169,"time":4,"station_id":"CKI","i_lat":-6.198556,"line":2},{"i_lat":-6.186295,"station_id":"GDD","i_long":106.832183,"is_transit":false,"time":3,"station_name":"Gondangdia","distance":1750,"line":2,"transit":false},{"station_name":"Juanda","line":2,"is_transit":false,"i_lat":-6.166716,"distance":2015,"station_id":"JUA","transit":false,"i_long":106.828284,"time":4},{"i_lat":-6.160725,"transit":false,"station_name":"Sawah Besar","distance":1149,"is_transit":false,"i_long":106.827103,"time":2,"line":2,"station_id":"SW"},{"time":2,"i_lat":-6.149769,"line":2,"transit":false,"station_name":"Manggabesar","i_long":106.82482,"is_transit":false,"distance":906,"station_id":"MGB"},{"station_name":"Jayakarta","transit":false,"distance":1080,"time":2,"station_id":"JAY","line":2,"i_long":106.820901,"i_lat":-6.141205,"is_transit":false},{"line":2,"i_long":106.812439,"is_transit":true,"i_lat":-6.137569,"transit":true,"time":4,"distance":1264,"station_name":"Jakarta Kota","station_id":"JAKK"},{"i_long":106.826365,"transit":true,"is_transit":true,"distance":1364,"line":4,"station_name":"Kampung Bandan","station_id":"KPB","i_lat":-6.132549,"time":3},{"time":3,"station_id":"RJW","is_transit":false,"i_lat":-6.14505,"transit":false,"line":11,"i_long":106.836569,"distance":1444,"station_name":"Rajawali"},{"i_lat":-6.161728,"station_name":"Kemayoran","line":11,"station_id":"KMO","i_long":106.839204,"distance":1901,"transit":false,"time":5,"is_transit":false},{"station_id":"PSE","is_transit":false,"transit":false,"i_long":106.84368,"line":11,"time":4,"i_lat":-6.174784,"station_name":"Pasar Senen","distance":1436},{"i_long":106.850107,"distance":1567,"time":8,"station_name":"Gang Sentiong","i_lat":-6.185975,"station_id":"GST","transit":false,"is_transit":false,"line":11},{"station_name":"Kramat","i_long":106.855437,"line":11,"station_id":"KMT","is_transit":false,"time":1,"transit":false,"i_lat":-6.193792,"distance":973},{"i_lat":-6.209188,"station_name":"Pondok Jati","transit":false,"distance":1829,"i_long":106.861737,"is_transit":false,"line":11,"station_id":"POK","time":2},{"time":9,"station_name":"Jatinegara","is_transit":true,"distance":1236,"transit":true,"station_id":"JNG","line":1,"i_lat":-6.215091,"i_long":106.86807400000001},{"transit":false,"i_long":106.899548,"station_id":"KLD","line":1,"time":3,"station_name":"Klender","is_transit":false,"i_lat":-6.2135,"distance":3395},{"station_id":"BUA","is_transit":false,"time":2,"i_long":106.922662,"i_lat":-6.215568,"line":1,"transit":false,"station_name":"Buaran","distance":3100}]]}