{"data":[[{"distance":0,"line":6,"i_lat":-6.276362,"transit":false,"station_name":"Pondokranji","i_long":106.74273,"is_transit":false,"time":0,"station_id":"PDJ"},{"station_id":"KBY","is_transit":false,"time":8,"i_lat":-6.237242,"line":6,"i_long":106.780334,"distance":6218,"transit":false,"station_name":"Kebayoran"},{"i_long":106.79689,"is_transit":false,"distance":3737,"time":7,"i_lat":-6.207404,"station_id":"PLM","transit":false,"station_name":"Palmerah","line":6},{"time":6,"distance":3191,"i_lat":-6.185545,"transit":true,"i_long":106.811091,"station_name":"Tanah Abang","line":1,"station_id":"THB","is_transit":true},{"i_long":106.816351,"station_name":"Karet","line":1,"time":5,"i_lat":-6.20132,"distance":2029,"transit":false,"is_transit":false,"station_id":"KAT"},{"station_name":"Sudirman Baru","time":1,"transit":false,"i_long":106.819881,"i_lat":-6.201433,"distance":471,"station_id":"SUDB","line":1,"is_transit":false},{"i_lat":-6.202263,"station_id":"SUD","i_long":106.822649,"station_name":"Sudirman","distance":280,"line":1,"time":1,"is_transit":false,"transit":false},{"distance":3186,"station_name":"Manggarai","is_transit":true,"i_long":106.84912,"i_lat":-6.209883,"time":4,"line":2,"station_id":"MRI","transit":true},{"transit":false,"line":2,"distance":2610,"station_name":"Tebet","is_transit":false,"i_long":106.857948,"i_lat":-6.226659,"station_id":"TEB","time":4},{"is_transit":false,"line":2,"transit":false,"i_lat":-6.242512,"station_name":"Cawang","distance":1230,"i_long":106.856607,"time":2,"station_id":"CW"},{"transit":false,"time":3,"station_id":"DRN","station_name":"Duren Kalibata","distance":1546,"i_long":106.85449,"i_lat":-6.255332,"line":2,"is_transit":false},{"distance":824,"i_long":106.851577,"line":2,"i_lat":-6.263214,"is_transit":false,"time":2,"station_id":"PSMB","station_name":"Pasar Minggu Baru","transit":false},{"is_transit":false,"transit":false,"distance":2380,"i_lat":-6.2842400000000005,"i_long":106.843999,"station_id":"PSM","station_name":"Pasar Minggu","line":2,"time":2},{"transit":false,"i_lat":-6.3080680000000005,"i_long":106.838896,"line":2,"station_id":"TNT","station_name":"Tanjung Barat","distance":2820,"is_transit":false,"time":4},{"time":3,"i_lat":-6.330363,"transit":false,"is_transit":false,"distance":2671,"station_name":"Lenteng Agung","station_id":"LNA","i_long":106.832616,"line":2}],[{"i_lat":-6.276362,"time":0,"line":6,"station_name":"Pondokranji","distance":0,"transit":false,"station_id":"PDJ","is_transit":false,"i_long":106.74273},{"line":6,"station_name":"Kebayoran","transit":false,"is_transit":false,"time":8,"distance":6218,"i_lat":-6.237242,"station_id":"KBY","i_long":106.780334},{"time":7,"is_transit":false,"distance":3737,"i_lat":-6.207404,"station_name":"Palmerah","transit":false,"station_id":"PLM","i_long":106.79689,"line":6},{"station_id":"THB","time":6,"transit":true,"is_transit":true,"distance":3191,"i_lat":-6.185545,"line":1,"i_long":106.811091,"station_name":"Tanah Abang"},{"station_name":"Duri","is_transit":false,"station_id":"DU","line":1,"i_lat":-6.155215,"i_long":106.800832,"transit":false,"time":8,"distance":3632},{"i_lat":-6.144674,"transit":false,"station_id":"AK","distance":1230,"is_transit":false,"station_name":"Angke","time":4,"i_long":106.79867,"line":1},{"distance":4102,"i_lat":-6.132549,"line":4,"i_long":106.826365,"is_transit":true,"time":9,"station_name":"Kampung Bandan","transit":true,"station_id":"KPB"},{"station_name":"Jakarta Kota","is_transit":true,"i_lat":-6.137569,"transit":true,"i_long":106.812439,"time":3,"distance":1364,"line":2,"station_id":"JAKK"},{"station_name":"Jayakarta","i_long":106.820901,"is_transit":false,"station_id":"JAY","i_lat":-6.141205,"line":2,"transit":false,"time":4,"distance":1264},{"time":2,"distance":1080,"transit":false,"station_id":"MGB","line":2,"station_name":"Manggabesar","i_lat":-6.149769,"i_long":106.82482,"is_transit":false},{"station_id":"SW","distance":906,"i_lat":-6.160725,"transit":false,"line":2,"time":2,"station_name":"Sawah Besar","i_long":106.827103,"is_transit":false},{"time":2,"distance":1149,"i_long":106.828284,"line":2,"station_name":"Juanda","i_lat":-6.166716,"station_id":"JUA","is_transit":false,"transit":false},{"distance":2015,"transit":false,"station_name":"Gondangdia","is_transit":false,"i_long":106.832183,"i_lat":-6.186295,"line":2,"time":4,"station_id":"GDD"},{"i_lat":-6.198556,"i_long":106.840169,"is_transit":false,"transit":false,"station_id":"CKI","time":3,"station_name":"Cikini","distance":1750,"line":2},{"i_long":106.84912,"transit":false,"line":2,"station_id":"MRI","is_transit":false,"i_lat":-6.209883,"time":4,"distance":1590,"station_name":"Manggarai"},{"is_transit":false,"station_id":"TEB","station_name":"Tebet","i_lat":-6.226659,"i_long":106.857948,"transit":false,"line":2,"distance":2610,"time":4},{"line":2,"distance":1230,"i_long":106.856607,"station_id":"CW","transit":false,"i_lat":-6.242512,"station_name":"Cawang","time":2,"is_transit":false},{"distance":1546,"station_id":"DRN","is_transit":false,"i_long":106.85449,"time":3,"transit":false,"i_lat":-6.255332,"station_name":"Duren Kalibata","line":2},{"line":2,"station_name":"Pasar Minggu Baru","is_transit":false,"transit":false,"station_id":"PSMB","i_lat":-6.263214,"distance":824,"i_long":106.851577,"time":2},{"line":2,"transit":false,"station_name":"Pasar Minggu","distance":2380,"i_lat":-6.2842400000000005,"time":2,"i_long":106.843999,"station_id":"PSM","is_transit":false},{"distance":2820,"is_transit":false,"station_id":"TNT","time":4,"station_name":"Tanjung Barat","i_long":106.838896,"line":2,"transit":false,"i_lat":-6.3080680000000005},{"time":3,"station_id":"LNA","transit":false,"is_transit":false,"station_name":"Lenteng Agung","i_long":106.832616,"i_lat":-6.330363,"line":2,"distance":2671}],[{"distance":0,"station_id":"PDJ","transit":false,"i_lat":-6.276362,"time":0,"i_long":106.74273,"line":6,"station_name":"Pondokranji","is_transit":false},{"station_id":"KBY","is_transit":false,"distance":6218,"line":6,"time":8,"transit":false,"i_long":106.780334,"station_name":"Kebayoran","i_lat":-6.237242},{"station_id":"PLM","is_transit":false,"distance":3737,"line":6,"transit":false,"i_long":106.79689,"station_name":"Palmerah","time":7,"i_lat":-6.207404},{"transit":true,"i_lat":-6.185545,"station_name":"Tanah Abang","time":6,"distance":3191,"line":1,"station_id":"THB","i_long":106.811091,"is_transit":true},{"distance":3632,"transit":false,"station_name":"Duri","station_id":"DU","is_transit":false,"time":8,"i_lat":-6.155215,"line":1,"i_long":106.800832},{"distance":1230,"time":4,"transit":false,"station_id":"AK","i_lat":-6.144674,"is_transit":false,"station_name":"Angke","i_long":106.79867,"line":1},{"distance":4102,"transit":true,"line":4,"station_name":"Kampung Bandan","is_transit":true,"time":9,"station_id":"KPB","i_lat":-6.132549,"i_long":106.826365},{"line":11,"i_lat":-6.14505,"distance":1444,"is_transit":false,"i_long":106.836569,"station_name":"Rajawali","time":3,"transit":false,"station_id":"RJW"},{"distance":1901,"i_long":106.839204,"station_name":"Kemayoran","time":5,"i_lat":-6.161728,"line":11,"station_id":"KMO","is_transit":false,"transit":false},{"i_lat":-6.174784,"line":11,"distance":1436,"station_name":"Pasar Senen","station_id":"PSE","is_transit":false,"i_long":106.84368,"time":4,"transit":false},{"i_lat":-6.185975,"i_long":106.850107,"station_name":"Gang Sentiong","is_transit":false,"time":8,"transit":false,"station_id":"GST","line":11,"distance":1567},{"station_id":"KMT","line":11,"i_lat":-6.193792,"transit":false,"is_transit":false,"distance":973,"station_name":"Kramat","time":1,"i_long":106.855437},{"transit":false,"time":2,"i_lat":-6.209188,"distance":1829,"i_long":106.861737,"station_name":"Pondok Jati","station_id":"POK","is_transit":false,"line":11},{"i_long":106.86807400000001,"i_lat":-6.215091,"line":1,"station_name":"Jatinegara","transit":true,"time":9,"station_id":"JNG","distance":1236,"is_transit":true},{"station_id":"MTR","transit":false,"i_long":106.858896,"time":2,"station_name":"Matraman","distance":1377,"is_transit":false,"i_lat":-6.212485,"line":1},{"i_lat":-6.209883,"i_long":106.84912,"transit":true,"distance":1275,"station_name":"Manggarai","line":2,"is_transit":true,"station_id":"MRI","time":2},{"station_id":"TEB","distance":2610,"transit":false,"i_lat":-6.226659,"time":4,"line":2,"i_long":106.857948,"station_name":"Tebet","is_transit":false},{"i_lat":-6.242512,"station_id":"CW","is_transit":false,"line":2,"time":2,"distance":1230,"station_name":"Cawang","i_long":106.856607,"transit":false},{"station_name":"Duren Kalibata","time":3,"station_id":"DRN","is_transit":false,"distance":1546,"transit":false,"i_lat":-6.255332,"i_long":106.85449,"line":2},{"i_long":106.851577,"station_name":"Pasar Minggu Baru","line":2,"station_id":"PSMB","transit":false,"is_transit":false,"i_lat":-6.263214,"time":2,"distance":824},{"line":2,"station_name":"Pasar Minggu","station_id":"PSM","i_long":106.843999,"distance":2380,"time":2,"i_lat":-6.2842400000000005,"transit":false,"is_transit":false},{"is_transit":false,"line":2,"i_long":106.838896,"i_lat":-6.3080680000000005,"station_id":"TNT","distance":2820,"time":4,"station_name":"Tanjung Barat","transit":false},{"line":2,"station_id":"LNA","i_lat":-6.330363,"is_transit":false,"time":3,"distance":2671,"transit":false,"station_name":"Lenteng Agung","i_long":106.832616}]]}