{"data":[[{"is_transit":false,"time":0,"distance":0,"station_id":"PDJ","i_long":106.74273,"line":6,"i_lat":-6.276362,"station_name":"Pondokranji","transit":false},{"line":6,"station_id":"KBY","i_long":106.780334,"transit":false,"distance":6218,"station_name":"Kebayoran","is_transit":false,"i_lat":-6.237242,"time":8},{"transit":false,"station_id":"PLM","time":7,"distance":3737,"i_lat":-6.207404,"is_transit":false,"i_long":106.79689,"line":6,"station_name":"Palmerah"},{"i_long":106.811091,"transit":true,"is_transit":true,"station_name":"Tanah Abang","station_id":"THB","distance":3191,"i_lat":-6.185545,"line":1,"time":6},{"time":8,"is_transit":true,"distance":3632,"line":1,"i_lat":-6.155215,"station_name":"Duri","station_id":"DU","transit":true,"i_long":106.800832},{"station_id":"GGL","is_transit":false,"transit":false,"station_name":"Grogol","time":3,"i_lat":-6.162021,"i_long":106.788277,"distance":1700,"line":5},{"is_transit":false,"i_lat":-6.161433,"transit":false,"time":2,"station_name":"Pesing","i_long":106.771379,"station_id":"PSG","distance":2036,"line":5},{"time":2,"transit":false,"station_name":"Taman Kota","line":5,"station_id":"TKO","is_transit":false,"i_long":106.756522,"distance":1614,"i_lat":-6.1587309999999995},{"station_name":"Bojongindah","i_long":106.737035,"transit":false,"station_id":"BOI","line":5,"distance":2334,"i_lat":-6.159876,"time":2,"is_transit":false},{"i_lat":-6.162758,"transit":false,"i_long":106.723064,"is_transit":false,"time":4,"station_name":"Rawa Buaya","line":5,"station_id":"RW","distance":1152},{"distance":2504,"is_transit":false,"station_name":"Kalideres","transit":false,"line":5,"i_lat":-6.166068,"i_long":106.701612,"time":3,"station_id":"KDS"},{"time":3,"i_lat":-6.169933,"transit":false,"is_transit":false,"distance":2548,"i_long":106.679458,"station_id":"PI","line":5,"station_name":"Poris"}],[{"distance":0,"i_lat":-6.276362,"is_transit":false,"time":0,"i_long":106.74273,"station_name":"Pondokranji","line":6,"transit":false,"station_id":"PDJ"},{"is_transit":false,"time":8,"i_long":106.780334,"station_id":"KBY","distance":6218,"line":6,"i_lat":-6.237242,"station_name":"Kebayoran","transit":false},{"is_transit":false,"station_id":"PLM","transit":false,"distance":3737,"line":6,"station_name":"Palmerah","i_lat":-6.207404,"time":7,"i_long":106.79689},{"line":1,"transit":true,"i_lat":-6.185545,"distance":3191,"station_name":"Tanah Abang","is_transit":true,"station_id":"THB","time":6,"i_long":106.811091},{"is_transit":false,"station_id":"KAT","distance":2029,"i_long":106.816351,"line":1,"time":5,"transit":false,"station_name":"Karet","i_lat":-6.20132},{"transit":false,"station_id":"SUDB","is_transit":false,"time":1,"line":1,"distance":471,"station_name":"Sudirman Baru","i_lat":-6.201433,"i_long":106.819881},{"station_id":"SUD","time":1,"i_long":106.822649,"line":1,"is_transit":false,"i_lat":-6.202263,"distance":280,"transit":false,"station_name":"Sudirman"},{"line":2,"transit":true,"is_transit":true,"i_long":106.84912,"station_name":"Manggarai","time":4,"distance":3186,"i_lat":-6.209883,"station_id":"MRI"},{"distance":1590,"transit":false,"time":4,"i_long":106.840169,"i_lat":-6.198556,"is_transit":false,"line":2,"station_name":"Cikini","station_id":"CKI"},{"i_lat":-6.186295,"line":2,"i_long":106.832183,"station_name":"Gondangdia","transit":false,"time":3,"distance":1750,"station_id":"GDD","is_transit":false},{"line":2,"i_long":106.828284,"i_lat":-6.166716,"transit":false,"time":4,"is_transit":false,"station_name":"Juanda","station_id":"JUA","distance":2015},{"i_lat":-6.160725,"station_id":"SW","station_name":"Sawah Besar","is_transit":false,"time":2,"i_long":106.827103,"line":2,"distance":1149,"transit":false},{"line":2,"time":2,"station_id":"MGB","is_transit":false,"i_long":106.82482,"station_name":"Manggabesar","distance":906,"transit":false,"i_lat":-6.149769},{"is_transit":false,"station_id":"JAY","transit":false,"distance":1080,"i_lat":-6.141205,"time":2,"line":2,"station_name":"Jayakarta","i_long":106.820901},{"time":4,"i_lat":-6.137569,"line":2,"is_transit":true,"distance":1264,"i_long":106.812439,"station_id":"JAKK","transit":true,"station_name":"Jakarta Kota"},{"i_lat":-6.132549,"line":4,"time":3,"station_name":"Kampung Bandan","transit":true,"i_long":106.826365,"station_id":"KPB","is_transit":true,"distance":1364},{"station_name":"Angke","i_long":106.79867,"is_transit":false,"station_id":"AK","transit":false,"distance":4102,"i_lat":-6.144674,"time":9,"line":1},{"transit":true,"station_id":"DU","time":4,"is_transit":true,"distance":1230,"i_lat":-6.155215,"i_long":106.800832,"station_name":"Duri","line":1},{"distance":1700,"line":5,"station_id":"GGL","is_transit":false,"transit":false,"station_name":"Grogol","i_lat":-6.162021,"time":3,"i_long":106.788277},{"line":5,"i_lat":-6.161433,"i_long":106.771379,"time":2,"transit":false,"station_id":"PSG","is_transit":false,"distance":2036,"station_name":"Pesing"},{"station_name":"Taman Kota","transit":false,"line":5,"i_lat":-6.1587309999999995,"distance":1614,"time":2,"i_long":106.756522,"is_transit":false,"station_id":"TKO"},{"i_long":106.737035,"is_transit":false,"distance":2334,"i_lat":-6.159876,"time":2,"station_name":"Bojongindah","station_id":"BOI","line":5,"transit":false},{"station_name":"Rawa Buaya","distance":1152,"i_lat":-6.162758,"time":4,"i_long":106.723064,"line":5,"transit":false,"is_transit":false,"station_id":"RW"},{"time":3,"station_name":"Kalideres","line":5,"i_lat":-6.166068,"i_long":106.701612,"distance":2504,"is_transit":false,"transit":false,"station_id":"KDS"},{"is_transit":false,"i_lat":-6.169933,"transit":false,"line":5,"station_name":"Poris","time":3,"i_long":106.679458,"station_id":"PI","distance":2548}],[{"transit":false,"i_lat":-6.276362,"line":6,"is_transit":false,"station_name":"Pondokranji","station_id":"PDJ","i_long":106.74273,"time":0,"distance":0},{"line":6,"station_name":"Kebayoran","i_lat":-6.237242,"i_long":106.780334,"is_transit":false,"time":8,"transit":false,"distance":6218,"station_id":"KBY"},{"is_transit":false,"station_id":"PLM","i_lat":-6.207404,"i_long":106.79689,"line":6,"transit":false,"distance":3737,"station_name":"Palmerah","time":7},{"distance":3191,"transit":true,"time":6,"i_long":106.811091,"line":1,"station_id":"THB","station_name":"Tanah Abang","is_transit":true,"i_lat":-6.185545},{"i_lat":-6.20132,"station_name":"Karet","transit":false,"line":1,"is_transit":false,"i_long":106.816351,"distance":2029,"time":5,"station_id":"KAT"},{"is_transit":false,"transit":false,"line":1,"i_long":106.819881,"distance":471,"station_id":"SUDB","time":1,"station_name":"Sudirman Baru","i_lat":-6.201433},{"i_lat":-6.202263,"time":1,"station_name":"Sudirman","distance":280,"line":1,"station_id":"SUD","transit":false,"is_transit":false,"i_long":106.822649},{"i_lat":-6.209883,"is_transit":false,"distance":3186,"i_long":106.84912,"line":2,"station_id":"MRI","station_name":"Manggarai","time":4,"transit":false},{"is_transit":false,"station_id":"MTR","transit":false,"line":1,"time":2,"station_name":"Matraman","i_long":106.858896,"i_lat":-6.212485,"distance":1275},{"station_id":"JNG","i_lat":-6.215091,"line":1,"i_long":106.86807400000001,"transit":true,"is_transit":true,"time":8,"distance":1377,"station_name":"Jatinegara"},{"line":11,"is_transit":false,"i_lat":-6.209188,"distance":1236,"station_id":"POK","i_long":106.861737,"time":2,"station_name":"Pondok Jati","transit":false},{"transit":false,"station_id":"KMT","i_long":106.855437,"line":11,"distance":1829,"is_transit":false,"time":2,"i_lat":-6.193792,"station_name":"Kramat"},{"is_transit":false,"i_lat":-6.185975,"transit":false,"time":1,"station_name":"Gang Sentiong","station_id":"GST","i_long":106.850107,"distance":973,"line":11},{"i_lat":-6.174784,"distance":1567,"i_long":106.84368,"station_name":"Pasar Senen","line":11,"station_id":"PSE","transit":false,"is_transit":false,"time":8},{"i_lat":-6.161728,"station_id":"KMO","time":4,"distance":1436,"transit":false,"station_name":"Kemayoran","is_transit":false,"line":11,"i_long":106.839204},{"i_lat":-6.14505,"i_long":106.836569,"transit":false,"distance":1901,"time":5,"is_transit":false,"station_name":"Rajawali","station_id":"RJW","line":11},{"station_name":"Kampung Bandan","distance":1444,"time":3,"transit":true,"station_id":"KPB","i_long":106.826365,"i_lat":-6.132549,"line":4,"is_transit":true},{"i_lat":-6.144674,"i_long":106.79867,"is_transit":false,"line":1,"distance":4102,"time":9,"station_id":"AK","station_name":"Angke","transit":false},{"i_lat":-6.155215,"station_name":"Duri","station_id":"DU","distance":1230,"transit":true,"time":4,"is_transit":true,"line":1,"i_long":106.800832},{"line":5,"station_id":"GGL","is_transit":false,"time":3,"distance":1700,"station_name":"Grogol","i_long":106.788277,"transit":false,"i_lat":-6.162021},{"transit":false,"i_long":106.771379,"i_lat":-6.161433,"is_transit":false,"time":2,"station_id":"PSG","distance":2036,"station_name":"Pesing","line":5},{"line":5,"i_lat":-6.1587309999999995,"station_id":"TKO","is_transit":false,"time":2,"station_name":"Taman Kota","distance":1614,"i_long":106.756522,"transit":false},{"distance":2334,"is_transit":false,"i_lat":-6.159876,"i_long":106.737035,"station_name":"Bojongindah","time":2,"station_id":"BOI","transit":false,"line":5},{"station_name":"Rawa Buaya","transit":false,"time":4,"line":5,"distance":1152,"station_id":"RW","i_long":106.723064,"is_transit":false,"i_lat":-6.162758},{"line":5,"station_name":"Kalideres","transit":false,"is_transit":false,"station_id":"KDS","distance":2504,"i_long":106.701612,"time":3,"i_lat":-6.166068},{"transit":false,"station_name":"Poris","station_id":"PI","time":3,"distance":2548,"i_lat":-6.169933,"i_long":106.679458,"line":5,"is_transit":false}]]}