{"data":[[{"distance":0,"time":0,"station_name":"Pondokranji","station_id":"PDJ","i_lat":-6.276362,"transit":false,"is_transit":false,"i_long":106.74273,"line":6},{"station_id":"KBY","distance":6218,"is_transit":false,"line":6,"i_lat":-6.237242,"i_long":106.780334,"station_name":"Kebayoran","time":8,"transit":false},{"time":7,"transit":false,"station_name":"Palmerah","distance":3737,"station_id":"PLM","i_lat":-6.207404,"line":6,"is_transit":false,"i_long":106.79689},{"line":1,"i_long":106.811091,"transit":true,"station_name":"Tanah Abang","station_id":"THB","distance":3191,"is_transit":true,"time":6,"i_lat":-6.185545},{"time":5,"is_transit":false,"line":1,"distance":2029,"i_lat":-6.20132,"station_id":"KAT","transit":false,"station_name":"Karet","i_long":106.816351},{"distance":471,"station_name":"Sudirman Baru","i_lat":-6.201433,"is_transit":false,"station_id":"SUDB","time":1,"i_long":106.819881,"line":1,"transit":false},{"line":1,"station_id":"SUD","i_lat":-6.202263,"distance":280,"i_long":106.822649,"transit":false,"station_name":"Sudirman","is_transit":false,"time":1},{"line":0,"time":4,"station_name":"Manggarai","distance":3186,"i_lat":-6.209883,"i_long":106.84912,"station_id":"MRI","is_transit":true,"transit":true},{"line":2,"i_lat":-6.226659,"time":4,"transit":false,"station_id":"TEB","distance":2610,"i_long":106.857948,"station_name":"Tebet","is_transit":false},{"transit":false,"station_name":"Cawang","distance":1230,"i_lat":-6.242512,"time":2,"is_transit":false,"station_id":"CW","i_long":106.856607,"line":0},{"is_transit":false,"station_id":"DRN","i_long":106.85449,"time":3,"transit":false,"line":0,"distance":1546,"station_name":"Duren Kalibata","i_lat":-6.255332},{"station_name":"Pasar Minggu Baru","i_long":106.851577,"distance":824,"time":2,"transit":false,"i_lat":-6.263214,"station_id":"PSMB","is_transit":false,"line":2},{"i_lat":-6.2842400000000005,"transit":false,"line":2,"station_name":"Pasar Minggu","is_transit":false,"time":2,"station_id":"PSM","i_long":106.843999,"distance":2380},{"i_lat":-6.3080680000000005,"transit":false,"i_long":106.838896,"time":4,"station_name":"Tanjung Barat","distance":2820,"is_transit":false,"line":2,"station_id":"TNT"},{"distance":2671,"is_transit":false,"time":3,"station_id":"LNA","transit":false,"station_name":"Lenteng Agung","i_lat":-6.330363,"line":2,"i_long":106.832616},{"station_id":"UP","line":2,"transit":false,"i_lat":-6.339291,"is_transit":false,"time":2,"distance":1029,"station_name":"Univ. Pancasila","i_long":106.834175},{"transit":false,"i_long":106.831474,"distance":2264,"station_id":"UI","time":3,"station_name":"Univ. Indonesia","i_lat":-6.360749,"line":2,"is_transit":false},{"i_lat":-6.369073,"i_long":106.831114,"distance":1109,"time":2,"transit":false,"station_id":"POC","is_transit":false,"station_name":"Pondok Cina","line":2},{"distance":2727,"station_name":"Depokbaru","time":4,"station_id":"DPB","transit":false,"line":0,"is_transit":false,"i_lat":-6.391065,"i_long":106.819451},{"time":3,"i_lat":-6.405256,"transit":false,"line":0,"i_long":106.816926,"distance":1584,"station_name":"Depok","station_id":"DP","is_transit":false}],[{"i_lat":-6.276362,"line":6,"station_id":"PDJ","time":0,"distance":0,"station_name":"Pondokranji","i_long":106.74273,"transit":false,"is_transit":false},{"line":6,"is_transit":false,"station_name":"Kebayoran","transit":false,"distance":6218,"i_lat":-6.237242,"i_long":106.780334,"station_id":"KBY","time":8},{"time":7,"i_long":106.79689,"distance":3737,"line":6,"station_id":"PLM","i_lat":-6.207404,"is_transit":false,"transit":false,"station_name":"Palmerah"},{"distance":3191,"transit":true,"i_lat":-6.185545,"station_id":"THB","station_name":"Tanah Abang","i_long":106.811091,"is_transit":true,"time":6,"line":1},{"i_long":106.800832,"is_transit":true,"station_id":"DU","transit":true,"time":8,"distance":3632,"i_lat":-6.155215,"station_name":"Duri","line":1},{"distance":1230,"transit":false,"time":4,"station_name":"Angke","is_transit":false,"station_id":"AK","i_long":106.79867,"line":0,"i_lat":-6.144674},{"line":0,"time":9,"station_name":"Kampung Bandan","transit":false,"station_id":"KPB","i_lat":-6.132549,"i_long":106.826365,"distance":4102,"is_transit":true},{"i_lat":-6.137569,"transit":true,"station_name":"Jakarta Kota","distance":1364,"time":3,"is_transit":true,"i_long":106.812439,"line":0,"station_id":"JAKK"},{"line":7,"is_transit":false,"distance":1264,"station_id":"JAY","transit":false,"i_lat":-6.141205,"station_name":"Jayakarta","time":4,"i_long":106.820901},{"distance":1080,"is_transit":false,"time":2,"transit":false,"station_name":"Manggabesar","i_long":106.82482,"line":2,"station_id":"MGB","i_lat":-6.149769},{"time":2,"station_name":"Sawah Besar","distance":906,"i_long":106.827103,"station_id":"SW","i_lat":-6.160725,"transit":false,"is_transit":false,"line":2},{"time":2,"transit":false,"i_lat":-6.166716,"is_transit":false,"i_long":106.828284,"line":2,"station_name":"Juanda","station_id":"JUA","distance":1149},{"transit":false,"i_lat":-6.186295,"time":4,"station_name":"Gondangdia","i_long":106.832183,"is_transit":false,"station_id":"GDD","distance":2015,"line":2},{"i_lat":-6.198556,"station_id":"CKI","i_long":106.840169,"line":0,"distance":1750,"is_transit":false,"time":3,"transit":false,"station_name":"Cikini"},{"time":4,"transit":true,"station_id":"MRI","station_name":"Manggarai","i_lat":-6.209883,"line":0,"distance":1590,"i_long":106.84912,"is_transit":true},{"station_id":"TEB","i_long":106.857948,"transit":false,"distance":2610,"line":2,"station_name":"Tebet","i_lat":-6.226659,"is_transit":false,"time":4},{"line":0,"i_long":106.856607,"transit":false,"station_name":"Cawang","distance":1230,"is_transit":false,"i_lat":-6.242512,"time":2,"station_id":"CW"},{"transit":false,"i_lat":-6.255332,"i_long":106.85449,"station_name":"Duren Kalibata","is_transit":false,"line":0,"distance":1546,"station_id":"DRN","time":3},{"i_lat":-6.263214,"i_long":106.851577,"line":2,"time":2,"is_transit":false,"station_id":"PSMB","transit":false,"distance":824,"station_name":"Pasar Minggu Baru"},{"station_id":"PSM","line":2,"is_transit":false,"i_lat":-6.2842400000000005,"distance":2380,"station_name":"Pasar Minggu","time":2,"i_long":106.843999,"transit":false},{"station_id":"TNT","transit":false,"is_transit":false,"i_long":106.838896,"distance":2820,"station_name":"Tanjung Barat","time":4,"i_lat":-6.3080680000000005,"line":2},{"i_long":106.832616,"transit":false,"is_transit":false,"distance":2671,"time":3,"station_id":"LNA","station_name":"Lenteng Agung","i_lat":-6.330363,"line":2},{"i_long":106.834175,"transit":false,"station_name":"Univ. Pancasila","i_lat":-6.339291,"time":2,"line":2,"station_id":"UP","distance":1029,"is_transit":false},{"i_long":106.831474,"time":3,"line":2,"station_id":"UI","station_name":"Univ. Indonesia","is_transit":false,"i_lat":-6.360749,"distance":2264,"transit":false},{"is_transit":false,"i_lat":-6.369073,"transit":false,"line":2,"time":2,"station_name":"Pondok Cina","distance":1109,"i_long":106.831114,"station_id":"POC"},{"distance":2727,"time":4,"station_id":"DPB","line":0,"station_name":"Depokbaru","is_transit":false,"transit":false,"i_long":106.819451,"i_lat":-6.391065},{"is_transit":false,"time":3,"station_id":"DP","i_lat":-6.405256,"line":0,"transit":false,"station_name":"Depok","i_long":106.816926,"distance":1584}],[{"i_lat":-6.276362,"i_long":106.74273,"line":6,"transit":false,"distance":0,"time":0,"station_id":"PDJ","station_name":"Pondokranji","is_transit":false},{"is_transit":false,"i_long":106.780334,"station_id":"KBY","transit":false,"i_lat":-6.237242,"distance":6218,"station_name":"Kebayoran","time":8,"line":6},{"i_lat":-6.207404,"i_long":106.79689,"line":6,"distance":3737,"station_name":"Palmerah","station_id":"PLM","is_transit":false,"time":7,"transit":false},{"is_transit":true,"transit":true,"line":1,"time":6,"distance":3191,"i_lat":-6.185545,"i_long":106.811091,"station_name":"Tanah Abang","station_id":"THB"},{"station_name":"Duri","i_long":106.800832,"line":1,"station_id":"DU","i_lat":-6.155215,"distance":3632,"is_transit":true,"time":8,"transit":true},{"line":0,"transit":false,"is_transit":false,"distance":1230,"station_id":"AK","time":4,"i_lat":-6.144674,"station_name":"Angke","i_long":106.79867},{"station_name":"Kampung Bandan","i_long":106.826365,"is_transit":true,"i_lat":-6.132549,"line":0,"time":9,"transit":true,"station_id":"KPB","distance":4102},{"distance":1444,"station_name":"Rajawali","i_lat":-6.14505,"station_id":"RJW","is_transit":false,"time":3,"transit":false,"line":11,"i_long":106.836569},{"station_id":"KMO","station_name":"Kemayoran","distance":1901,"time":5,"line":11,"is_transit":false,"transit":false,"i_long":106.839204,"i_lat":-6.161728},{"station_name":"Pasar Senen","line":11,"is_transit":false,"i_lat":-6.174784,"time":4,"distance":1436,"i_long":106.84368,"station_id":"PSE","transit":false},{"station_id":"GST","i_long":106.850107,"line":11,"is_transit":false,"time":8,"station_name":"Gang Sentiong","i_lat":-6.185975,"distance":1567,"transit":false},{"i_lat":-6.193792,"i_long":106.855437,"station_id":"KMT","station_name":"Kramat","distance":973,"time":1,"is_transit":false,"transit":false,"line":11},{"i_long":106.861737,"station_id":"POK","transit":false,"time":2,"line":11,"is_transit":false,"distance":1829,"i_lat":-6.209188,"station_name":"Pondok Jati"},{"line":0,"transit":true,"i_lat":-6.215091,"distance":1236,"station_name":"Jatinegara","is_transit":true,"station_id":"JNG","i_long":106.86807400000001,"time":9},{"line":1,"time":2,"transit":false,"is_transit":false,"station_id":"MTR","distance":1377,"i_long":106.858896,"station_name":"Matraman","i_lat":-6.212485},{"station_id":"MRI","is_transit":true,"time":2,"distance":1275,"transit":true,"i_long":106.84912,"line":0,"i_lat":-6.209883,"station_name":"Manggarai"},{"is_transit":false,"station_name":"Tebet","distance":2610,"i_long":106.857948,"transit":false,"line":2,"time":4,"i_lat":-6.226659,"station_id":"TEB"},{"line":0,"i_lat":-6.242512,"i_long":106.856607,"station_id":"CW","transit":false,"station_name":"Cawang","is_transit":false,"distance":1230,"time":2},{"station_name":"Duren Kalibata","i_long":106.85449,"station_id":"DRN","time":3,"i_lat":-6.255332,"line":0,"distance":1546,"is_transit":false,"transit":false},{"distance":824,"i_long":106.851577,"line":2,"transit":false,"station_name":"Pasar Minggu Baru","station_id":"PSMB","is_transit":false,"time":2,"i_lat":-6.263214},{"station_id":"PSM","station_name":"Pasar Minggu","i_long":106.843999,"transit":false,"line":2,"time":2,"is_transit":false,"distance":2380,"i_lat":-6.2842400000000005},{"time":4,"line":2,"station_name":"Tanjung Barat","i_long":106.838896,"station_id":"TNT","is_transit":false,"i_lat":-6.3080680000000005,"transit":false,"distance":2820},{"station_name":"Lenteng Agung","line":2,"station_id":"LNA","i_long":106.832616,"time":3,"i_lat":-6.330363,"distance":2671,"transit":false,"is_transit":false},{"time":2,"station_id":"UP","line":2,"distance":1029,"transit":false,"station_name":"Univ. Pancasila","is_transit":false,"i_lat":-6.339291,"i_long":106.834175},{"station_id":"UI","station_name":"Univ. Indonesia","distance":2264,"line":2,"i_lat":-6.360749,"i_long":106.831474,"is_transit":false,"transit":false,"time":3},{"station_name":"Pondok Cina","distance":1109,"i_long":106.831114,"station_id":"POC","transit":false,"i_lat":-6.369073,"line":2,"is_transit":false,"time":2},{"i_long":106.819451,"distance":2727,"station_name":"Depokbaru","time":4,"transit":false,"line":0,"is_transit":false,"station_id":"DPB","i_lat":-6.391065},{"transit":false,"time":3,"i_long":106.816926,"station_id":"DP","distance":1584,"is_transit":false,"station_name":"Depok","line":0,"i_lat":-6.405256}]]}