{"data":[[{"transit":false,"line":6,"time":0,"is_transit":false,"distance":0,"station_id":"PDJ","i_long":106.74273,"station_name":"Pondokranji","i_lat":-6.276362},{"station_name":"Kebayoran","station_id":"KBY","i_lat":-6.237242,"transit":false,"is_transit":false,"distance":6218,"i_long":106.780334,"line":6,"time":8},{"is_transit":false,"station_id":"PLM","station_name":"Palmerah","i_long":106.79689,"line":6,"transit":false,"distance":3737,"i_lat":-6.207404,"time":7},{"line":1,"station_name":"Tanah Abang","i_long":106.811091,"distance":3191,"time":6,"station_id":"THB","is_transit":true,"i_lat":-6.185545,"transit":true},{"line":1,"distance":2029,"transit":false,"is_transit":false,"i_lat":-6.20132,"station_name":"Karet","station_id":"KAT","time":5,"i_long":106.816351},{"line":1,"is_transit":false,"transit":false,"distance":471,"i_lat":-6.201433,"time":1,"station_id":"SUDB","station_name":"Sudirman Baru","i_long":106.819881},{"i_lat":-6.202263,"station_id":"SUD","distance":280,"transit":false,"i_long":106.822649,"station_name":"Sudirman","is_transit":false,"time":1,"line":1},{"is_transit":true,"transit":true,"i_lat":-6.209883,"distance":3186,"station_id":"MRI","i_long":106.84912,"line":2,"station_name":"Manggarai","time":4},{"station_id":"CKI","i_lat":-6.198556,"line":2,"i_long":106.840169,"station_name":"Cikini","transit":false,"is_transit":false,"time":4,"distance":1590}],[{"time":0,"distance":0,"i_lat":-6.276362,"station_name":"Pondokranji","i_long":106.74273,"station_id":"PDJ","line":6,"is_transit":false,"transit":false},{"i_long":106.780334,"distance":6218,"transit":false,"line":6,"station_name":"Kebayoran","station_id":"KBY","time":8,"i_lat":-6.237242,"is_transit":false},{"time":7,"transit":false,"station_id":"PLM","station_name":"Palmerah","i_lat":-6.207404,"line":6,"i_long":106.79689,"distance":3737,"is_transit":false},{"station_name":"Tanah Abang","is_transit":true,"distance":3191,"i_long":106.811091,"station_id":"THB","i_lat":-6.185545,"time":6,"line":1,"transit":true},{"is_transit":false,"station_id":"DU","distance":3632,"station_name":"Duri","transit":false,"i_lat":-6.155215,"i_long":106.800832,"time":8,"line":1},{"is_transit":false,"station_name":"Angke","transit":false,"i_lat":-6.144674,"station_id":"AK","time":4,"i_long":106.79867,"line":1,"distance":1230},{"i_lat":-6.132549,"line":4,"distance":4102,"transit":true,"i_long":106.826365,"station_id":"KPB","is_transit":true,"station_name":"Kampung Bandan","time":9},{"station_id":"JAKK","i_lat":-6.137569,"transit":true,"station_name":"Jakarta Kota","is_transit":true,"distance":1364,"i_long":106.812439,"line":2,"time":3},{"i_lat":-6.141205,"i_long":106.820901,"is_transit":false,"station_name":"Jayakarta","distance":1264,"time":4,"line":2,"station_id":"JAY","transit":false},{"station_name":"Manggabesar","i_long":106.82482,"i_lat":-6.149769,"distance":1080,"time":2,"station_id":"MGB","transit":false,"line":2,"is_transit":false},{"line":2,"time":2,"i_lat":-6.160725,"i_long":106.827103,"distance":906,"station_name":"Sawah Besar","station_id":"SW","is_transit":false,"transit":false},{"transit":false,"time":2,"distance":1149,"i_lat":-6.166716,"i_long":106.828284,"line":2,"station_name":"Juanda","station_id":"JUA","is_transit":false},{"is_transit":false,"transit":false,"distance":2015,"i_lat":-6.186295,"line":2,"station_id":"GDD","i_long":106.832183,"time":4,"station_name":"Gondangdia"},{"transit":false,"station_id":"CKI","i_long":106.840169,"line":2,"i_lat":-6.198556,"is_transit":false,"station_name":"Cikini","time":3,"distance":1750}],[{"station_id":"PDJ","i_lat":-6.276362,"i_long":106.74273,"line":6,"is_transit":false,"time":0,"transit":false,"station_name":"Pondokranji","distance":0},{"distance":6218,"station_name":"Kebayoran","i_lat":-6.237242,"time":8,"i_long":106.780334,"is_transit":false,"line":6,"transit":false,"station_id":"KBY"},{"transit":false,"i_long":106.79689,"station_name":"Palmerah","is_transit":false,"station_id":"PLM","i_lat":-6.207404,"line":6,"distance":3737,"time":7},{"station_id":"THB","transit":true,"station_name":"Tanah Abang","i_long":106.811091,"time":6,"line":1,"is_transit":true,"i_lat":-6.185545,"distance":3191},{"is_transit":false,"i_lat":-6.155215,"line":1,"transit":false,"station_id":"DU","distance":3632,"time":8,"i_long":106.800832,"station_name":"Duri"},{"line":1,"station_name":"Angke","i_lat":-6.144674,"is_transit":false,"station_id":"AK","time":4,"transit":false,"i_long":106.79867,"distance":1230},{"i_long":106.826365,"is_transit":true,"distance":4102,"time":9,"line":4,"station_name":"Kampung Bandan","station_id":"KPB","transit":true,"i_lat":-6.132549},{"time":3,"station_name":"Rajawali","i_long":106.836569,"line":11,"is_transit":false,"distance":1444,"transit":false,"station_id":"RJW","i_lat":-6.14505},{"is_transit":false,"station_name":"Kemayoran","line":11,"i_lat":-6.161728,"transit":false,"time":5,"i_long":106.839204,"distance":1901,"station_id":"KMO"},{"transit":false,"time":4,"station_name":"Pasar Senen","station_id":"PSE","i_lat":-6.174784,"line":11,"is_transit":false,"i_long":106.84368,"distance":1436},{"is_transit":false,"i_lat":-6.185975,"i_long":106.850107,"transit":false,"station_name":"Gang Sentiong","line":11,"distance":1567,"time":8,"station_id":"GST"},{"station_id":"KMT","distance":973,"i_long":106.855437,"is_transit":false,"time":1,"transit":false,"i_lat":-6.193792,"line":11,"station_name":"Kramat"},{"station_id":"POK","distance":1829,"line":11,"station_name":"Pondok Jati","time":2,"transit":false,"i_long":106.861737,"is_transit":false,"i_lat":-6.209188},{"station_id":"JNG","is_transit":true,"distance":1236,"i_long":106.86807400000001,"station_name":"Jatinegara","time":9,"transit":true,"i_lat":-6.215091,"line":1},{"station_name":"Matraman","i_lat":-6.212485,"i_long":106.858896,"is_transit":false,"distance":1377,"station_id":"MTR","line":1,"transit":false,"time":2},{"i_long":106.84912,"station_id":"MRI","station_name":"Manggarai","i_lat":-6.209883,"line":2,"transit":true,"time":2,"is_transit":true,"distance":1275},{"distance":1590,"is_transit":false,"i_lat":-6.198556,"transit":false,"i_long":106.840169,"station_name":"Cikini","time":4,"line":2,"station_id":"CKI"}],[{"station_id":"PDJ","station_name":"Pondokranji","distance":0,"i_lat":-6.276362,"line":6,"is_transit":false,"transit":false,"time":0,"i_long":106.74273},{"i_long":106.780334,"line":6,"station_id":"KBY","distance":6218,"station_name":"Kebayoran","transit":false,"is_transit":false,"time":8,"i_lat":-6.237242},{"distance":3737,"station_name":"Palmerah","i_lat":-6.207404,"is_transit":false,"transit":false,"line":6,"time":7,"station_id":"PLM","i_long":106.79689},{"time":6,"i_lat":-6.185545,"station_id":"THB","i_long":106.811091,"is_transit":true,"transit":true,"station_name":"Tanah Abang","line":1,"distance":3191},{"line":1,"is_transit":false,"time":5,"i_long":106.816351,"distance":2029,"station_name":"Karet","station_id":"KAT","transit":false,"i_lat":-6.20132},{"time":1,"i_lat":-6.201433,"line":1,"transit":false,"station_name":"Sudirman Baru","station_id":"SUDB","distance":471,"i_long":106.819881,"is_transit":false},{"station_name":"Sudirman","line":1,"time":1,"i_long":106.822649,"i_lat":-6.202263,"is_transit":false,"station_id":"SUD","transit":false,"distance":280},{"station_name":"Manggarai","is_transit":false,"transit":false,"line":2,"station_id":"MRI","i_long":106.84912,"distance":3186,"i_lat":-6.209883,"time":4},{"time":2,"i_lat":-6.212485,"station_id":"MTR","station_name":"Matraman","is_transit":false,"i_long":106.858896,"line":1,"distance":1275,"transit":false},{"distance":1377,"time":8,"i_lat":-6.215091,"is_transit":true,"transit":true,"i_long":106.86807400000001,"station_name":"Jatinegara","station_id":"JNG","line":1},{"time":2,"transit":false,"station_id":"POK","distance":1236,"i_lat":-6.209188,"line":11,"station_name":"Pondok Jati","i_long":106.861737,"is_transit":false},{"i_lat":-6.193792,"transit":false,"station_name":"Kramat","station_id":"KMT","line":11,"is_transit":false,"distance":1829,"time":2,"i_long":106.855437},{"i_long":106.850107,"station_id":"GST","station_name":"Gang Sentiong","time":1,"is_transit":false,"distance":973,"transit":false,"i_lat":-6.185975,"line":11},{"i_lat":-6.174784,"transit":false,"time":8,"is_transit":false,"distance":1567,"station_id":"PSE","station_name":"Pasar Senen","i_long":106.84368,"line":11},{"line":11,"distance":1436,"station_name":"Kemayoran","transit":false,"i_lat":-6.161728,"is_transit":false,"time":4,"station_id":"KMO","i_long":106.839204},{"time":5,"line":11,"i_long":106.836569,"station_id":"RJW","distance":1901,"i_lat":-6.14505,"is_transit":false,"station_name":"Rajawali","transit":false},{"line":4,"is_transit":true,"distance":1444,"transit":true,"station_id":"KPB","i_long":106.826365,"time":3,"station_name":"Kampung Bandan","i_lat":-6.132549},{"i_long":106.812439,"is_transit":true,"station_name":"Jakarta Kota","station_id":"JAKK","line":2,"time":3,"i_lat":-6.137569,"transit":true,"distance":1364},{"is_transit":false,"time":4,"line":2,"station_id":"JAY","transit":false,"station_name":"Jayakarta","distance":1264,"i_lat":-6.141205,"i_long":106.820901},{"line":2,"i_long":106.82482,"is_transit":false,"distance":1080,"station_id":"MGB","time":2,"transit":false,"station_name":"Manggabesar","i_lat":-6.149769},{"i_lat":-6.160725,"distance":906,"transit":false,"line":2,"time":2,"station_name":"Sawah Besar","station_id":"SW","is_transit":false,"i_long":106.827103},{"i_long":106.828284,"station_id":"JUA","time":2,"distance":1149,"station_name":"Juanda","is_transit":false,"line":2,"i_lat":-6.166716,"transit":false},{"transit":false,"station_id":"GDD","i_long":106.832183,"distance":2015,"station_name":"Gondangdia","is_transit":false,"time":4,"i_lat":-6.186295,"line":2},{"station_id":"CKI","time":3,"i_lat":-6.198556,"i_long":106.840169,"is_transit":false,"transit":false,"distance":1750,"station_name":"Cikini","line":2}]]}