{"data":[[{"time":0,"line":6,"station_id":"PDJ","transit":false,"distance":0,"i_lat":-6.276362,"is_transit":false,"i_long":106.74273,"station_name":"Pondokranji"},{"i_long":106.780334,"station_name":"Kebayoran","i_lat":-6.237242,"is_transit":false,"line":6,"distance":6218,"time":8,"transit":false,"station_id":"KBY"},{"i_lat":-6.207404,"distance":3737,"station_id":"PLM","transit":false,"station_name":"Palmerah","i_long":106.79689,"line":6,"time":7,"is_transit":false},{"station_id":"THB","i_long":106.811091,"time":6,"is_transit":true,"distance":3191,"i_lat":-6.185545,"transit":true,"line":1,"station_name":"Tanah Abang"},{"time":5,"i_long":106.816351,"line":1,"station_name":"Karet","is_transit":false,"i_lat":-6.20132,"transit":false,"distance":2029,"station_id":"KAT"},{"distance":471,"is_transit":false,"i_lat":-6.201433,"station_id":"SUDB","station_name":"Sudirman Baru","i_long":106.819881,"line":1,"time":1,"transit":false},{"transit":false,"station_id":"SUD","station_name":"Sudirman","time":1,"i_long":106.822649,"line":1,"is_transit":false,"distance":280,"i_lat":-6.202263},{"is_transit":true,"i_lat":-6.209883,"line":2,"station_name":"Manggarai","time":4,"i_long":106.84912,"station_id":"MRI","distance":3186,"transit":true},{"transit":false,"time":4,"distance":2610,"station_id":"TEB","i_lat":-6.226659,"i_long":106.857948,"station_name":"Tebet","is_transit":false,"line":2},{"i_long":106.856607,"station_name":"Cawang","distance":1230,"line":2,"transit":false,"time":2,"is_transit":false,"i_lat":-6.242512,"station_id":"CW"},{"station_id":"DRN","is_transit":false,"station_name":"Duren Kalibata","transit":false,"line":2,"i_long":106.85449,"i_lat":-6.255332,"time":3,"distance":1546},{"time":2,"is_transit":false,"line":2,"station_name":"Pasar Minggu Baru","i_long":106.851577,"distance":824,"transit":false,"station_id":"PSMB","i_lat":-6.263214},{"distance":2380,"i_lat":-6.2842400000000005,"transit":false,"station_name":"Pasar Minggu","is_transit":false,"i_long":106.843999,"station_id":"PSM","time":2,"line":2},{"time":4,"distance":2820,"station_id":"TNT","i_lat":-6.3080680000000005,"i_long":106.838896,"is_transit":false,"transit":false,"station_name":"Tanjung Barat","line":2},{"transit":false,"is_transit":false,"i_long":106.832616,"station_name":"Lenteng Agung","time":3,"distance":2671,"i_lat":-6.330363,"line":2,"station_id":"LNA"},{"distance":1029,"i_lat":-6.339291,"i_long":106.834175,"station_id":"UP","time":2,"station_name":"Univ. Pancasila","is_transit":false,"line":2,"transit":false},{"line":2,"transit":false,"is_transit":false,"i_lat":-6.360749,"station_id":"UI","station_name":"Univ. Indonesia","time":3,"i_long":106.831474,"distance":2264},{"distance":1109,"i_lat":-6.369073,"is_transit":false,"i_long":106.831114,"station_name":"Pondok Cina","station_id":"POC","line":2,"time":2,"transit":false},{"station_name":"Depokbaru","distance":2727,"station_id":"DPB","i_lat":-6.391065,"is_transit":false,"line":2,"transit":false,"i_long":106.819451,"time":4},{"line":2,"station_id":"DP","distance":1584,"i_lat":-6.405256,"is_transit":false,"station_name":"Depok","time":3,"transit":false,"i_long":106.816926}],[{"is_transit":false,"transit":false,"distance":0,"i_long":106.74273,"line":6,"i_lat":-6.276362,"time":0,"station_name":"Pondokranji","station_id":"PDJ"},{"is_transit":false,"station_name":"Kebayoran","station_id":"KBY","transit":false,"time":8,"i_lat":-6.237242,"distance":6218,"line":6,"i_long":106.780334},{"distance":3737,"i_long":106.79689,"transit":false,"station_name":"Palmerah","line":6,"station_id":"PLM","time":7,"is_transit":false,"i_lat":-6.207404},{"station_name":"Tanah Abang","is_transit":true,"transit":true,"time":6,"distance":3191,"station_id":"THB","i_lat":-6.185545,"i_long":106.811091,"line":1},{"i_long":106.800832,"is_transit":false,"distance":3632,"i_lat":-6.155215,"transit":false,"line":1,"station_name":"Duri","time":8,"station_id":"DU"},{"i_lat":-6.144674,"is_transit":false,"distance":1230,"line":1,"station_name":"Angke","i_long":106.79867,"transit":false,"station_id":"AK","time":4},{"is_transit":true,"transit":true,"station_id":"KPB","i_long":106.826365,"line":4,"i_lat":-6.132549,"station_name":"Kampung Bandan","time":9,"distance":4102},{"transit":true,"station_name":"Jakarta Kota","is_transit":true,"i_long":106.812439,"line":2,"time":3,"distance":1364,"i_lat":-6.137569,"station_id":"JAKK"},{"is_transit":false,"line":2,"station_name":"Jayakarta","transit":false,"distance":1264,"i_long":106.820901,"station_id":"JAY","i_lat":-6.141205,"time":4},{"transit":false,"station_name":"Manggabesar","distance":1080,"station_id":"MGB","time":2,"is_transit":false,"i_lat":-6.149769,"i_long":106.82482,"line":2},{"line":2,"station_name":"Sawah Besar","distance":906,"time":2,"i_lat":-6.160725,"i_long":106.827103,"is_transit":false,"transit":false,"station_id":"SW"},{"line":2,"station_id":"JUA","transit":false,"time":2,"station_name":"Juanda","distance":1149,"i_long":106.828284,"is_transit":false,"i_lat":-6.166716},{"i_long":106.832183,"distance":2015,"line":2,"station_name":"Gondangdia","i_lat":-6.186295,"station_id":"GDD","time":4,"is_transit":false,"transit":false},{"is_transit":false,"station_id":"CKI","distance":1750,"i_long":106.840169,"line":2,"time":3,"station_name":"Cikini","transit":false,"i_lat":-6.198556},{"distance":1590,"i_long":106.84912,"transit":false,"line":2,"time":4,"station_name":"Manggarai","is_transit":false,"station_id":"MRI","i_lat":-6.209883},{"station_name":"Tebet","time":4,"distance":2610,"i_long":106.857948,"station_id":"TEB","line":2,"i_lat":-6.226659,"transit":false,"is_transit":false},{"time":2,"i_lat":-6.242512,"is_transit":false,"line":2,"station_id":"CW","transit":false,"station_name":"Cawang","i_long":106.856607,"distance":1230},{"line":2,"station_id":"DRN","i_long":106.85449,"transit":false,"distance":1546,"station_name":"Duren Kalibata","is_transit":false,"i_lat":-6.255332,"time":3},{"transit":false,"station_id":"PSMB","time":2,"distance":824,"i_lat":-6.263214,"is_transit":false,"i_long":106.851577,"line":2,"station_name":"Pasar Minggu Baru"},{"i_long":106.843999,"transit":false,"is_transit":false,"station_name":"Pasar Minggu","station_id":"PSM","distance":2380,"i_lat":-6.2842400000000005,"line":2,"time":2},{"time":4,"is_transit":false,"distance":2820,"line":2,"i_lat":-6.3080680000000005,"station_name":"Tanjung Barat","station_id":"TNT","transit":false,"i_long":106.838896},{"station_id":"LNA","is_transit":false,"transit":false,"station_name":"Lenteng Agung","time":3,"i_lat":-6.330363,"i_long":106.832616,"distance":2671,"line":2},{"is_transit":false,"i_lat":-6.339291,"transit":false,"time":2,"station_name":"Univ. Pancasila","i_long":106.834175,"station_id":"UP","distance":1029,"line":2},{"time":3,"transit":false,"station_name":"Univ. Indonesia","line":2,"station_id":"UI","is_transit":false,"i_long":106.831474,"distance":2264,"i_lat":-6.360749},{"station_name":"Pondok Cina","i_long":106.831114,"transit":false,"station_id":"POC","line":2,"distance":1109,"i_lat":-6.369073,"time":2,"is_transit":false},{"i_lat":-6.391065,"transit":false,"i_long":106.819451,"is_transit":false,"time":4,"station_name":"Depokbaru","line":2,"station_id":"DPB","distance":2727},{"distance":1584,"is_transit":false,"station_name":"Depok","transit":false,"line":2,"i_lat":-6.405256,"i_long":106.816926,"time":3,"station_id":"DP"}],[{"station_id":"PDJ","is_transit":false,"distance":0,"station_name":"Pondokranji","transit":false,"time":0,"line":6,"i_long":106.74273,"i_lat":-6.276362},{"is_transit":false,"i_lat":-6.237242,"i_long":106.780334,"station_id":"KBY","station_name":"Kebayoran","time":8,"transit":false,"distance":6218,"line":6},{"station_id":"PLM","distance":3737,"is_transit":false,"time":7,"i_lat":-6.207404,"line":6,"station_name":"Palmerah","i_long":106.79689,"transit":false},{"station_id":"THB","time":6,"station_name":"Tanah Abang","is_transit":true,"transit":true,"i_long":106.811091,"i_lat":-6.185545,"distance":3191,"line":1},{"i_lat":-6.155215,"line":1,"time":8,"station_id":"DU","station_name":"Duri","is_transit":false,"distance":3632,"transit":false,"i_long":106.800832},{"line":1,"station_name":"Angke","time":4,"i_lat":-6.144674,"i_long":106.79867,"transit":false,"is_transit":false,"distance":1230,"station_id":"AK"},{"distance":4102,"i_long":106.826365,"time":9,"station_id":"KPB","line":4,"transit":true,"i_lat":-6.132549,"station_name":"Kampung Bandan","is_transit":true},{"is_transit":false,"station_name":"Rajawali","time":3,"distance":1444,"transit":false,"station_id":"RJW","line":11,"i_long":106.836569,"i_lat":-6.14505},{"time":5,"line":11,"distance":1901,"i_long":106.839204,"station_id":"KMO","transit":false,"i_lat":-6.161728,"is_transit":false,"station_name":"Kemayoran"},{"i_long":106.84368,"station_id":"PSE","is_transit":false,"i_lat":-6.174784,"line":11,"station_name":"Pasar Senen","distance":1436,"time":4,"transit":false},{"i_long":106.850107,"time":8,"i_lat":-6.185975,"line":11,"is_transit":false,"transit":false,"station_id":"GST","station_name":"Gang Sentiong","distance":1567},{"transit":false,"station_id":"KMT","time":1,"i_long":106.855437,"line":11,"i_lat":-6.193792,"is_transit":false,"distance":973,"station_name":"Kramat"},{"i_lat":-6.209188,"i_long":106.861737,"station_id":"POK","time":2,"line":11,"transit":false,"is_transit":false,"distance":1829,"station_name":"Pondok Jati"},{"station_id":"JNG","time":9,"distance":1236,"transit":true,"line":1,"is_transit":true,"i_lat":-6.215091,"station_name":"Jatinegara","i_long":106.86807400000001},{"distance":1377,"transit":false,"station_id":"MTR","i_lat":-6.212485,"i_long":106.858896,"line":1,"is_transit":false,"time":2,"station_name":"Matraman"},{"station_name":"Manggarai","line":2,"station_id":"MRI","i_long":106.84912,"distance":1275,"transit":true,"time":2,"is_transit":true,"i_lat":-6.209883},{"time":4,"station_name":"Tebet","transit":false,"i_lat":-6.226659,"line":2,"is_transit":false,"distance":2610,"station_id":"TEB","i_long":106.857948},{"distance":1230,"station_id":"CW","time":2,"is_transit":false,"station_name":"Cawang","i_lat":-6.242512,"line":2,"i_long":106.856607,"transit":false},{"station_name":"Duren Kalibata","i_long":106.85449,"line":2,"station_id":"DRN","transit":false,"i_lat":-6.255332,"is_transit":false,"distance":1546,"time":3},{"distance":824,"i_long":106.851577,"station_name":"Pasar Minggu Baru","transit":false,"line":2,"is_transit":false,"time":2,"i_lat":-6.263214,"station_id":"PSMB"},{"distance":2380,"transit":false,"is_transit":false,"station_id":"PSM","time":2,"station_name":"Pasar Minggu","i_long":106.843999,"i_lat":-6.2842400000000005,"line":2},{"station_id":"TNT","i_lat":-6.3080680000000005,"time":4,"is_transit":false,"transit":false,"line":2,"station_name":"Tanjung Barat","distance":2820,"i_long":106.838896},{"i_long":106.832616,"time":3,"station_name":"Lenteng Agung","is_transit":false,"station_id":"LNA","line":2,"distance":2671,"transit":false,"i_lat":-6.330363},{"is_transit":false,"i_lat":-6.339291,"transit":false,"line":2,"distance":1029,"station_name":"Univ. Pancasila","station_id":"UP","time":2,"i_long":106.834175},{"line":2,"station_name":"Univ. Indonesia","i_lat":-6.360749,"station_id":"UI","is_transit":false,"distance":2264,"transit":false,"time":3,"i_long":106.831474},{"line":2,"time":2,"i_lat":-6.369073,"station_name":"Pondok Cina","is_transit":false,"station_id":"POC","i_long":106.831114,"distance":1109,"transit":false},{"distance":2727,"i_long":106.819451,"is_transit":false,"i_lat":-6.391065,"station_name":"Depokbaru","station_id":"DPB","line":2,"time":4,"transit":false},{"transit":false,"time":3,"i_long":106.816926,"is_transit":false,"station_name":"Depok","i_lat":-6.405256,"station_id":"DP","distance":1584,"line":2}]]}