{"data":[[{"transit":false,"station_id":"PDJ","is_transit":false,"time":0,"i_long":106.74273,"line":6,"station_name":"Pondokranji","distance":0,"i_lat":-6.276362},{"transit":false,"i_lat":-6.237242,"i_long":106.780334,"time":8,"is_transit":false,"station_id":"KBY","station_name":"Kebayoran","distance":6218,"line":6},{"distance":3737,"transit":false,"station_name":"Palmerah","i_long":106.79689,"time":7,"line":6,"station_id":"PLM","i_lat":-6.207404,"is_transit":false},{"station_id":"THB","is_transit":true,"time":6,"transit":true,"i_lat":-6.185545,"station_name":"Tanah Abang","distance":3191,"i_long":106.811091,"line":1},{"line":1,"i_long":106.800832,"i_lat":-6.155215,"time":8,"station_id":"DU","distance":3632,"is_transit":false,"transit":false,"station_name":"Duri"},{"transit":false,"line":1,"station_id":"AK","distance":1230,"is_transit":false,"station_name":"Angke","i_lat":-6.144674,"time":4,"i_long":106.79867},{"i_lat":-6.132549,"transit":false,"is_transit":false,"station_id":"KPB","i_long":106.826365,"station_name":"Kampung Bandan","time":9,"distance":4102,"line":4}],[{"is_transit":false,"line":6,"distance":0,"time":0,"i_lat":-6.276362,"transit":false,"i_long":106.74273,"station_id":"PDJ","station_name":"Pondokranji"},{"transit":false,"line":6,"station_id":"KBY","station_name":"Kebayoran","is_transit":false,"time":8,"distance":6218,"i_lat":-6.237242,"i_long":106.780334},{"station_name":"Palmerah","is_transit":false,"time":7,"i_lat":-6.207404,"distance":3737,"station_id":"PLM","transit":false,"line":6,"i_long":106.79689},{"station_name":"Tanah Abang","time":6,"is_transit":true,"transit":true,"i_lat":-6.185545,"i_long":106.811091,"line":1,"station_id":"THB","distance":3191},{"is_transit":false,"station_name":"Karet","station_id":"KAT","i_long":106.816351,"line":1,"transit":false,"time":5,"i_lat":-6.20132,"distance":2029},{"is_transit":false,"station_name":"Sudirman Baru","transit":false,"i_lat":-6.201433,"time":1,"line":1,"station_id":"SUDB","i_long":106.819881,"distance":471},{"transit":false,"i_lat":-6.202263,"distance":280,"station_name":"Sudirman","station_id":"SUD","time":1,"i_long":106.822649,"is_transit":false,"line":1},{"distance":3186,"time":4,"i_lat":-6.209883,"is_transit":true,"station_id":"MRI","station_name":"Manggarai","i_long":106.84912,"transit":true,"line":2},{"time":4,"station_name":"Cikini","distance":1590,"i_lat":-6.198556,"is_transit":false,"i_long":106.840169,"line":2,"transit":false,"station_id":"CKI"},{"transit":false,"station_name":"Gondangdia","time":3,"line":2,"is_transit":false,"station_id":"GDD","distance":1750,"i_lat":-6.186295,"i_long":106.832183},{"i_lat":-6.166716,"is_transit":false,"transit":false,"distance":2015,"station_name":"Juanda","station_id":"JUA","time":4,"i_long":106.828284,"line":2},{"time":2,"station_name":"Sawah Besar","line":2,"is_transit":false,"i_long":106.827103,"transit":false,"station_id":"SW","i_lat":-6.160725,"distance":1149},{"distance":906,"line":2,"i_long":106.82482,"transit":false,"time":2,"station_name":"Manggabesar","i_lat":-6.149769,"is_transit":false,"station_id":"MGB"},{"i_long":106.820901,"line":2,"station_id":"JAY","transit":false,"station_name":"Jayakarta","is_transit":false,"i_lat":-6.141205,"time":2,"distance":1080},{"distance":1264,"i_lat":-6.137569,"station_id":"JAKK","station_name":"Jakarta Kota","transit":true,"time":4,"line":2,"is_transit":true,"i_long":106.812439},{"is_transit":false,"i_long":106.826365,"line":4,"station_id":"KPB","station_name":"Kampung Bandan","distance":1364,"time":3,"transit":false,"i_lat":-6.132549}],[{"station_id":"PDJ","i_long":106.74273,"is_transit":false,"time":0,"transit":false,"line":6,"station_name":"Pondokranji","i_lat":-6.276362,"distance":0},{"transit":false,"line":6,"station_name":"Kebayoran","station_id":"KBY","is_transit":false,"time":8,"i_lat":-6.237242,"i_long":106.780334,"distance":6218},{"station_name":"Palmerah","distance":3737,"line":6,"i_lat":-6.207404,"i_long":106.79689,"is_transit":false,"station_id":"PLM","transit":false,"time":7},{"time":6,"i_long":106.811091,"station_id":"THB","is_transit":true,"transit":true,"station_name":"Tanah Abang","distance":3191,"i_lat":-6.185545,"line":1},{"line":1,"i_lat":-6.20132,"station_id":"KAT","transit":false,"i_long":106.816351,"station_name":"Karet","time":5,"distance":2029,"is_transit":false},{"i_lat":-6.201433,"distance":471,"transit":false,"station_id":"SUDB","station_name":"Sudirman Baru","is_transit":false,"line":1,"time":1,"i_long":106.819881},{"station_id":"SUD","transit":false,"is_transit":false,"time":1,"i_long":106.822649,"station_name":"Sudirman","line":1,"i_lat":-6.202263,"distance":280},{"i_long":106.84912,"is_transit":false,"station_name":"Manggarai","station_id":"MRI","line":2,"time":4,"i_lat":-6.209883,"transit":false,"distance":3186},{"is_transit":false,"time":2,"line":1,"station_id":"MTR","transit":false,"station_name":"Matraman","distance":1275,"i_lat":-6.212485,"i_long":106.858896},{"line":1,"i_long":106.86807400000001,"is_transit":true,"distance":1377,"station_id":"JNG","time":8,"transit":true,"station_name":"Jatinegara","i_lat":-6.215091},{"i_lat":-6.209188,"distance":1236,"transit":false,"line":11,"time":2,"station_name":"Pondok Jati","station_id":"POK","is_transit":false,"i_long":106.861737},{"i_long":106.855437,"station_id":"KMT","time":2,"distance":1829,"station_name":"Kramat","is_transit":false,"line":11,"i_lat":-6.193792,"transit":false},{"transit":false,"station_id":"GST","i_long":106.850107,"distance":973,"station_name":"Gang Sentiong","is_transit":false,"time":1,"i_lat":-6.185975,"line":11},{"station_id":"PSE","time":8,"i_lat":-6.174784,"i_long":106.84368,"is_transit":false,"transit":false,"station_name":"Pasar Senen","distance":1567,"line":11},{"station_id":"KMO","i_long":106.839204,"transit":false,"line":11,"i_lat":-6.161728,"station_name":"Kemayoran","is_transit":false,"time":4,"distance":1436},{"distance":1901,"i_long":106.836569,"line":11,"i_lat":-6.14505,"time":5,"is_transit":false,"station_id":"RJW","transit":false,"station_name":"Rajawali"},{"station_id":"KPB","time":3,"transit":false,"distance":1444,"station_name":"Kampung Bandan","i_lat":-6.132549,"is_transit":false,"i_long":106.826365,"line":4}]]}