{"data":[[{"line":6,"transit":false,"is_transit":false,"station_name":"Pondokranji","time":0,"station_id":"PDJ","i_lat":-6.276362,"i_long":106.74273,"distance":0},{"i_lat":-6.237242,"time":8,"line":6,"station_name":"Kebayoran","transit":false,"is_transit":false,"station_id":"KBY","distance":6218,"i_long":106.780334},{"line":6,"i_lat":-6.207404,"station_name":"Palmerah","time":7,"is_transit":false,"transit":false,"station_id":"PLM","distance":3737,"i_long":106.79689},{"station_id":"THB","time":6,"distance":3191,"station_name":"Tanah Abang","i_lat":-6.185545,"is_transit":true,"i_long":106.811091,"transit":true,"line":1},{"transit":false,"i_lat":-6.20132,"i_long":106.816351,"is_transit":false,"line":1,"time":5,"station_id":"KAT","distance":2029,"station_name":"Karet"},{"station_name":"Sudirman Baru","distance":471,"transit":false,"i_lat":-6.201433,"time":1,"i_long":106.819881,"is_transit":false,"station_id":"SUDB","line":1},{"station_name":"Sudirman","transit":false,"station_id":"SUD","i_long":106.822649,"i_lat":-6.202263,"time":1,"line":1,"is_transit":false,"distance":280},{"time":4,"is_transit":true,"station_name":"Manggarai","i_lat":-6.209883,"distance":3186,"transit":true,"i_long":106.84912,"line":2,"station_id":"MRI"},{"distance":2610,"i_lat":-6.226659,"station_id":"TEB","transit":false,"station_name":"Tebet","is_transit":false,"time":4,"line":2,"i_long":106.857948},{"station_name":"Cawang","transit":false,"line":2,"distance":1230,"i_lat":-6.242512,"i_long":106.856607,"station_id":"CW","is_transit":false,"time":2},{"station_name":"Duren Kalibata","station_id":"DRN","is_transit":false,"transit":false,"i_long":106.85449,"line":2,"time":3,"distance":1546,"i_lat":-6.255332}],[{"station_id":"PDJ","i_long":106.74273,"time":0,"line":6,"i_lat":-6.276362,"station_name":"Pondokranji","is_transit":false,"distance":0,"transit":false},{"line":6,"station_name":"Kebayoran","station_id":"KBY","distance":6218,"time":8,"i_lat":-6.237242,"transit":false,"is_transit":false,"i_long":106.780334},{"transit":false,"is_transit":false,"i_long":106.79689,"distance":3737,"station_id":"PLM","station_name":"Palmerah","i_lat":-6.207404,"line":6,"time":7},{"is_transit":true,"time":6,"i_lat":-6.185545,"i_long":106.811091,"transit":true,"line":1,"station_id":"THB","station_name":"Tanah Abang","distance":3191},{"is_transit":false,"time":8,"transit":false,"distance":3632,"i_long":106.800832,"line":1,"station_id":"DU","station_name":"Duri","i_lat":-6.155215},{"line":1,"transit":false,"is_transit":false,"distance":1230,"i_long":106.79867,"station_id":"AK","station_name":"Angke","time":4,"i_lat":-6.144674},{"transit":true,"station_name":"Kampung Bandan","i_long":106.826365,"station_id":"KPB","is_transit":true,"time":9,"distance":4102,"i_lat":-6.132549,"line":4},{"time":3,"is_transit":true,"i_lat":-6.137569,"station_id":"JAKK","station_name":"Jakarta Kota","transit":true,"distance":1364,"i_long":106.812439,"line":2},{"i_lat":-6.141205,"time":4,"i_long":106.820901,"is_transit":false,"distance":1264,"transit":false,"line":2,"station_name":"Jayakarta","station_id":"JAY"},{"is_transit":false,"i_lat":-6.149769,"transit":false,"distance":1080,"time":2,"i_long":106.82482,"station_id":"MGB","line":2,"station_name":"Manggabesar"},{"time":2,"is_transit":false,"station_name":"Sawah Besar","station_id":"SW","i_lat":-6.160725,"line":2,"distance":906,"transit":false,"i_long":106.827103},{"station_name":"Juanda","i_lat":-6.166716,"transit":false,"station_id":"JUA","is_transit":false,"line":2,"time":2,"i_long":106.828284,"distance":1149},{"transit":false,"i_lat":-6.186295,"line":2,"station_name":"Gondangdia","is_transit":false,"distance":2015,"station_id":"GDD","time":4,"i_long":106.832183},{"time":3,"is_transit":false,"i_lat":-6.198556,"i_long":106.840169,"station_name":"Cikini","line":2,"transit":false,"distance":1750,"station_id":"CKI"},{"i_lat":-6.209883,"time":4,"i_long":106.84912,"line":2,"distance":1590,"station_id":"MRI","is_transit":false,"station_name":"Manggarai","transit":false},{"line":2,"transit":false,"time":4,"station_name":"Tebet","i_lat":-6.226659,"is_transit":false,"i_long":106.857948,"station_id":"TEB","distance":2610},{"station_id":"CW","distance":1230,"time":2,"i_lat":-6.242512,"transit":false,"is_transit":false,"line":2,"station_name":"Cawang","i_long":106.856607},{"i_long":106.85449,"time":3,"i_lat":-6.255332,"station_id":"DRN","transit":false,"station_name":"Duren Kalibata","is_transit":false,"distance":1546,"line":2}],[{"station_name":"Pondokranji","distance":0,"i_lat":-6.276362,"time":0,"i_long":106.74273,"is_transit":false,"station_id":"PDJ","line":6,"transit":false},{"distance":6218,"time":8,"i_lat":-6.237242,"is_transit":false,"station_id":"KBY","transit":false,"i_long":106.780334,"line":6,"station_name":"Kebayoran"},{"transit":false,"station_name":"Palmerah","station_id":"PLM","distance":3737,"i_long":106.79689,"line":6,"is_transit":false,"time":7,"i_lat":-6.207404},{"station_name":"Tanah Abang","time":6,"transit":true,"distance":3191,"i_lat":-6.185545,"station_id":"THB","i_long":106.811091,"line":1,"is_transit":true},{"distance":3632,"time":8,"i_long":106.800832,"station_name":"Duri","line":1,"station_id":"DU","is_transit":false,"i_lat":-6.155215,"transit":false},{"transit":false,"station_name":"Angke","i_lat":-6.144674,"i_long":106.79867,"is_transit":false,"station_id":"AK","time":4,"line":1,"distance":1230},{"i_lat":-6.132549,"time":9,"distance":4102,"transit":true,"is_transit":true,"i_long":106.826365,"station_id":"KPB","line":4,"station_name":"Kampung Bandan"},{"distance":1444,"station_id":"RJW","station_name":"Rajawali","i_long":106.836569,"is_transit":false,"line":11,"i_lat":-6.14505,"transit":false,"time":3},{"station_name":"Kemayoran","i_long":106.839204,"station_id":"KMO","transit":false,"i_lat":-6.161728,"line":11,"time":5,"distance":1901,"is_transit":false},{"time":4,"distance":1436,"is_transit":false,"i_lat":-6.174784,"line":11,"i_long":106.84368,"transit":false,"station_id":"PSE","station_name":"Pasar Senen"},{"station_id":"GST","station_name":"Gang Sentiong","distance":1567,"i_long":106.850107,"i_lat":-6.185975,"line":11,"is_transit":false,"time":8,"transit":false},{"distance":973,"i_lat":-6.193792,"transit":false,"i_long":106.855437,"is_transit":false,"line":11,"time":1,"station_id":"KMT","station_name":"Kramat"},{"transit":false,"i_lat":-6.209188,"is_transit":false,"i_long":106.861737,"station_id":"POK","station_name":"Pondok Jati","distance":1829,"time":2,"line":11},{"transit":true,"station_name":"Jatinegara","is_transit":true,"distance":1236,"time":9,"line":1,"i_long":106.86807400000001,"station_id":"JNG","i_lat":-6.215091},{"distance":1377,"is_transit":false,"line":1,"station_name":"Matraman","time":2,"station_id":"MTR","transit":false,"i_lat":-6.212485,"i_long":106.858896},{"line":2,"station_name":"Manggarai","transit":true,"i_long":106.84912,"time":2,"distance":1275,"station_id":"MRI","is_transit":true,"i_lat":-6.209883},{"station_id":"TEB","distance":2610,"time":4,"i_lat":-6.226659,"transit":false,"line":2,"i_long":106.857948,"is_transit":false,"station_name":"Tebet"},{"distance":1230,"transit":false,"station_id":"CW","station_name":"Cawang","is_transit":false,"i_lat":-6.242512,"i_long":106.856607,"line":2,"time":2},{"distance":1546,"i_lat":-6.255332,"station_name":"Duren Kalibata","is_transit":false,"station_id":"DRN","time":3,"i_long":106.85449,"line":2,"transit":false}]]}