{"data":[[{"is_transit":false,"i_long":106.74273,"line":6,"station_name":"Pondokranji","i_lat":-6.276362,"station_id":"PDJ","distance":0,"transit":false,"time":0},{"distance":2179,"is_transit":false,"station_id":"JMU","station_name":"Jurangmangu","i_lat":-6.288927,"i_long":106.728916,"line":6,"transit":false,"time":3},{"line":6,"distance":1994,"is_transit":false,"station_id":"SDM","time":4,"station_name":"Sudimara","transit":false,"i_lat":-6.296963,"i_long":106.712277},{"time":6,"station_name":"Rawa Buntu","station_id":"RU","is_transit":false,"i_lat":-6.314823,"i_long":106.675475,"transit":false,"distance":4566,"line":6},{"line":6,"distance":2413,"time":4,"station_id":"SRP","station_name":"Serpong","i_lat":-6.319871,"is_transit":false,"transit":false,"i_long":106.66566}]]}