{"data":[[{"i_long":106.74273,"time":0,"distance":0,"station_id":"PDJ","transit":false,"station_name":"Pondokranji","is_transit":false,"line":6,"i_lat":-6.276362},{"i_long":106.780334,"line":6,"i_lat":-6.237242,"distance":6218,"transit":false,"station_name":"Kebayoran","station_id":"KBY","is_transit":false,"time":8},{"station_id":"PLM","line":6,"station_name":"Palmerah","is_transit":false,"time":7,"i_lat":-6.207404,"i_long":106.79689,"distance":3737,"transit":false},{"is_transit":true,"station_name":"Tanah Abang","i_lat":-6.185545,"line":1,"station_id":"THB","time":6,"distance":3191,"transit":true,"i_long":106.811091},{"is_transit":false,"distance":3632,"time":8,"transit":false,"i_lat":-6.155215,"line":1,"station_name":"Duri","station_id":"DU","i_long":106.800832},{"i_lat":-6.144674,"station_id":"AK","i_long":106.79867,"time":4,"distance":1230,"station_name":"Angke","is_transit":false,"transit":false,"line":1},{"transit":true,"station_id":"KPB","line":4,"station_name":"Kampung Bandan","distance":4102,"i_lat":-6.132549,"i_long":106.826365,"is_transit":true,"time":9},{"is_transit":false,"station_id":"AC","time":4,"i_lat":-6.128023,"line":4,"transit":false,"i_long":106.84464,"distance":2185,"station_name":"Ancol"},{"is_transit":false,"station_name":"Tanjung Priuk","time":9,"transit":false,"line":4,"distance":4566,"i_lat":-6.1109480000000005,"i_long":106.880089,"station_id":"TPK"}],[{"time":0,"line":6,"i_long":106.74273,"i_lat":-6.276362,"station_name":"Pondokranji","transit":false,"station_id":"PDJ","is_transit":false,"distance":0},{"i_lat":-6.237242,"line":6,"is_transit":false,"transit":false,"distance":6218,"station_id":"KBY","time":8,"i_long":106.780334,"station_name":"Kebayoran"},{"station_name":"Palmerah","i_lat":-6.207404,"transit":false,"time":7,"distance":3737,"line":6,"is_transit":false,"station_id":"PLM","i_long":106.79689},{"distance":3191,"station_name":"Tanah Abang","i_long":106.811091,"transit":true,"i_lat":-6.185545,"line":1,"station_id":"THB","is_transit":true,"time":6},{"i_long":106.816351,"distance":2029,"station_name":"Karet","station_id":"KAT","transit":false,"time":5,"is_transit":false,"i_lat":-6.20132,"line":1},{"i_lat":-6.201433,"distance":471,"time":1,"line":1,"station_id":"SUDB","transit":false,"station_name":"Sudirman Baru","i_long":106.819881,"is_transit":false},{"time":1,"line":1,"station_id":"SUD","i_long":106.822649,"distance":280,"i_lat":-6.202263,"transit":false,"is_transit":false,"station_name":"Sudirman"},{"is_transit":true,"station_id":"MRI","time":4,"i_lat":-6.209883,"i_long":106.84912,"transit":true,"distance":3186,"line":2,"station_name":"Manggarai"},{"line":2,"time":4,"i_long":106.840169,"distance":1590,"station_id":"CKI","is_transit":false,"transit":false,"station_name":"Cikini","i_lat":-6.198556},{"transit":false,"is_transit":false,"time":3,"station_name":"Gondangdia","distance":1750,"i_long":106.832183,"line":2,"station_id":"GDD","i_lat":-6.186295},{"transit":false,"time":4,"line":2,"i_long":106.828284,"station_id":"JUA","distance":2015,"station_name":"Juanda","is_transit":false,"i_lat":-6.166716},{"i_lat":-6.160725,"line":2,"i_long":106.827103,"time":2,"station_name":"Sawah Besar","distance":1149,"transit":false,"is_transit":false,"station_id":"SW"},{"transit":false,"i_lat":-6.149769,"distance":906,"station_id":"MGB","station_name":"Manggabesar","time":2,"i_long":106.82482,"is_transit":false,"line":2},{"i_lat":-6.141205,"is_transit":false,"distance":1080,"line":2,"station_name":"Jayakarta","station_id":"JAY","i_long":106.820901,"transit":false,"time":2},{"time":4,"i_lat":-6.137569,"i_long":106.812439,"transit":true,"distance":1264,"is_transit":true,"station_name":"Jakarta Kota","station_id":"JAKK","line":2},{"i_long":106.826365,"distance":1364,"is_transit":true,"i_lat":-6.132549,"time":3,"transit":true,"line":4,"station_name":"Kampung Bandan","station_id":"KPB"},{"station_id":"AC","line":4,"station_name":"Ancol","i_lat":-6.128023,"i_long":106.84464,"time":4,"distance":2185,"is_transit":false,"transit":false},{"transit":false,"station_name":"Tanjung Priuk","is_transit":false,"station_id":"TPK","i_long":106.880089,"i_lat":-6.1109480000000005,"distance":4566,"line":4,"time":9}],[{"distance":0,"time":0,"station_name":"Pondokranji","transit":false,"station_id":"PDJ","line":6,"i_lat":-6.276362,"i_long":106.74273,"is_transit":false},{"time":8,"i_long":106.780334,"station_name":"Kebayoran","line":6,"station_id":"KBY","is_transit":false,"i_lat":-6.237242,"transit":false,"distance":6218},{"time":7,"transit":false,"station_name":"Palmerah","is_transit":false,"line":6,"i_long":106.79689,"station_id":"PLM","i_lat":-6.207404,"distance":3737},{"distance":3191,"i_long":106.811091,"line":1,"i_lat":-6.185545,"station_name":"Tanah Abang","station_id":"THB","is_transit":true,"transit":true,"time":6},{"i_long":106.816351,"time":5,"station_name":"Karet","transit":false,"station_id":"KAT","distance":2029,"is_transit":false,"i_lat":-6.20132,"line":1},{"transit":false,"i_lat":-6.201433,"i_long":106.819881,"time":1,"station_id":"SUDB","is_transit":false,"station_name":"Sudirman Baru","distance":471,"line":1},{"transit":false,"time":1,"station_name":"Sudirman","station_id":"SUD","i_lat":-6.202263,"i_long":106.822649,"is_transit":false,"line":1,"distance":280},{"i_long":106.84912,"station_name":"Manggarai","is_transit":false,"line":2,"i_lat":-6.209883,"station_id":"MRI","distance":3186,"transit":false,"time":4},{"is_transit":false,"time":2,"station_id":"MTR","distance":1275,"transit":false,"i_long":106.858896,"line":1,"i_lat":-6.212485,"station_name":"Matraman"},{"distance":1377,"station_id":"JNG","i_long":106.86807400000001,"line":1,"transit":true,"is_transit":true,"time":8,"i_lat":-6.215091,"station_name":"Jatinegara"},{"is_transit":false,"station_name":"Pondok Jati","line":11,"time":2,"distance":1236,"i_long":106.861737,"station_id":"POK","i_lat":-6.209188,"transit":false},{"transit":false,"station_name":"Kramat","line":11,"time":2,"i_long":106.855437,"is_transit":false,"i_lat":-6.193792,"distance":1829,"station_id":"KMT"},{"time":1,"i_lat":-6.185975,"is_transit":false,"i_long":106.850107,"station_name":"Gang Sentiong","line":11,"distance":973,"station_id":"GST","transit":false},{"i_long":106.84368,"station_id":"PSE","time":8,"distance":1567,"is_transit":false,"i_lat":-6.174784,"station_name":"Pasar Senen","transit":false,"line":11},{"line":11,"distance":1436,"station_id":"KMO","is_transit":false,"station_name":"Kemayoran","transit":false,"time":4,"i_lat":-6.161728,"i_long":106.839204},{"i_long":106.836569,"i_lat":-6.14505,"distance":1901,"line":11,"station_id":"RJW","station_name":"Rajawali","is_transit":false,"time":5,"transit":false},{"time":3,"station_id":"KPB","distance":1444,"transit":true,"station_name":"Kampung Bandan","i_lat":-6.132549,"i_long":106.826365,"is_transit":true,"line":4},{"distance":2185,"station_name":"Ancol","time":4,"transit":false,"station_id":"AC","line":4,"i_lat":-6.128023,"is_transit":false,"i_long":106.84464},{"line":4,"i_lat":-6.1109480000000005,"time":9,"station_id":"TPK","is_transit":false,"distance":4566,"station_name":"Tanjung Priuk","i_long":106.880089,"transit":false}]]}