{"data":[[{"is_transit":false,"distance":0,"station_name":"Pondokranji","line":6,"time":0,"i_long":106.74273,"i_lat":-6.276362,"station_id":"PDJ","transit":false},{"i_long":106.780334,"station_name":"Kebayoran","is_transit":false,"distance":6218,"line":6,"i_lat":-6.237242,"transit":false,"time":8,"station_id":"KBY"},{"station_id":"PLM","transit":false,"distance":3737,"i_lat":-6.207404,"line":6,"time":7,"is_transit":false,"i_long":106.79689,"station_name":"Palmerah"},{"station_name":"Tanah Abang","is_transit":true,"time":6,"distance":3191,"line":1,"i_lat":-6.185545,"station_id":"THB","transit":true,"i_long":106.811091},{"distance":2029,"is_transit":false,"transit":false,"i_long":106.816351,"station_id":"KAT","time":5,"station_name":"Karet","i_lat":-6.20132,"line":1},{"line":1,"is_transit":false,"transit":false,"distance":471,"time":1,"station_id":"SUDB","i_lat":-6.201433,"station_name":"Sudirman Baru","i_long":106.819881},{"time":1,"transit":false,"station_name":"Sudirman","distance":280,"is_transit":false,"station_id":"SUD","i_lat":-6.202263,"i_long":106.822649,"line":1},{"i_long":106.84912,"station_id":"MRI","time":4,"distance":3186,"line":2,"station_name":"Manggarai","i_lat":-6.209883,"is_transit":true,"transit":true},{"line":2,"station_name":"Tebet","transit":false,"distance":2610,"i_long":106.857948,"station_id":"TEB","time":4,"is_transit":false,"i_lat":-6.226659},{"distance":1230,"time":2,"i_lat":-6.242512,"line":2,"station_id":"CW","is_transit":false,"i_long":106.856607,"station_name":"Cawang","transit":false},{"time":3,"station_id":"DRN","station_name":"Duren Kalibata","is_transit":false,"i_lat":-6.255332,"distance":1546,"transit":false,"i_long":106.85449,"line":2},{"distance":824,"time":2,"transit":false,"station_id":"PSMB","station_name":"Pasar Minggu Baru","i_lat":-6.263214,"is_transit":false,"i_long":106.851577,"line":2},{"station_name":"Pasar Minggu","line":2,"time":2,"distance":2380,"is_transit":false,"station_id":"PSM","transit":false,"i_lat":-6.2842400000000005,"i_long":106.843999},{"line":2,"distance":2820,"i_long":106.838896,"station_id":"TNT","time":4,"station_name":"Tanjung Barat","transit":false,"is_transit":false,"i_lat":-6.3080680000000005},{"i_lat":-6.330363,"i_long":106.832616,"time":3,"station_name":"Lenteng Agung","distance":2671,"transit":false,"line":2,"is_transit":false,"station_id":"LNA"},{"is_transit":false,"i_long":106.834175,"station_id":"UP","distance":1029,"station_name":"Univ. Pancasila","transit":false,"i_lat":-6.339291,"line":2,"time":2}],[{"transit":false,"station_id":"PDJ","line":6,"time":0,"distance":0,"i_lat":-6.276362,"is_transit":false,"station_name":"Pondokranji","i_long":106.74273},{"station_name":"Kebayoran","i_lat":-6.237242,"station_id":"KBY","is_transit":false,"time":8,"transit":false,"distance":6218,"i_long":106.780334,"line":6},{"station_id":"PLM","time":7,"is_transit":false,"i_lat":-6.207404,"distance":3737,"transit":false,"station_name":"Palmerah","i_long":106.79689,"line":6},{"station_id":"THB","is_transit":true,"station_name":"Tanah Abang","i_long":106.811091,"line":1,"time":6,"distance":3191,"transit":true,"i_lat":-6.185545},{"distance":3632,"station_id":"DU","is_transit":false,"line":1,"i_long":106.800832,"i_lat":-6.155215,"station_name":"Duri","transit":false,"time":8},{"station_name":"Angke","distance":1230,"i_long":106.79867,"is_transit":false,"transit":false,"i_lat":-6.144674,"line":1,"time":4,"station_id":"AK"},{"distance":4102,"i_long":106.826365,"transit":true,"station_id":"KPB","time":9,"station_name":"Kampung Bandan","is_transit":true,"line":4,"i_lat":-6.132549},{"time":3,"transit":true,"station_id":"JAKK","is_transit":true,"i_lat":-6.137569,"i_long":106.812439,"line":2,"distance":1364,"station_name":"Jakarta Kota"},{"i_long":106.820901,"time":4,"distance":1264,"station_name":"Jayakarta","transit":false,"line":2,"station_id":"JAY","i_lat":-6.141205,"is_transit":false},{"is_transit":false,"i_lat":-6.149769,"station_id":"MGB","distance":1080,"transit":false,"line":2,"time":2,"i_long":106.82482,"station_name":"Manggabesar"},{"i_lat":-6.160725,"station_name":"Sawah Besar","i_long":106.827103,"time":2,"transit":false,"line":2,"distance":906,"station_id":"SW","is_transit":false},{"time":2,"line":2,"station_id":"JUA","is_transit":false,"i_lat":-6.166716,"station_name":"Juanda","distance":1149,"i_long":106.828284,"transit":false},{"station_id":"GDD","i_long":106.832183,"is_transit":false,"line":2,"time":4,"i_lat":-6.186295,"station_name":"Gondangdia","transit":false,"distance":2015},{"distance":1750,"is_transit":false,"transit":false,"i_lat":-6.198556,"station_name":"Cikini","line":2,"i_long":106.840169,"time":3,"station_id":"CKI"},{"station_name":"Manggarai","i_long":106.84912,"is_transit":false,"i_lat":-6.209883,"line":2,"transit":false,"distance":1590,"time":4,"station_id":"MRI"},{"time":4,"distance":2610,"is_transit":false,"i_long":106.857948,"station_id":"TEB","transit":false,"station_name":"Tebet","line":2,"i_lat":-6.226659},{"line":2,"transit":false,"i_lat":-6.242512,"distance":1230,"time":2,"station_id":"CW","is_transit":false,"i_long":106.856607,"station_name":"Cawang"},{"is_transit":false,"i_long":106.85449,"time":3,"line":2,"station_name":"Duren Kalibata","station_id":"DRN","i_lat":-6.255332,"distance":1546,"transit":false},{"distance":824,"time":2,"is_transit":false,"station_name":"Pasar Minggu Baru","i_lat":-6.263214,"station_id":"PSMB","transit":false,"i_long":106.851577,"line":2},{"distance":2380,"is_transit":false,"station_name":"Pasar Minggu","i_long":106.843999,"i_lat":-6.2842400000000005,"time":2,"station_id":"PSM","line":2,"transit":false},{"distance":2820,"station_id":"TNT","line":2,"i_lat":-6.3080680000000005,"i_long":106.838896,"time":4,"is_transit":false,"transit":false,"station_name":"Tanjung Barat"},{"i_lat":-6.330363,"time":3,"distance":2671,"station_id":"LNA","is_transit":false,"i_long":106.832616,"transit":false,"station_name":"Lenteng Agung","line":2},{"line":2,"is_transit":false,"time":2,"distance":1029,"station_name":"Univ. Pancasila","station_id":"UP","i_lat":-6.339291,"transit":false,"i_long":106.834175}],[{"station_name":"Pondokranji","i_long":106.74273,"i_lat":-6.276362,"line":6,"distance":0,"is_transit":false,"transit":false,"station_id":"PDJ","time":0},{"i_long":106.780334,"time":8,"distance":6218,"is_transit":false,"line":6,"station_name":"Kebayoran","transit":false,"station_id":"KBY","i_lat":-6.237242},{"distance":3737,"is_transit":false,"i_lat":-6.207404,"time":7,"i_long":106.79689,"line":6,"transit":false,"station_id":"PLM","station_name":"Palmerah"},{"i_lat":-6.185545,"is_transit":true,"i_long":106.811091,"time":6,"distance":3191,"line":1,"station_name":"Tanah Abang","transit":true,"station_id":"THB"},{"transit":false,"station_name":"Duri","station_id":"DU","i_long":106.800832,"line":1,"i_lat":-6.155215,"distance":3632,"time":8,"is_transit":false},{"line":1,"is_transit":false,"i_long":106.79867,"distance":1230,"station_name":"Angke","time":4,"i_lat":-6.144674,"station_id":"AK","transit":false},{"transit":true,"distance":4102,"station_id":"KPB","line":4,"i_long":106.826365,"i_lat":-6.132549,"time":9,"station_name":"Kampung Bandan","is_transit":true},{"station_name":"Rajawali","line":11,"time":3,"is_transit":false,"station_id":"RJW","distance":1444,"transit":false,"i_lat":-6.14505,"i_long":106.836569},{"distance":1901,"transit":false,"is_transit":false,"station_name":"Kemayoran","time":5,"i_long":106.839204,"station_id":"KMO","i_lat":-6.161728,"line":11},{"station_name":"Pasar Senen","line":11,"is_transit":false,"station_id":"PSE","transit":false,"i_lat":-6.174784,"time":4,"i_long":106.84368,"distance":1436},{"is_transit":false,"i_long":106.850107,"line":11,"distance":1567,"transit":false,"station_name":"Gang Sentiong","station_id":"GST","i_lat":-6.185975,"time":8},{"i_long":106.855437,"distance":973,"transit":false,"station_name":"Kramat","station_id":"KMT","line":11,"is_transit":false,"time":1,"i_lat":-6.193792},{"is_transit":false,"transit":false,"i_lat":-6.209188,"line":11,"time":2,"i_long":106.861737,"station_name":"Pondok Jati","station_id":"POK","distance":1829},{"station_id":"JNG","station_name":"Jatinegara","time":9,"i_long":106.86807400000001,"line":1,"transit":true,"distance":1236,"is_transit":true,"i_lat":-6.215091},{"transit":false,"time":2,"station_id":"MTR","station_name":"Matraman","i_long":106.858896,"line":1,"i_lat":-6.212485,"distance":1377,"is_transit":false},{"station_name":"Manggarai","time":2,"i_lat":-6.209883,"distance":1275,"is_transit":true,"line":2,"transit":true,"i_long":106.84912,"station_id":"MRI"},{"i_long":106.857948,"i_lat":-6.226659,"transit":false,"station_id":"TEB","time":4,"line":2,"distance":2610,"station_name":"Tebet","is_transit":false},{"time":2,"i_long":106.856607,"transit":false,"i_lat":-6.242512,"distance":1230,"station_id":"CW","station_name":"Cawang","line":2,"is_transit":false},{"station_name":"Duren Kalibata","is_transit":false,"i_lat":-6.255332,"distance":1546,"transit":false,"time":3,"station_id":"DRN","i_long":106.85449,"line":2},{"distance":824,"i_lat":-6.263214,"i_long":106.851577,"time":2,"is_transit":false,"transit":false,"station_id":"PSMB","line":2,"station_name":"Pasar Minggu Baru"},{"station_name":"Pasar Minggu","transit":false,"time":2,"is_transit":false,"station_id":"PSM","line":2,"distance":2380,"i_lat":-6.2842400000000005,"i_long":106.843999},{"i_lat":-6.3080680000000005,"i_long":106.838896,"station_id":"TNT","distance":2820,"time":4,"transit":false,"station_name":"Tanjung Barat","is_transit":false,"line":2},{"i_long":106.832616,"station_name":"Lenteng Agung","is_transit":false,"distance":2671,"i_lat":-6.330363,"line":2,"transit":false,"time":3,"station_id":"LNA"},{"station_name":"Univ. Pancasila","line":2,"transit":false,"distance":1029,"station_id":"UP","is_transit":false,"time":2,"i_lat":-6.339291,"i_long":106.834175}]]}