{"data":[[{"is_transit":false,"station_name":"Pondokranji","station_id":"PDJ","time":0,"transit":false,"distance":0,"i_long":106.74273,"i_lat":-6.276362,"line":6},{"is_transit":false,"line":6,"distance":6218,"i_long":106.780334,"time":8,"transit":false,"station_id":"KBY","station_name":"Kebayoran","i_lat":-6.237242},{"transit":false,"station_id":"PLM","distance":3737,"station_name":"Palmerah","i_lat":-6.207404,"i_long":106.79689,"line":6,"is_transit":false,"time":7},{"i_long":106.811091,"i_lat":-6.185545,"time":6,"transit":true,"station_name":"Tanah Abang","distance":3191,"is_transit":true,"line":1,"station_id":"THB"},{"i_lat":-6.20132,"i_long":106.816351,"line":1,"time":5,"is_transit":false,"station_id":"KAT","transit":false,"distance":2029,"station_name":"Karet"},{"time":1,"transit":false,"distance":471,"is_transit":false,"i_lat":-6.201433,"line":1,"station_id":"SUDB","station_name":"Sudirman Baru","i_long":106.819881},{"station_id":"SUD","is_transit":false,"transit":false,"time":1,"station_name":"Sudirman","distance":280,"i_lat":-6.202263,"i_long":106.822649,"line":1},{"time":4,"i_lat":-6.209883,"transit":false,"station_id":"MRI","distance":3186,"i_long":106.84912,"line":2,"is_transit":false,"station_name":"Manggarai"},{"is_transit":false,"line":1,"transit":false,"station_id":"MTR","i_lat":-6.212485,"station_name":"Matraman","distance":1275,"time":2,"i_long":106.858896},{"i_long":106.86807400000001,"time":8,"station_id":"JNG","transit":false,"i_lat":-6.215091,"line":1,"distance":1377,"is_transit":false,"station_name":"Jatinegara"},{"station_id":"KLD","is_transit":false,"station_name":"Klender","i_long":106.899548,"distance":3395,"transit":false,"i_lat":-6.2135,"line":1,"time":3},{"time":2,"distance":3100,"i_long":106.922662,"transit":false,"is_transit":false,"line":1,"station_id":"BUA","i_lat":-6.215568,"station_name":"Buaran"}],[{"station_name":"Pondokranji","distance":0,"time":0,"transit":false,"station_id":"PDJ","is_transit":false,"i_lat":-6.276362,"line":6,"i_long":106.74273},{"i_long":106.780334,"distance":6218,"station_name":"Kebayoran","is_transit":false,"line":6,"transit":false,"station_id":"KBY","i_lat":-6.237242,"time":8},{"i_lat":-6.207404,"transit":false,"distance":3737,"station_name":"Palmerah","station_id":"PLM","line":6,"time":7,"i_long":106.79689,"is_transit":false},{"station_name":"Tanah Abang","distance":3191,"line":1,"transit":true,"time":6,"i_lat":-6.185545,"i_long":106.811091,"is_transit":true,"station_id":"THB"},{"transit":false,"station_name":"Duri","i_lat":-6.155215,"i_long":106.800832,"is_transit":false,"distance":3632,"time":8,"station_id":"DU","line":1},{"is_transit":false,"station_name":"Angke","i_lat":-6.144674,"i_long":106.79867,"line":1,"transit":false,"distance":1230,"time":4,"station_id":"AK"},{"i_long":106.826365,"line":4,"is_transit":true,"time":9,"i_lat":-6.132549,"station_id":"KPB","distance":4102,"transit":true,"station_name":"Kampung Bandan"},{"time":3,"station_name":"Rajawali","line":11,"transit":false,"station_id":"RJW","i_long":106.836569,"distance":1444,"is_transit":false,"i_lat":-6.14505},{"station_id":"KMO","line":11,"i_lat":-6.161728,"transit":false,"distance":1901,"time":5,"station_name":"Kemayoran","is_transit":false,"i_long":106.839204},{"line":11,"is_transit":false,"distance":1436,"station_id":"PSE","time":4,"station_name":"Pasar Senen","i_long":106.84368,"transit":false,"i_lat":-6.174784},{"distance":1567,"transit":false,"i_lat":-6.185975,"station_id":"GST","time":8,"is_transit":false,"station_name":"Gang Sentiong","i_long":106.850107,"line":11},{"station_id":"KMT","transit":false,"station_name":"Kramat","is_transit":false,"i_lat":-6.193792,"line":11,"time":1,"i_long":106.855437,"distance":973},{"is_transit":false,"distance":1829,"station_name":"Pondok Jati","i_long":106.861737,"line":11,"i_lat":-6.209188,"time":2,"station_id":"POK","transit":false},{"i_lat":-6.215091,"station_name":"Jatinegara","line":1,"distance":1236,"time":9,"is_transit":true,"i_long":106.86807400000001,"station_id":"JNG","transit":true},{"station_id":"KLD","line":1,"distance":3395,"i_lat":-6.2135,"time":3,"station_name":"Klender","i_long":106.899548,"is_transit":false,"transit":false},{"station_id":"BUA","distance":3100,"i_lat":-6.215568,"is_transit":false,"station_name":"Buaran","i_long":106.922662,"line":1,"transit":false,"time":2}],[{"i_lat":-6.276362,"station_name":"Pondokranji","line":6,"i_long":106.74273,"distance":0,"is_transit":false,"station_id":"PDJ","time":0,"transit":false},{"is_transit":false,"distance":6218,"station_name":"Kebayoran","i_lat":-6.237242,"time":8,"line":6,"transit":false,"i_long":106.780334,"station_id":"KBY"},{"station_name":"Palmerah","i_long":106.79689,"time":7,"is_transit":false,"distance":3737,"i_lat":-6.207404,"line":6,"station_id":"PLM","transit":false},{"distance":3191,"time":6,"i_lat":-6.185545,"is_transit":true,"station_id":"THB","line":1,"station_name":"Tanah Abang","transit":true,"i_long":106.811091},{"station_name":"Duri","is_transit":false,"i_long":106.800832,"time":8,"station_id":"DU","i_lat":-6.155215,"transit":false,"line":1,"distance":3632},{"is_transit":false,"distance":1230,"i_lat":-6.144674,"station_id":"AK","i_long":106.79867,"line":1,"transit":false,"station_name":"Angke","time":4},{"station_name":"Kampung Bandan","i_long":106.826365,"distance":4102,"line":4,"transit":true,"station_id":"KPB","time":9,"is_transit":true,"i_lat":-6.132549},{"transit":true,"station_name":"Jakarta Kota","is_transit":true,"i_long":106.812439,"distance":1364,"i_lat":-6.137569,"line":2,"station_id":"JAKK","time":3},{"line":2,"distance":1264,"transit":false,"station_name":"Jayakarta","time":4,"is_transit":false,"i_lat":-6.141205,"i_long":106.820901,"station_id":"JAY"},{"station_id":"MGB","time":2,"station_name":"Manggabesar","line":2,"i_lat":-6.149769,"transit":false,"is_transit":false,"i_long":106.82482,"distance":1080},{"distance":906,"is_transit":false,"i_long":106.827103,"station_id":"SW","station_name":"Sawah Besar","transit":false,"i_lat":-6.160725,"line":2,"time":2},{"distance":1149,"is_transit":false,"station_id":"JUA","transit":false,"i_long":106.828284,"time":2,"line":2,"i_lat":-6.166716,"station_name":"Juanda"},{"i_lat":-6.186295,"station_name":"Gondangdia","distance":2015,"is_transit":false,"i_long":106.832183,"transit":false,"line":2,"station_id":"GDD","time":4},{"line":2,"station_id":"CKI","transit":false,"is_transit":false,"i_lat":-6.198556,"i_long":106.840169,"station_name":"Cikini","time":3,"distance":1750},{"i_long":106.84912,"time":4,"line":2,"i_lat":-6.209883,"transit":true,"station_id":"MRI","is_transit":true,"station_name":"Manggarai","distance":1590},{"station_name":"Matraman","i_lat":-6.212485,"transit":false,"time":2,"station_id":"MTR","is_transit":false,"line":1,"distance":1275,"i_long":106.858896},{"distance":1377,"is_transit":false,"i_lat":-6.215091,"time":8,"station_id":"JNG","line":1,"station_name":"Jatinegara","i_long":106.86807400000001,"transit":false},{"is_transit":false,"station_name":"Klender","transit":false,"i_lat":-6.2135,"time":3,"line":1,"station_id":"KLD","i_long":106.899548,"distance":3395},{"transit":false,"i_lat":-6.215568,"distance":3100,"station_name":"Buaran","station_id":"BUA","time":2,"i_long":106.922662,"is_transit":false,"line":1}],[{"distance":0,"time":0,"i_lat":-6.276362,"is_transit":false,"station_id":"PDJ","station_name":"Pondokranji","i_long":106.74273,"transit":false,"line":6},{"station_id":"KBY","station_name":"Kebayoran","distance":6218,"i_lat":-6.237242,"is_transit":false,"i_long":106.780334,"line":6,"transit":false,"time":8},{"transit":false,"time":7,"station_name":"Palmerah","line":6,"is_transit":false,"station_id":"PLM","distance":3737,"i_lat":-6.207404,"i_long":106.79689},{"i_lat":-6.185545,"distance":3191,"transit":true,"is_transit":true,"station_name":"Tanah Abang","time":6,"station_id":"THB","i_long":106.811091,"line":1},{"time":5,"station_name":"Karet","line":1,"is_transit":false,"i_long":106.816351,"transit":false,"station_id":"KAT","i_lat":-6.20132,"distance":2029},{"distance":471,"line":1,"i_long":106.819881,"time":1,"transit":false,"station_name":"Sudirman Baru","i_lat":-6.201433,"is_transit":false,"station_id":"SUDB"},{"i_long":106.822649,"line":1,"station_id":"SUD","transit":false,"station_name":"Sudirman","is_transit":false,"i_lat":-6.202263,"time":1,"distance":280},{"distance":3186,"i_lat":-6.209883,"station_id":"MRI","station_name":"Manggarai","time":4,"transit":true,"line":2,"is_transit":true,"i_long":106.84912},{"is_transit":false,"i_long":106.840169,"line":2,"station_id":"CKI","station_name":"Cikini","distance":1590,"time":4,"transit":false,"i_lat":-6.198556},{"station_id":"GDD","i_long":106.832183,"is_transit":false,"time":3,"transit":false,"line":2,"station_name":"Gondangdia","i_lat":-6.186295,"distance":1750},{"transit":false,"line":2,"station_name":"Juanda","station_id":"JUA","time":4,"is_transit":false,"i_lat":-6.166716,"i_long":106.828284,"distance":2015},{"station_name":"Sawah Besar","distance":1149,"line":2,"i_lat":-6.160725,"i_long":106.827103,"is_transit":false,"station_id":"SW","time":2,"transit":false},{"time":2,"i_long":106.82482,"station_id":"MGB","is_transit":false,"transit":false,"station_name":"Manggabesar","distance":906,"i_lat":-6.149769,"line":2},{"line":2,"i_lat":-6.141205,"station_id":"JAY","transit":false,"i_long":106.820901,"station_name":"Jayakarta","time":2,"distance":1080,"is_transit":false},{"i_lat":-6.137569,"distance":1264,"transit":true,"station_id":"JAKK","station_name":"Jakarta Kota","is_transit":true,"line":2,"time":4,"i_long":106.812439},{"station_id":"KPB","time":3,"transit":true,"is_transit":true,"i_long":106.826365,"station_name":"Kampung Bandan","line":4,"i_lat":-6.132549,"distance":1364},{"i_long":106.836569,"is_transit":false,"station_name":"Rajawali","station_id":"RJW","line":11,"time":3,"i_lat":-6.14505,"transit":false,"distance":1444},{"i_long":106.839204,"time":5,"distance":1901,"station_name":"Kemayoran","is_transit":false,"i_lat":-6.161728,"transit":false,"line":11,"station_id":"KMO"},{"time":4,"distance":1436,"i_long":106.84368,"transit":false,"station_id":"PSE","i_lat":-6.174784,"station_name":"Pasar Senen","line":11,"is_transit":false},{"station_name":"Gang Sentiong","i_lat":-6.185975,"is_transit":false,"transit":false,"time":8,"distance":1567,"i_long":106.850107,"line":11,"station_id":"GST"},{"distance":973,"is_transit":false,"line":11,"transit":false,"time":1,"i_lat":-6.193792,"i_long":106.855437,"station_name":"Kramat","station_id":"KMT"},{"station_id":"POK","station_name":"Pondok Jati","line":11,"time":2,"transit":false,"distance":1829,"i_long":106.861737,"is_transit":false,"i_lat":-6.209188},{"transit":true,"i_lat":-6.215091,"time":9,"station_name":"Jatinegara","i_long":106.86807400000001,"line":1,"station_id":"JNG","is_transit":true,"distance":1236},{"line":1,"i_long":106.899548,"station_name":"Klender","station_id":"KLD","i_lat":-6.2135,"time":3,"transit":false,"distance":3395,"is_transit":false},{"station_id":"BUA","distance":3100,"i_long":106.922662,"station_name":"Buaran","time":2,"i_lat":-6.215568,"is_transit":false,"transit":false,"line":1}]]}