{"data":[[{"i_lat":-6.276362,"station_id":"PDJ","i_long":106.74273,"time":0,"is_transit":false,"line":6,"station_name":"Pondokranji","transit":false,"distance":0},{"line":6,"i_lat":-6.237242,"station_name":"Kebayoran","is_transit":false,"distance":6218,"i_long":106.780334,"time":8,"transit":false,"station_id":"KBY"},{"station_id":"PLM","is_transit":false,"i_lat":-6.207404,"i_long":106.79689,"station_name":"Palmerah","transit":false,"line":6,"time":7,"distance":3737},{"distance":3191,"transit":true,"is_transit":true,"line":1,"i_long":106.811091,"time":6,"i_lat":-6.185545,"station_name":"Tanah Abang","station_id":"THB"},{"i_long":106.800832,"transit":false,"line":1,"time":8,"station_name":"Duri","is_transit":false,"station_id":"DU","i_lat":-6.155215,"distance":3632},{"distance":1230,"i_long":106.79867,"station_name":"Angke","time":4,"station_id":"AK","i_lat":-6.144674,"line":1,"transit":false,"is_transit":false},{"time":9,"distance":4102,"station_id":"KPB","i_long":106.826365,"is_transit":true,"transit":true,"line":4,"station_name":"Kampung Bandan","i_lat":-6.132549},{"station_name":"Rajawali","i_lat":-6.14505,"line":11,"distance":1444,"is_transit":false,"transit":false,"i_long":106.836569,"time":3,"station_id":"RJW"},{"distance":1901,"time":5,"i_lat":-6.161728,"i_long":106.839204,"station_name":"Kemayoran","is_transit":false,"transit":false,"line":11,"station_id":"KMO"},{"station_name":"Pasar Senen","time":4,"distance":1436,"station_id":"PSE","i_lat":-6.174784,"i_long":106.84368,"line":11,"is_transit":false,"transit":false},{"i_lat":-6.185975,"station_id":"GST","i_long":106.850107,"time":8,"station_name":"Gang Sentiong","distance":1567,"transit":false,"line":11,"is_transit":false}],[{"is_transit":false,"station_name":"Pondokranji","station_id":"PDJ","i_lat":-6.276362,"line":6,"distance":0,"time":0,"transit":false,"i_long":106.74273},{"i_long":106.780334,"station_name":"Kebayoran","is_transit":false,"transit":false,"station_id":"KBY","line":6,"time":8,"i_lat":-6.237242,"distance":6218},{"distance":3737,"i_long":106.79689,"is_transit":false,"line":6,"station_id":"PLM","time":7,"i_lat":-6.207404,"transit":false,"station_name":"Palmerah"},{"transit":true,"line":1,"is_transit":true,"i_long":106.811091,"station_name":"Tanah Abang","distance":3191,"time":6,"i_lat":-6.185545,"station_id":"THB"},{"is_transit":false,"i_lat":-6.20132,"line":1,"station_id":"KAT","station_name":"Karet","i_long":106.816351,"transit":false,"time":5,"distance":2029},{"i_long":106.819881,"station_name":"Sudirman Baru","i_lat":-6.201433,"transit":false,"time":1,"distance":471,"station_id":"SUDB","line":1,"is_transit":false},{"station_name":"Sudirman","transit":false,"station_id":"SUD","is_transit":false,"time":1,"i_long":106.822649,"line":1,"distance":280,"i_lat":-6.202263},{"time":4,"i_lat":-6.209883,"station_name":"Manggarai","is_transit":false,"station_id":"MRI","i_long":106.84912,"transit":false,"line":2,"distance":3186},{"line":1,"time":2,"transit":false,"i_long":106.858896,"distance":1275,"station_id":"MTR","station_name":"Matraman","is_transit":false,"i_lat":-6.212485},{"station_id":"JNG","i_long":106.86807400000001,"line":1,"distance":1377,"time":8,"station_name":"Jatinegara","is_transit":true,"i_lat":-6.215091,"transit":true},{"transit":false,"is_transit":false,"i_long":106.861737,"station_name":"Pondok Jati","time":2,"station_id":"POK","line":11,"distance":1236,"i_lat":-6.209188},{"i_lat":-6.193792,"time":2,"line":11,"station_name":"Kramat","is_transit":false,"distance":1829,"station_id":"KMT","transit":false,"i_long":106.855437},{"i_lat":-6.185975,"distance":973,"i_long":106.850107,"line":11,"time":1,"station_name":"Gang Sentiong","is_transit":false,"station_id":"GST","transit":false}],[{"station_id":"PDJ","transit":false,"i_long":106.74273,"line":6,"i_lat":-6.276362,"station_name":"Pondokranji","distance":0,"time":0,"is_transit":false},{"i_long":106.780334,"station_name":"Kebayoran","is_transit":false,"time":8,"transit":false,"i_lat":-6.237242,"line":6,"distance":6218,"station_id":"KBY"},{"station_name":"Palmerah","transit":false,"i_long":106.79689,"station_id":"PLM","time":7,"i_lat":-6.207404,"line":6,"is_transit":false,"distance":3737},{"station_id":"THB","station_name":"Tanah Abang","time":6,"is_transit":true,"transit":true,"distance":3191,"i_lat":-6.185545,"i_long":106.811091,"line":1},{"line":1,"station_name":"Duri","i_lat":-6.155215,"time":8,"i_long":106.800832,"station_id":"DU","distance":3632,"transit":false,"is_transit":false},{"i_lat":-6.144674,"transit":false,"line":1,"station_id":"AK","station_name":"Angke","i_long":106.79867,"distance":1230,"time":4,"is_transit":false},{"is_transit":true,"time":9,"line":4,"i_lat":-6.132549,"transit":true,"i_long":106.826365,"distance":4102,"station_id":"KPB","station_name":"Kampung Bandan"},{"i_long":106.812439,"station_name":"Jakarta Kota","i_lat":-6.137569,"station_id":"JAKK","distance":1364,"time":3,"transit":true,"is_transit":true,"line":2},{"station_id":"JAY","i_lat":-6.141205,"station_name":"Jayakarta","transit":false,"i_long":106.820901,"time":4,"line":2,"is_transit":false,"distance":1264},{"is_transit":false,"station_name":"Manggabesar","transit":false,"time":2,"distance":1080,"i_long":106.82482,"station_id":"MGB","i_lat":-6.149769,"line":2},{"station_id":"SW","transit":false,"distance":906,"i_long":106.827103,"line":2,"i_lat":-6.160725,"station_name":"Sawah Besar","is_transit":false,"time":2},{"line":2,"i_lat":-6.166716,"i_long":106.828284,"station_id":"JUA","is_transit":false,"station_name":"Juanda","time":2,"distance":1149,"transit":false},{"line":2,"station_name":"Gondangdia","distance":2015,"is_transit":false,"i_long":106.832183,"time":4,"transit":false,"i_lat":-6.186295,"station_id":"GDD"},{"is_transit":false,"distance":1750,"time":3,"station_name":"Cikini","station_id":"CKI","transit":false,"i_lat":-6.198556,"i_long":106.840169,"line":2},{"i_lat":-6.209883,"is_transit":true,"transit":true,"time":4,"line":2,"distance":1590,"i_long":106.84912,"station_id":"MRI","station_name":"Manggarai"},{"time":2,"line":1,"station_id":"MTR","is_transit":false,"i_long":106.858896,"transit":false,"i_lat":-6.212485,"station_name":"Matraman","distance":1275},{"station_id":"JNG","transit":true,"distance":1377,"line":1,"station_name":"Jatinegara","i_long":106.86807400000001,"i_lat":-6.215091,"time":8,"is_transit":true},{"station_name":"Pondok Jati","is_transit":false,"distance":1236,"line":11,"station_id":"POK","i_lat":-6.209188,"i_long":106.861737,"time":2,"transit":false},{"is_transit":false,"i_long":106.855437,"transit":false,"time":2,"distance":1829,"station_id":"KMT","i_lat":-6.193792,"line":11,"station_name":"Kramat"},{"line":11,"i_long":106.850107,"station_id":"GST","transit":false,"station_name":"Gang Sentiong","distance":973,"i_lat":-6.185975,"is_transit":false,"time":1}],[{"time":0,"i_lat":-6.276362,"line":6,"i_long":106.74273,"station_id":"PDJ","distance":0,"station_name":"Pondokranji","is_transit":false,"transit":false},{"is_transit":false,"station_name":"Kebayoran","station_id":"KBY","i_lat":-6.237242,"time":8,"i_long":106.780334,"distance":6218,"transit":false,"line":6},{"distance":3737,"i_lat":-6.207404,"time":7,"transit":false,"is_transit":false,"station_id":"PLM","i_long":106.79689,"station_name":"Palmerah","line":6},{"is_transit":true,"station_name":"Tanah Abang","time":6,"i_lat":-6.185545,"distance":3191,"station_id":"THB","transit":true,"i_long":106.811091,"line":1},{"station_name":"Karet","i_long":106.816351,"line":1,"station_id":"KAT","is_transit":false,"time":5,"distance":2029,"transit":false,"i_lat":-6.20132},{"is_transit":false,"transit":false,"station_name":"Sudirman Baru","distance":471,"line":1,"i_long":106.819881,"station_id":"SUDB","i_lat":-6.201433,"time":1},{"line":1,"station_id":"SUD","transit":false,"i_lat":-6.202263,"i_long":106.822649,"distance":280,"is_transit":false,"station_name":"Sudirman","time":1},{"station_id":"MRI","distance":3186,"time":4,"i_lat":-6.209883,"transit":true,"station_name":"Manggarai","i_long":106.84912,"line":2,"is_transit":true},{"time":4,"distance":1590,"line":2,"i_lat":-6.198556,"i_long":106.840169,"is_transit":false,"station_id":"CKI","station_name":"Cikini","transit":false},{"line":2,"time":3,"i_lat":-6.186295,"station_id":"GDD","is_transit":false,"i_long":106.832183,"transit":false,"station_name":"Gondangdia","distance":1750},{"i_long":106.828284,"line":2,"time":4,"station_id":"JUA","transit":false,"i_lat":-6.166716,"is_transit":false,"station_name":"Juanda","distance":2015},{"is_transit":false,"time":2,"station_id":"SW","transit":false,"station_name":"Sawah Besar","line":2,"distance":1149,"i_long":106.827103,"i_lat":-6.160725},{"i_long":106.82482,"line":2,"time":2,"i_lat":-6.149769,"distance":906,"station_name":"Manggabesar","transit":false,"is_transit":false,"station_id":"MGB"},{"transit":false,"distance":1080,"time":2,"i_lat":-6.141205,"is_transit":false,"station_id":"JAY","i_long":106.820901,"line":2,"station_name":"Jayakarta"},{"line":2,"station_id":"JAKK","is_transit":true,"i_lat":-6.137569,"station_name":"Jakarta Kota","distance":1264,"time":4,"i_long":106.812439,"transit":true},{"line":4,"i_lat":-6.132549,"station_id":"KPB","transit":true,"distance":1364,"is_transit":true,"time":3,"i_long":106.826365,"station_name":"Kampung Bandan"},{"line":11,"i_long":106.836569,"station_name":"Rajawali","is_transit":false,"transit":false,"time":3,"distance":1444,"station_id":"RJW","i_lat":-6.14505},{"i_long":106.839204,"station_name":"Kemayoran","time":5,"distance":1901,"station_id":"KMO","transit":false,"is_transit":false,"i_lat":-6.161728,"line":11},{"transit":false,"station_id":"PSE","i_long":106.84368,"line":11,"i_lat":-6.174784,"is_transit":false,"distance":1436,"station_name":"Pasar Senen","time":4},{"station_id":"GST","transit":false,"line":11,"distance":1567,"i_lat":-6.185975,"is_transit":false,"station_name":"Gang Sentiong","i_long":106.850107,"time":8}]]}