{"data":[[{"station_name":"Pondokranji","time":0,"transit":false,"distance":0,"i_lat":-6.276362,"i_long":106.74273,"line":6,"is_transit":false,"station_id":"PDJ"},{"line":6,"station_id":"KBY","i_lat":-6.237242,"i_long":106.780334,"distance":6218,"station_name":"Kebayoran","is_transit":false,"time":8,"transit":false},{"station_name":"Palmerah","time":7,"i_long":106.79689,"line":6,"is_transit":false,"distance":3737,"station_id":"PLM","transit":false,"i_lat":-6.207404},{"time":6,"is_transit":true,"distance":3191,"i_long":106.811091,"station_name":"Tanah Abang","transit":true,"station_id":"THB","i_lat":-6.185545,"line":1},{"line":1,"station_name":"Karet","is_transit":false,"station_id":"KAT","i_long":106.816351,"transit":false,"distance":2029,"i_lat":-6.20132,"time":5},{"is_transit":false,"i_lat":-6.201433,"time":1,"transit":false,"distance":471,"line":1,"i_long":106.819881,"station_name":"Sudirman Baru","station_id":"SUDB"},{"transit":false,"time":1,"line":1,"distance":280,"is_transit":false,"station_id":"SUD","station_name":"Sudirman","i_long":106.822649,"i_lat":-6.202263},{"i_lat":-6.209883,"distance":3186,"transit":false,"is_transit":true,"time":4,"station_name":"Manggarai","station_id":"MRI","line":0,"i_long":106.84912},{"i_lat":-6.212485,"is_transit":false,"transit":false,"i_long":106.858896,"time":2,"station_name":"Matraman","distance":1275,"line":1,"station_id":"MTR"},{"line":0,"time":8,"distance":1377,"i_lat":-6.215091,"i_long":106.86807400000001,"station_id":"JNG","transit":false,"station_name":"Jatinegara","is_transit":true},{"transit":false,"distance":3395,"i_long":106.899548,"line":1,"station_name":"Klender","time":3,"station_id":"KLD","is_transit":false,"i_lat":-6.2135},{"i_long":106.922662,"is_transit":false,"distance":3100,"station_name":"Buaran","transit":false,"station_id":"BUA","i_lat":-6.215568,"line":0,"time":2},{"i_lat":-6.217455,"line":1,"time":1,"transit":false,"station_name":"Klenderbaru","station_id":"KLDB","is_transit":false,"i_long":106.939679,"distance":1305},{"i_lat":-6.219053,"station_name":"Cakung","i_long":106.951283,"distance":1385,"line":0,"time":8,"is_transit":false,"station_id":"CUK","transit":false},{"station_id":"KRI","transit":false,"is_transit":false,"distance":3097,"station_name":"Kranji","time":3,"i_lat":-6.224515,"line":1,"i_long":106.977657},{"i_long":106.997013,"station_name":"Bekasi","i_lat":-6.236616,"transit":false,"is_transit":false,"distance":2520,"station_id":"BKS","line":0,"time":4},{"line":0,"station_id":"BKST","i_long":107.016735,"transit":false,"station_name":"Bekasi Timur","i_lat":-6.248029,"distance":2368,"is_transit":false,"time":2},{"station_id":"TB","line":1,"time":7,"is_transit":false,"station_name":"Tambun","i_lat":-6.258864,"i_long":107.055722,"transit":false,"distance":4460}],[{"station_name":"Pondokranji","transit":false,"i_lat":-6.276362,"is_transit":false,"distance":0,"time":0,"line":6,"station_id":"PDJ","i_long":106.74273},{"transit":false,"i_long":106.780334,"line":6,"station_name":"Kebayoran","is_transit":false,"time":8,"i_lat":-6.237242,"station_id":"KBY","distance":6218},{"transit":false,"distance":3737,"i_long":106.79689,"station_id":"PLM","is_transit":false,"i_lat":-6.207404,"line":6,"station_name":"Palmerah","time":7},{"station_name":"Tanah Abang","station_id":"THB","is_transit":true,"transit":true,"time":6,"distance":3191,"i_long":106.811091,"line":1,"i_lat":-6.185545},{"time":8,"is_transit":true,"station_id":"DU","i_lat":-6.155215,"i_long":106.800832,"distance":3632,"line":1,"station_name":"Duri","transit":true},{"transit":false,"is_transit":false,"i_long":106.79867,"station_id":"AK","time":4,"line":0,"station_name":"Angke","i_lat":-6.144674,"distance":1230},{"transit":true,"i_long":106.826365,"distance":4102,"line":0,"station_name":"Kampung Bandan","time":9,"is_transit":true,"i_lat":-6.132549,"station_id":"KPB"},{"time":3,"is_transit":false,"distance":1444,"station_name":"Rajawali","i_long":106.836569,"transit":false,"line":11,"station_id":"RJW","i_lat":-6.14505},{"station_name":"Kemayoran","station_id":"KMO","i_long":106.839204,"time":5,"is_transit":false,"transit":false,"distance":1901,"i_lat":-6.161728,"line":11},{"transit":false,"station_name":"Pasar Senen","i_long":106.84368,"is_transit":false,"i_lat":-6.174784,"distance":1436,"line":11,"time":4,"station_id":"PSE"},{"is_transit":false,"time":8,"transit":false,"station_id":"GST","i_lat":-6.185975,"i_long":106.850107,"distance":1567,"line":11,"station_name":"Gang Sentiong"},{"distance":973,"station_name":"Kramat","station_id":"KMT","i_long":106.855437,"line":11,"time":1,"is_transit":false,"i_lat":-6.193792,"transit":false},{"line":11,"distance":1829,"time":2,"i_long":106.861737,"is_transit":false,"transit":false,"i_lat":-6.209188,"station_name":"Pondok Jati","station_id":"POK"},{"transit":true,"i_lat":-6.215091,"i_long":106.86807400000001,"time":9,"station_id":"JNG","distance":1236,"station_name":"Jatinegara","line":0,"is_transit":true},{"i_lat":-6.2135,"is_transit":false,"station_name":"Klender","line":1,"distance":3395,"station_id":"KLD","transit":false,"i_long":106.899548,"time":3},{"i_long":106.922662,"line":0,"transit":false,"is_transit":false,"i_lat":-6.215568,"distance":3100,"station_name":"Buaran","time":2,"station_id":"BUA"},{"time":1,"is_transit":false,"i_long":106.939679,"line":1,"station_name":"Klenderbaru","distance":1305,"i_lat":-6.217455,"transit":false,"station_id":"KLDB"},{"i_lat":-6.219053,"is_transit":false,"station_name":"Cakung","line":0,"station_id":"CUK","time":8,"transit":false,"distance":1385,"i_long":106.951283},{"time":3,"transit":false,"station_id":"KRI","i_long":106.977657,"i_lat":-6.224515,"distance":3097,"line":1,"station_name":"Kranji","is_transit":false},{"station_name":"Bekasi","station_id":"BKS","distance":2520,"i_long":106.997013,"is_transit":false,"transit":false,"line":0,"time":4,"i_lat":-6.236616},{"station_name":"Bekasi Timur","i_lat":-6.248029,"is_transit":false,"station_id":"BKST","i_long":107.016735,"line":0,"time":2,"transit":false,"distance":2368},{"distance":4460,"time":7,"is_transit":false,"i_lat":-6.258864,"i_long":107.055722,"line":1,"transit":false,"station_id":"TB","station_name":"Tambun"}],[{"station_name":"Pondokranji","is_transit":false,"station_id":"PDJ","i_long":106.74273,"line":6,"time":0,"transit":false,"i_lat":-6.276362,"distance":0},{"is_transit":false,"i_lat":-6.237242,"station_name":"Kebayoran","station_id":"KBY","distance":6218,"transit":false,"line":6,"time":8,"i_long":106.780334},{"is_transit":false,"transit":false,"time":7,"distance":3737,"station_name":"Palmerah","station_id":"PLM","i_long":106.79689,"i_lat":-6.207404,"line":6},{"i_lat":-6.185545,"is_transit":true,"station_name":"Tanah Abang","line":1,"transit":true,"distance":3191,"time":6,"station_id":"THB","i_long":106.811091},{"line":1,"time":8,"is_transit":true,"i_lat":-6.155215,"distance":3632,"station_name":"Duri","station_id":"DU","i_long":106.800832,"transit":true},{"station_name":"Angke","i_long":106.79867,"line":0,"time":4,"distance":1230,"transit":false,"is_transit":false,"i_lat":-6.144674,"station_id":"AK"},{"i_long":106.826365,"station_id":"KPB","time":9,"transit":false,"is_transit":true,"line":0,"distance":4102,"station_name":"Kampung Bandan","i_lat":-6.132549},{"transit":true,"i_long":106.812439,"line":0,"time":3,"distance":1364,"station_name":"Jakarta Kota","station_id":"JAKK","is_transit":true,"i_lat":-6.137569},{"is_transit":false,"distance":1264,"time":4,"transit":false,"station_name":"Jayakarta","i_lat":-6.141205,"station_id":"JAY","i_long":106.820901,"line":7},{"transit":false,"time":2,"i_long":106.82482,"station_name":"Manggabesar","line":2,"is_transit":false,"station_id":"MGB","distance":1080,"i_lat":-6.149769},{"transit":false,"distance":906,"i_lat":-6.160725,"line":2,"time":2,"is_transit":false,"i_long":106.827103,"station_name":"Sawah Besar","station_id":"SW"},{"line":2,"station_id":"JUA","time":2,"transit":false,"station_name":"Juanda","distance":1149,"i_lat":-6.166716,"is_transit":false,"i_long":106.828284},{"distance":2015,"is_transit":false,"transit":false,"i_lat":-6.186295,"station_name":"Gondangdia","station_id":"GDD","time":4,"i_long":106.832183,"line":2},{"line":0,"is_transit":false,"station_name":"Cikini","station_id":"CKI","transit":false,"i_long":106.840169,"time":3,"distance":1750,"i_lat":-6.198556},{"i_long":106.84912,"station_name":"Manggarai","is_transit":true,"distance":1590,"i_lat":-6.209883,"line":0,"transit":true,"station_id":"MRI","time":4},{"is_transit":false,"station_id":"MTR","transit":false,"i_long":106.858896,"station_name":"Matraman","time":2,"distance":1275,"i_lat":-6.212485,"line":1},{"line":0,"station_name":"Jatinegara","transit":false,"is_transit":true,"station_id":"JNG","i_long":106.86807400000001,"time":8,"i_lat":-6.215091,"distance":1377},{"is_transit":false,"i_lat":-6.2135,"i_long":106.899548,"transit":false,"distance":3395,"time":3,"line":1,"station_name":"Klender","station_id":"KLD"},{"transit":false,"i_long":106.922662,"line":0,"station_name":"Buaran","time":2,"is_transit":false,"station_id":"BUA","i_lat":-6.215568,"distance":3100},{"time":1,"is_transit":false,"distance":1305,"i_lat":-6.217455,"i_long":106.939679,"station_name":"Klenderbaru","line":1,"station_id":"KLDB","transit":false},{"i_lat":-6.219053,"line":0,"is_transit":false,"transit":false,"station_id":"CUK","i_long":106.951283,"distance":1385,"time":8,"station_name":"Cakung"},{"station_name":"Kranji","transit":false,"time":3,"i_lat":-6.224515,"line":1,"is_transit":false,"i_long":106.977657,"station_id":"KRI","distance":3097},{"is_transit":false,"station_id":"BKS","transit":false,"line":0,"distance":2520,"i_lat":-6.236616,"time":4,"station_name":"Bekasi","i_long":106.997013},{"station_id":"BKST","i_long":107.016735,"transit":false,"is_transit":false,"i_lat":-6.248029,"distance":2368,"time":2,"station_name":"Bekasi Timur","line":0},{"i_long":107.055722,"station_name":"Tambun","line":1,"is_transit":false,"i_lat":-6.258864,"time":7,"transit":false,"distance":4460,"station_id":"TB"}],[{"time":0,"is_transit":false,"transit":false,"distance":0,"line":6,"station_id":"PDJ","station_name":"Pondokranji","i_long":106.74273,"i_lat":-6.276362},{"distance":6218,"station_name":"Kebayoran","i_lat":-6.237242,"is_transit":false,"transit":false,"line":6,"i_long":106.780334,"station_id":"KBY","time":8},{"distance":3737,"i_long":106.79689,"i_lat":-6.207404,"time":7,"station_id":"PLM","transit":false,"station_name":"Palmerah","is_transit":false,"line":6},{"i_long":106.811091,"time":6,"station_id":"THB","distance":3191,"station_name":"Tanah Abang","i_lat":-6.185545,"line":1,"transit":true,"is_transit":true},{"line":1,"is_transit":false,"distance":2029,"time":5,"station_id":"KAT","i_long":106.816351,"station_name":"Karet","i_lat":-6.20132,"transit":false},{"station_id":"SUDB","transit":false,"line":1,"distance":471,"i_lat":-6.201433,"time":1,"station_name":"Sudirman Baru","is_transit":false,"i_long":106.819881},{"station_name":"Sudirman","station_id":"SUD","i_lat":-6.202263,"time":1,"i_long":106.822649,"line":1,"is_transit":false,"distance":280,"transit":false},{"transit":true,"i_long":106.84912,"time":4,"distance":3186,"line":0,"station_id":"MRI","is_transit":true,"i_lat":-6.209883,"station_name":"Manggarai"},{"distance":1590,"station_id":"CKI","is_transit":false,"i_long":106.840169,"line":0,"station_name":"Cikini","transit":false,"i_lat":-6.198556,"time":4},{"is_transit":false,"line":2,"transit":false,"time":3,"i_long":106.832183,"station_id":"GDD","station_name":"Gondangdia","distance":1750,"i_lat":-6.186295},{"station_name":"Juanda","line":2,"distance":2015,"time":4,"station_id":"JUA","i_long":106.828284,"is_transit":false,"i_lat":-6.166716,"transit":false},{"line":2,"distance":1149,"i_long":106.827103,"time":2,"station_name":"Sawah Besar","transit":false,"station_id":"SW","is_transit":false,"i_lat":-6.160725},{"station_id":"MGB","station_name":"Manggabesar","i_long":106.82482,"time":2,"distance":906,"i_lat":-6.149769,"line":2,"transit":false,"is_transit":false},{"distance":1080,"i_long":106.820901,"transit":false,"station_name":"Jayakarta","line":7,"i_lat":-6.141205,"station_id":"JAY","time":2,"is_transit":false},{"i_long":106.812439,"station_id":"JAKK","i_lat":-6.137569,"line":0,"is_transit":true,"time":4,"transit":true,"station_name":"Jakarta Kota","distance":1264},{"transit":true,"distance":1364,"i_long":106.826365,"is_transit":true,"i_lat":-6.132549,"time":3,"station_id":"KPB","station_name":"Kampung Bandan","line":0},{"station_name":"Rajawali","station_id":"RJW","line":11,"i_lat":-6.14505,"i_long":106.836569,"time":3,"is_transit":false,"distance":1444,"transit":false},{"distance":1901,"station_id":"KMO","i_lat":-6.161728,"is_transit":false,"transit":false,"station_name":"Kemayoran","i_long":106.839204,"time":5,"line":11},{"line":11,"station_id":"PSE","distance":1436,"transit":false,"time":4,"i_long":106.84368,"station_name":"Pasar Senen","is_transit":false,"i_lat":-6.174784},{"i_lat":-6.185975,"transit":false,"station_name":"Gang Sentiong","time":8,"is_transit":false,"distance":1567,"station_id":"GST","line":11,"i_long":106.850107},{"i_lat":-6.193792,"i_long":106.855437,"line":11,"distance":973,"is_transit":false,"station_name":"Kramat","time":1,"transit":false,"station_id":"KMT"},{"distance":1829,"station_name":"Pondok Jati","time":2,"station_id":"POK","transit":false,"is_transit":false,"i_lat":-6.209188,"i_long":106.861737,"line":11},{"i_lat":-6.215091,"transit":true,"is_transit":true,"station_name":"Jatinegara","time":9,"i_long":106.86807400000001,"distance":1236,"line":0,"station_id":"JNG"},{"i_long":106.899548,"distance":3395,"line":1,"i_lat":-6.2135,"transit":false,"time":3,"is_transit":false,"station_id":"KLD","station_name":"Klender"},{"transit":false,"time":2,"i_lat":-6.215568,"station_id":"BUA","distance":3100,"line":0,"is_transit":false,"i_long":106.922662,"station_name":"Buaran"},{"is_transit":false,"distance":1305,"time":1,"i_long":106.939679,"line":1,"i_lat":-6.217455,"transit":false,"station_name":"Klenderbaru","station_id":"KLDB"},{"is_transit":false,"transit":false,"station_id":"CUK","i_long":106.951283,"distance":1385,"line":0,"time":8,"i_lat":-6.219053,"station_name":"Cakung"},{"station_id":"KRI","line":1,"station_name":"Kranji","is_transit":false,"distance":3097,"transit":false,"i_lat":-6.224515,"time":3,"i_long":106.977657},{"station_id":"BKS","time":4,"i_long":106.997013,"line":0,"transit":false,"is_transit":false,"i_lat":-6.236616,"station_name":"Bekasi","distance":2520},{"station_name":"Bekasi Timur","transit":false,"station_id":"BKST","line":0,"i_long":107.016735,"is_transit":false,"time":2,"distance":2368,"i_lat":-6.248029},{"line":1,"is_transit":false,"station_name":"Tambun","distance":4460,"transit":false,"station_id":"TB","i_lat":-6.258864,"i_long":107.055722,"time":7}]]}