{"data":[[{"i_lat":-6.276362,"i_long":106.74273,"time":0,"transit":false,"distance":0,"line":6,"station_name":"Pondokranji","is_transit":false,"station_id":"PDJ"},{"station_name":"Kebayoran","time":8,"i_lat":-6.237242,"transit":false,"distance":6218,"line":6,"is_transit":false,"station_id":"KBY","i_long":106.780334},{"i_long":106.79689,"line":6,"time":7,"distance":3737,"i_lat":-6.207404,"station_name":"Palmerah","transit":false,"is_transit":false,"station_id":"PLM"},{"i_lat":-6.185545,"station_id":"THB","i_long":106.811091,"distance":3191,"station_name":"Tanah Abang","transit":true,"time":6,"is_transit":true,"line":1},{"station_name":"Karet","i_lat":-6.20132,"time":5,"distance":2029,"i_long":106.816351,"station_id":"KAT","transit":false,"line":1,"is_transit":false},{"i_long":106.819881,"is_transit":false,"time":1,"station_id":"SUDB","i_lat":-6.201433,"distance":471,"transit":false,"station_name":"Sudirman Baru","line":1},{"time":1,"i_long":106.822649,"distance":280,"station_name":"Sudirman","line":1,"is_transit":false,"station_id":"SUD","transit":false,"i_lat":-6.202263},{"distance":3186,"station_name":"Manggarai","is_transit":true,"time":4,"station_id":"MRI","transit":true,"i_lat":-6.209883,"i_long":106.84912,"line":0},{"station_id":"TEB","line":2,"station_name":"Tebet","distance":2610,"time":4,"is_transit":false,"i_long":106.857948,"transit":false,"i_lat":-6.226659},{"distance":1230,"time":2,"station_name":"Cawang","station_id":"CW","is_transit":false,"transit":false,"i_lat":-6.242512,"i_long":106.856607,"line":0},{"time":3,"station_id":"DRN","i_long":106.85449,"line":0,"transit":false,"is_transit":false,"station_name":"Duren Kalibata","distance":1546,"i_lat":-6.255332},{"station_id":"PSMB","time":2,"distance":824,"transit":false,"i_lat":-6.263214,"line":2,"station_name":"Pasar Minggu Baru","i_long":106.851577,"is_transit":false},{"station_id":"PSM","time":2,"is_transit":false,"station_name":"Pasar Minggu","distance":2380,"transit":false,"i_lat":-6.2842400000000005,"i_long":106.843999,"line":2},{"i_long":106.838896,"line":2,"transit":false,"distance":2820,"i_lat":-6.3080680000000005,"station_id":"TNT","is_transit":false,"station_name":"Tanjung Barat","time":4},{"station_id":"LNA","i_long":106.832616,"line":2,"distance":2671,"i_lat":-6.330363,"station_name":"Lenteng Agung","transit":false,"time":3,"is_transit":false}],[{"i_long":106.74273,"is_transit":false,"station_name":"Pondokranji","station_id":"PDJ","time":0,"transit":false,"distance":0,"i_lat":-6.276362,"line":6},{"is_transit":false,"i_lat":-6.237242,"time":8,"distance":6218,"station_name":"Kebayoran","line":6,"transit":false,"station_id":"KBY","i_long":106.780334},{"time":7,"distance":3737,"line":6,"transit":false,"station_name":"Palmerah","is_transit":false,"station_id":"PLM","i_long":106.79689,"i_lat":-6.207404},{"station_id":"THB","i_long":106.811091,"is_transit":true,"distance":3191,"i_lat":-6.185545,"transit":true,"line":1,"time":6,"station_name":"Tanah Abang"},{"is_transit":true,"station_id":"DU","distance":3632,"time":8,"line":1,"station_name":"Duri","i_lat":-6.155215,"i_long":106.800832,"transit":true},{"distance":1230,"i_lat":-6.144674,"time":4,"station_id":"AK","transit":false,"i_long":106.79867,"is_transit":false,"station_name":"Angke","line":0},{"line":0,"station_name":"Kampung Bandan","i_lat":-6.132549,"transit":false,"time":9,"is_transit":true,"station_id":"KPB","distance":4102,"i_long":106.826365},{"distance":1364,"transit":true,"station_name":"Jakarta Kota","i_long":106.812439,"line":0,"time":3,"is_transit":true,"i_lat":-6.137569,"station_id":"JAKK"},{"station_name":"Jayakarta","transit":false,"time":4,"is_transit":false,"i_lat":-6.141205,"line":7,"i_long":106.820901,"station_id":"JAY","distance":1264},{"station_name":"Manggabesar","is_transit":false,"transit":false,"i_lat":-6.149769,"i_long":106.82482,"station_id":"MGB","time":2,"line":2,"distance":1080},{"line":2,"station_name":"Sawah Besar","time":2,"transit":false,"station_id":"SW","is_transit":false,"distance":906,"i_long":106.827103,"i_lat":-6.160725},{"is_transit":false,"station_name":"Juanda","distance":1149,"i_lat":-6.166716,"i_long":106.828284,"transit":false,"station_id":"JUA","time":2,"line":2},{"transit":false,"time":4,"i_long":106.832183,"station_name":"Gondangdia","line":2,"station_id":"GDD","i_lat":-6.186295,"is_transit":false,"distance":2015},{"station_id":"CKI","line":0,"distance":1750,"is_transit":false,"time":3,"i_long":106.840169,"i_lat":-6.198556,"station_name":"Cikini","transit":false},{"station_id":"MRI","distance":1590,"is_transit":true,"time":4,"i_lat":-6.209883,"line":0,"transit":true,"station_name":"Manggarai","i_long":106.84912},{"i_long":106.857948,"station_id":"TEB","is_transit":false,"time":4,"distance":2610,"line":2,"station_name":"Tebet","i_lat":-6.226659,"transit":false},{"i_lat":-6.242512,"line":0,"i_long":106.856607,"is_transit":false,"station_name":"Cawang","station_id":"CW","time":2,"distance":1230,"transit":false},{"i_lat":-6.255332,"time":3,"distance":1546,"line":0,"i_long":106.85449,"station_id":"DRN","station_name":"Duren Kalibata","transit":false,"is_transit":false},{"station_name":"Pasar Minggu Baru","distance":824,"i_long":106.851577,"is_transit":false,"station_id":"PSMB","i_lat":-6.263214,"transit":false,"line":2,"time":2},{"transit":false,"i_lat":-6.2842400000000005,"i_long":106.843999,"station_name":"Pasar Minggu","time":2,"distance":2380,"station_id":"PSM","line":2,"is_transit":false},{"station_id":"TNT","distance":2820,"transit":false,"i_long":106.838896,"line":2,"is_transit":false,"station_name":"Tanjung Barat","time":4,"i_lat":-6.3080680000000005},{"station_id":"LNA","i_lat":-6.330363,"time":3,"i_long":106.832616,"distance":2671,"station_name":"Lenteng Agung","transit":false,"line":2,"is_transit":false}],[{"transit":false,"i_long":106.74273,"i_lat":-6.276362,"line":6,"is_transit":false,"station_name":"Pondokranji","station_id":"PDJ","distance":0,"time":0},{"i_lat":-6.237242,"station_name":"Kebayoran","time":8,"station_id":"KBY","distance":6218,"is_transit":false,"i_long":106.780334,"line":6,"transit":false},{"time":7,"distance":3737,"transit":false,"line":6,"station_id":"PLM","i_lat":-6.207404,"is_transit":false,"station_name":"Palmerah","i_long":106.79689},{"time":6,"line":1,"distance":3191,"station_id":"THB","is_transit":true,"i_lat":-6.185545,"i_long":106.811091,"station_name":"Tanah Abang","transit":true},{"i_long":106.800832,"transit":true,"distance":3632,"line":1,"is_transit":true,"i_lat":-6.155215,"station_id":"DU","time":8,"station_name":"Duri"},{"transit":false,"i_long":106.79867,"line":0,"is_transit":false,"i_lat":-6.144674,"station_name":"Angke","time":4,"distance":1230,"station_id":"AK"},{"station_id":"KPB","i_long":106.826365,"is_transit":true,"station_name":"Kampung Bandan","line":0,"i_lat":-6.132549,"time":9,"distance":4102,"transit":true},{"station_name":"Rajawali","line":11,"is_transit":false,"distance":1444,"transit":false,"i_long":106.836569,"time":3,"station_id":"RJW","i_lat":-6.14505},{"i_lat":-6.161728,"i_long":106.839204,"is_transit":false,"transit":false,"time":5,"distance":1901,"line":11,"station_name":"Kemayoran","station_id":"KMO"},{"station_id":"PSE","distance":1436,"transit":false,"is_transit":false,"i_long":106.84368,"line":11,"station_name":"Pasar Senen","i_lat":-6.174784,"time":4},{"i_lat":-6.185975,"time":8,"line":11,"distance":1567,"station_id":"GST","i_long":106.850107,"station_name":"Gang Sentiong","transit":false,"is_transit":false},{"station_id":"KMT","distance":973,"i_lat":-6.193792,"i_long":106.855437,"is_transit":false,"station_name":"Kramat","time":1,"transit":false,"line":11},{"transit":false,"is_transit":false,"time":2,"distance":1829,"station_name":"Pondok Jati","station_id":"POK","i_lat":-6.209188,"i_long":106.861737,"line":11},{"i_long":106.86807400000001,"station_name":"Jatinegara","is_transit":true,"i_lat":-6.215091,"transit":true,"station_id":"JNG","time":9,"distance":1236,"line":0},{"transit":false,"i_lat":-6.212485,"is_transit":false,"time":2,"station_id":"MTR","i_long":106.858896,"distance":1377,"station_name":"Matraman","line":1},{"line":0,"station_id":"MRI","transit":true,"i_long":106.84912,"is_transit":true,"i_lat":-6.209883,"distance":1275,"time":2,"station_name":"Manggarai"},{"station_name":"Tebet","station_id":"TEB","distance":2610,"time":4,"i_lat":-6.226659,"line":2,"i_long":106.857948,"transit":false,"is_transit":false},{"is_transit":false,"line":0,"time":2,"transit":false,"station_id":"CW","station_name":"Cawang","i_lat":-6.242512,"i_long":106.856607,"distance":1230},{"line":0,"is_transit":false,"time":3,"transit":false,"i_long":106.85449,"station_name":"Duren Kalibata","i_lat":-6.255332,"station_id":"DRN","distance":1546},{"i_long":106.851577,"station_id":"PSMB","distance":824,"i_lat":-6.263214,"station_name":"Pasar Minggu Baru","is_transit":false,"line":2,"time":2,"transit":false},{"is_transit":false,"time":2,"distance":2380,"transit":false,"station_id":"PSM","i_lat":-6.2842400000000005,"line":2,"i_long":106.843999,"station_name":"Pasar Minggu"},{"is_transit":false,"station_id":"TNT","distance":2820,"station_name":"Tanjung Barat","i_long":106.838896,"transit":false,"line":2,"i_lat":-6.3080680000000005,"time":4},{"i_lat":-6.330363,"station_name":"Lenteng Agung","station_id":"LNA","distance":2671,"time":3,"i_long":106.832616,"transit":false,"line":2,"is_transit":false}]]}