{"data":[[{"transit":false,"i_lat":-6.276362,"station_name":"Pondokranji","i_long":106.74273,"line":6,"is_transit":false,"distance":0,"station_id":"PDJ","time":0},{"station_id":"JMU","transit":false,"time":3,"station_name":"Jurangmangu","i_lat":-6.288927,"i_long":106.728916,"distance":2179,"is_transit":false,"line":6},{"i_long":106.712277,"station_name":"Sudimara","i_lat":-6.296963,"is_transit":false,"line":6,"distance":1994,"station_id":"SDM","time":4,"transit":false},{"i_long":106.675475,"station_name":"Rawa Buntu","distance":4566,"time":6,"transit":false,"line":6,"is_transit":false,"i_lat":-6.314823,"station_id":"RU"},{"station_id":"SRP","line":6,"station_name":"Serpong","i_lat":-6.319871,"i_long":106.66566,"is_transit":false,"transit":false,"time":4,"distance":2413},{"station_name":"Cisauk","i_lat":-6.32484,"station_id":"CSK","i_long":106.640411,"distance":1784,"time":4,"is_transit":false,"transit":false,"line":3},{"is_transit":false,"distance":2519,"i_lat":-6.329547,"time":4,"line":3,"station_name":"Cicayur","transit":false,"i_long":106.617853,"station_id":"CC"}]]}