{"data":[[{"line":6,"station_name":"Pondokranji","time":0,"distance":0,"i_long":106.74273,"i_lat":-6.276362,"transit":false,"station_id":"PDJ","is_transit":false},{"station_id":"KBY","time":8,"transit":false,"station_name":"Kebayoran","i_lat":-6.237242,"i_long":106.780334,"line":6,"is_transit":false,"distance":6218},{"i_long":106.79689,"transit":false,"time":7,"distance":3737,"i_lat":-6.207404,"line":6,"station_name":"Palmerah","is_transit":false,"station_id":"PLM"},{"is_transit":true,"line":1,"i_lat":-6.185545,"transit":true,"distance":3191,"i_long":106.811091,"time":6,"station_name":"Tanah Abang","station_id":"THB"},{"i_long":106.800832,"station_id":"DU","is_transit":true,"distance":3632,"station_name":"Duri","time":8,"i_lat":-6.155215,"line":1,"transit":true},{"line":5,"distance":1700,"station_id":"GGL","i_long":106.788277,"is_transit":false,"i_lat":-6.162021,"station_name":"Grogol","transit":false,"time":3},{"transit":false,"station_id":"PSG","line":5,"time":2,"is_transit":false,"distance":2036,"station_name":"Pesing","i_long":106.771379,"i_lat":-6.161433},{"time":2,"distance":1614,"station_name":"Taman Kota","transit":false,"station_id":"TKO","is_transit":false,"i_long":106.756522,"i_lat":-6.1587309999999995,"line":5},{"line":5,"transit":false,"distance":2334,"is_transit":false,"time":2,"i_long":106.737035,"station_id":"BOI","i_lat":-6.159876,"station_name":"Bojongindah"},{"line":5,"station_id":"RW","transit":false,"i_lat":-6.162758,"time":4,"i_long":106.723064,"station_name":"Rawa Buaya","is_transit":false,"distance":1152},{"line":5,"time":3,"transit":false,"is_transit":false,"i_lat":-6.166068,"station_id":"KDS","station_name":"Kalideres","distance":2504,"i_long":106.701612},{"line":5,"is_transit":false,"transit":false,"i_lat":-6.169933,"station_id":"PI","station_name":"Poris","time":3,"i_long":106.679458,"distance":2548},{"is_transit":false,"time":3,"i_lat":-6.171811,"station_id":"BPR","distance":1834,"i_long":106.665036,"transit":false,"line":5,"station_name":"Batuceper"},{"time":3,"transit":false,"is_transit":false,"station_id":"TTI","line":5,"station_name":"Tanah Tinggi","i_lat":-6.17331,"i_long":106.64657,"distance":2028},{"distance":1547,"line":5,"station_id":"TNG","station_name":"Tangerang","i_lat":-6.176583,"is_transit":false,"transit":false,"time":3,"i_long":106.632761}],[{"is_transit":false,"line":6,"i_lat":-6.276362,"station_id":"PDJ","i_long":106.74273,"station_name":"Pondokranji","time":0,"transit":false,"distance":0},{"time":8,"station_id":"KBY","i_lat":-6.237242,"distance":6218,"transit":false,"is_transit":false,"line":6,"i_long":106.780334,"station_name":"Kebayoran"},{"station_name":"Palmerah","station_id":"PLM","is_transit":false,"distance":3737,"i_long":106.79689,"line":6,"transit":false,"i_lat":-6.207404,"time":7},{"line":1,"transit":true,"station_id":"THB","is_transit":true,"distance":3191,"i_lat":-6.185545,"time":6,"station_name":"Tanah Abang","i_long":106.811091},{"distance":2029,"station_id":"KAT","i_long":106.816351,"line":1,"transit":false,"time":5,"i_lat":-6.20132,"is_transit":false,"station_name":"Karet"},{"i_long":106.819881,"transit":false,"station_id":"SUDB","line":1,"time":1,"station_name":"Sudirman Baru","is_transit":false,"i_lat":-6.201433,"distance":471},{"i_long":106.822649,"station_name":"Sudirman","time":1,"transit":false,"line":1,"is_transit":false,"i_lat":-6.202263,"station_id":"SUD","distance":280},{"time":4,"station_name":"Manggarai","distance":3186,"transit":true,"i_lat":-6.209883,"station_id":"MRI","is_transit":true,"i_long":106.84912,"line":2},{"i_lat":-6.198556,"transit":false,"station_id":"CKI","time":4,"i_long":106.840169,"line":2,"station_name":"Cikini","distance":1590,"is_transit":false},{"station_name":"Gondangdia","transit":false,"station_id":"GDD","i_long":106.832183,"line":2,"distance":1750,"is_transit":false,"time":3,"i_lat":-6.186295},{"i_lat":-6.166716,"time":4,"distance":2015,"transit":false,"station_name":"Juanda","is_transit":false,"i_long":106.828284,"station_id":"JUA","line":2},{"is_transit":false,"transit":false,"i_long":106.827103,"time":2,"station_name":"Sawah Besar","line":2,"station_id":"SW","distance":1149,"i_lat":-6.160725},{"i_long":106.82482,"time":2,"i_lat":-6.149769,"distance":906,"is_transit":false,"line":2,"station_name":"Manggabesar","station_id":"MGB","transit":false},{"line":2,"station_id":"JAY","distance":1080,"is_transit":false,"transit":false,"station_name":"Jayakarta","i_long":106.820901,"time":2,"i_lat":-6.141205},{"distance":1264,"i_lat":-6.137569,"i_long":106.812439,"station_id":"JAKK","is_transit":true,"time":4,"transit":true,"station_name":"Jakarta Kota","line":2},{"station_id":"KPB","is_transit":true,"i_long":106.826365,"line":4,"distance":1364,"i_lat":-6.132549,"station_name":"Kampung Bandan","transit":true,"time":3},{"time":9,"distance":4102,"i_lat":-6.144674,"station_id":"AK","line":1,"i_long":106.79867,"transit":false,"station_name":"Angke","is_transit":false},{"distance":1230,"i_lat":-6.155215,"i_long":106.800832,"transit":true,"time":4,"line":1,"station_name":"Duri","station_id":"DU","is_transit":true},{"transit":false,"time":3,"i_lat":-6.162021,"is_transit":false,"i_long":106.788277,"station_name":"Grogol","station_id":"GGL","distance":1700,"line":5},{"i_long":106.771379,"transit":false,"line":5,"station_id":"PSG","distance":2036,"time":2,"station_name":"Pesing","is_transit":false,"i_lat":-6.161433},{"line":5,"time":2,"is_transit":false,"station_id":"TKO","transit":false,"station_name":"Taman Kota","distance":1614,"i_lat":-6.1587309999999995,"i_long":106.756522},{"i_long":106.737035,"transit":false,"i_lat":-6.159876,"station_id":"BOI","station_name":"Bojongindah","time":2,"distance":2334,"line":5,"is_transit":false},{"transit":false,"station_name":"Rawa Buaya","station_id":"RW","time":4,"distance":1152,"i_lat":-6.162758,"i_long":106.723064,"line":5,"is_transit":false},{"time":3,"line":5,"distance":2504,"i_long":106.701612,"is_transit":false,"transit":false,"station_name":"Kalideres","i_lat":-6.166068,"station_id":"KDS"},{"station_name":"Poris","time":3,"is_transit":false,"distance":2548,"i_long":106.679458,"station_id":"PI","i_lat":-6.169933,"line":5,"transit":false},{"i_lat":-6.171811,"is_transit":false,"time":3,"i_long":106.665036,"transit":false,"station_name":"Batuceper","line":5,"distance":1834,"station_id":"BPR"},{"i_lat":-6.17331,"transit":false,"is_transit":false,"line":5,"distance":2028,"i_long":106.64657,"station_name":"Tanah Tinggi","station_id":"TTI","time":3},{"i_long":106.632761,"transit":false,"station_name":"Tangerang","line":5,"station_id":"TNG","distance":1547,"i_lat":-6.176583,"is_transit":false,"time":3}],[{"distance":0,"line":6,"i_long":106.74273,"is_transit":false,"time":0,"transit":false,"i_lat":-6.276362,"station_id":"PDJ","station_name":"Pondokranji"},{"distance":6218,"is_transit":false,"station_name":"Kebayoran","station_id":"KBY","transit":false,"time":8,"i_lat":-6.237242,"i_long":106.780334,"line":6},{"station_id":"PLM","transit":false,"distance":3737,"line":6,"station_name":"Palmerah","is_transit":false,"time":7,"i_lat":-6.207404,"i_long":106.79689},{"i_long":106.811091,"is_transit":true,"time":6,"distance":3191,"i_lat":-6.185545,"station_name":"Tanah Abang","line":1,"station_id":"THB","transit":true},{"station_name":"Karet","station_id":"KAT","transit":false,"is_transit":false,"time":5,"i_lat":-6.20132,"distance":2029,"line":1,"i_long":106.816351},{"transit":false,"station_name":"Sudirman Baru","i_long":106.819881,"line":1,"station_id":"SUDB","is_transit":false,"time":1,"distance":471,"i_lat":-6.201433},{"station_id":"SUD","time":1,"distance":280,"i_long":106.822649,"line":1,"i_lat":-6.202263,"is_transit":false,"transit":false,"station_name":"Sudirman"},{"distance":3186,"is_transit":false,"line":2,"transit":false,"i_lat":-6.209883,"time":4,"i_long":106.84912,"station_name":"Manggarai","station_id":"MRI"},{"transit":false,"time":2,"i_lat":-6.212485,"distance":1275,"station_name":"Matraman","is_transit":false,"i_long":106.858896,"station_id":"MTR","line":1},{"transit":true,"i_long":106.86807400000001,"line":1,"time":8,"distance":1377,"i_lat":-6.215091,"station_name":"Jatinegara","station_id":"JNG","is_transit":true},{"transit":false,"distance":1236,"station_name":"Pondok Jati","station_id":"POK","is_transit":false,"i_long":106.861737,"time":2,"line":11,"i_lat":-6.209188},{"time":2,"i_lat":-6.193792,"transit":false,"station_name":"Kramat","line":11,"distance":1829,"i_long":106.855437,"is_transit":false,"station_id":"KMT"},{"transit":false,"station_id":"GST","i_long":106.850107,"line":11,"is_transit":false,"time":1,"distance":973,"station_name":"Gang Sentiong","i_lat":-6.185975},{"station_id":"PSE","distance":1567,"station_name":"Pasar Senen","transit":false,"i_long":106.84368,"time":8,"i_lat":-6.174784,"line":11,"is_transit":false},{"is_transit":false,"station_name":"Kemayoran","i_long":106.839204,"i_lat":-6.161728,"transit":false,"station_id":"KMO","time":4,"line":11,"distance":1436},{"distance":1901,"line":11,"time":5,"i_lat":-6.14505,"i_long":106.836569,"station_name":"Rajawali","station_id":"RJW","is_transit":false,"transit":false},{"line":4,"i_long":106.826365,"distance":1444,"i_lat":-6.132549,"transit":true,"station_id":"KPB","station_name":"Kampung Bandan","is_transit":true,"time":3},{"i_lat":-6.144674,"distance":4102,"i_long":106.79867,"station_name":"Angke","transit":false,"station_id":"AK","is_transit":false,"time":9,"line":1},{"transit":true,"station_name":"Duri","i_lat":-6.155215,"station_id":"DU","is_transit":true,"i_long":106.800832,"distance":1230,"time":4,"line":1},{"is_transit":false,"distance":1700,"i_lat":-6.162021,"station_id":"GGL","transit":false,"station_name":"Grogol","i_long":106.788277,"time":3,"line":5},{"distance":2036,"station_name":"Pesing","i_lat":-6.161433,"i_long":106.771379,"is_transit":false,"transit":false,"line":5,"station_id":"PSG","time":2},{"time":2,"is_transit":false,"i_lat":-6.1587309999999995,"station_name":"Taman Kota","transit":false,"i_long":106.756522,"station_id":"TKO","distance":1614,"line":5},{"is_transit":false,"transit":false,"time":2,"i_long":106.737035,"station_id":"BOI","distance":2334,"line":5,"i_lat":-6.159876,"station_name":"Bojongindah"},{"i_lat":-6.162758,"i_long":106.723064,"line":5,"distance":1152,"station_name":"Rawa Buaya","transit":false,"time":4,"is_transit":false,"station_id":"RW"},{"line":5,"i_long":106.701612,"transit":false,"station_id":"KDS","is_transit":false,"station_name":"Kalideres","time":3,"distance":2504,"i_lat":-6.166068},{"station_id":"PI","station_name":"Poris","i_lat":-6.169933,"line":5,"time":3,"i_long":106.679458,"distance":2548,"transit":false,"is_transit":false},{"station_id":"BPR","is_transit":false,"distance":1834,"i_lat":-6.171811,"i_long":106.665036,"time":3,"line":5,"transit":false,"station_name":"Batuceper"},{"i_lat":-6.17331,"station_id":"TTI","transit":false,"is_transit":false,"time":3,"i_long":106.64657,"station_name":"Tanah Tinggi","line":5,"distance":2028},{"line":5,"distance":1547,"station_id":"TNG","station_name":"Tangerang","time":3,"transit":false,"i_lat":-6.176583,"is_transit":false,"i_long":106.632761}]]}