{"data":[[{"line":6,"transit":false,"time":0,"distance":0,"i_lat":-6.276362,"station_id":"PDJ","i_long":106.74273,"station_name":"Pondokranji","is_transit":false},{"distance":6218,"time":8,"is_transit":false,"transit":false,"station_id":"KBY","i_lat":-6.237242,"i_long":106.780334,"line":6,"station_name":"Kebayoran"},{"i_long":106.79689,"is_transit":false,"i_lat":-6.207404,"distance":3737,"line":6,"transit":false,"station_name":"Palmerah","time":7,"station_id":"PLM"},{"transit":true,"distance":3191,"station_id":"THB","is_transit":true,"station_name":"Tanah Abang","i_lat":-6.185545,"line":1,"time":6,"i_long":106.811091},{"time":8,"i_lat":-6.155215,"i_long":106.800832,"station_id":"DU","station_name":"Duri","is_transit":true,"distance":3632,"line":1,"transit":true},{"time":4,"transit":false,"is_transit":false,"distance":1230,"i_lat":-6.144674,"line":0,"station_id":"AK","station_name":"Angke","i_long":106.79867},{"i_long":106.826365,"transit":false,"station_name":"Kampung Bandan","i_lat":-6.132549,"station_id":"KPB","is_transit":true,"time":9,"distance":4102,"line":0},{"is_transit":false,"i_lat":-6.128023,"station_id":"AC","i_long":106.84464,"transit":false,"distance":2185,"time":4,"line":0,"station_name":"Ancol"},{"distance":4566,"station_name":"Tanjung Priuk","station_id":"TPK","is_transit":false,"transit":false,"i_long":106.880089,"line":4,"i_lat":-6.1109480000000005,"time":9}],[{"station_id":"PDJ","time":0,"station_name":"Pondokranji","distance":0,"transit":false,"line":6,"i_lat":-6.276362,"is_transit":false,"i_long":106.74273},{"station_name":"Kebayoran","time":8,"distance":6218,"i_lat":-6.237242,"line":6,"is_transit":false,"transit":false,"i_long":106.780334,"station_id":"KBY"},{"line":6,"station_name":"Palmerah","i_lat":-6.207404,"i_long":106.79689,"station_id":"PLM","time":7,"distance":3737,"transit":false,"is_transit":false},{"is_transit":true,"transit":true,"time":6,"station_id":"THB","i_lat":-6.185545,"i_long":106.811091,"distance":3191,"station_name":"Tanah Abang","line":1},{"distance":2029,"station_name":"Karet","i_long":106.816351,"time":5,"line":1,"i_lat":-6.20132,"transit":false,"is_transit":false,"station_id":"KAT"},{"is_transit":false,"distance":471,"station_name":"Sudirman Baru","station_id":"SUDB","transit":false,"i_lat":-6.201433,"line":1,"time":1,"i_long":106.819881},{"station_name":"Sudirman","time":1,"is_transit":false,"station_id":"SUD","line":1,"transit":false,"i_lat":-6.202263,"distance":280,"i_long":106.822649},{"transit":true,"station_id":"MRI","time":4,"i_long":106.84912,"is_transit":true,"line":0,"i_lat":-6.209883,"station_name":"Manggarai","distance":3186},{"i_long":106.840169,"station_id":"CKI","time":4,"transit":false,"distance":1590,"line":0,"is_transit":false,"station_name":"Cikini","i_lat":-6.198556},{"time":3,"i_long":106.832183,"line":2,"transit":false,"station_id":"GDD","distance":1750,"i_lat":-6.186295,"station_name":"Gondangdia","is_transit":false},{"station_name":"Juanda","i_long":106.828284,"station_id":"JUA","transit":false,"time":4,"distance":2015,"line":2,"is_transit":false,"i_lat":-6.166716},{"station_id":"SW","transit":false,"distance":1149,"time":2,"line":2,"i_long":106.827103,"is_transit":false,"i_lat":-6.160725,"station_name":"Sawah Besar"},{"is_transit":false,"transit":false,"station_id":"MGB","line":2,"i_lat":-6.149769,"station_name":"Manggabesar","time":2,"i_long":106.82482,"distance":906},{"is_transit":false,"i_long":106.820901,"i_lat":-6.141205,"distance":1080,"station_id":"JAY","line":7,"transit":false,"time":2,"station_name":"Jayakarta"},{"station_name":"Jakarta Kota","is_transit":true,"i_lat":-6.137569,"line":0,"station_id":"JAKK","i_long":106.812439,"transit":true,"time":4,"distance":1264},{"i_long":106.826365,"time":3,"line":0,"transit":false,"station_id":"KPB","is_transit":true,"distance":1364,"station_name":"Kampung Bandan","i_lat":-6.132549},{"i_lat":-6.128023,"i_long":106.84464,"transit":false,"distance":2185,"station_name":"Ancol","time":4,"station_id":"AC","line":0,"is_transit":false},{"station_name":"Tanjung Priuk","transit":false,"is_transit":false,"time":9,"i_long":106.880089,"line":4,"station_id":"TPK","distance":4566,"i_lat":-6.1109480000000005}],[{"station_id":"PDJ","distance":0,"i_lat":-6.276362,"i_long":106.74273,"line":6,"time":0,"is_transit":false,"station_name":"Pondokranji","transit":false},{"is_transit":false,"transit":false,"distance":6218,"time":8,"line":6,"i_long":106.780334,"station_id":"KBY","i_lat":-6.237242,"station_name":"Kebayoran"},{"time":7,"distance":3737,"station_name":"Palmerah","transit":false,"i_lat":-6.207404,"is_transit":false,"line":6,"station_id":"PLM","i_long":106.79689},{"i_long":106.811091,"line":1,"transit":true,"is_transit":true,"station_name":"Tanah Abang","time":6,"distance":3191,"station_id":"THB","i_lat":-6.185545},{"i_lat":-6.20132,"station_id":"KAT","line":1,"station_name":"Karet","i_long":106.816351,"is_transit":false,"transit":false,"distance":2029,"time":5},{"is_transit":false,"i_lat":-6.201433,"line":1,"i_long":106.819881,"station_id":"SUDB","station_name":"Sudirman Baru","transit":false,"time":1,"distance":471},{"station_name":"Sudirman","time":1,"i_long":106.822649,"i_lat":-6.202263,"distance":280,"line":1,"station_id":"SUD","transit":false,"is_transit":false},{"station_id":"MRI","is_transit":true,"time":4,"i_long":106.84912,"line":0,"i_lat":-6.209883,"station_name":"Manggarai","transit":false,"distance":3186},{"line":1,"distance":1275,"is_transit":false,"station_id":"MTR","i_long":106.858896,"time":2,"station_name":"Matraman","i_lat":-6.212485,"transit":false},{"station_id":"JNG","time":8,"i_long":106.86807400000001,"line":0,"is_transit":true,"i_lat":-6.215091,"distance":1377,"transit":true,"station_name":"Jatinegara"},{"i_lat":-6.209188,"i_long":106.861737,"is_transit":false,"transit":false,"line":11,"distance":1236,"station_name":"Pondok Jati","station_id":"POK","time":2},{"station_id":"KMT","time":2,"i_lat":-6.193792,"i_long":106.855437,"transit":false,"is_transit":false,"line":11,"distance":1829,"station_name":"Kramat"},{"transit":false,"time":1,"station_id":"GST","line":11,"i_long":106.850107,"distance":973,"i_lat":-6.185975,"station_name":"Gang Sentiong","is_transit":false},{"station_id":"PSE","transit":false,"distance":1567,"i_long":106.84368,"station_name":"Pasar Senen","i_lat":-6.174784,"line":11,"is_transit":false,"time":8},{"is_transit":false,"station_name":"Kemayoran","station_id":"KMO","distance":1436,"time":4,"transit":false,"i_lat":-6.161728,"i_long":106.839204,"line":11},{"transit":false,"time":5,"station_id":"RJW","i_long":106.836569,"line":11,"station_name":"Rajawali","i_lat":-6.14505,"distance":1901,"is_transit":false},{"transit":true,"station_name":"Kampung Bandan","station_id":"KPB","line":0,"distance":1444,"time":3,"i_long":106.826365,"i_lat":-6.132549,"is_transit":true},{"line":0,"is_transit":false,"i_lat":-6.128023,"transit":false,"time":4,"distance":2185,"station_id":"AC","station_name":"Ancol","i_long":106.84464},{"line":4,"distance":4566,"transit":false,"time":9,"station_id":"TPK","station_name":"Tanjung Priuk","i_lat":-6.1109480000000005,"is_transit":false,"i_long":106.880089}]]}