{"data":[[{"is_transit":false,"station_name":"Pondokranji","time":0,"i_lat":-6.276362,"station_id":"PDJ","i_long":106.74273,"transit":false,"line":6,"distance":0},{"transit":false,"i_long":106.780334,"is_transit":false,"i_lat":-6.237242,"station_name":"Kebayoran","line":6,"time":8,"station_id":"KBY","distance":6218},{"station_name":"Palmerah","line":6,"time":7,"station_id":"PLM","transit":false,"i_lat":-6.207404,"is_transit":false,"distance":3737,"i_long":106.79689},{"station_name":"Tanah Abang","transit":true,"is_transit":true,"station_id":"THB","time":6,"distance":3191,"i_long":106.811091,"line":1,"i_lat":-6.185545},{"station_name":"Duri","transit":false,"distance":3632,"station_id":"DU","i_lat":-6.155215,"time":8,"line":1,"i_long":106.800832,"is_transit":false},{"is_transit":false,"time":4,"station_name":"Angke","i_lat":-6.144674,"i_long":106.79867,"distance":1230,"station_id":"AK","transit":false,"line":1},{"i_lat":-6.132549,"line":4,"station_name":"Kampung Bandan","transit":true,"station_id":"KPB","is_transit":true,"i_long":106.826365,"time":9,"distance":4102},{"time":4,"distance":2185,"station_id":"AC","is_transit":false,"i_lat":-6.128023,"i_long":106.84464,"line":4,"transit":false,"station_name":"Ancol"}],[{"time":0,"i_lat":-6.276362,"line":6,"is_transit":false,"station_id":"PDJ","i_long":106.74273,"distance":0,"transit":false,"station_name":"Pondokranji"},{"time":8,"distance":6218,"station_id":"KBY","station_name":"Kebayoran","line":6,"transit":false,"is_transit":false,"i_long":106.780334,"i_lat":-6.237242},{"station_id":"PLM","transit":false,"i_lat":-6.207404,"station_name":"Palmerah","is_transit":false,"i_long":106.79689,"line":6,"distance":3737,"time":7},{"is_transit":true,"distance":3191,"station_id":"THB","i_lat":-6.185545,"transit":true,"time":6,"station_name":"Tanah Abang","line":1,"i_long":106.811091},{"station_id":"KAT","i_lat":-6.20132,"line":1,"time":5,"station_name":"Karet","is_transit":false,"transit":false,"i_long":106.816351,"distance":2029},{"station_name":"Sudirman Baru","line":1,"is_transit":false,"i_long":106.819881,"i_lat":-6.201433,"distance":471,"transit":false,"station_id":"SUDB","time":1},{"station_name":"Sudirman","station_id":"SUD","distance":280,"transit":false,"time":1,"i_lat":-6.202263,"i_long":106.822649,"line":1,"is_transit":false},{"i_long":106.84912,"is_transit":true,"station_name":"Manggarai","time":4,"i_lat":-6.209883,"line":2,"distance":3186,"transit":true,"station_id":"MRI"},{"is_transit":false,"i_lat":-6.198556,"transit":false,"station_id":"CKI","i_long":106.840169,"time":4,"line":2,"station_name":"Cikini","distance":1590},{"is_transit":false,"line":2,"i_lat":-6.186295,"time":3,"station_id":"GDD","station_name":"Gondangdia","distance":1750,"i_long":106.832183,"transit":false},{"i_lat":-6.166716,"i_long":106.828284,"station_name":"Juanda","transit":false,"time":4,"station_id":"JUA","line":2,"is_transit":false,"distance":2015},{"line":2,"transit":false,"station_name":"Sawah Besar","time":2,"station_id":"SW","i_long":106.827103,"is_transit":false,"distance":1149,"i_lat":-6.160725},{"time":2,"i_lat":-6.149769,"station_name":"Manggabesar","is_transit":false,"station_id":"MGB","line":2,"i_long":106.82482,"transit":false,"distance":906},{"station_name":"Jayakarta","transit":false,"time":2,"station_id":"JAY","i_lat":-6.141205,"is_transit":false,"i_long":106.820901,"distance":1080,"line":2},{"time":4,"station_name":"Jakarta Kota","transit":true,"station_id":"JAKK","i_long":106.812439,"distance":1264,"i_lat":-6.137569,"line":2,"is_transit":true},{"is_transit":true,"station_id":"KPB","i_lat":-6.132549,"transit":true,"line":4,"time":3,"distance":1364,"i_long":106.826365,"station_name":"Kampung Bandan"},{"station_id":"AC","distance":2185,"i_long":106.84464,"station_name":"Ancol","i_lat":-6.128023,"line":4,"transit":false,"is_transit":false,"time":4}],[{"distance":0,"line":6,"station_name":"Pondokranji","time":0,"i_long":106.74273,"station_id":"PDJ","transit":false,"i_lat":-6.276362,"is_transit":false},{"station_name":"Kebayoran","time":8,"line":6,"station_id":"KBY","transit":false,"is_transit":false,"distance":6218,"i_lat":-6.237242,"i_long":106.780334},{"time":7,"station_id":"PLM","station_name":"Palmerah","is_transit":false,"i_long":106.79689,"distance":3737,"line":6,"transit":false,"i_lat":-6.207404},{"i_lat":-6.185545,"is_transit":true,"distance":3191,"line":1,"time":6,"transit":true,"station_name":"Tanah Abang","i_long":106.811091,"station_id":"THB"},{"transit":false,"time":5,"distance":2029,"station_name":"Karet","line":1,"station_id":"KAT","is_transit":false,"i_long":106.816351,"i_lat":-6.20132},{"i_long":106.819881,"station_name":"Sudirman Baru","station_id":"SUDB","i_lat":-6.201433,"transit":false,"line":1,"is_transit":false,"distance":471,"time":1},{"station_id":"SUD","i_lat":-6.202263,"i_long":106.822649,"time":1,"line":1,"distance":280,"transit":false,"station_name":"Sudirman","is_transit":false},{"station_id":"MRI","station_name":"Manggarai","time":4,"transit":false,"line":2,"i_long":106.84912,"distance":3186,"is_transit":false,"i_lat":-6.209883},{"station_id":"MTR","station_name":"Matraman","transit":false,"is_transit":false,"time":2,"i_long":106.858896,"distance":1275,"i_lat":-6.212485,"line":1},{"is_transit":true,"distance":1377,"line":1,"station_name":"Jatinegara","transit":true,"i_lat":-6.215091,"i_long":106.86807400000001,"time":8,"station_id":"JNG"},{"line":11,"time":2,"station_name":"Pondok Jati","distance":1236,"i_long":106.861737,"transit":false,"is_transit":false,"station_id":"POK","i_lat":-6.209188},{"station_id":"KMT","line":11,"time":2,"i_long":106.855437,"transit":false,"is_transit":false,"station_name":"Kramat","i_lat":-6.193792,"distance":1829},{"time":1,"line":11,"is_transit":false,"i_long":106.850107,"station_id":"GST","transit":false,"i_lat":-6.185975,"station_name":"Gang Sentiong","distance":973},{"station_name":"Pasar Senen","time":8,"i_lat":-6.174784,"i_long":106.84368,"distance":1567,"line":11,"station_id":"PSE","transit":false,"is_transit":false},{"transit":false,"time":4,"line":11,"i_lat":-6.161728,"is_transit":false,"distance":1436,"i_long":106.839204,"station_name":"Kemayoran","station_id":"KMO"},{"i_lat":-6.14505,"transit":false,"is_transit":false,"distance":1901,"station_id":"RJW","line":11,"station_name":"Rajawali","i_long":106.836569,"time":5},{"station_id":"KPB","distance":1444,"is_transit":true,"i_long":106.826365,"station_name":"Kampung Bandan","line":4,"time":3,"i_lat":-6.132549,"transit":true},{"distance":2185,"time":4,"station_name":"Ancol","i_lat":-6.128023,"transit":false,"is_transit":false,"station_id":"AC","i_long":106.84464,"line":4}]]}