{"data":[[{"station_id":"PDJ","time":0,"line":6,"distance":0,"transit":false,"i_long":106.74273,"station_name":"Pondokranji","is_transit":false,"i_lat":-6.276362},{"distance":6218,"line":6,"station_id":"KBY","i_lat":-6.237242,"time":8,"i_long":106.780334,"transit":false,"is_transit":false,"station_name":"Kebayoran"},{"distance":3737,"time":7,"station_id":"PLM","is_transit":false,"line":6,"i_lat":-6.207404,"station_name":"Palmerah","i_long":106.79689,"transit":false},{"i_long":106.811091,"is_transit":true,"line":1,"transit":true,"i_lat":-6.185545,"station_name":"Tanah Abang","distance":3191,"time":6,"station_id":"THB"},{"time":5,"station_id":"KAT","transit":false,"station_name":"Karet","is_transit":false,"i_lat":-6.20132,"line":1,"distance":2029,"i_long":106.816351},{"time":1,"is_transit":false,"transit":false,"station_id":"SUDB","i_lat":-6.201433,"i_long":106.819881,"station_name":"Sudirman Baru","line":1,"distance":471},{"line":1,"distance":280,"is_transit":false,"transit":false,"i_long":106.822649,"station_name":"Sudirman","station_id":"SUD","i_lat":-6.202263,"time":1},{"time":4,"station_name":"Manggarai","station_id":"MRI","transit":false,"i_lat":-6.209883,"line":2,"distance":3186,"is_transit":false,"i_long":106.84912},{"line":1,"station_name":"Matraman","distance":1275,"i_lat":-6.212485,"i_long":106.858896,"time":2,"is_transit":false,"station_id":"MTR","transit":false},{"i_lat":-6.215091,"transit":false,"station_name":"Jatinegara","line":1,"distance":1377,"is_transit":false,"time":8,"station_id":"JNG","i_long":106.86807400000001},{"i_lat":-6.2135,"distance":3395,"station_id":"KLD","time":3,"line":1,"station_name":"Klender","i_long":106.899548,"transit":false,"is_transit":false},{"i_long":106.922662,"line":1,"distance":3100,"time":2,"transit":false,"station_id":"BUA","is_transit":false,"i_lat":-6.215568,"station_name":"Buaran"},{"station_id":"KLDB","i_lat":-6.217455,"distance":1305,"transit":false,"i_long":106.939679,"line":1,"time":1,"is_transit":false,"station_name":"Klenderbaru"},{"time":8,"station_id":"CUK","transit":false,"i_lat":-6.219053,"i_long":106.951283,"line":1,"is_transit":false,"station_name":"Cakung","distance":1385},{"transit":false,"time":3,"is_transit":false,"station_id":"KRI","i_lat":-6.224515,"distance":3097,"station_name":"Kranji","i_long":106.977657,"line":1}],[{"station_name":"Pondokranji","i_long":106.74273,"line":6,"transit":false,"time":0,"is_transit":false,"station_id":"PDJ","i_lat":-6.276362,"distance":0},{"station_id":"KBY","time":8,"i_long":106.780334,"distance":6218,"station_name":"Kebayoran","i_lat":-6.237242,"is_transit":false,"line":6,"transit":false},{"is_transit":false,"i_lat":-6.207404,"station_id":"PLM","transit":false,"time":7,"station_name":"Palmerah","i_long":106.79689,"line":6,"distance":3737},{"is_transit":true,"time":6,"i_long":106.811091,"station_id":"THB","i_lat":-6.185545,"line":1,"station_name":"Tanah Abang","transit":true,"distance":3191},{"transit":false,"is_transit":false,"distance":3632,"line":1,"i_lat":-6.155215,"station_id":"DU","i_long":106.800832,"station_name":"Duri","time":8},{"i_long":106.79867,"transit":false,"station_name":"Angke","i_lat":-6.144674,"distance":1230,"line":1,"station_id":"AK","time":4,"is_transit":false},{"transit":true,"is_transit":true,"time":9,"station_name":"Kampung Bandan","line":4,"distance":4102,"station_id":"KPB","i_lat":-6.132549,"i_long":106.826365},{"station_name":"Rajawali","time":3,"i_long":106.836569,"distance":1444,"i_lat":-6.14505,"line":11,"station_id":"RJW","transit":false,"is_transit":false},{"station_id":"KMO","i_lat":-6.161728,"transit":false,"line":11,"i_long":106.839204,"station_name":"Kemayoran","distance":1901,"is_transit":false,"time":5},{"time":4,"line":11,"transit":false,"i_long":106.84368,"is_transit":false,"distance":1436,"station_name":"Pasar Senen","i_lat":-6.174784,"station_id":"PSE"},{"time":8,"distance":1567,"transit":false,"station_name":"Gang Sentiong","i_long":106.850107,"station_id":"GST","is_transit":false,"i_lat":-6.185975,"line":11},{"is_transit":false,"time":1,"distance":973,"station_name":"Kramat","i_lat":-6.193792,"transit":false,"i_long":106.855437,"line":11,"station_id":"KMT"},{"line":11,"distance":1829,"i_long":106.861737,"station_id":"POK","time":2,"is_transit":false,"station_name":"Pondok Jati","i_lat":-6.209188,"transit":false},{"station_id":"JNG","i_lat":-6.215091,"line":1,"i_long":106.86807400000001,"transit":true,"distance":1236,"is_transit":true,"time":9,"station_name":"Jatinegara"},{"time":3,"transit":false,"station_id":"KLD","line":1,"station_name":"Klender","distance":3395,"is_transit":false,"i_lat":-6.2135,"i_long":106.899548},{"time":2,"distance":3100,"station_id":"BUA","station_name":"Buaran","i_long":106.922662,"transit":false,"is_transit":false,"i_lat":-6.215568,"line":1},{"time":1,"i_long":106.939679,"station_name":"Klenderbaru","is_transit":false,"station_id":"KLDB","line":1,"transit":false,"distance":1305,"i_lat":-6.217455},{"station_name":"Cakung","is_transit":false,"line":1,"transit":false,"station_id":"CUK","i_lat":-6.219053,"time":8,"i_long":106.951283,"distance":1385},{"station_name":"Kranji","time":3,"transit":false,"line":1,"distance":3097,"i_long":106.977657,"station_id":"KRI","is_transit":false,"i_lat":-6.224515}],[{"i_lat":-6.276362,"transit":false,"i_long":106.74273,"station_name":"Pondokranji","station_id":"PDJ","line":6,"is_transit":false,"distance":0,"time":0},{"distance":6218,"station_name":"Kebayoran","line":6,"is_transit":false,"transit":false,"i_lat":-6.237242,"time":8,"i_long":106.780334,"station_id":"KBY"},{"distance":3737,"transit":false,"i_lat":-6.207404,"is_transit":false,"line":6,"time":7,"station_name":"Palmerah","i_long":106.79689,"station_id":"PLM"},{"i_long":106.811091,"is_transit":true,"time":6,"station_name":"Tanah Abang","i_lat":-6.185545,"line":1,"transit":true,"station_id":"THB","distance":3191},{"station_id":"DU","i_lat":-6.155215,"line":1,"transit":false,"i_long":106.800832,"station_name":"Duri","distance":3632,"time":8,"is_transit":false},{"line":1,"time":4,"station_name":"Angke","station_id":"AK","distance":1230,"is_transit":false,"i_lat":-6.144674,"i_long":106.79867,"transit":false},{"station_name":"Kampung Bandan","line":4,"station_id":"KPB","transit":true,"i_long":106.826365,"distance":4102,"is_transit":true,"time":9,"i_lat":-6.132549},{"station_name":"Jakarta Kota","is_transit":true,"time":3,"station_id":"JAKK","transit":true,"i_lat":-6.137569,"i_long":106.812439,"line":2,"distance":1364},{"i_long":106.820901,"line":2,"i_lat":-6.141205,"is_transit":false,"station_id":"JAY","time":4,"transit":false,"distance":1264,"station_name":"Jayakarta"},{"transit":false,"distance":1080,"is_transit":false,"i_long":106.82482,"station_name":"Manggabesar","time":2,"station_id":"MGB","i_lat":-6.149769,"line":2},{"line":2,"is_transit":false,"distance":906,"i_long":106.827103,"transit":false,"time":2,"station_id":"SW","i_lat":-6.160725,"station_name":"Sawah Besar"},{"i_lat":-6.166716,"is_transit":false,"line":2,"i_long":106.828284,"time":2,"station_id":"JUA","transit":false,"distance":1149,"station_name":"Juanda"},{"i_long":106.832183,"is_transit":false,"distance":2015,"station_id":"GDD","i_lat":-6.186295,"time":4,"station_name":"Gondangdia","transit":false,"line":2},{"is_transit":false,"time":3,"i_lat":-6.198556,"distance":1750,"station_id":"CKI","i_long":106.840169,"line":2,"transit":false,"station_name":"Cikini"},{"i_long":106.84912,"is_transit":true,"station_name":"Manggarai","station_id":"MRI","distance":1590,"time":4,"line":2,"i_lat":-6.209883,"transit":true},{"i_long":106.858896,"i_lat":-6.212485,"station_name":"Matraman","line":1,"transit":false,"is_transit":false,"distance":1275,"time":2,"station_id":"MTR"},{"time":8,"i_lat":-6.215091,"distance":1377,"is_transit":false,"line":1,"station_id":"JNG","transit":false,"i_long":106.86807400000001,"station_name":"Jatinegara"},{"i_long":106.899548,"distance":3395,"station_id":"KLD","line":1,"transit":false,"station_name":"Klender","time":3,"is_transit":false,"i_lat":-6.2135},{"station_id":"BUA","i_long":106.922662,"station_name":"Buaran","time":2,"transit":false,"i_lat":-6.215568,"distance":3100,"is_transit":false,"line":1},{"is_transit":false,"time":1,"station_id":"KLDB","distance":1305,"i_lat":-6.217455,"i_long":106.939679,"station_name":"Klenderbaru","transit":false,"line":1},{"transit":false,"time":8,"distance":1385,"i_long":106.951283,"line":1,"is_transit":false,"station_id":"CUK","station_name":"Cakung","i_lat":-6.219053},{"station_name":"Kranji","i_lat":-6.224515,"i_long":106.977657,"time":3,"station_id":"KRI","is_transit":false,"distance":3097,"line":1,"transit":false}],[{"i_lat":-6.276362,"distance":0,"station_id":"PDJ","station_name":"Pondokranji","line":6,"is_transit":false,"i_long":106.74273,"transit":false,"time":0},{"station_id":"KBY","line":6,"is_transit":false,"time":8,"station_name":"Kebayoran","i_long":106.780334,"distance":6218,"i_lat":-6.237242,"transit":false},{"is_transit":false,"distance":3737,"i_lat":-6.207404,"time":7,"i_long":106.79689,"station_id":"PLM","transit":false,"station_name":"Palmerah","line":6},{"transit":true,"time":6,"distance":3191,"is_transit":true,"i_lat":-6.185545,"line":1,"station_id":"THB","i_long":106.811091,"station_name":"Tanah Abang"},{"distance":2029,"station_id":"KAT","time":5,"i_lat":-6.20132,"line":1,"transit":false,"is_transit":false,"station_name":"Karet","i_long":106.816351},{"distance":471,"i_lat":-6.201433,"time":1,"transit":false,"i_long":106.819881,"line":1,"is_transit":false,"station_id":"SUDB","station_name":"Sudirman Baru"},{"i_long":106.822649,"time":1,"line":1,"transit":false,"i_lat":-6.202263,"is_transit":false,"station_name":"Sudirman","station_id":"SUD","distance":280},{"station_name":"Manggarai","i_lat":-6.209883,"i_long":106.84912,"station_id":"MRI","time":4,"line":2,"distance":3186,"transit":true,"is_transit":true},{"distance":1590,"i_lat":-6.198556,"is_transit":false,"time":4,"station_name":"Cikini","i_long":106.840169,"transit":false,"station_id":"CKI","line":2},{"line":2,"i_long":106.832183,"station_id":"GDD","is_transit":false,"transit":false,"time":3,"i_lat":-6.186295,"station_name":"Gondangdia","distance":1750},{"time":4,"station_name":"Juanda","i_lat":-6.166716,"is_transit":false,"i_long":106.828284,"distance":2015,"transit":false,"line":2,"station_id":"JUA"},{"distance":1149,"i_long":106.827103,"transit":false,"line":2,"i_lat":-6.160725,"station_name":"Sawah Besar","is_transit":false,"time":2,"station_id":"SW"},{"time":2,"transit":false,"i_lat":-6.149769,"is_transit":false,"line":2,"station_id":"MGB","i_long":106.82482,"distance":906,"station_name":"Manggabesar"},{"transit":false,"line":2,"station_name":"Jayakarta","time":2,"station_id":"JAY","is_transit":false,"i_long":106.820901,"distance":1080,"i_lat":-6.141205},{"time":4,"line":2,"distance":1264,"is_transit":true,"i_long":106.812439,"station_name":"Jakarta Kota","transit":true,"i_lat":-6.137569,"station_id":"JAKK"},{"distance":1364,"time":3,"i_long":106.826365,"line":4,"i_lat":-6.132549,"station_id":"KPB","transit":true,"is_transit":true,"station_name":"Kampung Bandan"},{"station_id":"RJW","station_name":"Rajawali","transit":false,"i_long":106.836569,"is_transit":false,"line":11,"i_lat":-6.14505,"time":3,"distance":1444},{"is_transit":false,"distance":1901,"time":5,"station_name":"Kemayoran","station_id":"KMO","line":11,"transit":false,"i_lat":-6.161728,"i_long":106.839204},{"distance":1436,"time":4,"i_long":106.84368,"line":11,"station_name":"Pasar Senen","transit":false,"station_id":"PSE","i_lat":-6.174784,"is_transit":false},{"i_lat":-6.185975,"distance":1567,"station_id":"GST","i_long":106.850107,"line":11,"time":8,"station_name":"Gang Sentiong","transit":false,"is_transit":false},{"i_lat":-6.193792,"line":11,"i_long":106.855437,"is_transit":false,"distance":973,"station_name":"Kramat","transit":false,"station_id":"KMT","time":1},{"time":2,"distance":1829,"station_id":"POK","i_lat":-6.209188,"station_name":"Pondok Jati","transit":false,"is_transit":false,"i_long":106.861737,"line":11},{"transit":true,"station_id":"JNG","i_long":106.86807400000001,"is_transit":true,"station_name":"Jatinegara","time":9,"line":1,"i_lat":-6.215091,"distance":1236},{"time":3,"distance":3395,"i_lat":-6.2135,"i_long":106.899548,"transit":false,"station_name":"Klender","line":1,"is_transit":false,"station_id":"KLD"},{"line":1,"transit":false,"time":2,"i_lat":-6.215568,"is_transit":false,"station_name":"Buaran","distance":3100,"i_long":106.922662,"station_id":"BUA"},{"is_transit":false,"time":1,"transit":false,"line":1,"distance":1305,"station_id":"KLDB","i_lat":-6.217455,"i_long":106.939679,"station_name":"Klenderbaru"},{"i_lat":-6.219053,"distance":1385,"is_transit":false,"station_name":"Cakung","i_long":106.951283,"transit":false,"time":8,"station_id":"CUK","line":1},{"i_long":106.977657,"transit":false,"distance":3097,"i_lat":-6.224515,"line":1,"station_name":"Kranji","time":3,"is_transit":false,"station_id":"KRI"}]]}