{"data":[[{"station_id":"PDJ","transit":false,"i_lat":-6.276362,"is_transit":false,"i_long":106.74273,"line":6,"station_name":"Pondokranji","time":0,"distance":0},{"i_long":106.780334,"is_transit":false,"line":6,"time":8,"station_id":"KBY","distance":6218,"station_name":"Kebayoran","transit":false,"i_lat":-6.237242},{"station_name":"Palmerah","is_transit":false,"station_id":"PLM","time":7,"i_lat":-6.207404,"i_long":106.79689,"distance":3737,"line":6,"transit":false},{"distance":3191,"transit":true,"line":1,"time":6,"station_id":"THB","station_name":"Tanah Abang","is_transit":true,"i_lat":-6.185545,"i_long":106.811091},{"station_name":"Karet","distance":2029,"line":1,"i_lat":-6.20132,"station_id":"KAT","transit":false,"time":5,"i_long":106.816351,"is_transit":false},{"station_id":"SUDB","time":1,"is_transit":false,"line":1,"distance":471,"transit":false,"station_name":"Sudirman Baru","i_lat":-6.201433,"i_long":106.819881},{"transit":false,"is_transit":false,"time":1,"station_name":"Sudirman","line":1,"station_id":"SUD","i_lat":-6.202263,"distance":280,"i_long":106.822649},{"i_lat":-6.209883,"time":4,"station_id":"MRI","station_name":"Manggarai","distance":3186,"is_transit":true,"i_long":106.84912,"transit":true,"line":2},{"transit":false,"distance":2610,"station_id":"TEB","i_lat":-6.226659,"i_long":106.857948,"station_name":"Tebet","time":4,"line":2,"is_transit":false},{"station_id":"CW","distance":1230,"time":2,"i_lat":-6.242512,"line":2,"is_transit":false,"i_long":106.856607,"transit":false,"station_name":"Cawang"},{"distance":1546,"station_name":"Duren Kalibata","i_lat":-6.255332,"line":2,"time":3,"station_id":"DRN","transit":false,"i_long":106.85449,"is_transit":false}],[{"is_transit":false,"line":6,"station_id":"PDJ","transit":false,"time":0,"station_name":"Pondokranji","i_lat":-6.276362,"distance":0,"i_long":106.74273},{"is_transit":false,"station_name":"Kebayoran","transit":false,"i_long":106.780334,"time":8,"i_lat":-6.237242,"distance":6218,"line":6,"station_id":"KBY"},{"time":7,"i_long":106.79689,"distance":3737,"transit":false,"station_id":"PLM","line":6,"is_transit":false,"i_lat":-6.207404,"station_name":"Palmerah"},{"time":6,"i_lat":-6.185545,"i_long":106.811091,"line":1,"distance":3191,"station_name":"Tanah Abang","is_transit":true,"station_id":"THB","transit":true},{"is_transit":false,"station_name":"Duri","transit":false,"i_lat":-6.155215,"i_long":106.800832,"line":1,"station_id":"DU","time":8,"distance":3632},{"station_id":"AK","distance":1230,"is_transit":false,"transit":false,"i_lat":-6.144674,"line":1,"i_long":106.79867,"station_name":"Angke","time":4},{"i_long":106.826365,"line":4,"transit":true,"i_lat":-6.132549,"station_id":"KPB","is_transit":true,"station_name":"Kampung Bandan","time":9,"distance":4102},{"time":3,"i_lat":-6.137569,"i_long":106.812439,"station_id":"JAKK","line":2,"distance":1364,"is_transit":true,"station_name":"Jakarta Kota","transit":true},{"transit":false,"i_long":106.820901,"time":4,"station_id":"JAY","line":2,"distance":1264,"is_transit":false,"station_name":"Jayakarta","i_lat":-6.141205},{"station_name":"Manggabesar","line":2,"station_id":"MGB","i_long":106.82482,"i_lat":-6.149769,"time":2,"distance":1080,"is_transit":false,"transit":false},{"station_name":"Sawah Besar","transit":false,"distance":906,"time":2,"i_lat":-6.160725,"station_id":"SW","is_transit":false,"i_long":106.827103,"line":2},{"i_long":106.828284,"i_lat":-6.166716,"line":2,"is_transit":false,"time":2,"station_id":"JUA","distance":1149,"transit":false,"station_name":"Juanda"},{"i_long":106.832183,"distance":2015,"time":4,"transit":false,"station_id":"GDD","i_lat":-6.186295,"is_transit":false,"line":2,"station_name":"Gondangdia"},{"station_name":"Cikini","i_lat":-6.198556,"distance":1750,"i_long":106.840169,"transit":false,"is_transit":false,"line":2,"time":3,"station_id":"CKI"},{"is_transit":false,"distance":1590,"i_lat":-6.209883,"line":2,"station_name":"Manggarai","time":4,"i_long":106.84912,"station_id":"MRI","transit":false},{"is_transit":false,"transit":false,"i_lat":-6.226659,"i_long":106.857948,"time":4,"line":2,"station_name":"Tebet","station_id":"TEB","distance":2610},{"distance":1230,"is_transit":false,"line":2,"station_name":"Cawang","station_id":"CW","transit":false,"time":2,"i_long":106.856607,"i_lat":-6.242512},{"station_name":"Duren Kalibata","transit":false,"line":2,"distance":1546,"time":3,"station_id":"DRN","i_lat":-6.255332,"i_long":106.85449,"is_transit":false}],[{"distance":0,"is_transit":false,"i_lat":-6.276362,"line":6,"i_long":106.74273,"station_id":"PDJ","time":0,"station_name":"Pondokranji","transit":false},{"transit":false,"i_long":106.780334,"i_lat":-6.237242,"line":6,"is_transit":false,"distance":6218,"station_id":"KBY","station_name":"Kebayoran","time":8},{"line":6,"is_transit":false,"i_lat":-6.207404,"time":7,"station_name":"Palmerah","distance":3737,"transit":false,"i_long":106.79689,"station_id":"PLM"},{"line":1,"station_name":"Tanah Abang","i_long":106.811091,"time":6,"station_id":"THB","is_transit":true,"transit":true,"distance":3191,"i_lat":-6.185545},{"distance":3632,"is_transit":false,"time":8,"i_long":106.800832,"station_id":"DU","transit":false,"i_lat":-6.155215,"station_name":"Duri","line":1},{"is_transit":false,"station_id":"AK","distance":1230,"transit":false,"time":4,"station_name":"Angke","i_lat":-6.144674,"i_long":106.79867,"line":1},{"is_transit":true,"station_id":"KPB","time":9,"i_long":106.826365,"distance":4102,"transit":true,"i_lat":-6.132549,"station_name":"Kampung Bandan","line":4},{"station_name":"Rajawali","line":11,"is_transit":false,"transit":false,"i_long":106.836569,"distance":1444,"i_lat":-6.14505,"station_id":"RJW","time":3},{"time":5,"station_id":"KMO","line":11,"distance":1901,"is_transit":false,"transit":false,"station_name":"Kemayoran","i_lat":-6.161728,"i_long":106.839204},{"time":4,"is_transit":false,"i_lat":-6.174784,"distance":1436,"station_name":"Pasar Senen","i_long":106.84368,"station_id":"PSE","line":11,"transit":false},{"time":8,"i_lat":-6.185975,"station_name":"Gang Sentiong","i_long":106.850107,"line":11,"station_id":"GST","distance":1567,"is_transit":false,"transit":false},{"is_transit":false,"station_id":"KMT","transit":false,"time":1,"i_long":106.855437,"line":11,"station_name":"Kramat","distance":973,"i_lat":-6.193792},{"is_transit":false,"station_id":"POK","i_long":106.861737,"time":2,"distance":1829,"station_name":"Pondok Jati","transit":false,"i_lat":-6.209188,"line":11},{"i_long":106.86807400000001,"time":9,"distance":1236,"i_lat":-6.215091,"line":1,"is_transit":true,"station_id":"JNG","station_name":"Jatinegara","transit":true},{"line":1,"time":2,"distance":1377,"station_id":"MTR","station_name":"Matraman","transit":false,"i_lat":-6.212485,"i_long":106.858896,"is_transit":false},{"station_id":"MRI","distance":1275,"transit":true,"station_name":"Manggarai","is_transit":true,"time":2,"i_long":106.84912,"line":2,"i_lat":-6.209883},{"i_lat":-6.226659,"is_transit":false,"distance":2610,"station_id":"TEB","line":2,"i_long":106.857948,"transit":false,"station_name":"Tebet","time":4},{"is_transit":false,"station_name":"Cawang","i_long":106.856607,"distance":1230,"i_lat":-6.242512,"station_id":"CW","time":2,"transit":false,"line":2},{"line":2,"time":3,"station_id":"DRN","transit":false,"i_lat":-6.255332,"station_name":"Duren Kalibata","i_long":106.85449,"distance":1546,"is_transit":false}]]}