{"data":[[{"time":0,"transit":false,"i_long":106.74273,"station_name":"Pondokranji","line":6,"station_id":"PDJ","is_transit":false,"i_lat":-6.276362,"distance":0},{"station_name":"Kebayoran","transit":false,"i_lat":-6.237242,"i_long":106.780334,"is_transit":false,"station_id":"KBY","time":8,"line":6,"distance":6218},{"i_lat":-6.207404,"time":7,"distance":3737,"transit":false,"is_transit":false,"i_long":106.79689,"station_id":"PLM","line":6,"station_name":"Palmerah"},{"distance":3191,"station_id":"THB","station_name":"Tanah Abang","i_long":106.811091,"is_transit":true,"line":1,"i_lat":-6.185545,"transit":true,"time":6},{"station_name":"Karet","i_long":106.816351,"station_id":"KAT","transit":false,"i_lat":-6.20132,"line":1,"time":5,"distance":2029,"is_transit":false},{"time":1,"distance":471,"is_transit":false,"i_lat":-6.201433,"line":1,"i_long":106.819881,"transit":false,"station_id":"SUDB","station_name":"Sudirman Baru"},{"station_id":"SUD","station_name":"Sudirman","distance":280,"i_long":106.822649,"i_lat":-6.202263,"line":1,"is_transit":false,"time":1,"transit":false},{"station_name":"Manggarai","i_lat":-6.209883,"transit":false,"i_long":106.84912,"is_transit":false,"line":2,"time":4,"station_id":"MRI","distance":3186},{"transit":false,"i_lat":-6.212485,"is_transit":false,"i_long":106.858896,"station_id":"MTR","distance":1275,"station_name":"Matraman","time":2,"line":1},{"station_name":"Jatinegara","time":8,"is_transit":false,"distance":1377,"transit":false,"line":1,"i_long":106.86807400000001,"station_id":"JNG","i_lat":-6.215091},{"distance":3395,"is_transit":false,"line":1,"station_name":"Klender","time":3,"station_id":"KLD","transit":false,"i_lat":-6.2135,"i_long":106.899548},{"line":1,"station_name":"Buaran","transit":false,"i_long":106.922662,"time":2,"distance":3100,"station_id":"BUA","is_transit":false,"i_lat":-6.215568},{"distance":1305,"station_name":"Klenderbaru","time":1,"i_lat":-6.217455,"transit":false,"line":1,"i_long":106.939679,"station_id":"KLDB","is_transit":false},{"i_long":106.951283,"time":8,"station_id":"CUK","distance":1385,"station_name":"Cakung","transit":false,"i_lat":-6.219053,"is_transit":false,"line":1},{"distance":3097,"time":3,"transit":false,"i_lat":-6.224515,"line":1,"station_id":"KRI","is_transit":false,"station_name":"Kranji","i_long":106.977657},{"time":4,"transit":false,"distance":2520,"i_long":106.997013,"station_name":"Bekasi","station_id":"BKS","line":1,"is_transit":false,"i_lat":-6.236616},{"i_long":107.016735,"time":2,"distance":2368,"transit":false,"line":1,"is_transit":false,"station_name":"Bekasi Timur","i_lat":-6.248029,"station_id":"BKST"},{"time":7,"is_transit":false,"station_name":"Tambun","i_long":107.055722,"transit":false,"i_lat":-6.258864,"line":1,"distance":4460,"station_id":"TB"}],[{"i_long":106.74273,"station_id":"PDJ","station_name":"Pondokranji","i_lat":-6.276362,"distance":0,"is_transit":false,"transit":false,"time":0,"line":6},{"time":8,"station_id":"KBY","transit":false,"i_long":106.780334,"distance":6218,"is_transit":false,"station_name":"Kebayoran","i_lat":-6.237242,"line":6},{"line":6,"distance":3737,"station_name":"Palmerah","transit":false,"is_transit":false,"time":7,"station_id":"PLM","i_lat":-6.207404,"i_long":106.79689},{"i_lat":-6.185545,"i_long":106.811091,"time":6,"station_name":"Tanah Abang","line":1,"is_transit":true,"transit":true,"station_id":"THB","distance":3191},{"station_id":"DU","distance":3632,"is_transit":false,"station_name":"Duri","time":8,"transit":false,"i_lat":-6.155215,"i_long":106.800832,"line":1},{"is_transit":false,"distance":1230,"station_id":"AK","transit":false,"time":4,"i_lat":-6.144674,"i_long":106.79867,"line":1,"station_name":"Angke"},{"i_lat":-6.132549,"distance":4102,"station_name":"Kampung Bandan","is_transit":true,"line":4,"i_long":106.826365,"time":9,"transit":true,"station_id":"KPB"},{"transit":false,"time":3,"station_name":"Rajawali","is_transit":false,"i_lat":-6.14505,"line":11,"station_id":"RJW","i_long":106.836569,"distance":1444},{"time":5,"distance":1901,"station_name":"Kemayoran","transit":false,"line":11,"i_long":106.839204,"i_lat":-6.161728,"is_transit":false,"station_id":"KMO"},{"distance":1436,"i_long":106.84368,"station_id":"PSE","line":11,"time":4,"is_transit":false,"station_name":"Pasar Senen","transit":false,"i_lat":-6.174784},{"line":11,"i_long":106.850107,"is_transit":false,"time":8,"station_name":"Gang Sentiong","station_id":"GST","distance":1567,"transit":false,"i_lat":-6.185975},{"i_long":106.855437,"station_id":"KMT","line":11,"transit":false,"station_name":"Kramat","time":1,"is_transit":false,"distance":973,"i_lat":-6.193792},{"i_long":106.861737,"is_transit":false,"station_name":"Pondok Jati","line":11,"i_lat":-6.209188,"time":2,"station_id":"POK","transit":false,"distance":1829},{"is_transit":true,"station_id":"JNG","station_name":"Jatinegara","i_lat":-6.215091,"time":9,"distance":1236,"transit":true,"i_long":106.86807400000001,"line":1},{"station_name":"Klender","time":3,"i_long":106.899548,"is_transit":false,"i_lat":-6.2135,"station_id":"KLD","line":1,"distance":3395,"transit":false},{"distance":3100,"station_name":"Buaran","transit":false,"i_lat":-6.215568,"is_transit":false,"time":2,"i_long":106.922662,"line":1,"station_id":"BUA"},{"station_name":"Klenderbaru","distance":1305,"i_lat":-6.217455,"i_long":106.939679,"transit":false,"time":1,"is_transit":false,"station_id":"KLDB","line":1},{"i_lat":-6.219053,"time":8,"transit":false,"i_long":106.951283,"distance":1385,"line":1,"is_transit":false,"station_id":"CUK","station_name":"Cakung"},{"time":3,"is_transit":false,"i_lat":-6.224515,"transit":false,"i_long":106.977657,"station_id":"KRI","station_name":"Kranji","distance":3097,"line":1},{"distance":2520,"is_transit":false,"i_lat":-6.236616,"station_id":"BKS","station_name":"Bekasi","time":4,"transit":false,"i_long":106.997013,"line":1},{"distance":2368,"station_id":"BKST","i_long":107.016735,"is_transit":false,"line":1,"i_lat":-6.248029,"transit":false,"station_name":"Bekasi Timur","time":2},{"transit":false,"station_id":"TB","i_long":107.055722,"time":7,"distance":4460,"is_transit":false,"i_lat":-6.258864,"line":1,"station_name":"Tambun"}],[{"line":6,"i_lat":-6.276362,"time":0,"station_name":"Pondokranji","distance":0,"is_transit":false,"station_id":"PDJ","transit":false,"i_long":106.74273},{"station_id":"KBY","transit":false,"time":8,"i_long":106.780334,"is_transit":false,"line":6,"i_lat":-6.237242,"distance":6218,"station_name":"Kebayoran"},{"station_name":"Palmerah","station_id":"PLM","is_transit":false,"distance":3737,"i_lat":-6.207404,"transit":false,"time":7,"line":6,"i_long":106.79689},{"i_lat":-6.185545,"i_long":106.811091,"transit":true,"station_id":"THB","distance":3191,"station_name":"Tanah Abang","is_transit":true,"line":1,"time":6},{"line":1,"is_transit":false,"time":8,"distance":3632,"i_lat":-6.155215,"i_long":106.800832,"station_id":"DU","transit":false,"station_name":"Duri"},{"station_name":"Angke","i_lat":-6.144674,"is_transit":false,"transit":false,"station_id":"AK","i_long":106.79867,"distance":1230,"time":4,"line":1},{"time":9,"line":4,"transit":true,"i_long":106.826365,"station_id":"KPB","is_transit":true,"i_lat":-6.132549,"station_name":"Kampung Bandan","distance":4102},{"i_long":106.812439,"i_lat":-6.137569,"line":2,"time":3,"station_id":"JAKK","station_name":"Jakarta Kota","is_transit":true,"distance":1364,"transit":true},{"line":2,"station_name":"Jayakarta","station_id":"JAY","distance":1264,"time":4,"transit":false,"is_transit":false,"i_long":106.820901,"i_lat":-6.141205},{"i_lat":-6.149769,"line":2,"time":2,"distance":1080,"is_transit":false,"i_long":106.82482,"station_id":"MGB","station_name":"Manggabesar","transit":false},{"is_transit":false,"station_name":"Sawah Besar","transit":false,"i_long":106.827103,"line":2,"time":2,"i_lat":-6.160725,"station_id":"SW","distance":906},{"station_name":"Juanda","is_transit":false,"station_id":"JUA","time":2,"distance":1149,"transit":false,"i_lat":-6.166716,"i_long":106.828284,"line":2},{"station_id":"GDD","time":4,"i_long":106.832183,"distance":2015,"station_name":"Gondangdia","transit":false,"line":2,"is_transit":false,"i_lat":-6.186295},{"station_id":"CKI","time":3,"is_transit":false,"line":2,"i_long":106.840169,"transit":false,"i_lat":-6.198556,"distance":1750,"station_name":"Cikini"},{"i_lat":-6.209883,"time":4,"distance":1590,"station_name":"Manggarai","transit":true,"i_long":106.84912,"line":2,"is_transit":true,"station_id":"MRI"},{"transit":false,"distance":1275,"i_long":106.858896,"time":2,"line":1,"i_lat":-6.212485,"station_id":"MTR","is_transit":false,"station_name":"Matraman"},{"is_transit":false,"station_id":"JNG","i_long":106.86807400000001,"station_name":"Jatinegara","distance":1377,"i_lat":-6.215091,"line":1,"time":8,"transit":false},{"station_id":"KLD","is_transit":false,"i_long":106.899548,"transit":false,"distance":3395,"time":3,"station_name":"Klender","line":1,"i_lat":-6.2135},{"transit":false,"time":2,"station_id":"BUA","distance":3100,"is_transit":false,"i_long":106.922662,"station_name":"Buaran","line":1,"i_lat":-6.215568},{"i_lat":-6.217455,"i_long":106.939679,"distance":1305,"station_id":"KLDB","time":1,"is_transit":false,"station_name":"Klenderbaru","transit":false,"line":1},{"transit":false,"i_lat":-6.219053,"i_long":106.951283,"line":1,"distance":1385,"station_name":"Cakung","station_id":"CUK","is_transit":false,"time":8},{"station_id":"KRI","time":3,"distance":3097,"transit":false,"i_lat":-6.224515,"is_transit":false,"line":1,"station_name":"Kranji","i_long":106.977657},{"distance":2520,"station_name":"Bekasi","time":4,"i_lat":-6.236616,"line":1,"is_transit":false,"transit":false,"i_long":106.997013,"station_id":"BKS"},{"is_transit":false,"time":2,"line":1,"distance":2368,"i_long":107.016735,"transit":false,"i_lat":-6.248029,"station_id":"BKST","station_name":"Bekasi Timur"},{"station_name":"Tambun","time":7,"i_lat":-6.258864,"distance":4460,"i_long":107.055722,"is_transit":false,"transit":false,"station_id":"TB","line":1}],[{"distance":0,"station_name":"Pondokranji","time":0,"transit":false,"line":6,"station_id":"PDJ","is_transit":false,"i_lat":-6.276362,"i_long":106.74273},{"time":8,"station_name":"Kebayoran","line":6,"i_long":106.780334,"is_transit":false,"station_id":"KBY","i_lat":-6.237242,"distance":6218,"transit":false},{"line":6,"is_transit":false,"transit":false,"station_name":"Palmerah","time":7,"station_id":"PLM","distance":3737,"i_lat":-6.207404,"i_long":106.79689},{"station_id":"THB","i_lat":-6.185545,"distance":3191,"i_long":106.811091,"transit":true,"is_transit":true,"station_name":"Tanah Abang","time":6,"line":1},{"line":1,"is_transit":false,"i_lat":-6.20132,"time":5,"station_id":"KAT","distance":2029,"i_long":106.816351,"transit":false,"station_name":"Karet"},{"station_id":"SUDB","i_long":106.819881,"time":1,"line":1,"distance":471,"is_transit":false,"station_name":"Sudirman Baru","transit":false,"i_lat":-6.201433},{"station_id":"SUD","transit":false,"i_lat":-6.202263,"i_long":106.822649,"is_transit":false,"distance":280,"station_name":"Sudirman","time":1,"line":1},{"station_name":"Manggarai","i_lat":-6.209883,"line":2,"station_id":"MRI","i_long":106.84912,"distance":3186,"is_transit":true,"transit":true,"time":4},{"i_long":106.840169,"line":2,"distance":1590,"station_name":"Cikini","transit":false,"i_lat":-6.198556,"station_id":"CKI","is_transit":false,"time":4},{"is_transit":false,"transit":false,"time":3,"station_name":"Gondangdia","i_lat":-6.186295,"distance":1750,"i_long":106.832183,"line":2,"station_id":"GDD"},{"line":2,"station_name":"Juanda","transit":false,"is_transit":false,"station_id":"JUA","i_lat":-6.166716,"distance":2015,"time":4,"i_long":106.828284},{"station_name":"Sawah Besar","line":2,"distance":1149,"i_long":106.827103,"transit":false,"is_transit":false,"time":2,"i_lat":-6.160725,"station_id":"SW"},{"line":2,"transit":false,"station_name":"Manggabesar","i_lat":-6.149769,"distance":906,"station_id":"MGB","time":2,"is_transit":false,"i_long":106.82482},{"time":2,"line":2,"transit":false,"i_long":106.820901,"i_lat":-6.141205,"station_name":"Jayakarta","station_id":"JAY","distance":1080,"is_transit":false},{"i_lat":-6.137569,"distance":1264,"i_long":106.812439,"station_id":"JAKK","station_name":"Jakarta Kota","time":4,"line":2,"is_transit":true,"transit":true},{"is_transit":true,"station_name":"Kampung Bandan","station_id":"KPB","i_long":106.826365,"distance":1364,"transit":true,"i_lat":-6.132549,"line":4,"time":3},{"station_name":"Rajawali","i_lat":-6.14505,"time":3,"i_long":106.836569,"transit":false,"distance":1444,"is_transit":false,"station_id":"RJW","line":11},{"station_id":"KMO","station_name":"Kemayoran","time":5,"distance":1901,"transit":false,"line":11,"i_lat":-6.161728,"i_long":106.839204,"is_transit":false},{"transit":false,"line":11,"time":4,"i_long":106.84368,"distance":1436,"station_id":"PSE","is_transit":false,"station_name":"Pasar Senen","i_lat":-6.174784},{"station_name":"Gang Sentiong","station_id":"GST","is_transit":false,"time":8,"i_lat":-6.185975,"transit":false,"distance":1567,"line":11,"i_long":106.850107},{"distance":973,"station_id":"KMT","station_name":"Kramat","line":11,"is_transit":false,"i_lat":-6.193792,"time":1,"i_long":106.855437,"transit":false},{"i_lat":-6.209188,"i_long":106.861737,"station_id":"POK","station_name":"Pondok Jati","time":2,"line":11,"is_transit":false,"transit":false,"distance":1829},{"is_transit":true,"i_lat":-6.215091,"line":1,"station_id":"JNG","station_name":"Jatinegara","transit":true,"distance":1236,"time":9,"i_long":106.86807400000001},{"transit":false,"is_transit":false,"i_long":106.899548,"i_lat":-6.2135,"station_name":"Klender","time":3,"distance":3395,"station_id":"KLD","line":1},{"station_name":"Buaran","time":2,"is_transit":false,"line":1,"distance":3100,"transit":false,"i_lat":-6.215568,"i_long":106.922662,"station_id":"BUA"},{"station_name":"Klenderbaru","distance":1305,"transit":false,"i_lat":-6.217455,"is_transit":false,"i_long":106.939679,"time":1,"line":1,"station_id":"KLDB"},{"station_id":"CUK","line":1,"station_name":"Cakung","distance":1385,"is_transit":false,"i_long":106.951283,"transit":false,"i_lat":-6.219053,"time":8},{"station_name":"Kranji","transit":false,"i_lat":-6.224515,"station_id":"KRI","i_long":106.977657,"line":1,"is_transit":false,"distance":3097,"time":3},{"i_lat":-6.236616,"station_name":"Bekasi","i_long":106.997013,"distance":2520,"is_transit":false,"station_id":"BKS","time":4,"transit":false,"line":1},{"station_name":"Bekasi Timur","station_id":"BKST","i_lat":-6.248029,"time":2,"transit":false,"distance":2368,"is_transit":false,"i_long":107.016735,"line":1},{"distance":4460,"transit":false,"time":7,"i_long":107.055722,"is_transit":false,"line":1,"i_lat":-6.258864,"station_name":"Tambun","station_id":"TB"}]]}