{"data":[[{"line":6,"transit":false,"distance":0,"station_id":"PDJ","time":0,"station_name":"Pondokranji","is_transit":false,"i_lat":-6.276362,"i_long":106.74273},{"is_transit":false,"distance":6218,"transit":false,"station_id":"KBY","i_long":106.780334,"line":6,"i_lat":-6.237242,"station_name":"Kebayoran","time":8},{"i_long":106.79689,"line":6,"i_lat":-6.207404,"is_transit":false,"transit":false,"station_name":"Palmerah","time":7,"station_id":"PLM","distance":3737},{"transit":true,"time":6,"station_id":"THB","i_lat":-6.185545,"is_transit":true,"i_long":106.811091,"distance":3191,"station_name":"Tanah Abang","line":1},{"transit":true,"is_transit":true,"distance":3632,"i_lat":-6.155215,"time":8,"i_long":106.800832,"line":1,"station_name":"Duri","station_id":"DU"},{"is_transit":false,"i_lat":-6.144674,"station_name":"Angke","station_id":"AK","i_long":106.79867,"transit":false,"distance":1230,"time":4,"line":0},{"transit":false,"time":9,"station_id":"KPB","i_lat":-6.132549,"distance":4102,"line":0,"is_transit":true,"i_long":106.826365,"station_name":"Kampung Bandan"},{"is_transit":false,"time":4,"i_lat":-6.128023,"transit":false,"distance":2185,"station_id":"AC","i_long":106.84464,"station_name":"Ancol","line":0}],[{"distance":0,"i_lat":-6.276362,"line":6,"is_transit":false,"i_long":106.74273,"station_id":"PDJ","time":0,"station_name":"Pondokranji","transit":false},{"is_transit":false,"transit":false,"station_name":"Kebayoran","i_long":106.780334,"distance":6218,"time":8,"station_id":"KBY","i_lat":-6.237242,"line":6},{"station_name":"Palmerah","transit":false,"line":6,"distance":3737,"time":7,"i_lat":-6.207404,"station_id":"PLM","is_transit":false,"i_long":106.79689},{"line":1,"transit":true,"distance":3191,"is_transit":true,"time":6,"station_name":"Tanah Abang","i_lat":-6.185545,"i_long":106.811091,"station_id":"THB"},{"station_name":"Karet","i_lat":-6.20132,"i_long":106.816351,"distance":2029,"time":5,"is_transit":false,"station_id":"KAT","transit":false,"line":1},{"transit":false,"is_transit":false,"i_lat":-6.201433,"time":1,"line":1,"station_id":"SUDB","station_name":"Sudirman Baru","i_long":106.819881,"distance":471},{"i_long":106.822649,"i_lat":-6.202263,"line":1,"station_id":"SUD","distance":280,"transit":false,"is_transit":false,"time":1,"station_name":"Sudirman"},{"i_long":106.84912,"time":4,"station_name":"Manggarai","distance":3186,"i_lat":-6.209883,"station_id":"MRI","transit":true,"line":0,"is_transit":true},{"distance":1590,"time":4,"station_name":"Cikini","transit":false,"i_long":106.840169,"station_id":"CKI","is_transit":false,"i_lat":-6.198556,"line":0},{"station_name":"Gondangdia","time":3,"is_transit":false,"i_lat":-6.186295,"distance":1750,"i_long":106.832183,"line":2,"transit":false,"station_id":"GDD"},{"i_lat":-6.166716,"transit":false,"station_id":"JUA","distance":2015,"station_name":"Juanda","is_transit":false,"i_long":106.828284,"line":2,"time":4},{"i_lat":-6.160725,"is_transit":false,"transit":false,"distance":1149,"line":2,"time":2,"station_id":"SW","station_name":"Sawah Besar","i_long":106.827103},{"distance":906,"station_id":"MGB","station_name":"Manggabesar","transit":false,"i_lat":-6.149769,"i_long":106.82482,"line":2,"is_transit":false,"time":2},{"transit":false,"distance":1080,"is_transit":false,"time":2,"station_id":"JAY","station_name":"Jayakarta","i_lat":-6.141205,"i_long":106.820901,"line":7},{"station_id":"JAKK","i_long":106.812439,"is_transit":true,"line":0,"time":4,"station_name":"Jakarta Kota","distance":1264,"transit":true,"i_lat":-6.137569},{"i_lat":-6.132549,"station_name":"Kampung Bandan","distance":1364,"i_long":106.826365,"is_transit":true,"time":3,"station_id":"KPB","line":0,"transit":false},{"station_id":"AC","distance":2185,"station_name":"Ancol","i_lat":-6.128023,"line":0,"is_transit":false,"time":4,"i_long":106.84464,"transit":false}],[{"station_id":"PDJ","station_name":"Pondokranji","time":0,"i_lat":-6.276362,"is_transit":false,"distance":0,"transit":false,"i_long":106.74273,"line":6},{"station_name":"Kebayoran","i_long":106.780334,"time":8,"line":6,"distance":6218,"i_lat":-6.237242,"is_transit":false,"station_id":"KBY","transit":false},{"line":6,"station_id":"PLM","time":7,"station_name":"Palmerah","i_long":106.79689,"is_transit":false,"transit":false,"distance":3737,"i_lat":-6.207404},{"transit":true,"station_name":"Tanah Abang","i_long":106.811091,"line":1,"is_transit":true,"distance":3191,"time":6,"i_lat":-6.185545,"station_id":"THB"},{"transit":false,"station_name":"Karet","is_transit":false,"station_id":"KAT","time":5,"distance":2029,"line":1,"i_long":106.816351,"i_lat":-6.20132},{"is_transit":false,"time":1,"station_name":"Sudirman Baru","line":1,"i_long":106.819881,"transit":false,"distance":471,"station_id":"SUDB","i_lat":-6.201433},{"station_name":"Sudirman","i_lat":-6.202263,"is_transit":false,"distance":280,"transit":false,"line":1,"time":1,"i_long":106.822649,"station_id":"SUD"},{"line":0,"transit":false,"is_transit":true,"i_long":106.84912,"time":4,"station_id":"MRI","distance":3186,"station_name":"Manggarai","i_lat":-6.209883},{"time":2,"station_name":"Matraman","is_transit":false,"distance":1275,"station_id":"MTR","i_long":106.858896,"transit":false,"i_lat":-6.212485,"line":1},{"station_id":"JNG","i_long":106.86807400000001,"transit":true,"distance":1377,"i_lat":-6.215091,"is_transit":true,"station_name":"Jatinegara","time":8,"line":0},{"i_long":106.861737,"transit":false,"time":2,"station_name":"Pondok Jati","line":11,"distance":1236,"station_id":"POK","is_transit":false,"i_lat":-6.209188},{"is_transit":false,"line":11,"distance":1829,"i_long":106.855437,"time":2,"station_name":"Kramat","transit":false,"i_lat":-6.193792,"station_id":"KMT"},{"line":11,"time":1,"i_lat":-6.185975,"station_id":"GST","station_name":"Gang Sentiong","i_long":106.850107,"transit":false,"distance":973,"is_transit":false},{"is_transit":false,"transit":false,"distance":1567,"station_id":"PSE","station_name":"Pasar Senen","i_long":106.84368,"i_lat":-6.174784,"time":8,"line":11},{"station_id":"KMO","transit":false,"time":4,"distance":1436,"i_long":106.839204,"is_transit":false,"i_lat":-6.161728,"line":11,"station_name":"Kemayoran"},{"station_id":"RJW","distance":1901,"transit":false,"i_long":106.836569,"line":11,"time":5,"station_name":"Rajawali","is_transit":false,"i_lat":-6.14505},{"transit":true,"line":0,"station_id":"KPB","i_long":106.826365,"is_transit":true,"distance":1444,"station_name":"Kampung Bandan","i_lat":-6.132549,"time":3},{"is_transit":false,"station_id":"AC","time":4,"transit":false,"i_lat":-6.128023,"i_long":106.84464,"station_name":"Ancol","line":0,"distance":2185}]]}