{"data":[[{"station_id":"PDJ","is_transit":false,"station_name":"Pondokranji","transit":false,"i_long":106.74273,"distance":0,"line":6,"time":0,"i_lat":-6.276362},{"i_long":106.780334,"station_name":"Kebayoran","is_transit":false,"station_id":"KBY","time":8,"distance":6218,"i_lat":-6.237242,"line":6,"transit":false},{"i_long":106.79689,"station_name":"Palmerah","line":6,"is_transit":false,"transit":false,"station_id":"PLM","time":7,"distance":3737,"i_lat":-6.207404},{"transit":true,"station_name":"Tanah Abang","is_transit":true,"station_id":"THB","i_lat":-6.185545,"line":1,"i_long":106.811091,"time":6,"distance":3191},{"time":5,"transit":false,"station_name":"Karet","distance":2029,"is_transit":false,"i_lat":-6.20132,"i_long":106.816351,"line":1,"station_id":"KAT"},{"station_id":"SUDB","time":1,"is_transit":false,"distance":471,"i_long":106.819881,"transit":false,"station_name":"Sudirman Baru","i_lat":-6.201433,"line":1},{"i_lat":-6.202263,"transit":false,"time":1,"i_long":106.822649,"distance":280,"station_id":"SUD","is_transit":false,"station_name":"Sudirman","line":1},{"transit":false,"station_name":"Manggarai","is_transit":false,"time":4,"distance":3186,"i_lat":-6.209883,"station_id":"MRI","i_long":106.84912,"line":2},{"transit":false,"station_name":"Matraman","time":2,"line":1,"i_long":106.858896,"distance":1275,"i_lat":-6.212485,"is_transit":false,"station_id":"MTR"},{"is_transit":false,"station_id":"JNG","time":8,"distance":1377,"i_long":106.86807400000001,"i_lat":-6.215091,"station_name":"Jatinegara","line":1,"transit":false},{"is_transit":false,"distance":3395,"station_name":"Klender","i_lat":-6.2135,"i_long":106.899548,"line":1,"time":3,"station_id":"KLD","transit":false},{"i_lat":-6.215568,"transit":false,"station_id":"BUA","station_name":"Buaran","i_long":106.922662,"distance":3100,"is_transit":false,"line":1,"time":2},{"station_id":"KLDB","transit":false,"is_transit":false,"i_lat":-6.217455,"i_long":106.939679,"station_name":"Klenderbaru","line":1,"distance":1305,"time":1},{"station_name":"Cakung","transit":false,"station_id":"CUK","is_transit":false,"distance":1385,"time":8,"i_lat":-6.219053,"line":1,"i_long":106.951283},{"time":3,"line":1,"station_id":"KRI","transit":false,"is_transit":false,"distance":3097,"i_long":106.977657,"station_name":"Kranji","i_lat":-6.224515},{"is_transit":false,"line":1,"distance":2520,"i_lat":-6.236616,"transit":false,"station_id":"BKS","time":4,"i_long":106.997013,"station_name":"Bekasi"},{"i_lat":-6.248029,"station_id":"BKST","station_name":"Bekasi Timur","is_transit":false,"time":2,"i_long":107.016735,"line":1,"transit":false,"distance":2368},{"is_transit":false,"station_id":"TB","distance":4460,"transit":false,"i_lat":-6.258864,"station_name":"Tambun","line":1,"time":7,"i_long":107.055722}],[{"line":6,"station_id":"PDJ","station_name":"Pondokranji","time":0,"i_lat":-6.276362,"i_long":106.74273,"transit":false,"is_transit":false,"distance":0},{"distance":6218,"i_lat":-6.237242,"line":6,"station_id":"KBY","station_name":"Kebayoran","is_transit":false,"transit":false,"time":8,"i_long":106.780334},{"station_name":"Palmerah","is_transit":false,"time":7,"i_long":106.79689,"line":6,"distance":3737,"transit":false,"station_id":"PLM","i_lat":-6.207404},{"line":1,"i_long":106.811091,"station_name":"Tanah Abang","i_lat":-6.185545,"is_transit":true,"distance":3191,"transit":true,"station_id":"THB","time":6},{"distance":3632,"transit":false,"line":1,"i_lat":-6.155215,"station_name":"Duri","station_id":"DU","i_long":106.800832,"is_transit":false,"time":8},{"distance":1230,"time":4,"i_lat":-6.144674,"is_transit":false,"line":1,"i_long":106.79867,"station_id":"AK","station_name":"Angke","transit":false},{"transit":true,"station_name":"Kampung Bandan","time":9,"distance":4102,"i_long":106.826365,"line":4,"is_transit":true,"i_lat":-6.132549,"station_id":"KPB"},{"time":3,"i_lat":-6.14505,"station_name":"Rajawali","distance":1444,"line":11,"i_long":106.836569,"transit":false,"station_id":"RJW","is_transit":false},{"station_id":"KMO","i_long":106.839204,"is_transit":false,"line":11,"distance":1901,"station_name":"Kemayoran","time":5,"i_lat":-6.161728,"transit":false},{"station_name":"Pasar Senen","station_id":"PSE","is_transit":false,"distance":1436,"transit":false,"line":11,"time":4,"i_lat":-6.174784,"i_long":106.84368},{"station_id":"GST","is_transit":false,"distance":1567,"transit":false,"station_name":"Gang Sentiong","i_lat":-6.185975,"time":8,"line":11,"i_long":106.850107},{"is_transit":false,"station_name":"Kramat","distance":973,"i_long":106.855437,"time":1,"line":11,"station_id":"KMT","i_lat":-6.193792,"transit":false},{"i_long":106.861737,"line":11,"time":2,"transit":false,"i_lat":-6.209188,"distance":1829,"is_transit":false,"station_name":"Pondok Jati","station_id":"POK"},{"i_lat":-6.215091,"transit":true,"time":9,"line":1,"is_transit":true,"station_id":"JNG","distance":1236,"station_name":"Jatinegara","i_long":106.86807400000001},{"station_name":"Klender","distance":3395,"i_long":106.899548,"line":1,"is_transit":false,"time":3,"station_id":"KLD","i_lat":-6.2135,"transit":false},{"distance":3100,"transit":false,"i_long":106.922662,"is_transit":false,"station_id":"BUA","time":2,"line":1,"i_lat":-6.215568,"station_name":"Buaran"},{"i_lat":-6.217455,"station_id":"KLDB","transit":false,"is_transit":false,"time":1,"distance":1305,"line":1,"i_long":106.939679,"station_name":"Klenderbaru"},{"time":8,"transit":false,"distance":1385,"station_name":"Cakung","station_id":"CUK","i_lat":-6.219053,"is_transit":false,"i_long":106.951283,"line":1},{"transit":false,"time":3,"is_transit":false,"i_lat":-6.224515,"station_name":"Kranji","line":1,"i_long":106.977657,"distance":3097,"station_id":"KRI"},{"transit":false,"station_name":"Bekasi","i_lat":-6.236616,"time":4,"is_transit":false,"i_long":106.997013,"station_id":"BKS","distance":2520,"line":1},{"is_transit":false,"i_lat":-6.248029,"time":2,"i_long":107.016735,"transit":false,"distance":2368,"station_name":"Bekasi Timur","line":1,"station_id":"BKST"},{"distance":4460,"station_id":"TB","i_lat":-6.258864,"i_long":107.055722,"line":1,"transit":false,"time":7,"is_transit":false,"station_name":"Tambun"}],[{"i_lat":-6.276362,"station_name":"Pondokranji","transit":false,"i_long":106.74273,"is_transit":false,"time":0,"station_id":"PDJ","line":6,"distance":0},{"time":8,"transit":false,"line":6,"is_transit":false,"station_name":"Kebayoran","distance":6218,"station_id":"KBY","i_long":106.780334,"i_lat":-6.237242},{"station_name":"Palmerah","transit":false,"i_lat":-6.207404,"line":6,"is_transit":false,"time":7,"i_long":106.79689,"station_id":"PLM","distance":3737},{"station_id":"THB","i_long":106.811091,"transit":true,"line":1,"time":6,"distance":3191,"station_name":"Tanah Abang","is_transit":true,"i_lat":-6.185545},{"station_name":"Duri","distance":3632,"time":8,"is_transit":false,"i_long":106.800832,"line":1,"transit":false,"station_id":"DU","i_lat":-6.155215},{"line":1,"transit":false,"i_lat":-6.144674,"time":4,"is_transit":false,"station_id":"AK","i_long":106.79867,"distance":1230,"station_name":"Angke"},{"station_name":"Kampung Bandan","i_long":106.826365,"line":4,"station_id":"KPB","is_transit":true,"transit":true,"time":9,"distance":4102,"i_lat":-6.132549},{"time":3,"station_id":"JAKK","line":2,"i_long":106.812439,"is_transit":true,"i_lat":-6.137569,"distance":1364,"transit":true,"station_name":"Jakarta Kota"},{"distance":1264,"is_transit":false,"time":4,"line":2,"station_id":"JAY","i_lat":-6.141205,"i_long":106.820901,"station_name":"Jayakarta","transit":false},{"transit":false,"i_lat":-6.149769,"line":2,"time":2,"i_long":106.82482,"station_name":"Manggabesar","is_transit":false,"distance":1080,"station_id":"MGB"},{"transit":false,"is_transit":false,"time":2,"i_long":106.827103,"station_name":"Sawah Besar","station_id":"SW","line":2,"i_lat":-6.160725,"distance":906},{"line":2,"station_name":"Juanda","is_transit":false,"time":2,"distance":1149,"station_id":"JUA","i_lat":-6.166716,"i_long":106.828284,"transit":false},{"i_lat":-6.186295,"time":4,"distance":2015,"station_name":"Gondangdia","i_long":106.832183,"station_id":"GDD","line":2,"transit":false,"is_transit":false},{"transit":false,"distance":1750,"line":2,"is_transit":false,"station_name":"Cikini","time":3,"i_lat":-6.198556,"i_long":106.840169,"station_id":"CKI"},{"station_id":"MRI","transit":true,"i_long":106.84912,"i_lat":-6.209883,"is_transit":true,"line":2,"station_name":"Manggarai","time":4,"distance":1590},{"i_lat":-6.212485,"time":2,"station_name":"Matraman","is_transit":false,"i_long":106.858896,"distance":1275,"line":1,"transit":false,"station_id":"MTR"},{"transit":false,"i_lat":-6.215091,"time":8,"station_id":"JNG","line":1,"is_transit":false,"i_long":106.86807400000001,"distance":1377,"station_name":"Jatinegara"},{"station_id":"KLD","transit":false,"distance":3395,"line":1,"station_name":"Klender","i_long":106.899548,"is_transit":false,"i_lat":-6.2135,"time":3},{"station_name":"Buaran","is_transit":false,"distance":3100,"time":2,"transit":false,"i_lat":-6.215568,"line":1,"station_id":"BUA","i_long":106.922662},{"transit":false,"time":1,"i_long":106.939679,"distance":1305,"i_lat":-6.217455,"is_transit":false,"station_id":"KLDB","line":1,"station_name":"Klenderbaru"},{"i_lat":-6.219053,"transit":false,"station_name":"Cakung","time":8,"i_long":106.951283,"line":1,"distance":1385,"is_transit":false,"station_id":"CUK"},{"distance":3097,"i_lat":-6.224515,"is_transit":false,"line":1,"station_name":"Kranji","time":3,"transit":false,"i_long":106.977657,"station_id":"KRI"},{"station_id":"BKS","i_lat":-6.236616,"distance":2520,"station_name":"Bekasi","is_transit":false,"time":4,"transit":false,"i_long":106.997013,"line":1},{"distance":2368,"station_name":"Bekasi Timur","i_long":107.016735,"line":1,"is_transit":false,"i_lat":-6.248029,"transit":false,"station_id":"BKST","time":2},{"is_transit":false,"distance":4460,"i_lat":-6.258864,"i_long":107.055722,"line":1,"transit":false,"station_id":"TB","time":7,"station_name":"Tambun"}],[{"i_long":106.74273,"station_name":"Pondokranji","time":0,"line":6,"station_id":"PDJ","transit":false,"is_transit":false,"i_lat":-6.276362,"distance":0},{"i_long":106.780334,"i_lat":-6.237242,"station_name":"Kebayoran","station_id":"KBY","line":6,"distance":6218,"is_transit":false,"time":8,"transit":false},{"i_lat":-6.207404,"station_name":"Palmerah","distance":3737,"transit":false,"line":6,"station_id":"PLM","is_transit":false,"time":7,"i_long":106.79689},{"transit":true,"distance":3191,"is_transit":true,"line":1,"time":6,"i_long":106.811091,"station_name":"Tanah Abang","station_id":"THB","i_lat":-6.185545},{"distance":2029,"line":1,"time":5,"station_name":"Karet","i_long":106.816351,"i_lat":-6.20132,"transit":false,"station_id":"KAT","is_transit":false},{"i_lat":-6.201433,"is_transit":false,"transit":false,"station_name":"Sudirman Baru","station_id":"SUDB","distance":471,"time":1,"i_long":106.819881,"line":1},{"station_name":"Sudirman","line":1,"transit":false,"i_long":106.822649,"is_transit":false,"time":1,"distance":280,"i_lat":-6.202263,"station_id":"SUD"},{"transit":true,"distance":3186,"station_name":"Manggarai","i_lat":-6.209883,"is_transit":true,"time":4,"i_long":106.84912,"line":2,"station_id":"MRI"},{"i_long":106.840169,"transit":false,"distance":1590,"i_lat":-6.198556,"station_id":"CKI","line":2,"time":4,"station_name":"Cikini","is_transit":false},{"transit":false,"distance":1750,"station_id":"GDD","station_name":"Gondangdia","i_long":106.832183,"is_transit":false,"line":2,"i_lat":-6.186295,"time":3},{"station_id":"JUA","is_transit":false,"transit":false,"time":4,"station_name":"Juanda","distance":2015,"i_lat":-6.166716,"i_long":106.828284,"line":2},{"station_id":"SW","transit":false,"time":2,"distance":1149,"station_name":"Sawah Besar","i_lat":-6.160725,"i_long":106.827103,"is_transit":false,"line":2},{"transit":false,"i_long":106.82482,"line":2,"station_name":"Manggabesar","time":2,"is_transit":false,"i_lat":-6.149769,"station_id":"MGB","distance":906},{"i_lat":-6.141205,"station_id":"JAY","time":2,"line":2,"station_name":"Jayakarta","is_transit":false,"i_long":106.820901,"distance":1080,"transit":false},{"station_id":"JAKK","is_transit":true,"station_name":"Jakarta Kota","i_long":106.812439,"line":2,"time":4,"i_lat":-6.137569,"transit":true,"distance":1264},{"line":4,"i_lat":-6.132549,"station_id":"KPB","transit":true,"time":3,"i_long":106.826365,"station_name":"Kampung Bandan","is_transit":true,"distance":1364},{"station_id":"RJW","transit":false,"time":3,"i_long":106.836569,"station_name":"Rajawali","i_lat":-6.14505,"distance":1444,"line":11,"is_transit":false},{"transit":false,"station_id":"KMO","time":5,"line":11,"i_lat":-6.161728,"is_transit":false,"i_long":106.839204,"station_name":"Kemayoran","distance":1901},{"line":11,"station_name":"Pasar Senen","is_transit":false,"distance":1436,"transit":false,"time":4,"station_id":"PSE","i_long":106.84368,"i_lat":-6.174784},{"i_lat":-6.185975,"station_id":"GST","distance":1567,"is_transit":false,"i_long":106.850107,"transit":false,"time":8,"line":11,"station_name":"Gang Sentiong"},{"station_id":"KMT","station_name":"Kramat","transit":false,"is_transit":false,"time":1,"distance":973,"i_lat":-6.193792,"i_long":106.855437,"line":11},{"time":2,"distance":1829,"line":11,"is_transit":false,"transit":false,"station_id":"POK","i_lat":-6.209188,"station_name":"Pondok Jati","i_long":106.861737},{"i_lat":-6.215091,"distance":1236,"is_transit":true,"time":9,"station_id":"JNG","transit":true,"line":1,"station_name":"Jatinegara","i_long":106.86807400000001},{"is_transit":false,"i_long":106.899548,"distance":3395,"transit":false,"i_lat":-6.2135,"station_name":"Klender","time":3,"station_id":"KLD","line":1},{"distance":3100,"time":2,"transit":false,"is_transit":false,"i_lat":-6.215568,"line":1,"station_name":"Buaran","i_long":106.922662,"station_id":"BUA"},{"station_id":"KLDB","time":1,"distance":1305,"i_lat":-6.217455,"station_name":"Klenderbaru","transit":false,"is_transit":false,"i_long":106.939679,"line":1},{"line":1,"station_id":"CUK","transit":false,"station_name":"Cakung","is_transit":false,"distance":1385,"i_long":106.951283,"time":8,"i_lat":-6.219053},{"i_long":106.977657,"station_name":"Kranji","time":3,"is_transit":false,"transit":false,"station_id":"KRI","distance":3097,"line":1,"i_lat":-6.224515},{"station_id":"BKS","time":4,"is_transit":false,"transit":false,"line":1,"i_long":106.997013,"distance":2520,"i_lat":-6.236616,"station_name":"Bekasi"},{"station_name":"Bekasi Timur","i_lat":-6.248029,"distance":2368,"i_long":107.016735,"time":2,"line":1,"station_id":"BKST","is_transit":false,"transit":false},{"distance":4460,"time":7,"station_name":"Tambun","is_transit":false,"line":1,"i_lat":-6.258864,"station_id":"TB","transit":false,"i_long":107.055722}]]}