{"data":[[{"time":0,"line":6,"is_transit":false,"distance":0,"station_name":"Pondokranji","transit":false,"station_id":"PDJ","i_lat":-6.276362,"i_long":106.74273},{"i_long":106.780334,"station_name":"Kebayoran","distance":6218,"i_lat":-6.237242,"line":6,"transit":false,"is_transit":false,"station_id":"KBY","time":8},{"i_lat":-6.207404,"station_id":"PLM","distance":3737,"transit":false,"station_name":"Palmerah","is_transit":false,"time":7,"i_long":106.79689,"line":6},{"i_lat":-6.185545,"distance":3191,"i_long":106.811091,"station_id":"THB","station_name":"Tanah Abang","transit":true,"time":6,"is_transit":true,"line":1},{"station_id":"KAT","transit":false,"time":5,"distance":2029,"station_name":"Karet","is_transit":false,"i_lat":-6.20132,"i_long":106.816351,"line":1},{"transit":false,"is_transit":false,"station_id":"SUDB","distance":471,"i_lat":-6.201433,"line":1,"station_name":"Sudirman Baru","time":1,"i_long":106.819881},{"transit":false,"station_id":"SUD","is_transit":false,"station_name":"Sudirman","i_long":106.822649,"i_lat":-6.202263,"distance":280,"time":1,"line":1},{"line":0,"is_transit":true,"station_id":"MRI","distance":3186,"time":4,"i_lat":-6.209883,"i_long":106.84912,"station_name":"Manggarai","transit":true},{"transit":false,"line":0,"station_name":"Cikini","is_transit":false,"distance":1590,"time":4,"i_lat":-6.198556,"i_long":106.840169,"station_id":"CKI"},{"station_id":"GDD","i_long":106.832183,"transit":false,"distance":1750,"station_name":"Gondangdia","line":2,"is_transit":false,"i_lat":-6.186295,"time":3}],[{"transit":false,"time":0,"line":6,"station_name":"Pondokranji","distance":0,"station_id":"PDJ","i_long":106.74273,"i_lat":-6.276362,"is_transit":false},{"station_name":"Kebayoran","station_id":"KBY","is_transit":false,"line":6,"i_lat":-6.237242,"transit":false,"time":8,"distance":6218,"i_long":106.780334},{"distance":3737,"i_long":106.79689,"transit":false,"i_lat":-6.207404,"line":6,"is_transit":false,"station_name":"Palmerah","station_id":"PLM","time":7},{"i_lat":-6.185545,"line":1,"time":6,"transit":true,"distance":3191,"is_transit":true,"station_name":"Tanah Abang","station_id":"THB","i_long":106.811091},{"is_transit":true,"i_long":106.800832,"line":1,"distance":3632,"station_id":"DU","transit":true,"station_name":"Duri","time":8,"i_lat":-6.155215},{"transit":false,"time":4,"station_id":"AK","is_transit":false,"station_name":"Angke","distance":1230,"i_lat":-6.144674,"i_long":106.79867,"line":0},{"transit":false,"time":9,"line":0,"i_lat":-6.132549,"station_name":"Kampung Bandan","is_transit":true,"i_long":106.826365,"station_id":"KPB","distance":4102},{"i_long":106.812439,"line":0,"i_lat":-6.137569,"station_name":"Jakarta Kota","station_id":"JAKK","transit":true,"distance":1364,"is_transit":true,"time":3},{"station_id":"JAY","time":4,"i_long":106.820901,"i_lat":-6.141205,"is_transit":false,"transit":false,"distance":1264,"station_name":"Jayakarta","line":7},{"distance":1080,"line":2,"station_name":"Manggabesar","station_id":"MGB","i_lat":-6.149769,"i_long":106.82482,"time":2,"transit":false,"is_transit":false},{"time":2,"is_transit":false,"i_lat":-6.160725,"line":2,"station_name":"Sawah Besar","station_id":"SW","i_long":106.827103,"distance":906,"transit":false},{"line":2,"station_name":"Juanda","time":2,"is_transit":false,"i_long":106.828284,"transit":false,"i_lat":-6.166716,"distance":1149,"station_id":"JUA"},{"line":2,"distance":2015,"station_name":"Gondangdia","i_long":106.832183,"transit":false,"station_id":"GDD","time":4,"is_transit":false,"i_lat":-6.186295}],[{"i_long":106.74273,"is_transit":false,"station_id":"PDJ","line":6,"station_name":"Pondokranji","time":0,"transit":false,"i_lat":-6.276362,"distance":0},{"is_transit":false,"time":8,"station_id":"KBY","i_lat":-6.237242,"station_name":"Kebayoran","i_long":106.780334,"line":6,"transit":false,"distance":6218},{"line":6,"time":7,"station_id":"PLM","station_name":"Palmerah","is_transit":false,"transit":false,"distance":3737,"i_lat":-6.207404,"i_long":106.79689},{"station_id":"THB","distance":3191,"station_name":"Tanah Abang","time":6,"i_lat":-6.185545,"transit":true,"is_transit":true,"i_long":106.811091,"line":1},{"i_lat":-6.155215,"station_id":"DU","is_transit":true,"i_long":106.800832,"time":8,"transit":true,"line":1,"distance":3632,"station_name":"Duri"},{"i_lat":-6.144674,"transit":false,"station_name":"Angke","station_id":"AK","is_transit":false,"i_long":106.79867,"distance":1230,"time":4,"line":0},{"station_name":"Kampung Bandan","transit":true,"distance":4102,"i_lat":-6.132549,"station_id":"KPB","i_long":106.826365,"is_transit":true,"time":9,"line":0},{"station_id":"RJW","i_lat":-6.14505,"i_long":106.836569,"is_transit":false,"station_name":"Rajawali","distance":1444,"line":11,"time":3,"transit":false},{"station_id":"KMO","transit":false,"time":5,"distance":1901,"line":11,"is_transit":false,"station_name":"Kemayoran","i_lat":-6.161728,"i_long":106.839204},{"distance":1436,"is_transit":false,"line":11,"time":4,"station_name":"Pasar Senen","i_long":106.84368,"i_lat":-6.174784,"transit":false,"station_id":"PSE"},{"time":8,"line":11,"i_lat":-6.185975,"station_name":"Gang Sentiong","i_long":106.850107,"is_transit":false,"distance":1567,"station_id":"GST","transit":false},{"station_id":"KMT","line":11,"is_transit":false,"distance":973,"transit":false,"i_lat":-6.193792,"time":1,"i_long":106.855437,"station_name":"Kramat"},{"is_transit":false,"i_lat":-6.209188,"i_long":106.861737,"transit":false,"line":11,"station_id":"POK","station_name":"Pondok Jati","time":2,"distance":1829},{"i_lat":-6.215091,"i_long":106.86807400000001,"station_id":"JNG","is_transit":true,"distance":1236,"line":0,"station_name":"Jatinegara","transit":true,"time":9},{"station_id":"MTR","line":1,"is_transit":false,"station_name":"Matraman","distance":1377,"i_lat":-6.212485,"time":2,"i_long":106.858896,"transit":false},{"i_long":106.84912,"line":0,"time":2,"station_id":"MRI","station_name":"Manggarai","transit":true,"is_transit":true,"distance":1275,"i_lat":-6.209883},{"distance":1590,"i_long":106.840169,"line":0,"station_name":"Cikini","transit":false,"station_id":"CKI","i_lat":-6.198556,"time":4,"is_transit":false},{"line":2,"station_name":"Gondangdia","i_long":106.832183,"transit":false,"distance":1750,"time":3,"is_transit":false,"i_lat":-6.186295,"station_id":"GDD"}],[{"station_name":"Pondokranji","is_transit":false,"i_long":106.74273,"station_id":"PDJ","transit":false,"time":0,"distance":0,"i_lat":-6.276362,"line":6},{"time":8,"distance":6218,"i_long":106.780334,"line":6,"station_id":"KBY","i_lat":-6.237242,"station_name":"Kebayoran","transit":false,"is_transit":false},{"transit":false,"station_id":"PLM","is_transit":false,"time":7,"station_name":"Palmerah","distance":3737,"line":6,"i_lat":-6.207404,"i_long":106.79689},{"line":1,"station_name":"Tanah Abang","station_id":"THB","i_lat":-6.185545,"transit":true,"time":6,"is_transit":true,"i_long":106.811091,"distance":3191},{"is_transit":false,"i_long":106.816351,"distance":2029,"time":5,"i_lat":-6.20132,"station_name":"Karet","line":1,"transit":false,"station_id":"KAT"},{"station_name":"Sudirman Baru","distance":471,"station_id":"SUDB","i_long":106.819881,"time":1,"is_transit":false,"i_lat":-6.201433,"line":1,"transit":false},{"station_name":"Sudirman","station_id":"SUD","is_transit":false,"line":1,"time":1,"transit":false,"distance":280,"i_lat":-6.202263,"i_long":106.822649},{"i_lat":-6.209883,"line":0,"time":4,"is_transit":true,"transit":false,"i_long":106.84912,"station_name":"Manggarai","station_id":"MRI","distance":3186},{"transit":false,"line":1,"station_name":"Matraman","i_lat":-6.212485,"station_id":"MTR","time":2,"is_transit":false,"distance":1275,"i_long":106.858896},{"i_lat":-6.215091,"transit":true,"station_name":"Jatinegara","is_transit":true,"distance":1377,"line":0,"station_id":"JNG","i_long":106.86807400000001,"time":8},{"distance":1236,"transit":false,"i_lat":-6.209188,"line":11,"is_transit":false,"station_id":"POK","time":2,"station_name":"Pondok Jati","i_long":106.861737},{"time":2,"station_name":"Kramat","station_id":"KMT","distance":1829,"i_long":106.855437,"is_transit":false,"i_lat":-6.193792,"line":11,"transit":false},{"station_name":"Gang Sentiong","is_transit":false,"i_lat":-6.185975,"distance":973,"i_long":106.850107,"time":1,"line":11,"transit":false,"station_id":"GST"},{"station_id":"PSE","is_transit":false,"time":8,"transit":false,"i_lat":-6.174784,"station_name":"Pasar Senen","i_long":106.84368,"distance":1567,"line":11},{"station_name":"Kemayoran","station_id":"KMO","i_long":106.839204,"transit":false,"time":4,"is_transit":false,"distance":1436,"line":11,"i_lat":-6.161728},{"station_name":"Rajawali","is_transit":false,"i_lat":-6.14505,"line":11,"distance":1901,"transit":false,"i_long":106.836569,"time":5,"station_id":"RJW"},{"transit":true,"i_long":106.826365,"line":0,"time":3,"is_transit":true,"station_name":"Kampung Bandan","i_lat":-6.132549,"station_id":"KPB","distance":1444},{"station_id":"JAKK","line":0,"distance":1364,"is_transit":true,"station_name":"Jakarta Kota","i_lat":-6.137569,"time":3,"i_long":106.812439,"transit":true},{"station_id":"JAY","is_transit":false,"line":7,"i_long":106.820901,"time":4,"transit":false,"station_name":"Jayakarta","i_lat":-6.141205,"distance":1264},{"i_lat":-6.149769,"transit":false,"distance":1080,"is_transit":false,"i_long":106.82482,"station_name":"Manggabesar","time":2,"line":2,"station_id":"MGB"},{"station_id":"SW","distance":906,"time":2,"line":2,"i_lat":-6.160725,"is_transit":false,"station_name":"Sawah Besar","transit":false,"i_long":106.827103},{"i_lat":-6.166716,"distance":1149,"station_name":"Juanda","time":2,"is_transit":false,"transit":false,"station_id":"JUA","line":2,"i_long":106.828284},{"i_long":106.832183,"line":2,"distance":2015,"station_id":"GDD","transit":false,"station_name":"Gondangdia","i_lat":-6.186295,"time":4,"is_transit":false}]]}