{"data":[[{"i_long":106.74273,"distance":0,"station_name":"Pondokranji","station_id":"PDJ","time":0,"line":6,"i_lat":-6.276362,"is_transit":false,"transit":false},{"line":6,"station_name":"Kebayoran","station_id":"KBY","is_transit":false,"distance":6218,"i_lat":-6.237242,"transit":false,"time":8,"i_long":106.780334},{"i_lat":-6.207404,"station_name":"Palmerah","transit":false,"station_id":"PLM","i_long":106.79689,"line":6,"time":7,"is_transit":false,"distance":3737},{"station_id":"THB","time":6,"distance":3191,"station_name":"Tanah Abang","i_lat":-6.185545,"i_long":106.811091,"line":1,"transit":true,"is_transit":true},{"i_lat":-6.155215,"i_long":106.800832,"line":1,"time":8,"distance":3632,"is_transit":false,"transit":false,"station_name":"Duri","station_id":"DU"},{"i_long":106.79867,"station_id":"AK","distance":1230,"station_name":"Angke","time":4,"i_lat":-6.144674,"line":1,"is_transit":false,"transit":false},{"station_id":"KPB","station_name":"Kampung Bandan","i_long":106.826365,"transit":true,"line":4,"is_transit":true,"i_lat":-6.132549,"distance":4102,"time":9},{"i_long":106.836569,"transit":false,"i_lat":-6.14505,"is_transit":false,"distance":1444,"station_id":"RJW","station_name":"Rajawali","line":11,"time":3}],[{"i_lat":-6.276362,"station_id":"PDJ","is_transit":false,"distance":0,"i_long":106.74273,"line":6,"transit":false,"time":0,"station_name":"Pondokranji"},{"is_transit":false,"distance":6218,"i_lat":-6.237242,"transit":false,"line":6,"i_long":106.780334,"station_name":"Kebayoran","station_id":"KBY","time":8},{"transit":false,"line":6,"is_transit":false,"station_name":"Palmerah","distance":3737,"station_id":"PLM","i_long":106.79689,"i_lat":-6.207404,"time":7},{"transit":true,"distance":3191,"time":6,"station_id":"THB","station_name":"Tanah Abang","is_transit":true,"i_lat":-6.185545,"i_long":106.811091,"line":1},{"time":5,"transit":false,"i_lat":-6.20132,"i_long":106.816351,"is_transit":false,"station_name":"Karet","station_id":"KAT","distance":2029,"line":1},{"line":1,"i_long":106.819881,"station_name":"Sudirman Baru","is_transit":false,"station_id":"SUDB","distance":471,"time":1,"i_lat":-6.201433,"transit":false},{"line":1,"i_long":106.822649,"i_lat":-6.202263,"distance":280,"station_id":"SUD","time":1,"is_transit":false,"transit":false,"station_name":"Sudirman"},{"distance":3186,"line":2,"station_name":"Manggarai","is_transit":false,"time":4,"transit":false,"station_id":"MRI","i_lat":-6.209883,"i_long":106.84912},{"line":1,"transit":false,"station_name":"Matraman","i_lat":-6.212485,"i_long":106.858896,"time":2,"station_id":"MTR","distance":1275,"is_transit":false},{"station_name":"Jatinegara","distance":1377,"i_long":106.86807400000001,"transit":true,"station_id":"JNG","is_transit":true,"time":8,"line":1,"i_lat":-6.215091},{"transit":false,"station_id":"POK","is_transit":false,"time":2,"distance":1236,"i_lat":-6.209188,"i_long":106.861737,"station_name":"Pondok Jati","line":11},{"transit":false,"distance":1829,"station_name":"Kramat","station_id":"KMT","i_lat":-6.193792,"time":2,"is_transit":false,"i_long":106.855437,"line":11},{"station_id":"GST","transit":false,"station_name":"Gang Sentiong","distance":973,"time":1,"is_transit":false,"i_lat":-6.185975,"i_long":106.850107,"line":11},{"distance":1567,"station_name":"Pasar Senen","i_long":106.84368,"time":8,"transit":false,"i_lat":-6.174784,"is_transit":false,"station_id":"PSE","line":11},{"station_id":"KMO","i_long":106.839204,"is_transit":false,"line":11,"time":4,"station_name":"Kemayoran","transit":false,"distance":1436,"i_lat":-6.161728},{"distance":1901,"station_id":"RJW","is_transit":false,"i_long":106.836569,"station_name":"Rajawali","time":5,"transit":false,"i_lat":-6.14505,"line":11}],[{"is_transit":false,"distance":0,"time":0,"line":6,"i_long":106.74273,"i_lat":-6.276362,"station_id":"PDJ","station_name":"Pondokranji","transit":false},{"distance":6218,"is_transit":false,"station_name":"Kebayoran","transit":false,"station_id":"KBY","i_lat":-6.237242,"i_long":106.780334,"time":8,"line":6},{"is_transit":false,"distance":3737,"i_lat":-6.207404,"i_long":106.79689,"station_name":"Palmerah","time":7,"station_id":"PLM","transit":false,"line":6},{"transit":true,"station_id":"THB","station_name":"Tanah Abang","i_lat":-6.185545,"is_transit":true,"time":6,"i_long":106.811091,"line":1,"distance":3191},{"station_name":"Karet","distance":2029,"i_lat":-6.20132,"time":5,"line":1,"is_transit":false,"i_long":106.816351,"transit":false,"station_id":"KAT"},{"is_transit":false,"distance":471,"i_long":106.819881,"transit":false,"i_lat":-6.201433,"station_id":"SUDB","time":1,"line":1,"station_name":"Sudirman Baru"},{"i_lat":-6.202263,"i_long":106.822649,"transit":false,"station_id":"SUD","line":1,"distance":280,"is_transit":false,"station_name":"Sudirman","time":1},{"line":2,"station_id":"MRI","i_long":106.84912,"i_lat":-6.209883,"station_name":"Manggarai","time":4,"transit":true,"is_transit":true,"distance":3186},{"station_id":"CKI","i_long":106.840169,"is_transit":false,"i_lat":-6.198556,"line":2,"station_name":"Cikini","time":4,"transit":false,"distance":1590},{"i_lat":-6.186295,"station_id":"GDD","station_name":"Gondangdia","is_transit":false,"line":2,"distance":1750,"i_long":106.832183,"time":3,"transit":false},{"i_lat":-6.166716,"line":2,"time":4,"distance":2015,"station_id":"JUA","transit":false,"is_transit":false,"i_long":106.828284,"station_name":"Juanda"},{"station_name":"Sawah Besar","station_id":"SW","distance":1149,"line":2,"i_long":106.827103,"is_transit":false,"transit":false,"time":2,"i_lat":-6.160725},{"station_id":"MGB","time":2,"i_lat":-6.149769,"i_long":106.82482,"transit":false,"station_name":"Manggabesar","line":2,"is_transit":false,"distance":906},{"station_name":"Jayakarta","transit":false,"distance":1080,"station_id":"JAY","line":2,"time":2,"i_long":106.820901,"is_transit":false,"i_lat":-6.141205},{"station_name":"Jakarta Kota","time":4,"transit":true,"i_lat":-6.137569,"station_id":"JAKK","distance":1264,"line":2,"i_long":106.812439,"is_transit":true},{"distance":1364,"time":3,"station_name":"Kampung Bandan","is_transit":true,"line":4,"i_long":106.826365,"i_lat":-6.132549,"transit":true,"station_id":"KPB"},{"station_name":"Rajawali","time":3,"transit":false,"is_transit":false,"distance":1444,"i_lat":-6.14505,"station_id":"RJW","i_long":106.836569,"line":11}],[{"station_name":"Pondokranji","i_long":106.74273,"station_id":"PDJ","distance":0,"time":0,"line":6,"transit":false,"is_transit":false,"i_lat":-6.276362},{"distance":6218,"station_name":"Kebayoran","is_transit":false,"time":8,"station_id":"KBY","i_long":106.780334,"i_lat":-6.237242,"line":6,"transit":false},{"distance":3737,"station_name":"Palmerah","line":6,"time":7,"transit":false,"i_long":106.79689,"station_id":"PLM","i_lat":-6.207404,"is_transit":false},{"transit":true,"distance":3191,"station_id":"THB","is_transit":true,"station_name":"Tanah Abang","i_long":106.811091,"i_lat":-6.185545,"line":1,"time":6},{"distance":3632,"i_lat":-6.155215,"line":1,"station_name":"Duri","i_long":106.800832,"transit":false,"station_id":"DU","time":8,"is_transit":false},{"line":1,"i_long":106.79867,"time":4,"transit":false,"is_transit":false,"distance":1230,"i_lat":-6.144674,"station_id":"AK","station_name":"Angke"},{"transit":true,"line":4,"time":9,"station_name":"Kampung Bandan","is_transit":true,"station_id":"KPB","i_lat":-6.132549,"i_long":106.826365,"distance":4102},{"transit":true,"i_lat":-6.137569,"distance":1364,"time":3,"is_transit":true,"i_long":106.812439,"line":2,"station_id":"JAKK","station_name":"Jakarta Kota"},{"time":4,"transit":false,"is_transit":false,"i_long":106.820901,"station_name":"Jayakarta","station_id":"JAY","line":2,"distance":1264,"i_lat":-6.141205},{"line":2,"is_transit":false,"station_id":"MGB","station_name":"Manggabesar","i_long":106.82482,"i_lat":-6.149769,"time":2,"distance":1080,"transit":false},{"is_transit":false,"distance":906,"line":2,"time":2,"station_name":"Sawah Besar","i_long":106.827103,"station_id":"SW","i_lat":-6.160725,"transit":false},{"transit":false,"line":2,"distance":1149,"i_long":106.828284,"time":2,"station_id":"JUA","station_name":"Juanda","is_transit":false,"i_lat":-6.166716},{"distance":2015,"time":4,"is_transit":false,"transit":false,"station_id":"GDD","station_name":"Gondangdia","i_lat":-6.186295,"i_long":106.832183,"line":2},{"station_name":"Cikini","transit":false,"i_lat":-6.198556,"distance":1750,"time":3,"is_transit":false,"station_id":"CKI","line":2,"i_long":106.840169},{"transit":true,"is_transit":true,"i_lat":-6.209883,"time":4,"distance":1590,"line":2,"station_name":"Manggarai","station_id":"MRI","i_long":106.84912},{"i_lat":-6.212485,"transit":false,"station_id":"MTR","is_transit":false,"station_name":"Matraman","time":2,"line":1,"distance":1275,"i_long":106.858896},{"station_name":"Jatinegara","transit":true,"station_id":"JNG","i_lat":-6.215091,"is_transit":true,"i_long":106.86807400000001,"line":1,"time":8,"distance":1377},{"i_long":106.861737,"station_name":"Pondok Jati","distance":1236,"i_lat":-6.209188,"station_id":"POK","line":11,"time":2,"is_transit":false,"transit":false},{"time":2,"station_name":"Kramat","i_long":106.855437,"i_lat":-6.193792,"line":11,"distance":1829,"transit":false,"station_id":"KMT","is_transit":false},{"time":1,"distance":973,"station_name":"Gang Sentiong","transit":false,"i_lat":-6.185975,"station_id":"GST","i_long":106.850107,"line":11,"is_transit":false},{"i_long":106.84368,"station_name":"Pasar Senen","station_id":"PSE","line":11,"distance":1567,"is_transit":false,"i_lat":-6.174784,"transit":false,"time":8},{"station_name":"Kemayoran","time":4,"transit":false,"i_long":106.839204,"is_transit":false,"station_id":"KMO","i_lat":-6.161728,"line":11,"distance":1436},{"station_name":"Rajawali","line":11,"i_lat":-6.14505,"distance":1901,"transit":false,"time":5,"station_id":"RJW","is_transit":false,"i_long":106.836569}]]}