{"data":[[{"time":0,"distance":0,"station_name":"Pondokranji","line":6,"i_lat":-6.276362,"is_transit":false,"i_long":106.74273,"transit":false,"station_id":"PDJ"},{"station_name":"Kebayoran","i_long":106.780334,"station_id":"KBY","is_transit":false,"distance":6218,"i_lat":-6.237242,"line":6,"time":8,"transit":false},{"i_lat":-6.207404,"station_id":"PLM","line":6,"transit":false,"is_transit":false,"distance":3737,"i_long":106.79689,"station_name":"Palmerah","time":7},{"transit":true,"is_transit":true,"station_name":"Tanah Abang","time":6,"distance":3191,"station_id":"THB","i_long":106.811091,"i_lat":-6.185545,"line":1},{"is_transit":false,"distance":2029,"transit":false,"line":1,"time":5,"station_name":"Karet","i_long":106.816351,"i_lat":-6.20132,"station_id":"KAT"},{"station_name":"Sudirman Baru","station_id":"SUDB","is_transit":false,"i_lat":-6.201433,"time":1,"distance":471,"i_long":106.819881,"transit":false,"line":1},{"transit":false,"station_name":"Sudirman","i_long":106.822649,"line":1,"station_id":"SUD","is_transit":false,"i_lat":-6.202263,"time":1,"distance":280},{"station_id":"MRI","line":2,"time":4,"i_long":106.84912,"station_name":"Manggarai","distance":3186,"transit":true,"is_transit":true,"i_lat":-6.209883},{"transit":false,"station_id":"TEB","distance":2610,"line":2,"is_transit":false,"i_long":106.857948,"time":4,"i_lat":-6.226659,"station_name":"Tebet"},{"is_transit":false,"station_id":"CW","line":2,"i_lat":-6.242512,"time":2,"station_name":"Cawang","transit":false,"distance":1230,"i_long":106.856607},{"time":3,"distance":1546,"station_id":"DRN","is_transit":false,"transit":false,"i_lat":-6.255332,"i_long":106.85449,"line":2,"station_name":"Duren Kalibata"},{"transit":false,"i_lat":-6.263214,"i_long":106.851577,"distance":824,"station_name":"Pasar Minggu Baru","line":2,"is_transit":false,"station_id":"PSMB","time":2},{"is_transit":false,"station_name":"Pasar Minggu","i_lat":-6.2842400000000005,"line":2,"time":2,"transit":false,"station_id":"PSM","distance":2380,"i_long":106.843999},{"i_lat":-6.3080680000000005,"transit":false,"station_id":"TNT","time":4,"station_name":"Tanjung Barat","is_transit":false,"distance":2820,"i_long":106.838896,"line":2},{"transit":false,"station_id":"LNA","distance":2671,"station_name":"Lenteng Agung","i_lat":-6.330363,"time":3,"i_long":106.832616,"line":2,"is_transit":false}],[{"station_name":"Pondokranji","line":6,"transit":false,"i_lat":-6.276362,"distance":0,"time":0,"i_long":106.74273,"station_id":"PDJ","is_transit":false},{"transit":false,"distance":6218,"station_id":"KBY","i_long":106.780334,"is_transit":false,"station_name":"Kebayoran","time":8,"line":6,"i_lat":-6.237242},{"transit":false,"is_transit":false,"station_id":"PLM","time":7,"i_lat":-6.207404,"distance":3737,"i_long":106.79689,"line":6,"station_name":"Palmerah"},{"transit":true,"is_transit":true,"distance":3191,"i_lat":-6.185545,"i_long":106.811091,"station_id":"THB","station_name":"Tanah Abang","line":1,"time":6},{"i_lat":-6.155215,"station_id":"DU","time":8,"transit":false,"is_transit":false,"distance":3632,"station_name":"Duri","i_long":106.800832,"line":1},{"time":4,"distance":1230,"transit":false,"i_long":106.79867,"line":1,"is_transit":false,"i_lat":-6.144674,"station_id":"AK","station_name":"Angke"},{"is_transit":true,"station_name":"Kampung Bandan","i_lat":-6.132549,"transit":true,"distance":4102,"i_long":106.826365,"station_id":"KPB","time":9,"line":4},{"is_transit":true,"transit":true,"station_name":"Jakarta Kota","i_long":106.812439,"time":3,"station_id":"JAKK","distance":1364,"i_lat":-6.137569,"line":2},{"station_id":"JAY","transit":false,"station_name":"Jayakarta","i_lat":-6.141205,"line":2,"i_long":106.820901,"time":4,"distance":1264,"is_transit":false},{"i_lat":-6.149769,"station_name":"Manggabesar","is_transit":false,"distance":1080,"transit":false,"line":2,"station_id":"MGB","i_long":106.82482,"time":2},{"transit":false,"is_transit":false,"time":2,"station_name":"Sawah Besar","distance":906,"i_long":106.827103,"line":2,"station_id":"SW","i_lat":-6.160725},{"station_name":"Juanda","i_lat":-6.166716,"time":2,"station_id":"JUA","is_transit":false,"transit":false,"distance":1149,"i_long":106.828284,"line":2},{"station_id":"GDD","line":2,"is_transit":false,"distance":2015,"i_lat":-6.186295,"station_name":"Gondangdia","i_long":106.832183,"time":4,"transit":false},{"i_long":106.840169,"line":2,"station_id":"CKI","is_transit":false,"station_name":"Cikini","distance":1750,"i_lat":-6.198556,"transit":false,"time":3},{"transit":false,"line":2,"station_id":"MRI","station_name":"Manggarai","distance":1590,"time":4,"is_transit":false,"i_lat":-6.209883,"i_long":106.84912},{"station_name":"Tebet","transit":false,"station_id":"TEB","line":2,"distance":2610,"is_transit":false,"i_lat":-6.226659,"i_long":106.857948,"time":4},{"i_lat":-6.242512,"time":2,"transit":false,"station_id":"CW","is_transit":false,"distance":1230,"i_long":106.856607,"station_name":"Cawang","line":2},{"line":2,"i_long":106.85449,"distance":1546,"time":3,"is_transit":false,"i_lat":-6.255332,"station_id":"DRN","transit":false,"station_name":"Duren Kalibata"},{"distance":824,"i_lat":-6.263214,"transit":false,"station_id":"PSMB","i_long":106.851577,"station_name":"Pasar Minggu Baru","time":2,"is_transit":false,"line":2},{"distance":2380,"station_name":"Pasar Minggu","is_transit":false,"i_long":106.843999,"line":2,"i_lat":-6.2842400000000005,"transit":false,"station_id":"PSM","time":2},{"i_lat":-6.3080680000000005,"i_long":106.838896,"line":2,"station_id":"TNT","transit":false,"is_transit":false,"station_name":"Tanjung Barat","distance":2820,"time":4},{"station_id":"LNA","station_name":"Lenteng Agung","distance":2671,"transit":false,"time":3,"is_transit":false,"i_lat":-6.330363,"i_long":106.832616,"line":2}],[{"i_lat":-6.276362,"time":0,"i_long":106.74273,"transit":false,"line":6,"station_id":"PDJ","station_name":"Pondokranji","distance":0,"is_transit":false},{"is_transit":false,"station_id":"KBY","time":8,"transit":false,"distance":6218,"i_lat":-6.237242,"i_long":106.780334,"station_name":"Kebayoran","line":6},{"line":6,"distance":3737,"transit":false,"i_lat":-6.207404,"is_transit":false,"time":7,"station_id":"PLM","station_name":"Palmerah","i_long":106.79689},{"i_long":106.811091,"is_transit":true,"i_lat":-6.185545,"time":6,"line":1,"transit":true,"distance":3191,"station_id":"THB","station_name":"Tanah Abang"},{"i_long":106.800832,"station_name":"Duri","station_id":"DU","time":8,"is_transit":false,"line":1,"distance":3632,"i_lat":-6.155215,"transit":false},{"station_id":"AK","i_long":106.79867,"time":4,"is_transit":false,"line":1,"transit":false,"distance":1230,"station_name":"Angke","i_lat":-6.144674},{"station_id":"KPB","i_lat":-6.132549,"station_name":"Kampung Bandan","time":9,"is_transit":true,"line":4,"distance":4102,"i_long":106.826365,"transit":true},{"i_lat":-6.14505,"transit":false,"time":3,"is_transit":false,"distance":1444,"line":11,"station_name":"Rajawali","station_id":"RJW","i_long":106.836569},{"is_transit":false,"station_name":"Kemayoran","line":11,"i_long":106.839204,"station_id":"KMO","time":5,"distance":1901,"i_lat":-6.161728,"transit":false},{"station_id":"PSE","time":4,"line":11,"is_transit":false,"distance":1436,"i_long":106.84368,"i_lat":-6.174784,"transit":false,"station_name":"Pasar Senen"},{"time":8,"distance":1567,"is_transit":false,"station_id":"GST","station_name":"Gang Sentiong","transit":false,"i_lat":-6.185975,"line":11,"i_long":106.850107},{"station_name":"Kramat","i_lat":-6.193792,"station_id":"KMT","time":1,"transit":false,"line":11,"is_transit":false,"i_long":106.855437,"distance":973},{"station_id":"POK","station_name":"Pondok Jati","i_lat":-6.209188,"distance":1829,"transit":false,"time":2,"is_transit":false,"i_long":106.861737,"line":11},{"station_id":"JNG","is_transit":true,"line":1,"time":9,"i_long":106.86807400000001,"distance":1236,"station_name":"Jatinegara","i_lat":-6.215091,"transit":true},{"station_name":"Matraman","transit":false,"station_id":"MTR","time":2,"line":1,"i_lat":-6.212485,"i_long":106.858896,"distance":1377,"is_transit":false},{"i_long":106.84912,"transit":true,"distance":1275,"station_name":"Manggarai","line":2,"is_transit":true,"time":2,"i_lat":-6.209883,"station_id":"MRI"},{"transit":false,"i_long":106.857948,"line":2,"station_id":"TEB","time":4,"distance":2610,"station_name":"Tebet","is_transit":false,"i_lat":-6.226659},{"i_long":106.856607,"distance":1230,"is_transit":false,"transit":false,"time":2,"station_id":"CW","i_lat":-6.242512,"line":2,"station_name":"Cawang"},{"i_lat":-6.255332,"i_long":106.85449,"is_transit":false,"station_id":"DRN","time":3,"line":2,"transit":false,"station_name":"Duren Kalibata","distance":1546},{"station_id":"PSMB","i_long":106.851577,"station_name":"Pasar Minggu Baru","transit":false,"time":2,"is_transit":false,"distance":824,"i_lat":-6.263214,"line":2},{"station_name":"Pasar Minggu","station_id":"PSM","is_transit":false,"time":2,"distance":2380,"i_long":106.843999,"line":2,"i_lat":-6.2842400000000005,"transit":false},{"transit":false,"station_name":"Tanjung Barat","distance":2820,"time":4,"line":2,"is_transit":false,"i_long":106.838896,"station_id":"TNT","i_lat":-6.3080680000000005},{"transit":false,"is_transit":false,"station_name":"Lenteng Agung","distance":2671,"i_lat":-6.330363,"time":3,"i_long":106.832616,"line":2,"station_id":"LNA"}]]}