{"data":[[{"distance":0,"station_name":"Pondokranji","station_id":"PDJ","time":0,"i_lat":-6.276362,"i_long":106.74273,"is_transit":false,"line":6,"transit":false},{"is_transit":false,"station_name":"Kebayoran","i_lat":-6.237242,"i_long":106.780334,"transit":false,"station_id":"KBY","line":6,"distance":6218,"time":8},{"station_name":"Palmerah","line":6,"station_id":"PLM","i_long":106.79689,"distance":3737,"time":7,"i_lat":-6.207404,"transit":false,"is_transit":false},{"station_name":"Tanah Abang","line":1,"is_transit":true,"i_long":106.811091,"station_id":"THB","time":6,"distance":3191,"i_lat":-6.185545,"transit":true},{"station_id":"DU","line":1,"i_long":106.800832,"i_lat":-6.155215,"station_name":"Duri","is_transit":false,"time":8,"distance":3632,"transit":false},{"distance":1230,"time":4,"station_id":"AK","transit":false,"line":1,"i_long":106.79867,"i_lat":-6.144674,"is_transit":false,"station_name":"Angke"},{"transit":true,"is_transit":true,"station_name":"Kampung Bandan","distance":4102,"time":9,"station_id":"KPB","i_lat":-6.132549,"line":4,"i_long":106.826365},{"time":3,"transit":false,"i_lat":-6.137569,"is_transit":false,"i_long":106.812439,"line":2,"distance":1364,"station_id":"JAKK","station_name":"Jakarta Kota"}],[{"is_transit":false,"distance":0,"time":0,"station_name":"Pondokranji","i_lat":-6.276362,"i_long":106.74273,"station_id":"PDJ","transit":false,"line":6},{"transit":false,"station_id":"KBY","i_long":106.780334,"i_lat":-6.237242,"time":8,"line":6,"is_transit":false,"distance":6218,"station_name":"Kebayoran"},{"i_lat":-6.207404,"transit":false,"i_long":106.79689,"distance":3737,"station_id":"PLM","time":7,"line":6,"is_transit":false,"station_name":"Palmerah"},{"station_id":"THB","transit":true,"distance":3191,"station_name":"Tanah Abang","i_long":106.811091,"time":6,"i_lat":-6.185545,"is_transit":true,"line":1},{"distance":2029,"time":5,"is_transit":false,"station_name":"Karet","station_id":"KAT","transit":false,"i_long":106.816351,"i_lat":-6.20132,"line":1},{"station_id":"SUDB","distance":471,"line":1,"i_lat":-6.201433,"station_name":"Sudirman Baru","i_long":106.819881,"is_transit":false,"transit":false,"time":1},{"is_transit":false,"station_id":"SUD","i_lat":-6.202263,"i_long":106.822649,"station_name":"Sudirman","transit":false,"distance":280,"time":1,"line":1},{"is_transit":true,"time":4,"distance":3186,"station_name":"Manggarai","i_long":106.84912,"line":2,"transit":true,"station_id":"MRI","i_lat":-6.209883},{"station_name":"Cikini","is_transit":false,"time":4,"i_lat":-6.198556,"distance":1590,"station_id":"CKI","i_long":106.840169,"line":2,"transit":false},{"distance":1750,"station_name":"Gondangdia","time":3,"line":2,"i_long":106.832183,"station_id":"GDD","i_lat":-6.186295,"is_transit":false,"transit":false},{"time":4,"i_long":106.828284,"station_id":"JUA","line":2,"station_name":"Juanda","i_lat":-6.166716,"distance":2015,"is_transit":false,"transit":false},{"is_transit":false,"station_name":"Sawah Besar","time":2,"i_long":106.827103,"station_id":"SW","transit":false,"line":2,"i_lat":-6.160725,"distance":1149},{"station_id":"MGB","is_transit":false,"transit":false,"i_lat":-6.149769,"line":2,"distance":906,"station_name":"Manggabesar","i_long":106.82482,"time":2},{"line":2,"station_id":"JAY","transit":false,"distance":1080,"station_name":"Jayakarta","i_long":106.820901,"time":2,"is_transit":false,"i_lat":-6.141205},{"i_lat":-6.137569,"distance":1264,"transit":false,"is_transit":false,"station_name":"Jakarta Kota","time":4,"station_id":"JAKK","line":2,"i_long":106.812439}],[{"i_lat":-6.276362,"is_transit":false,"distance":0,"time":0,"i_long":106.74273,"line":6,"transit":false,"station_id":"PDJ","station_name":"Pondokranji"},{"line":6,"transit":false,"distance":6218,"i_long":106.780334,"time":8,"station_id":"KBY","i_lat":-6.237242,"is_transit":false,"station_name":"Kebayoran"},{"station_name":"Palmerah","station_id":"PLM","i_lat":-6.207404,"distance":3737,"line":6,"time":7,"i_long":106.79689,"transit":false,"is_transit":false},{"time":6,"i_long":106.811091,"transit":true,"line":1,"is_transit":true,"station_name":"Tanah Abang","i_lat":-6.185545,"distance":3191,"station_id":"THB"},{"is_transit":false,"i_lat":-6.20132,"station_name":"Karet","transit":false,"station_id":"KAT","distance":2029,"time":5,"i_long":106.816351,"line":1},{"distance":471,"time":1,"station_id":"SUDB","i_long":106.819881,"station_name":"Sudirman Baru","i_lat":-6.201433,"is_transit":false,"transit":false,"line":1},{"transit":false,"i_lat":-6.202263,"station_name":"Sudirman","station_id":"SUD","time":1,"i_long":106.822649,"line":1,"is_transit":false,"distance":280},{"i_long":106.84912,"time":4,"station_name":"Manggarai","distance":3186,"i_lat":-6.209883,"line":2,"transit":false,"station_id":"MRI","is_transit":false},{"is_transit":false,"station_id":"MTR","station_name":"Matraman","i_lat":-6.212485,"line":1,"time":2,"i_long":106.858896,"distance":1275,"transit":false},{"distance":1377,"time":8,"i_lat":-6.215091,"i_long":106.86807400000001,"line":1,"transit":true,"is_transit":true,"station_name":"Jatinegara","station_id":"JNG"},{"line":11,"time":2,"i_lat":-6.209188,"transit":false,"is_transit":false,"station_id":"POK","station_name":"Pondok Jati","distance":1236,"i_long":106.861737},{"i_long":106.855437,"station_name":"Kramat","i_lat":-6.193792,"distance":1829,"station_id":"KMT","is_transit":false,"line":11,"time":2,"transit":false},{"station_name":"Gang Sentiong","i_long":106.850107,"time":1,"distance":973,"transit":false,"station_id":"GST","line":11,"is_transit":false,"i_lat":-6.185975},{"station_id":"PSE","i_lat":-6.174784,"line":11,"station_name":"Pasar Senen","distance":1567,"is_transit":false,"transit":false,"i_long":106.84368,"time":8},{"distance":1436,"is_transit":false,"station_name":"Kemayoran","i_long":106.839204,"transit":false,"time":4,"station_id":"KMO","i_lat":-6.161728,"line":11},{"transit":false,"station_id":"RJW","i_long":106.836569,"i_lat":-6.14505,"is_transit":false,"time":5,"station_name":"Rajawali","line":11,"distance":1901},{"i_lat":-6.132549,"i_long":106.826365,"line":4,"is_transit":true,"transit":true,"distance":1444,"station_id":"KPB","station_name":"Kampung Bandan","time":3},{"station_id":"JAKK","station_name":"Jakarta Kota","distance":1364,"is_transit":false,"i_long":106.812439,"time":3,"transit":false,"i_lat":-6.137569,"line":2}],[{"distance":0,"is_transit":false,"transit":false,"line":6,"i_long":106.74273,"time":0,"i_lat":-6.276362,"station_name":"Pondokranji","station_id":"PDJ"},{"station_name":"Kebayoran","distance":6218,"station_id":"KBY","i_long":106.780334,"time":8,"is_transit":false,"transit":false,"line":6,"i_lat":-6.237242},{"is_transit":false,"i_lat":-6.207404,"line":6,"station_id":"PLM","distance":3737,"station_name":"Palmerah","transit":false,"i_long":106.79689,"time":7},{"time":6,"station_id":"THB","transit":true,"i_lat":-6.185545,"distance":3191,"is_transit":true,"i_long":106.811091,"station_name":"Tanah Abang","line":1},{"i_lat":-6.155215,"station_name":"Duri","time":8,"i_long":106.800832,"distance":3632,"station_id":"DU","is_transit":false,"line":1,"transit":false},{"time":4,"line":1,"i_lat":-6.144674,"transit":false,"station_id":"AK","i_long":106.79867,"station_name":"Angke","distance":1230,"is_transit":false},{"is_transit":true,"transit":true,"i_long":106.826365,"distance":4102,"station_name":"Kampung Bandan","station_id":"KPB","i_lat":-6.132549,"time":9,"line":4},{"distance":1444,"station_name":"Rajawali","station_id":"RJW","time":3,"line":11,"i_long":106.836569,"is_transit":false,"transit":false,"i_lat":-6.14505},{"i_long":106.839204,"line":11,"time":5,"is_transit":false,"i_lat":-6.161728,"distance":1901,"station_name":"Kemayoran","station_id":"KMO","transit":false},{"distance":1436,"station_name":"Pasar Senen","station_id":"PSE","transit":false,"is_transit":false,"i_long":106.84368,"line":11,"time":4,"i_lat":-6.174784},{"distance":1567,"i_long":106.850107,"time":8,"is_transit":false,"i_lat":-6.185975,"station_id":"GST","transit":false,"line":11,"station_name":"Gang Sentiong"},{"station_name":"Kramat","i_long":106.855437,"line":11,"distance":973,"time":1,"is_transit":false,"transit":false,"i_lat":-6.193792,"station_id":"KMT"},{"is_transit":false,"distance":1829,"station_name":"Pondok Jati","transit":false,"i_lat":-6.209188,"station_id":"POK","i_long":106.861737,"time":2,"line":11},{"transit":true,"station_id":"JNG","i_long":106.86807400000001,"i_lat":-6.215091,"line":1,"distance":1236,"time":9,"is_transit":true,"station_name":"Jatinegara"},{"time":2,"transit":false,"i_long":106.858896,"distance":1377,"i_lat":-6.212485,"line":1,"is_transit":false,"station_name":"Matraman","station_id":"MTR"},{"transit":true,"i_lat":-6.209883,"station_id":"MRI","line":2,"distance":1275,"time":2,"i_long":106.84912,"is_transit":true,"station_name":"Manggarai"},{"station_id":"CKI","distance":1590,"transit":false,"line":2,"is_transit":false,"time":4,"i_lat":-6.198556,"station_name":"Cikini","i_long":106.840169},{"time":3,"transit":false,"i_long":106.832183,"line":2,"station_id":"GDD","station_name":"Gondangdia","is_transit":false,"i_lat":-6.186295,"distance":1750},{"distance":2015,"time":4,"transit":false,"is_transit":false,"i_lat":-6.166716,"line":2,"i_long":106.828284,"station_id":"JUA","station_name":"Juanda"},{"transit":false,"line":2,"i_long":106.827103,"is_transit":false,"i_lat":-6.160725,"station_name":"Sawah Besar","time":2,"station_id":"SW","distance":1149},{"i_long":106.82482,"line":2,"time":2,"station_name":"Manggabesar","is_transit":false,"transit":false,"station_id":"MGB","distance":906,"i_lat":-6.149769},{"distance":1080,"i_long":106.820901,"is_transit":false,"station_id":"JAY","i_lat":-6.141205,"line":2,"transit":false,"station_name":"Jayakarta","time":2},{"transit":false,"station_name":"Jakarta Kota","station_id":"JAKK","distance":1264,"is_transit":false,"i_lat":-6.137569,"i_long":106.812439,"line":2,"time":4}]]}