{"data":[[{"time":0,"station_id":"PDJ","distance":0,"station_name":"Pondokranji","transit":false,"i_long":106.74273,"line":6,"i_lat":-6.276362,"is_transit":false},{"time":8,"i_lat":-6.237242,"station_id":"KBY","transit":false,"is_transit":false,"distance":6218,"station_name":"Kebayoran","i_long":106.780334,"line":6},{"transit":false,"station_id":"PLM","i_lat":-6.207404,"time":7,"line":6,"distance":3737,"is_transit":false,"station_name":"Palmerah","i_long":106.79689},{"i_long":106.811091,"line":1,"station_id":"THB","transit":true,"station_name":"Tanah Abang","distance":3191,"is_transit":true,"time":6,"i_lat":-6.185545},{"time":5,"is_transit":false,"line":1,"i_lat":-6.20132,"station_name":"Karet","transit":false,"station_id":"KAT","distance":2029,"i_long":106.816351},{"time":1,"i_long":106.819881,"transit":false,"station_name":"Sudirman Baru","line":1,"is_transit":false,"distance":471,"station_id":"SUDB","i_lat":-6.201433},{"distance":280,"time":1,"transit":false,"station_name":"Sudirman","is_transit":false,"i_long":106.822649,"line":1,"station_id":"SUD","i_lat":-6.202263},{"station_id":"MRI","distance":3186,"station_name":"Manggarai","transit":true,"i_lat":-6.209883,"is_transit":true,"i_long":106.84912,"line":2,"time":4},{"i_lat":-6.226659,"distance":2610,"station_id":"TEB","station_name":"Tebet","line":2,"is_transit":false,"i_long":106.857948,"time":4,"transit":false},{"i_lat":-6.242512,"transit":false,"station_name":"Cawang","station_id":"CW","time":2,"distance":1230,"i_long":106.856607,"is_transit":false,"line":2},{"i_lat":-6.255332,"i_long":106.85449,"transit":false,"line":2,"station_id":"DRN","time":3,"station_name":"Duren Kalibata","distance":1546,"is_transit":false},{"time":2,"transit":false,"is_transit":false,"i_lat":-6.263214,"station_id":"PSMB","i_long":106.851577,"line":2,"distance":824,"station_name":"Pasar Minggu Baru"},{"is_transit":false,"time":2,"i_long":106.843999,"line":2,"station_id":"PSM","i_lat":-6.2842400000000005,"station_name":"Pasar Minggu","transit":false,"distance":2380},{"distance":2820,"station_id":"TNT","i_long":106.838896,"station_name":"Tanjung Barat","time":4,"is_transit":false,"i_lat":-6.3080680000000005,"line":2,"transit":false},{"line":2,"time":3,"i_lat":-6.330363,"station_id":"LNA","distance":2671,"station_name":"Lenteng Agung","i_long":106.832616,"transit":false,"is_transit":false},{"i_long":106.834175,"is_transit":false,"line":2,"station_name":"Univ. Pancasila","distance":1029,"transit":false,"i_lat":-6.339291,"station_id":"UP","time":2}],[{"distance":0,"time":0,"i_lat":-6.276362,"is_transit":false,"i_long":106.74273,"line":6,"station_name":"Pondokranji","station_id":"PDJ","transit":false},{"i_long":106.780334,"i_lat":-6.237242,"time":8,"station_name":"Kebayoran","transit":false,"is_transit":false,"distance":6218,"station_id":"KBY","line":6},{"line":6,"distance":3737,"time":7,"station_name":"Palmerah","i_lat":-6.207404,"i_long":106.79689,"transit":false,"station_id":"PLM","is_transit":false},{"line":1,"time":6,"i_long":106.811091,"distance":3191,"station_name":"Tanah Abang","i_lat":-6.185545,"transit":true,"station_id":"THB","is_transit":true},{"i_long":106.800832,"station_id":"DU","is_transit":false,"distance":3632,"i_lat":-6.155215,"line":1,"station_name":"Duri","transit":false,"time":8},{"station_name":"Angke","transit":false,"i_lat":-6.144674,"is_transit":false,"station_id":"AK","time":4,"i_long":106.79867,"distance":1230,"line":1},{"transit":true,"time":9,"i_long":106.826365,"is_transit":true,"i_lat":-6.132549,"station_name":"Kampung Bandan","station_id":"KPB","distance":4102,"line":4},{"station_id":"JAKK","is_transit":true,"i_lat":-6.137569,"station_name":"Jakarta Kota","time":3,"line":2,"distance":1364,"i_long":106.812439,"transit":true},{"station_name":"Jayakarta","i_lat":-6.141205,"station_id":"JAY","transit":false,"distance":1264,"i_long":106.820901,"line":2,"is_transit":false,"time":4},{"transit":false,"i_lat":-6.149769,"station_name":"Manggabesar","station_id":"MGB","i_long":106.82482,"distance":1080,"line":2,"time":2,"is_transit":false},{"i_long":106.827103,"is_transit":false,"line":2,"station_name":"Sawah Besar","i_lat":-6.160725,"station_id":"SW","transit":false,"distance":906,"time":2},{"is_transit":false,"i_long":106.828284,"station_name":"Juanda","time":2,"transit":false,"distance":1149,"line":2,"station_id":"JUA","i_lat":-6.166716},{"distance":2015,"time":4,"station_name":"Gondangdia","is_transit":false,"transit":false,"station_id":"GDD","i_lat":-6.186295,"i_long":106.832183,"line":2},{"line":2,"i_long":106.840169,"is_transit":false,"distance":1750,"station_name":"Cikini","transit":false,"station_id":"CKI","time":3,"i_lat":-6.198556},{"distance":1590,"line":2,"i_lat":-6.209883,"station_name":"Manggarai","station_id":"MRI","is_transit":false,"i_long":106.84912,"time":4,"transit":false},{"distance":2610,"i_long":106.857948,"station_id":"TEB","i_lat":-6.226659,"station_name":"Tebet","time":4,"line":2,"transit":false,"is_transit":false},{"time":2,"distance":1230,"line":2,"station_name":"Cawang","station_id":"CW","transit":false,"is_transit":false,"i_lat":-6.242512,"i_long":106.856607},{"time":3,"line":2,"station_id":"DRN","is_transit":false,"i_long":106.85449,"transit":false,"i_lat":-6.255332,"distance":1546,"station_name":"Duren Kalibata"},{"station_id":"PSMB","transit":false,"distance":824,"line":2,"station_name":"Pasar Minggu Baru","i_long":106.851577,"i_lat":-6.263214,"time":2,"is_transit":false},{"transit":false,"station_name":"Pasar Minggu","is_transit":false,"i_lat":-6.2842400000000005,"station_id":"PSM","i_long":106.843999,"distance":2380,"time":2,"line":2},{"is_transit":false,"station_id":"TNT","i_lat":-6.3080680000000005,"distance":2820,"transit":false,"line":2,"time":4,"i_long":106.838896,"station_name":"Tanjung Barat"},{"station_name":"Lenteng Agung","distance":2671,"is_transit":false,"line":2,"station_id":"LNA","time":3,"i_lat":-6.330363,"i_long":106.832616,"transit":false},{"i_lat":-6.339291,"transit":false,"distance":1029,"station_id":"UP","is_transit":false,"line":2,"time":2,"station_name":"Univ. Pancasila","i_long":106.834175}],[{"station_id":"PDJ","transit":false,"is_transit":false,"distance":0,"i_lat":-6.276362,"line":6,"i_long":106.74273,"station_name":"Pondokranji","time":0},{"line":6,"station_name":"Kebayoran","i_long":106.780334,"is_transit":false,"time":8,"transit":false,"distance":6218,"station_id":"KBY","i_lat":-6.237242},{"line":6,"distance":3737,"transit":false,"time":7,"i_long":106.79689,"station_id":"PLM","is_transit":false,"station_name":"Palmerah","i_lat":-6.207404},{"is_transit":true,"time":6,"station_id":"THB","i_long":106.811091,"line":1,"i_lat":-6.185545,"transit":true,"distance":3191,"station_name":"Tanah Abang"},{"station_id":"DU","station_name":"Duri","distance":3632,"time":8,"line":1,"transit":false,"i_lat":-6.155215,"i_long":106.800832,"is_transit":false},{"station_id":"AK","transit":false,"is_transit":false,"distance":1230,"time":4,"i_lat":-6.144674,"i_long":106.79867,"station_name":"Angke","line":1},{"transit":true,"is_transit":true,"i_long":106.826365,"line":4,"time":9,"i_lat":-6.132549,"station_name":"Kampung Bandan","station_id":"KPB","distance":4102},{"transit":false,"i_lat":-6.14505,"line":11,"is_transit":false,"distance":1444,"i_long":106.836569,"time":3,"station_id":"RJW","station_name":"Rajawali"},{"i_long":106.839204,"i_lat":-6.161728,"time":5,"is_transit":false,"transit":false,"station_name":"Kemayoran","station_id":"KMO","distance":1901,"line":11},{"station_id":"PSE","is_transit":false,"distance":1436,"station_name":"Pasar Senen","i_lat":-6.174784,"transit":false,"time":4,"i_long":106.84368,"line":11},{"time":8,"transit":false,"station_id":"GST","is_transit":false,"station_name":"Gang Sentiong","i_lat":-6.185975,"i_long":106.850107,"distance":1567,"line":11},{"line":11,"is_transit":false,"station_id":"KMT","distance":973,"i_lat":-6.193792,"i_long":106.855437,"transit":false,"station_name":"Kramat","time":1},{"station_name":"Pondok Jati","i_long":106.861737,"transit":false,"line":11,"distance":1829,"is_transit":false,"station_id":"POK","time":2,"i_lat":-6.209188},{"station_id":"JNG","is_transit":true,"station_name":"Jatinegara","i_lat":-6.215091,"line":1,"time":9,"transit":true,"distance":1236,"i_long":106.86807400000001},{"station_id":"MTR","time":2,"i_lat":-6.212485,"line":1,"i_long":106.858896,"is_transit":false,"station_name":"Matraman","transit":false,"distance":1377},{"time":2,"line":2,"is_transit":true,"distance":1275,"i_long":106.84912,"station_name":"Manggarai","transit":true,"i_lat":-6.209883,"station_id":"MRI"},{"is_transit":false,"line":2,"station_name":"Tebet","i_long":106.857948,"station_id":"TEB","time":4,"transit":false,"distance":2610,"i_lat":-6.226659},{"is_transit":false,"i_lat":-6.242512,"i_long":106.856607,"time":2,"station_name":"Cawang","line":2,"station_id":"CW","distance":1230,"transit":false},{"station_id":"DRN","station_name":"Duren Kalibata","line":2,"is_transit":false,"i_lat":-6.255332,"i_long":106.85449,"distance":1546,"time":3,"transit":false},{"station_id":"PSMB","distance":824,"station_name":"Pasar Minggu Baru","time":2,"i_lat":-6.263214,"i_long":106.851577,"is_transit":false,"line":2,"transit":false},{"i_long":106.843999,"line":2,"station_id":"PSM","i_lat":-6.2842400000000005,"time":2,"transit":false,"is_transit":false,"distance":2380,"station_name":"Pasar Minggu"},{"i_long":106.838896,"is_transit":false,"i_lat":-6.3080680000000005,"line":2,"station_id":"TNT","distance":2820,"station_name":"Tanjung Barat","transit":false,"time":4},{"is_transit":false,"line":2,"station_id":"LNA","time":3,"station_name":"Lenteng Agung","i_lat":-6.330363,"i_long":106.832616,"distance":2671,"transit":false},{"station_id":"UP","is_transit":false,"transit":false,"time":2,"i_long":106.834175,"distance":1029,"line":2,"i_lat":-6.339291,"station_name":"Univ. Pancasila"}]]}