{"data":[[{"i_lat":-6.276362,"i_long":106.74273,"line":6,"is_transit":false,"station_name":"Pondokranji","station_id":"PDJ","distance":0,"transit":false,"time":0},{"station_name":"Kebayoran","distance":6218,"i_lat":-6.237242,"station_id":"KBY","line":6,"i_long":106.780334,"time":8,"transit":false,"is_transit":false},{"transit":false,"station_name":"Palmerah","station_id":"PLM","is_transit":false,"distance":3737,"i_lat":-6.207404,"i_long":106.79689,"line":6,"time":7},{"station_id":"THB","i_long":106.811091,"line":1,"is_transit":true,"i_lat":-6.185545,"station_name":"Tanah Abang","transit":true,"time":6,"distance":3191},{"is_transit":false,"i_lat":-6.155215,"station_id":"DU","i_long":106.800832,"line":1,"time":8,"transit":false,"distance":3632,"station_name":"Duri"},{"time":4,"station_id":"AK","station_name":"Angke","distance":1230,"is_transit":false,"i_long":106.79867,"line":1,"i_lat":-6.144674,"transit":false},{"station_id":"KPB","line":4,"is_transit":true,"transit":true,"distance":4102,"time":9,"station_name":"Kampung Bandan","i_long":106.826365,"i_lat":-6.132549},{"time":3,"station_name":"Rajawali","is_transit":false,"station_id":"RJW","distance":1444,"i_lat":-6.14505,"line":11,"transit":false,"i_long":106.836569},{"distance":1901,"station_id":"KMO","transit":false,"i_lat":-6.161728,"line":11,"time":5,"i_long":106.839204,"is_transit":false,"station_name":"Kemayoran"},{"line":11,"transit":false,"station_name":"Pasar Senen","station_id":"PSE","distance":1436,"i_lat":-6.174784,"is_transit":false,"i_long":106.84368,"time":4},{"transit":false,"time":8,"i_long":106.850107,"station_name":"Gang Sentiong","i_lat":-6.185975,"line":11,"station_id":"GST","is_transit":false,"distance":1567}],[{"i_long":106.74273,"station_name":"Pondokranji","time":0,"station_id":"PDJ","i_lat":-6.276362,"transit":false,"distance":0,"line":6,"is_transit":false},{"station_name":"Kebayoran","time":8,"station_id":"KBY","distance":6218,"i_long":106.780334,"is_transit":false,"i_lat":-6.237242,"transit":false,"line":6},{"i_lat":-6.207404,"is_transit":false,"transit":false,"station_id":"PLM","station_name":"Palmerah","time":7,"distance":3737,"i_long":106.79689,"line":6},{"is_transit":true,"distance":3191,"transit":true,"time":6,"station_id":"THB","line":1,"station_name":"Tanah Abang","i_lat":-6.185545,"i_long":106.811091},{"i_long":106.816351,"distance":2029,"i_lat":-6.20132,"line":1,"station_id":"KAT","transit":false,"time":5,"is_transit":false,"station_name":"Karet"},{"distance":471,"i_long":106.819881,"transit":false,"station_id":"SUDB","time":1,"line":1,"station_name":"Sudirman Baru","is_transit":false,"i_lat":-6.201433},{"station_name":"Sudirman","i_long":106.822649,"distance":280,"line":1,"transit":false,"station_id":"SUD","is_transit":false,"time":1,"i_lat":-6.202263},{"transit":false,"distance":3186,"station_name":"Manggarai","time":4,"i_long":106.84912,"is_transit":false,"i_lat":-6.209883,"line":2,"station_id":"MRI"},{"is_transit":false,"i_lat":-6.212485,"station_name":"Matraman","line":1,"distance":1275,"transit":false,"time":2,"i_long":106.858896,"station_id":"MTR"},{"distance":1377,"i_long":106.86807400000001,"i_lat":-6.215091,"transit":true,"station_name":"Jatinegara","station_id":"JNG","time":8,"line":1,"is_transit":true},{"i_long":106.861737,"station_id":"POK","i_lat":-6.209188,"transit":false,"is_transit":false,"time":2,"distance":1236,"station_name":"Pondok Jati","line":11},{"station_name":"Kramat","station_id":"KMT","i_lat":-6.193792,"distance":1829,"line":11,"time":2,"i_long":106.855437,"transit":false,"is_transit":false},{"line":11,"station_id":"GST","station_name":"Gang Sentiong","i_lat":-6.185975,"i_long":106.850107,"distance":973,"transit":false,"is_transit":false,"time":1}],[{"station_id":"PDJ","i_long":106.74273,"transit":false,"distance":0,"station_name":"Pondokranji","line":6,"i_lat":-6.276362,"time":0,"is_transit":false},{"i_lat":-6.237242,"line":6,"transit":false,"time":8,"i_long":106.780334,"station_name":"Kebayoran","station_id":"KBY","is_transit":false,"distance":6218},{"time":7,"i_long":106.79689,"transit":false,"is_transit":false,"station_id":"PLM","line":6,"distance":3737,"i_lat":-6.207404,"station_name":"Palmerah"},{"is_transit":true,"transit":true,"line":1,"i_lat":-6.185545,"station_id":"THB","i_long":106.811091,"time":6,"distance":3191,"station_name":"Tanah Abang"},{"transit":false,"line":1,"is_transit":false,"time":8,"station_id":"DU","distance":3632,"station_name":"Duri","i_lat":-6.155215,"i_long":106.800832},{"transit":false,"station_name":"Angke","station_id":"AK","distance":1230,"i_lat":-6.144674,"i_long":106.79867,"is_transit":false,"time":4,"line":1},{"station_id":"KPB","time":9,"station_name":"Kampung Bandan","distance":4102,"i_lat":-6.132549,"line":4,"is_transit":true,"i_long":106.826365,"transit":true},{"is_transit":true,"line":2,"station_id":"JAKK","i_lat":-6.137569,"i_long":106.812439,"transit":true,"station_name":"Jakarta Kota","time":3,"distance":1364},{"time":4,"distance":1264,"line":2,"station_name":"Jayakarta","station_id":"JAY","transit":false,"is_transit":false,"i_lat":-6.141205,"i_long":106.820901},{"line":2,"station_id":"MGB","transit":false,"i_long":106.82482,"station_name":"Manggabesar","time":2,"is_transit":false,"i_lat":-6.149769,"distance":1080},{"i_lat":-6.160725,"transit":false,"is_transit":false,"station_name":"Sawah Besar","station_id":"SW","line":2,"i_long":106.827103,"time":2,"distance":906},{"distance":1149,"line":2,"station_id":"JUA","i_long":106.828284,"transit":false,"station_name":"Juanda","is_transit":false,"time":2,"i_lat":-6.166716},{"station_id":"GDD","time":4,"distance":2015,"station_name":"Gondangdia","i_long":106.832183,"i_lat":-6.186295,"line":2,"is_transit":false,"transit":false},{"is_transit":false,"line":2,"i_long":106.840169,"i_lat":-6.198556,"distance":1750,"station_id":"CKI","time":3,"transit":false,"station_name":"Cikini"},{"station_id":"MRI","distance":1590,"i_long":106.84912,"is_transit":true,"transit":true,"line":2,"station_name":"Manggarai","i_lat":-6.209883,"time":4},{"transit":false,"is_transit":false,"line":1,"distance":1275,"station_name":"Matraman","i_lat":-6.212485,"station_id":"MTR","i_long":106.858896,"time":2},{"is_transit":true,"station_id":"JNG","transit":true,"i_lat":-6.215091,"time":8,"distance":1377,"i_long":106.86807400000001,"station_name":"Jatinegara","line":1},{"station_name":"Pondok Jati","distance":1236,"i_long":106.861737,"line":11,"is_transit":false,"station_id":"POK","transit":false,"i_lat":-6.209188,"time":2},{"distance":1829,"station_name":"Kramat","station_id":"KMT","i_long":106.855437,"time":2,"i_lat":-6.193792,"is_transit":false,"transit":false,"line":11},{"station_id":"GST","time":1,"station_name":"Gang Sentiong","is_transit":false,"i_lat":-6.185975,"i_long":106.850107,"line":11,"transit":false,"distance":973}],[{"transit":false,"is_transit":false,"time":0,"i_long":106.74273,"line":6,"station_name":"Pondokranji","station_id":"PDJ","distance":0,"i_lat":-6.276362},{"station_id":"KBY","i_long":106.780334,"distance":6218,"line":6,"transit":false,"station_name":"Kebayoran","i_lat":-6.237242,"is_transit":false,"time":8},{"distance":3737,"time":7,"station_id":"PLM","i_long":106.79689,"line":6,"transit":false,"is_transit":false,"i_lat":-6.207404,"station_name":"Palmerah"},{"time":6,"distance":3191,"i_lat":-6.185545,"i_long":106.811091,"transit":true,"station_name":"Tanah Abang","line":1,"station_id":"THB","is_transit":true},{"line":1,"time":5,"is_transit":false,"distance":2029,"station_name":"Karet","transit":false,"i_lat":-6.20132,"station_id":"KAT","i_long":106.816351},{"i_long":106.819881,"is_transit":false,"time":1,"transit":false,"i_lat":-6.201433,"station_id":"SUDB","distance":471,"station_name":"Sudirman Baru","line":1},{"line":1,"transit":false,"distance":280,"i_lat":-6.202263,"i_long":106.822649,"station_id":"SUD","time":1,"station_name":"Sudirman","is_transit":false},{"i_long":106.84912,"line":2,"distance":3186,"is_transit":true,"station_id":"MRI","time":4,"transit":true,"i_lat":-6.209883,"station_name":"Manggarai"},{"distance":1590,"line":2,"station_id":"CKI","transit":false,"i_lat":-6.198556,"i_long":106.840169,"station_name":"Cikini","is_transit":false,"time":4},{"transit":false,"station_id":"GDD","time":3,"station_name":"Gondangdia","line":2,"is_transit":false,"i_lat":-6.186295,"distance":1750,"i_long":106.832183},{"line":2,"transit":false,"station_id":"JUA","distance":2015,"time":4,"station_name":"Juanda","i_long":106.828284,"i_lat":-6.166716,"is_transit":false},{"time":2,"distance":1149,"is_transit":false,"i_long":106.827103,"station_id":"SW","station_name":"Sawah Besar","line":2,"i_lat":-6.160725,"transit":false},{"station_id":"MGB","distance":906,"transit":false,"i_lat":-6.149769,"time":2,"station_name":"Manggabesar","is_transit":false,"line":2,"i_long":106.82482},{"station_name":"Jayakarta","time":2,"transit":false,"station_id":"JAY","distance":1080,"i_long":106.820901,"line":2,"is_transit":false,"i_lat":-6.141205},{"time":4,"station_id":"JAKK","i_lat":-6.137569,"line":2,"distance":1264,"i_long":106.812439,"is_transit":true,"station_name":"Jakarta Kota","transit":true},{"station_name":"Kampung Bandan","i_long":106.826365,"is_transit":true,"time":3,"distance":1364,"transit":true,"station_id":"KPB","line":4,"i_lat":-6.132549},{"station_id":"RJW","i_lat":-6.14505,"station_name":"Rajawali","distance":1444,"line":11,"transit":false,"is_transit":false,"time":3,"i_long":106.836569},{"line":11,"time":5,"i_long":106.839204,"station_id":"KMO","i_lat":-6.161728,"station_name":"Kemayoran","transit":false,"distance":1901,"is_transit":false},{"i_long":106.84368,"station_name":"Pasar Senen","distance":1436,"is_transit":false,"time":4,"i_lat":-6.174784,"line":11,"transit":false,"station_id":"PSE"},{"transit":false,"station_name":"Gang Sentiong","line":11,"is_transit":false,"i_lat":-6.185975,"i_long":106.850107,"distance":1567,"station_id":"GST","time":8}]]}