{"data":[[{"distance":0,"transit":false,"i_lat":-6.276362,"station_name":"Pondokranji","line":6,"time":0,"i_long":106.74273,"is_transit":false,"station_id":"PDJ"},{"station_id":"KBY","is_transit":false,"transit":false,"line":6,"i_lat":-6.237242,"time":8,"i_long":106.780334,"distance":6218,"station_name":"Kebayoran"},{"i_lat":-6.207404,"line":6,"distance":3737,"time":7,"transit":false,"is_transit":false,"i_long":106.79689,"station_id":"PLM","station_name":"Palmerah"},{"is_transit":true,"i_long":106.811091,"time":6,"transit":true,"i_lat":-6.185545,"line":1,"station_name":"Tanah Abang","station_id":"THB","distance":3191},{"line":1,"time":5,"i_long":106.816351,"station_id":"KAT","i_lat":-6.20132,"distance":2029,"is_transit":false,"station_name":"Karet","transit":false},{"station_name":"Sudirman Baru","transit":false,"i_lat":-6.201433,"is_transit":false,"station_id":"SUDB","i_long":106.819881,"time":1,"distance":471,"line":1},{"station_name":"Sudirman","i_long":106.822649,"is_transit":false,"distance":280,"station_id":"SUD","line":1,"i_lat":-6.202263,"transit":false,"time":1},{"i_lat":-6.209883,"line":2,"station_name":"Manggarai","is_transit":true,"distance":3186,"time":4,"station_id":"MRI","transit":true,"i_long":106.84912},{"time":4,"line":2,"transit":false,"is_transit":false,"station_id":"TEB","station_name":"Tebet","distance":2610,"i_long":106.857948,"i_lat":-6.226659},{"is_transit":false,"transit":false,"distance":1230,"i_long":106.856607,"time":2,"station_name":"Cawang","i_lat":-6.242512,"line":2,"station_id":"CW"}],[{"distance":0,"line":6,"station_id":"PDJ","station_name":"Pondokranji","is_transit":false,"transit":false,"time":0,"i_lat":-6.276362,"i_long":106.74273},{"line":6,"station_id":"KBY","i_long":106.780334,"distance":6218,"i_lat":-6.237242,"time":8,"transit":false,"is_transit":false,"station_name":"Kebayoran"},{"is_transit":false,"i_long":106.79689,"line":6,"transit":false,"time":7,"station_name":"Palmerah","distance":3737,"station_id":"PLM","i_lat":-6.207404},{"transit":true,"time":6,"line":1,"station_name":"Tanah Abang","i_lat":-6.185545,"i_long":106.811091,"distance":3191,"is_transit":true,"station_id":"THB"},{"station_name":"Duri","distance":3632,"is_transit":false,"time":8,"station_id":"DU","i_lat":-6.155215,"transit":false,"i_long":106.800832,"line":1},{"time":4,"i_lat":-6.144674,"station_id":"AK","distance":1230,"is_transit":false,"i_long":106.79867,"line":1,"transit":false,"station_name":"Angke"},{"line":4,"time":9,"i_long":106.826365,"distance":4102,"i_lat":-6.132549,"station_name":"Kampung Bandan","transit":true,"is_transit":true,"station_id":"KPB"},{"i_lat":-6.137569,"distance":1364,"transit":true,"line":2,"station_name":"Jakarta Kota","is_transit":true,"time":3,"i_long":106.812439,"station_id":"JAKK"},{"time":4,"transit":false,"station_id":"JAY","line":2,"is_transit":false,"i_long":106.820901,"i_lat":-6.141205,"distance":1264,"station_name":"Jayakarta"},{"i_lat":-6.149769,"line":2,"station_name":"Manggabesar","transit":false,"is_transit":false,"station_id":"MGB","i_long":106.82482,"time":2,"distance":1080},{"distance":906,"i_lat":-6.160725,"station_name":"Sawah Besar","transit":false,"is_transit":false,"i_long":106.827103,"line":2,"station_id":"SW","time":2},{"is_transit":false,"line":2,"station_name":"Juanda","i_lat":-6.166716,"station_id":"JUA","i_long":106.828284,"transit":false,"distance":1149,"time":2},{"station_id":"GDD","is_transit":false,"station_name":"Gondangdia","i_long":106.832183,"transit":false,"time":4,"distance":2015,"i_lat":-6.186295,"line":2},{"transit":false,"i_lat":-6.198556,"time":3,"i_long":106.840169,"line":2,"station_name":"Cikini","distance":1750,"is_transit":false,"station_id":"CKI"},{"is_transit":false,"i_lat":-6.209883,"time":4,"i_long":106.84912,"transit":false,"distance":1590,"station_id":"MRI","line":2,"station_name":"Manggarai"},{"time":4,"i_lat":-6.226659,"is_transit":false,"line":2,"station_name":"Tebet","i_long":106.857948,"transit":false,"distance":2610,"station_id":"TEB"},{"i_lat":-6.242512,"line":2,"transit":false,"distance":1230,"time":2,"i_long":106.856607,"station_id":"CW","station_name":"Cawang","is_transit":false}],[{"line":6,"is_transit":false,"transit":false,"time":0,"i_lat":-6.276362,"i_long":106.74273,"distance":0,"station_id":"PDJ","station_name":"Pondokranji"},{"distance":6218,"time":8,"station_name":"Kebayoran","line":6,"i_long":106.780334,"station_id":"KBY","is_transit":false,"i_lat":-6.237242,"transit":false},{"i_long":106.79689,"i_lat":-6.207404,"station_name":"Palmerah","line":6,"time":7,"transit":false,"station_id":"PLM","distance":3737,"is_transit":false},{"time":6,"station_id":"THB","i_lat":-6.185545,"line":1,"station_name":"Tanah Abang","distance":3191,"is_transit":true,"transit":true,"i_long":106.811091},{"line":1,"i_lat":-6.155215,"i_long":106.800832,"distance":3632,"transit":false,"station_name":"Duri","is_transit":false,"time":8,"station_id":"DU"},{"station_id":"AK","time":4,"transit":false,"is_transit":false,"i_long":106.79867,"station_name":"Angke","i_lat":-6.144674,"distance":1230,"line":1},{"line":4,"i_long":106.826365,"distance":4102,"station_name":"Kampung Bandan","station_id":"KPB","transit":true,"is_transit":true,"time":9,"i_lat":-6.132549},{"i_long":106.836569,"line":11,"distance":1444,"station_name":"Rajawali","is_transit":false,"i_lat":-6.14505,"station_id":"RJW","transit":false,"time":3},{"i_long":106.839204,"line":11,"station_id":"KMO","time":5,"transit":false,"i_lat":-6.161728,"is_transit":false,"station_name":"Kemayoran","distance":1901},{"station_name":"Pasar Senen","transit":false,"i_long":106.84368,"i_lat":-6.174784,"line":11,"station_id":"PSE","is_transit":false,"time":4,"distance":1436},{"time":8,"line":11,"i_long":106.850107,"station_name":"Gang Sentiong","distance":1567,"transit":false,"station_id":"GST","is_transit":false,"i_lat":-6.185975},{"station_id":"KMT","i_lat":-6.193792,"time":1,"station_name":"Kramat","i_long":106.855437,"is_transit":false,"transit":false,"line":11,"distance":973},{"distance":1829,"i_long":106.861737,"line":11,"station_id":"POK","time":2,"i_lat":-6.209188,"transit":false,"station_name":"Pondok Jati","is_transit":false},{"transit":true,"i_lat":-6.215091,"time":9,"distance":1236,"is_transit":true,"station_name":"Jatinegara","station_id":"JNG","line":1,"i_long":106.86807400000001},{"station_name":"Matraman","distance":1377,"line":1,"time":2,"i_long":106.858896,"is_transit":false,"i_lat":-6.212485,"station_id":"MTR","transit":false},{"station_name":"Manggarai","distance":1275,"i_long":106.84912,"line":2,"time":2,"is_transit":true,"transit":true,"station_id":"MRI","i_lat":-6.209883},{"i_long":106.857948,"is_transit":false,"transit":false,"station_name":"Tebet","line":2,"time":4,"station_id":"TEB","i_lat":-6.226659,"distance":2610},{"distance":1230,"transit":false,"is_transit":false,"station_name":"Cawang","station_id":"CW","time":2,"i_lat":-6.242512,"i_long":106.856607,"line":2}]]}