{"data":[[{"i_long":106.74273,"station_name":"Pondokranji","transit":false,"time":0,"is_transit":false,"station_id":"PDJ","line":6,"distance":0,"i_lat":-6.276362},{"i_lat":-6.237242,"i_long":106.780334,"is_transit":false,"station_id":"KBY","distance":6218,"transit":false,"station_name":"Kebayoran","time":8,"line":6},{"transit":false,"is_transit":false,"time":7,"station_id":"PLM","distance":3737,"i_lat":-6.207404,"i_long":106.79689,"station_name":"Palmerah","line":6},{"station_name":"Tanah Abang","distance":3191,"i_lat":-6.185545,"is_transit":true,"line":1,"time":6,"transit":true,"i_long":106.811091,"station_id":"THB"},{"i_lat":-6.20132,"station_id":"KAT","is_transit":false,"station_name":"Karet","transit":false,"time":5,"distance":2029,"line":1,"i_long":106.816351},{"distance":471,"i_lat":-6.201433,"station_name":"Sudirman Baru","transit":false,"i_long":106.819881,"is_transit":false,"line":1,"station_id":"SUDB","time":1},{"i_lat":-6.202263,"station_id":"SUD","is_transit":false,"time":1,"transit":false,"i_long":106.822649,"line":1,"distance":280,"station_name":"Sudirman"},{"time":4,"is_transit":true,"i_lat":-6.209883,"station_name":"Manggarai","i_long":106.84912,"transit":false,"station_id":"MRI","line":0,"distance":3186},{"time":2,"transit":false,"station_id":"MTR","i_long":106.858896,"line":1,"is_transit":false,"station_name":"Matraman","distance":1275,"i_lat":-6.212485},{"transit":true,"station_name":"Jatinegara","i_long":106.86807400000001,"i_lat":-6.215091,"time":8,"distance":1377,"is_transit":true,"line":0,"station_id":"JNG"},{"is_transit":false,"distance":1236,"station_name":"Pondok Jati","station_id":"POK","i_lat":-6.209188,"i_long":106.861737,"transit":false,"line":11,"time":2}],[{"distance":0,"time":0,"station_id":"PDJ","station_name":"Pondokranji","transit":false,"is_transit":false,"i_lat":-6.276362,"line":6,"i_long":106.74273},{"station_name":"Kebayoran","i_long":106.780334,"distance":6218,"is_transit":false,"i_lat":-6.237242,"transit":false,"time":8,"line":6,"station_id":"KBY"},{"i_lat":-6.207404,"time":7,"line":6,"is_transit":false,"distance":3737,"station_name":"Palmerah","station_id":"PLM","transit":false,"i_long":106.79689},{"time":6,"distance":3191,"transit":true,"i_long":106.811091,"is_transit":true,"i_lat":-6.185545,"station_id":"THB","line":1,"station_name":"Tanah Abang"},{"station_name":"Duri","i_long":106.800832,"transit":true,"distance":3632,"i_lat":-6.155215,"line":1,"time":8,"is_transit":true,"station_id":"DU"},{"transit":false,"time":4,"distance":1230,"station_id":"AK","i_long":106.79867,"i_lat":-6.144674,"line":0,"is_transit":false,"station_name":"Angke"},{"station_name":"Kampung Bandan","transit":true,"distance":4102,"station_id":"KPB","i_long":106.826365,"time":9,"is_transit":true,"i_lat":-6.132549,"line":0},{"i_lat":-6.14505,"station_name":"Rajawali","station_id":"RJW","distance":1444,"i_long":106.836569,"line":11,"transit":false,"is_transit":false,"time":3},{"station_id":"KMO","transit":false,"is_transit":false,"i_lat":-6.161728,"line":11,"i_long":106.839204,"station_name":"Kemayoran","time":5,"distance":1901},{"is_transit":false,"station_id":"PSE","i_lat":-6.174784,"distance":1436,"transit":false,"line":11,"i_long":106.84368,"time":4,"station_name":"Pasar Senen"},{"station_id":"GST","i_lat":-6.185975,"time":8,"i_long":106.850107,"line":11,"transit":false,"station_name":"Gang Sentiong","distance":1567,"is_transit":false},{"distance":973,"i_lat":-6.193792,"transit":false,"is_transit":false,"station_id":"KMT","i_long":106.855437,"station_name":"Kramat","time":1,"line":11},{"i_long":106.861737,"i_lat":-6.209188,"time":2,"station_name":"Pondok Jati","line":11,"transit":false,"is_transit":false,"distance":1829,"station_id":"POK"}],[{"time":0,"distance":0,"i_lat":-6.276362,"station_name":"Pondokranji","transit":false,"station_id":"PDJ","is_transit":false,"i_long":106.74273,"line":6},{"i_long":106.780334,"station_id":"KBY","station_name":"Kebayoran","i_lat":-6.237242,"line":6,"time":8,"transit":false,"distance":6218,"is_transit":false},{"is_transit":false,"time":7,"station_name":"Palmerah","station_id":"PLM","transit":false,"distance":3737,"i_lat":-6.207404,"i_long":106.79689,"line":6},{"i_lat":-6.185545,"time":6,"line":1,"station_id":"THB","transit":true,"distance":3191,"is_transit":true,"i_long":106.811091,"station_name":"Tanah Abang"},{"station_id":"DU","i_lat":-6.155215,"distance":3632,"time":8,"station_name":"Duri","transit":true,"line":1,"i_long":106.800832,"is_transit":true},{"transit":false,"i_long":106.79867,"line":0,"distance":1230,"time":4,"station_id":"AK","station_name":"Angke","is_transit":false,"i_lat":-6.144674},{"i_long":106.826365,"distance":4102,"is_transit":true,"station_id":"KPB","time":9,"transit":false,"i_lat":-6.132549,"station_name":"Kampung Bandan","line":0},{"time":3,"i_lat":-6.137569,"transit":true,"station_id":"JAKK","station_name":"Jakarta Kota","distance":1364,"is_transit":true,"line":0,"i_long":106.812439},{"i_lat":-6.141205,"station_id":"JAY","transit":false,"time":4,"i_long":106.820901,"distance":1264,"line":7,"station_name":"Jayakarta","is_transit":false},{"transit":false,"i_lat":-6.149769,"time":2,"station_id":"MGB","is_transit":false,"line":2,"distance":1080,"station_name":"Manggabesar","i_long":106.82482},{"i_long":106.827103,"time":2,"station_id":"SW","transit":false,"station_name":"Sawah Besar","i_lat":-6.160725,"distance":906,"is_transit":false,"line":2},{"transit":false,"i_lat":-6.166716,"station_name":"Juanda","distance":1149,"line":2,"i_long":106.828284,"time":2,"station_id":"JUA","is_transit":false},{"station_id":"GDD","transit":false,"time":4,"distance":2015,"is_transit":false,"i_lat":-6.186295,"i_long":106.832183,"line":2,"station_name":"Gondangdia"},{"line":0,"i_lat":-6.198556,"time":3,"distance":1750,"is_transit":false,"i_long":106.840169,"station_name":"Cikini","transit":false,"station_id":"CKI"},{"station_name":"Manggarai","i_long":106.84912,"is_transit":true,"line":0,"transit":true,"distance":1590,"i_lat":-6.209883,"time":4,"station_id":"MRI"},{"distance":1275,"line":1,"transit":false,"station_id":"MTR","i_lat":-6.212485,"i_long":106.858896,"time":2,"is_transit":false,"station_name":"Matraman"},{"distance":1377,"i_long":106.86807400000001,"station_id":"JNG","station_name":"Jatinegara","i_lat":-6.215091,"time":8,"is_transit":true,"line":0,"transit":true},{"i_long":106.861737,"is_transit":false,"i_lat":-6.209188,"time":2,"station_id":"POK","distance":1236,"line":11,"transit":false,"station_name":"Pondok Jati"}],[{"station_id":"PDJ","time":0,"i_lat":-6.276362,"distance":0,"transit":false,"is_transit":false,"i_long":106.74273,"station_name":"Pondokranji","line":6},{"i_lat":-6.237242,"station_id":"KBY","is_transit":false,"time":8,"transit":false,"line":6,"station_name":"Kebayoran","i_long":106.780334,"distance":6218},{"i_long":106.79689,"time":7,"station_name":"Palmerah","is_transit":false,"distance":3737,"transit":false,"i_lat":-6.207404,"station_id":"PLM","line":6},{"transit":true,"time":6,"station_name":"Tanah Abang","distance":3191,"is_transit":true,"i_lat":-6.185545,"station_id":"THB","line":1,"i_long":106.811091},{"distance":2029,"transit":false,"i_long":106.816351,"station_name":"Karet","line":1,"time":5,"station_id":"KAT","is_transit":false,"i_lat":-6.20132},{"i_long":106.819881,"line":1,"station_id":"SUDB","station_name":"Sudirman Baru","time":1,"transit":false,"distance":471,"is_transit":false,"i_lat":-6.201433},{"transit":false,"distance":280,"time":1,"station_name":"Sudirman","i_long":106.822649,"i_lat":-6.202263,"line":1,"station_id":"SUD","is_transit":false},{"station_name":"Manggarai","i_lat":-6.209883,"time":4,"is_transit":true,"i_long":106.84912,"line":0,"transit":true,"distance":3186,"station_id":"MRI"},{"is_transit":false,"i_lat":-6.198556,"transit":false,"i_long":106.840169,"station_id":"CKI","distance":1590,"station_name":"Cikini","time":4,"line":0},{"transit":false,"station_id":"GDD","i_lat":-6.186295,"distance":1750,"i_long":106.832183,"station_name":"Gondangdia","time":3,"is_transit":false,"line":2},{"i_long":106.828284,"transit":false,"time":4,"station_name":"Juanda","is_transit":false,"distance":2015,"i_lat":-6.166716,"line":2,"station_id":"JUA"},{"line":2,"station_name":"Sawah Besar","station_id":"SW","distance":1149,"time":2,"transit":false,"i_lat":-6.160725,"is_transit":false,"i_long":106.827103},{"distance":906,"line":2,"time":2,"station_name":"Manggabesar","is_transit":false,"i_lat":-6.149769,"transit":false,"station_id":"MGB","i_long":106.82482},{"i_lat":-6.141205,"distance":1080,"is_transit":false,"time":2,"station_name":"Jayakarta","i_long":106.820901,"transit":false,"line":7,"station_id":"JAY"},{"line":0,"time":4,"distance":1264,"station_id":"JAKK","transit":true,"i_long":106.812439,"i_lat":-6.137569,"station_name":"Jakarta Kota","is_transit":true},{"distance":1364,"time":3,"station_name":"Kampung Bandan","transit":true,"station_id":"KPB","i_lat":-6.132549,"is_transit":true,"i_long":106.826365,"line":0},{"i_long":106.836569,"station_name":"Rajawali","transit":false,"is_transit":false,"time":3,"station_id":"RJW","distance":1444,"i_lat":-6.14505,"line":11},{"distance":1901,"is_transit":false,"station_name":"Kemayoran","time":5,"transit":false,"i_long":106.839204,"station_id":"KMO","i_lat":-6.161728,"line":11},{"is_transit":false,"distance":1436,"station_name":"Pasar Senen","transit":false,"time":4,"i_lat":-6.174784,"i_long":106.84368,"line":11,"station_id":"PSE"},{"i_lat":-6.185975,"i_long":106.850107,"station_id":"GST","station_name":"Gang Sentiong","distance":1567,"line":11,"transit":false,"time":8,"is_transit":false},{"time":1,"distance":973,"is_transit":false,"transit":false,"i_lat":-6.193792,"line":11,"station_name":"Kramat","station_id":"KMT","i_long":106.855437},{"station_id":"POK","line":11,"is_transit":false,"i_long":106.861737,"distance":1829,"i_lat":-6.209188,"time":2,"transit":false,"station_name":"Pondok Jati"}]]}