{"data":[[{"i_long":106.74273,"line":6,"station_name":"Pondokranji","is_transit":false,"transit":false,"station_id":"PDJ","i_lat":-6.276362,"distance":0,"time":0},{"is_transit":false,"time":8,"i_long":106.780334,"i_lat":-6.237242,"distance":6218,"line":6,"transit":false,"station_id":"KBY","station_name":"Kebayoran"},{"station_id":"PLM","station_name":"Palmerah","i_lat":-6.207404,"distance":3737,"i_long":106.79689,"transit":false,"time":7,"line":6,"is_transit":false},{"station_name":"Tanah Abang","station_id":"THB","i_long":106.811091,"is_transit":true,"line":1,"time":6,"transit":true,"i_lat":-6.185545,"distance":3191},{"transit":false,"station_name":"Duri","is_transit":false,"distance":3632,"i_lat":-6.155215,"i_long":106.800832,"time":8,"line":1,"station_id":"DU"},{"i_lat":-6.144674,"transit":false,"i_long":106.79867,"station_id":"AK","distance":1230,"station_name":"Angke","time":4,"is_transit":false,"line":1},{"line":4,"is_transit":true,"station_name":"Kampung Bandan","time":9,"station_id":"KPB","i_lat":-6.132549,"i_long":106.826365,"distance":4102,"transit":true},{"distance":1444,"time":3,"i_long":106.836569,"is_transit":false,"transit":false,"station_name":"Rajawali","line":11,"i_lat":-6.14505,"station_id":"RJW"}],[{"i_long":106.74273,"i_lat":-6.276362,"station_name":"Pondokranji","line":6,"transit":false,"distance":0,"station_id":"PDJ","is_transit":false,"time":0},{"time":8,"station_id":"KBY","transit":false,"line":6,"distance":6218,"is_transit":false,"i_long":106.780334,"station_name":"Kebayoran","i_lat":-6.237242},{"time":7,"station_name":"Palmerah","station_id":"PLM","i_lat":-6.207404,"is_transit":false,"i_long":106.79689,"line":6,"transit":false,"distance":3737},{"line":1,"distance":3191,"time":6,"station_name":"Tanah Abang","i_lat":-6.185545,"i_long":106.811091,"is_transit":true,"station_id":"THB","transit":true},{"is_transit":false,"station_name":"Karet","i_lat":-6.20132,"distance":2029,"time":5,"i_long":106.816351,"line":1,"station_id":"KAT","transit":false},{"transit":false,"station_id":"SUDB","i_lat":-6.201433,"distance":471,"i_long":106.819881,"line":1,"is_transit":false,"station_name":"Sudirman Baru","time":1},{"station_name":"Sudirman","is_transit":false,"time":1,"line":1,"i_lat":-6.202263,"distance":280,"i_long":106.822649,"station_id":"SUD","transit":false},{"is_transit":false,"i_lat":-6.209883,"time":4,"station_id":"MRI","i_long":106.84912,"line":2,"station_name":"Manggarai","transit":false,"distance":3186},{"line":1,"distance":1275,"is_transit":false,"time":2,"i_lat":-6.212485,"transit":false,"station_id":"MTR","station_name":"Matraman","i_long":106.858896},{"transit":true,"is_transit":true,"line":1,"time":8,"station_name":"Jatinegara","distance":1377,"i_long":106.86807400000001,"i_lat":-6.215091,"station_id":"JNG"},{"station_id":"POK","time":2,"i_long":106.861737,"line":11,"station_name":"Pondok Jati","distance":1236,"is_transit":false,"transit":false,"i_lat":-6.209188},{"transit":false,"station_id":"KMT","is_transit":false,"time":2,"station_name":"Kramat","i_long":106.855437,"i_lat":-6.193792,"line":11,"distance":1829},{"i_lat":-6.185975,"station_name":"Gang Sentiong","distance":973,"time":1,"line":11,"transit":false,"i_long":106.850107,"station_id":"GST","is_transit":false},{"i_lat":-6.174784,"distance":1567,"station_name":"Pasar Senen","time":8,"transit":false,"station_id":"PSE","is_transit":false,"line":11,"i_long":106.84368},{"station_id":"KMO","line":11,"is_transit":false,"transit":false,"i_lat":-6.161728,"time":4,"distance":1436,"station_name":"Kemayoran","i_long":106.839204},{"line":11,"distance":1901,"station_id":"RJW","i_lat":-6.14505,"station_name":"Rajawali","is_transit":false,"i_long":106.836569,"time":5,"transit":false}],[{"station_id":"PDJ","station_name":"Pondokranji","line":6,"distance":0,"i_lat":-6.276362,"i_long":106.74273,"is_transit":false,"transit":false,"time":0},{"transit":false,"line":6,"i_lat":-6.237242,"distance":6218,"station_name":"Kebayoran","is_transit":false,"station_id":"KBY","time":8,"i_long":106.780334},{"i_lat":-6.207404,"transit":false,"is_transit":false,"i_long":106.79689,"distance":3737,"station_id":"PLM","time":7,"station_name":"Palmerah","line":6},{"station_id":"THB","is_transit":true,"transit":true,"station_name":"Tanah Abang","distance":3191,"line":1,"time":6,"i_lat":-6.185545,"i_long":106.811091},{"station_name":"Karet","i_lat":-6.20132,"line":1,"i_long":106.816351,"is_transit":false,"transit":false,"station_id":"KAT","distance":2029,"time":5},{"station_name":"Sudirman Baru","i_long":106.819881,"station_id":"SUDB","transit":false,"i_lat":-6.201433,"distance":471,"is_transit":false,"time":1,"line":1},{"distance":280,"time":1,"line":1,"station_name":"Sudirman","is_transit":false,"i_lat":-6.202263,"transit":false,"station_id":"SUD","i_long":106.822649},{"station_id":"MRI","transit":true,"line":2,"station_name":"Manggarai","i_lat":-6.209883,"distance":3186,"is_transit":true,"time":4,"i_long":106.84912},{"transit":false,"time":4,"i_long":106.840169,"station_name":"Cikini","station_id":"CKI","line":2,"is_transit":false,"i_lat":-6.198556,"distance":1590},{"transit":false,"i_long":106.832183,"line":2,"station_id":"GDD","distance":1750,"time":3,"is_transit":false,"station_name":"Gondangdia","i_lat":-6.186295},{"i_lat":-6.166716,"distance":2015,"time":4,"station_id":"JUA","is_transit":false,"station_name":"Juanda","i_long":106.828284,"transit":false,"line":2},{"is_transit":false,"time":2,"station_name":"Sawah Besar","i_long":106.827103,"distance":1149,"transit":false,"i_lat":-6.160725,"station_id":"SW","line":2},{"transit":false,"line":2,"time":2,"station_id":"MGB","is_transit":false,"station_name":"Manggabesar","distance":906,"i_lat":-6.149769,"i_long":106.82482},{"line":2,"distance":1080,"time":2,"i_long":106.820901,"is_transit":false,"station_name":"Jayakarta","station_id":"JAY","i_lat":-6.141205,"transit":false},{"station_id":"JAKK","station_name":"Jakarta Kota","distance":1264,"transit":true,"time":4,"i_lat":-6.137569,"i_long":106.812439,"is_transit":true,"line":2},{"is_transit":true,"i_long":106.826365,"line":4,"station_name":"Kampung Bandan","time":3,"station_id":"KPB","i_lat":-6.132549,"distance":1364,"transit":true},{"i_long":106.836569,"transit":false,"station_name":"Rajawali","station_id":"RJW","line":11,"distance":1444,"is_transit":false,"time":3,"i_lat":-6.14505}],[{"time":0,"transit":false,"station_name":"Pondokranji","line":6,"station_id":"PDJ","i_lat":-6.276362,"is_transit":false,"distance":0,"i_long":106.74273},{"station_id":"KBY","transit":false,"time":8,"is_transit":false,"distance":6218,"line":6,"station_name":"Kebayoran","i_long":106.780334,"i_lat":-6.237242},{"transit":false,"station_name":"Palmerah","i_lat":-6.207404,"line":6,"is_transit":false,"i_long":106.79689,"station_id":"PLM","distance":3737,"time":7},{"station_id":"THB","i_lat":-6.185545,"station_name":"Tanah Abang","i_long":106.811091,"time":6,"distance":3191,"transit":true,"is_transit":true,"line":1},{"is_transit":false,"distance":3632,"i_lat":-6.155215,"i_long":106.800832,"time":8,"transit":false,"station_name":"Duri","line":1,"station_id":"DU"},{"station_id":"AK","time":4,"line":1,"i_long":106.79867,"is_transit":false,"distance":1230,"station_name":"Angke","i_lat":-6.144674,"transit":false},{"is_transit":true,"i_long":106.826365,"station_name":"Kampung Bandan","i_lat":-6.132549,"line":4,"distance":4102,"station_id":"KPB","transit":true,"time":9},{"is_transit":true,"i_long":106.812439,"distance":1364,"line":2,"i_lat":-6.137569,"station_id":"JAKK","transit":true,"time":3,"station_name":"Jakarta Kota"},{"station_name":"Jayakarta","i_long":106.820901,"line":2,"i_lat":-6.141205,"is_transit":false,"transit":false,"distance":1264,"time":4,"station_id":"JAY"},{"station_name":"Manggabesar","is_transit":false,"i_long":106.82482,"time":2,"transit":false,"line":2,"distance":1080,"i_lat":-6.149769,"station_id":"MGB"},{"station_id":"SW","transit":false,"is_transit":false,"i_lat":-6.160725,"line":2,"distance":906,"station_name":"Sawah Besar","i_long":106.827103,"time":2},{"is_transit":false,"line":2,"i_long":106.828284,"station_id":"JUA","transit":false,"time":2,"i_lat":-6.166716,"distance":1149,"station_name":"Juanda"},{"time":4,"station_id":"GDD","transit":false,"station_name":"Gondangdia","is_transit":false,"i_long":106.832183,"distance":2015,"line":2,"i_lat":-6.186295},{"time":3,"i_lat":-6.198556,"is_transit":false,"i_long":106.840169,"transit":false,"line":2,"station_id":"CKI","distance":1750,"station_name":"Cikini"},{"station_id":"MRI","station_name":"Manggarai","i_long":106.84912,"line":2,"distance":1590,"time":4,"is_transit":true,"i_lat":-6.209883,"transit":true},{"distance":1275,"station_name":"Matraman","i_lat":-6.212485,"transit":false,"station_id":"MTR","time":2,"is_transit":false,"i_long":106.858896,"line":1},{"i_lat":-6.215091,"distance":1377,"transit":true,"time":8,"station_name":"Jatinegara","is_transit":true,"i_long":106.86807400000001,"station_id":"JNG","line":1},{"i_long":106.861737,"line":11,"station_id":"POK","time":2,"transit":false,"distance":1236,"is_transit":false,"i_lat":-6.209188,"station_name":"Pondok Jati"},{"i_long":106.855437,"is_transit":false,"transit":false,"line":11,"time":2,"distance":1829,"station_id":"KMT","i_lat":-6.193792,"station_name":"Kramat"},{"i_lat":-6.185975,"distance":973,"transit":false,"station_name":"Gang Sentiong","line":11,"i_long":106.850107,"is_transit":false,"time":1,"station_id":"GST"},{"distance":1567,"line":11,"transit":false,"station_id":"PSE","is_transit":false,"station_name":"Pasar Senen","i_lat":-6.174784,"time":8,"i_long":106.84368},{"time":4,"i_lat":-6.161728,"station_id":"KMO","distance":1436,"transit":false,"station_name":"Kemayoran","i_long":106.839204,"is_transit":false,"line":11},{"station_name":"Rajawali","is_transit":false,"line":11,"distance":1901,"time":5,"station_id":"RJW","i_long":106.836569,"i_lat":-6.14505,"transit":false}]]}