{"data":[[{"i_long":106.74273,"transit":false,"is_transit":false,"station_name":"Pondokranji","station_id":"PDJ","i_lat":-6.276362,"time":0,"distance":0,"line":6},{"station_name":"Kebayoran","transit":false,"i_long":106.780334,"distance":6218,"i_lat":-6.237242,"line":6,"station_id":"KBY","is_transit":false,"time":8},{"station_name":"Palmerah","i_long":106.79689,"station_id":"PLM","transit":false,"i_lat":-6.207404,"is_transit":false,"distance":3737,"time":7,"line":6},{"is_transit":true,"i_lat":-6.185545,"transit":true,"time":6,"station_name":"Tanah Abang","line":1,"station_id":"THB","distance":3191,"i_long":106.811091},{"i_long":106.800832,"is_transit":true,"station_id":"DU","station_name":"Duri","time":8,"line":1,"transit":true,"i_lat":-6.155215,"distance":3632},{"station_id":"GGL","is_transit":false,"transit":false,"line":5,"distance":1700,"station_name":"Grogol","i_long":106.788277,"time":3,"i_lat":-6.162021},{"station_name":"Pesing","transit":false,"time":2,"station_id":"PSG","is_transit":false,"i_lat":-6.161433,"distance":2036,"i_long":106.771379,"line":5},{"station_id":"TKO","is_transit":false,"i_long":106.756522,"i_lat":-6.1587309999999995,"time":2,"station_name":"Taman Kota","distance":1614,"line":5,"transit":false},{"time":2,"distance":2334,"station_name":"Bojongindah","i_lat":-6.159876,"is_transit":false,"transit":false,"line":0,"i_long":106.737035,"station_id":"BOI"},{"station_id":"RW","time":4,"is_transit":false,"station_name":"Rawa Buaya","transit":false,"distance":1152,"i_long":106.723064,"i_lat":-6.162758,"line":5},{"time":3,"station_name":"Kalideres","i_lat":-6.166068,"station_id":"KDS","is_transit":false,"distance":2504,"transit":false,"i_long":106.701612,"line":5},{"i_lat":-6.169933,"time":3,"distance":2548,"station_id":"PI","transit":false,"is_transit":false,"station_name":"Poris","i_long":106.679458,"line":5},{"distance":1834,"station_id":"BPR","i_lat":-6.171811,"line":0,"is_transit":false,"i_long":106.665036,"station_name":"Batuceper","transit":false,"time":3},{"station_id":"TTI","distance":2028,"transit":false,"line":5,"station_name":"Tanah Tinggi","time":3,"is_transit":false,"i_lat":-6.17331,"i_long":106.64657},{"i_lat":-6.176583,"transit":false,"i_long":106.632761,"is_transit":false,"station_id":"TNG","time":3,"station_name":"Tangerang","distance":1547,"line":5}],[{"distance":0,"time":0,"transit":false,"line":6,"is_transit":false,"i_long":106.74273,"station_name":"Pondokranji","station_id":"PDJ","i_lat":-6.276362},{"distance":6218,"station_name":"Kebayoran","station_id":"KBY","line":6,"i_long":106.780334,"transit":false,"is_transit":false,"i_lat":-6.237242,"time":8},{"distance":3737,"i_lat":-6.207404,"is_transit":false,"station_id":"PLM","station_name":"Palmerah","time":7,"line":6,"transit":false,"i_long":106.79689},{"station_name":"Tanah Abang","time":6,"i_long":106.811091,"station_id":"THB","i_lat":-6.185545,"transit":true,"is_transit":true,"distance":3191,"line":1},{"i_long":106.816351,"time":5,"station_id":"KAT","transit":false,"station_name":"Karet","line":1,"is_transit":false,"distance":2029,"i_lat":-6.20132},{"station_name":"Sudirman Baru","transit":false,"line":1,"time":1,"is_transit":false,"station_id":"SUDB","distance":471,"i_lat":-6.201433,"i_long":106.819881},{"line":1,"i_long":106.822649,"time":1,"i_lat":-6.202263,"station_name":"Sudirman","transit":false,"is_transit":false,"distance":280,"station_id":"SUD"},{"station_id":"MRI","transit":true,"station_name":"Manggarai","distance":3186,"time":4,"i_lat":-6.209883,"line":0,"is_transit":true,"i_long":106.84912},{"transit":false,"line":0,"station_name":"Cikini","i_lat":-6.198556,"station_id":"CKI","i_long":106.840169,"time":4,"distance":1590,"is_transit":false},{"i_lat":-6.186295,"transit":false,"time":3,"station_id":"GDD","station_name":"Gondangdia","is_transit":false,"distance":1750,"line":2,"i_long":106.832183},{"time":4,"line":2,"station_id":"JUA","station_name":"Juanda","distance":2015,"transit":false,"i_lat":-6.166716,"i_long":106.828284,"is_transit":false},{"transit":false,"i_long":106.827103,"station_id":"SW","is_transit":false,"distance":1149,"time":2,"station_name":"Sawah Besar","line":2,"i_lat":-6.160725},{"time":2,"station_name":"Manggabesar","transit":false,"is_transit":false,"i_lat":-6.149769,"i_long":106.82482,"line":2,"station_id":"MGB","distance":906},{"i_long":106.820901,"distance":1080,"time":2,"is_transit":false,"station_id":"JAY","station_name":"Jayakarta","transit":false,"i_lat":-6.141205,"line":7},{"is_transit":true,"station_name":"Jakarta Kota","transit":true,"station_id":"JAKK","distance":1264,"i_lat":-6.137569,"line":0,"i_long":106.812439,"time":4},{"station_id":"KPB","line":0,"distance":1364,"time":3,"station_name":"Kampung Bandan","is_transit":true,"transit":false,"i_lat":-6.132549,"i_long":106.826365},{"station_id":"AK","time":9,"transit":false,"i_lat":-6.144674,"station_name":"Angke","is_transit":false,"distance":4102,"i_long":106.79867,"line":0},{"is_transit":true,"transit":true,"i_lat":-6.155215,"station_id":"DU","distance":1230,"i_long":106.800832,"time":4,"line":1,"station_name":"Duri"},{"distance":1700,"i_long":106.788277,"station_id":"GGL","is_transit":false,"station_name":"Grogol","time":3,"transit":false,"i_lat":-6.162021,"line":5},{"time":2,"station_id":"PSG","transit":false,"line":5,"station_name":"Pesing","i_lat":-6.161433,"distance":2036,"is_transit":false,"i_long":106.771379},{"station_id":"TKO","transit":false,"time":2,"distance":1614,"station_name":"Taman Kota","i_lat":-6.1587309999999995,"i_long":106.756522,"is_transit":false,"line":5},{"distance":2334,"station_id":"BOI","is_transit":false,"transit":false,"i_lat":-6.159876,"i_long":106.737035,"time":2,"line":0,"station_name":"Bojongindah"},{"transit":false,"i_long":106.723064,"line":5,"station_id":"RW","time":4,"is_transit":false,"i_lat":-6.162758,"distance":1152,"station_name":"Rawa Buaya"},{"i_long":106.701612,"station_name":"Kalideres","i_lat":-6.166068,"station_id":"KDS","time":3,"is_transit":false,"transit":false,"line":5,"distance":2504},{"distance":2548,"i_long":106.679458,"line":5,"station_name":"Poris","transit":false,"station_id":"PI","i_lat":-6.169933,"is_transit":false,"time":3},{"is_transit":false,"transit":false,"station_name":"Batuceper","i_lat":-6.171811,"distance":1834,"time":3,"line":0,"i_long":106.665036,"station_id":"BPR"},{"distance":2028,"transit":false,"time":3,"is_transit":false,"i_long":106.64657,"line":5,"station_id":"TTI","station_name":"Tanah Tinggi","i_lat":-6.17331},{"transit":false,"time":3,"line":5,"is_transit":false,"i_long":106.632761,"distance":1547,"station_id":"TNG","station_name":"Tangerang","i_lat":-6.176583}],[{"station_name":"Pondokranji","line":6,"time":0,"is_transit":false,"transit":false,"i_lat":-6.276362,"i_long":106.74273,"distance":0,"station_id":"PDJ"},{"i_long":106.780334,"station_name":"Kebayoran","i_lat":-6.237242,"line":6,"station_id":"KBY","time":8,"is_transit":false,"distance":6218,"transit":false},{"transit":false,"time":7,"station_id":"PLM","distance":3737,"i_long":106.79689,"i_lat":-6.207404,"is_transit":false,"station_name":"Palmerah","line":6},{"time":6,"station_id":"THB","distance":3191,"i_lat":-6.185545,"line":1,"is_transit":true,"transit":true,"i_long":106.811091,"station_name":"Tanah Abang"},{"time":5,"transit":false,"station_id":"KAT","distance":2029,"station_name":"Karet","i_long":106.816351,"is_transit":false,"i_lat":-6.20132,"line":1},{"distance":471,"station_name":"Sudirman Baru","station_id":"SUDB","line":1,"time":1,"i_long":106.819881,"i_lat":-6.201433,"transit":false,"is_transit":false},{"i_lat":-6.202263,"distance":280,"transit":false,"i_long":106.822649,"line":1,"time":1,"is_transit":false,"station_name":"Sudirman","station_id":"SUD"},{"is_transit":true,"time":4,"i_lat":-6.209883,"transit":false,"distance":3186,"i_long":106.84912,"line":0,"station_id":"MRI","station_name":"Manggarai"},{"station_name":"Matraman","transit":false,"is_transit":false,"station_id":"MTR","i_lat":-6.212485,"i_long":106.858896,"line":1,"time":2,"distance":1275},{"time":8,"station_name":"Jatinegara","distance":1377,"transit":true,"line":0,"station_id":"JNG","is_transit":true,"i_lat":-6.215091,"i_long":106.86807400000001},{"time":2,"transit":false,"i_lat":-6.209188,"i_long":106.861737,"line":11,"is_transit":false,"distance":1236,"station_name":"Pondok Jati","station_id":"POK"},{"i_lat":-6.193792,"transit":false,"is_transit":false,"station_name":"Kramat","line":11,"distance":1829,"station_id":"KMT","i_long":106.855437,"time":2},{"i_long":106.850107,"distance":973,"line":11,"transit":false,"is_transit":false,"station_id":"GST","i_lat":-6.185975,"time":1,"station_name":"Gang Sentiong"},{"i_lat":-6.174784,"transit":false,"station_id":"PSE","is_transit":false,"time":8,"distance":1567,"i_long":106.84368,"line":11,"station_name":"Pasar Senen"},{"distance":1436,"i_long":106.839204,"station_id":"KMO","time":4,"is_transit":false,"station_name":"Kemayoran","transit":false,"i_lat":-6.161728,"line":11},{"station_name":"Rajawali","distance":1901,"line":11,"transit":false,"time":5,"station_id":"RJW","i_long":106.836569,"i_lat":-6.14505,"is_transit":false},{"station_name":"Kampung Bandan","transit":true,"i_lat":-6.132549,"station_id":"KPB","i_long":106.826365,"line":0,"time":3,"is_transit":true,"distance":1444},{"station_name":"Angke","line":0,"is_transit":false,"station_id":"AK","distance":4102,"transit":false,"time":9,"i_long":106.79867,"i_lat":-6.144674},{"station_id":"DU","time":4,"is_transit":true,"station_name":"Duri","i_lat":-6.155215,"i_long":106.800832,"line":1,"transit":true,"distance":1230},{"is_transit":false,"station_id":"GGL","i_lat":-6.162021,"time":3,"transit":false,"i_long":106.788277,"line":5,"station_name":"Grogol","distance":1700},{"transit":false,"line":5,"i_long":106.771379,"is_transit":false,"i_lat":-6.161433,"station_id":"PSG","station_name":"Pesing","time":2,"distance":2036},{"transit":false,"station_name":"Taman Kota","line":5,"station_id":"TKO","is_transit":false,"i_long":106.756522,"distance":1614,"time":2,"i_lat":-6.1587309999999995},{"time":2,"i_lat":-6.159876,"is_transit":false,"i_long":106.737035,"station_name":"Bojongindah","distance":2334,"line":0,"station_id":"BOI","transit":false},{"time":4,"station_name":"Rawa Buaya","distance":1152,"i_long":106.723064,"station_id":"RW","i_lat":-6.162758,"line":5,"transit":false,"is_transit":false},{"i_lat":-6.166068,"line":5,"transit":false,"distance":2504,"station_id":"KDS","time":3,"is_transit":false,"station_name":"Kalideres","i_long":106.701612},{"line":5,"i_lat":-6.169933,"time":3,"i_long":106.679458,"transit":false,"station_name":"Poris","is_transit":false,"station_id":"PI","distance":2548},{"i_lat":-6.171811,"time":3,"station_name":"Batuceper","transit":false,"line":0,"station_id":"BPR","distance":1834,"i_long":106.665036,"is_transit":false},{"i_long":106.64657,"distance":2028,"line":5,"i_lat":-6.17331,"time":3,"is_transit":false,"station_name":"Tanah Tinggi","transit":false,"station_id":"TTI"},{"transit":false,"station_name":"Tangerang","is_transit":false,"i_long":106.632761,"line":5,"distance":1547,"station_id":"TNG","i_lat":-6.176583,"time":3}]]}