{"data":[[{"station_name":"Pondokranji","i_lat":-6.276362,"is_transit":false,"transit":false,"i_long":106.74273,"line":6,"distance":0,"station_id":"PDJ","time":0},{"i_lat":-6.288927,"i_long":106.728916,"station_name":"Jurangmangu","is_transit":false,"line":6,"station_id":"JMU","distance":2179,"time":3,"transit":false},{"line":6,"is_transit":false,"station_id":"SDM","time":4,"i_lat":-6.296963,"distance":1994,"transit":false,"i_long":106.712277,"station_name":"Sudimara"},{"distance":4566,"station_id":"RU","transit":false,"time":6,"i_long":106.675475,"station_name":"Rawa Buntu","is_transit":false,"i_lat":-6.314823,"line":6},{"distance":2413,"i_lat":-6.319871,"time":4,"i_long":106.66566,"station_id":"SRP","line":6,"transit":false,"station_name":"Serpong","is_transit":false}]]}