{"data":[[{"i_lat":-6.276362,"is_transit":false,"line":6,"station_name":"Pondokranji","distance":0,"station_id":"PDJ","transit":false,"i_long":106.74273,"time":0},{"distance":6218,"time":8,"line":6,"i_lat":-6.237242,"is_transit":false,"station_name":"Kebayoran","station_id":"KBY","transit":false,"i_long":106.780334},{"station_name":"Palmerah","time":7,"station_id":"PLM","distance":3737,"i_lat":-6.207404,"i_long":106.79689,"is_transit":false,"line":6,"transit":false},{"is_transit":true,"transit":true,"time":6,"distance":3191,"line":1,"station_name":"Tanah Abang","i_lat":-6.185545,"i_long":106.811091,"station_id":"THB"},{"station_id":"KAT","is_transit":false,"station_name":"Karet","distance":2029,"time":5,"transit":false,"i_lat":-6.20132,"i_long":106.816351,"line":1},{"line":1,"station_name":"Sudirman Baru","time":1,"i_long":106.819881,"transit":false,"i_lat":-6.201433,"station_id":"SUDB","distance":471,"is_transit":false},{"time":1,"i_long":106.822649,"station_name":"Sudirman","i_lat":-6.202263,"line":1,"distance":280,"transit":false,"station_id":"SUD","is_transit":false},{"i_lat":-6.209883,"time":4,"distance":3186,"is_transit":true,"transit":true,"line":2,"station_id":"MRI","station_name":"Manggarai","i_long":106.84912},{"i_lat":-6.226659,"distance":2610,"station_name":"Tebet","line":2,"time":4,"transit":false,"i_long":106.857948,"is_transit":false,"station_id":"TEB"}],[{"time":0,"station_id":"PDJ","is_transit":false,"i_lat":-6.276362,"distance":0,"transit":false,"station_name":"Pondokranji","line":6,"i_long":106.74273},{"transit":false,"distance":6218,"i_long":106.780334,"line":6,"i_lat":-6.237242,"time":8,"station_id":"KBY","station_name":"Kebayoran","is_transit":false},{"is_transit":false,"station_name":"Palmerah","transit":false,"i_lat":-6.207404,"time":7,"distance":3737,"i_long":106.79689,"line":6,"station_id":"PLM"},{"i_long":106.811091,"station_id":"THB","station_name":"Tanah Abang","is_transit":true,"time":6,"distance":3191,"i_lat":-6.185545,"line":1,"transit":true},{"station_id":"DU","is_transit":false,"distance":3632,"station_name":"Duri","transit":false,"i_lat":-6.155215,"i_long":106.800832,"line":1,"time":8},{"i_long":106.79867,"distance":1230,"station_name":"Angke","is_transit":false,"line":1,"time":4,"station_id":"AK","transit":false,"i_lat":-6.144674},{"is_transit":true,"transit":true,"time":9,"i_lat":-6.132549,"distance":4102,"line":4,"i_long":106.826365,"station_id":"KPB","station_name":"Kampung Bandan"},{"i_long":106.812439,"station_id":"JAKK","line":2,"is_transit":true,"station_name":"Jakarta Kota","transit":true,"i_lat":-6.137569,"time":3,"distance":1364},{"station_name":"Jayakarta","i_lat":-6.141205,"i_long":106.820901,"is_transit":false,"time":4,"line":2,"station_id":"JAY","distance":1264,"transit":false},{"i_lat":-6.149769,"line":2,"station_id":"MGB","station_name":"Manggabesar","i_long":106.82482,"is_transit":false,"transit":false,"distance":1080,"time":2},{"transit":false,"distance":906,"time":2,"station_id":"SW","line":2,"i_long":106.827103,"station_name":"Sawah Besar","i_lat":-6.160725,"is_transit":false},{"line":2,"i_lat":-6.166716,"i_long":106.828284,"is_transit":false,"station_name":"Juanda","time":2,"distance":1149,"station_id":"JUA","transit":false},{"distance":2015,"station_id":"GDD","i_long":106.832183,"line":2,"is_transit":false,"station_name":"Gondangdia","transit":false,"i_lat":-6.186295,"time":4},{"station_id":"CKI","transit":false,"i_lat":-6.198556,"i_long":106.840169,"line":2,"time":3,"station_name":"Cikini","distance":1750,"is_transit":false},{"time":4,"i_long":106.84912,"distance":1590,"line":2,"is_transit":false,"station_name":"Manggarai","station_id":"MRI","transit":false,"i_lat":-6.209883},{"is_transit":false,"distance":2610,"i_lat":-6.226659,"time":4,"i_long":106.857948,"line":2,"transit":false,"station_id":"TEB","station_name":"Tebet"}],[{"is_transit":false,"station_id":"PDJ","distance":0,"i_lat":-6.276362,"i_long":106.74273,"time":0,"transit":false,"station_name":"Pondokranji","line":6},{"station_id":"KBY","transit":false,"i_long":106.780334,"time":8,"distance":6218,"i_lat":-6.237242,"is_transit":false,"station_name":"Kebayoran","line":6},{"line":6,"distance":3737,"time":7,"transit":false,"i_long":106.79689,"station_id":"PLM","is_transit":false,"i_lat":-6.207404,"station_name":"Palmerah"},{"station_name":"Tanah Abang","is_transit":true,"i_long":106.811091,"station_id":"THB","transit":true,"time":6,"i_lat":-6.185545,"distance":3191,"line":1},{"time":8,"station_name":"Duri","is_transit":false,"transit":false,"i_long":106.800832,"distance":3632,"station_id":"DU","i_lat":-6.155215,"line":1},{"time":4,"i_lat":-6.144674,"i_long":106.79867,"station_name":"Angke","is_transit":false,"distance":1230,"line":1,"transit":false,"station_id":"AK"},{"transit":true,"i_lat":-6.132549,"is_transit":true,"line":4,"i_long":106.826365,"station_id":"KPB","time":9,"distance":4102,"station_name":"Kampung Bandan"},{"i_long":106.836569,"transit":false,"is_transit":false,"distance":1444,"line":11,"station_name":"Rajawali","time":3,"station_id":"RJW","i_lat":-6.14505},{"time":5,"is_transit":false,"line":11,"i_lat":-6.161728,"station_name":"Kemayoran","i_long":106.839204,"station_id":"KMO","distance":1901,"transit":false},{"transit":false,"line":11,"distance":1436,"station_id":"PSE","i_long":106.84368,"i_lat":-6.174784,"time":4,"station_name":"Pasar Senen","is_transit":false},{"line":11,"time":8,"transit":false,"distance":1567,"is_transit":false,"station_id":"GST","station_name":"Gang Sentiong","i_lat":-6.185975,"i_long":106.850107},{"i_lat":-6.193792,"station_name":"Kramat","transit":false,"line":11,"i_long":106.855437,"is_transit":false,"station_id":"KMT","time":1,"distance":973},{"i_long":106.861737,"distance":1829,"line":11,"transit":false,"is_transit":false,"station_name":"Pondok Jati","station_id":"POK","time":2,"i_lat":-6.209188},{"i_lat":-6.215091,"distance":1236,"time":9,"station_name":"Jatinegara","is_transit":true,"i_long":106.86807400000001,"station_id":"JNG","line":1,"transit":true},{"line":1,"i_lat":-6.212485,"distance":1377,"transit":false,"station_id":"MTR","is_transit":false,"time":2,"station_name":"Matraman","i_long":106.858896},{"distance":1275,"i_lat":-6.209883,"station_name":"Manggarai","station_id":"MRI","time":2,"i_long":106.84912,"transit":true,"line":2,"is_transit":true},{"i_lat":-6.226659,"line":2,"i_long":106.857948,"station_name":"Tebet","time":4,"station_id":"TEB","is_transit":false,"distance":2610,"transit":false}]]}