{"data":[[{"transit":false,"distance":0,"time":0,"i_long":106.74273,"i_lat":-6.276362,"station_id":"PDJ","is_transit":false,"station_name":"Pondokranji","line":6},{"distance":2179,"i_long":106.728916,"line":6,"i_lat":-6.288927,"is_transit":false,"station_id":"JMU","transit":false,"time":3,"station_name":"Jurangmangu"},{"station_id":"SDM","distance":1994,"station_name":"Sudimara","is_transit":false,"time":4,"line":6,"i_lat":-6.296963,"i_long":106.712277,"transit":false},{"station_name":"Rawa Buntu","distance":4566,"is_transit":false,"transit":false,"line":6,"i_lat":-6.314823,"time":6,"station_id":"RU","i_long":106.675475},{"transit":false,"distance":2413,"is_transit":false,"i_long":106.66566,"station_id":"SRP","i_lat":-6.319871,"line":6,"station_name":"Serpong","time":4}]]}