{"data":[[{"i_lat":-6.276362,"station_name":"Pondokranji","time":0,"transit":false,"line":6,"is_transit":false,"station_id":"PDJ","distance":0,"i_long":106.74273},{"station_name":"Kebayoran","station_id":"KBY","line":6,"is_transit":false,"i_long":106.780334,"i_lat":-6.237242,"distance":6218,"time":8,"transit":false},{"transit":false,"line":6,"is_transit":false,"distance":3737,"time":7,"i_long":106.79689,"station_name":"Palmerah","station_id":"PLM","i_lat":-6.207404},{"transit":true,"i_long":106.811091,"time":6,"is_transit":true,"station_id":"THB","i_lat":-6.185545,"distance":3191,"line":1,"station_name":"Tanah Abang"},{"station_name":"Karet","is_transit":false,"distance":2029,"time":5,"i_lat":-6.20132,"i_long":106.816351,"line":1,"transit":false,"station_id":"KAT"},{"transit":false,"station_name":"Sudirman Baru","i_lat":-6.201433,"i_long":106.819881,"time":1,"distance":471,"line":1,"is_transit":false,"station_id":"SUDB"},{"distance":280,"i_lat":-6.202263,"line":1,"station_id":"SUD","time":1,"i_long":106.822649,"transit":false,"is_transit":false,"station_name":"Sudirman"},{"station_id":"MRI","distance":3186,"line":2,"transit":true,"station_name":"Manggarai","time":4,"i_long":106.84912,"i_lat":-6.209883,"is_transit":true},{"is_transit":false,"line":2,"station_id":"TEB","i_lat":-6.226659,"transit":false,"distance":2610,"i_long":106.857948,"station_name":"Tebet","time":4}],[{"station_name":"Pondokranji","station_id":"PDJ","i_long":106.74273,"transit":false,"distance":0,"i_lat":-6.276362,"is_transit":false,"time":0,"line":6},{"distance":6218,"line":6,"transit":false,"station_name":"Kebayoran","time":8,"i_long":106.780334,"i_lat":-6.237242,"is_transit":false,"station_id":"KBY"},{"distance":3737,"i_lat":-6.207404,"line":6,"i_long":106.79689,"station_name":"Palmerah","is_transit":false,"transit":false,"station_id":"PLM","time":7},{"time":6,"is_transit":true,"distance":3191,"line":1,"i_long":106.811091,"station_id":"THB","i_lat":-6.185545,"transit":true,"station_name":"Tanah Abang"},{"i_long":106.800832,"station_name":"Duri","station_id":"DU","line":1,"distance":3632,"i_lat":-6.155215,"transit":false,"is_transit":false,"time":8},{"is_transit":false,"i_lat":-6.144674,"i_long":106.79867,"line":1,"station_id":"AK","distance":1230,"transit":false,"station_name":"Angke","time":4},{"i_lat":-6.132549,"line":4,"i_long":106.826365,"time":9,"distance":4102,"station_id":"KPB","is_transit":true,"transit":true,"station_name":"Kampung Bandan"},{"is_transit":true,"i_long":106.812439,"station_name":"Jakarta Kota","distance":1364,"i_lat":-6.137569,"transit":true,"time":3,"line":2,"station_id":"JAKK"},{"station_name":"Jayakarta","station_id":"JAY","time":4,"is_transit":false,"line":2,"distance":1264,"transit":false,"i_lat":-6.141205,"i_long":106.820901},{"i_lat":-6.149769,"station_id":"MGB","is_transit":false,"line":2,"time":2,"distance":1080,"station_name":"Manggabesar","i_long":106.82482,"transit":false},{"station_name":"Sawah Besar","time":2,"station_id":"SW","is_transit":false,"distance":906,"transit":false,"i_lat":-6.160725,"i_long":106.827103,"line":2},{"i_long":106.828284,"station_name":"Juanda","line":2,"station_id":"JUA","transit":false,"is_transit":false,"i_lat":-6.166716,"time":2,"distance":1149},{"line":2,"station_name":"Gondangdia","station_id":"GDD","i_long":106.832183,"distance":2015,"time":4,"i_lat":-6.186295,"transit":false,"is_transit":false},{"is_transit":false,"line":2,"i_long":106.840169,"i_lat":-6.198556,"station_id":"CKI","distance":1750,"time":3,"station_name":"Cikini","transit":false},{"line":2,"station_id":"MRI","i_lat":-6.209883,"is_transit":false,"time":4,"distance":1590,"transit":false,"station_name":"Manggarai","i_long":106.84912},{"is_transit":false,"line":2,"station_name":"Tebet","i_lat":-6.226659,"time":4,"station_id":"TEB","transit":false,"distance":2610,"i_long":106.857948}],[{"is_transit":false,"distance":0,"station_name":"Pondokranji","time":0,"i_lat":-6.276362,"line":6,"station_id":"PDJ","transit":false,"i_long":106.74273},{"line":6,"station_id":"KBY","station_name":"Kebayoran","transit":false,"time":8,"is_transit":false,"i_lat":-6.237242,"distance":6218,"i_long":106.780334},{"time":7,"line":6,"transit":false,"is_transit":false,"i_lat":-6.207404,"station_id":"PLM","distance":3737,"station_name":"Palmerah","i_long":106.79689},{"i_long":106.811091,"distance":3191,"is_transit":true,"i_lat":-6.185545,"transit":true,"station_name":"Tanah Abang","time":6,"line":1,"station_id":"THB"},{"time":8,"i_lat":-6.155215,"station_name":"Duri","line":1,"distance":3632,"is_transit":false,"i_long":106.800832,"transit":false,"station_id":"DU"},{"line":1,"is_transit":false,"station_id":"AK","i_lat":-6.144674,"distance":1230,"station_name":"Angke","time":4,"i_long":106.79867,"transit":false},{"i_long":106.826365,"station_name":"Kampung Bandan","distance":4102,"transit":true,"station_id":"KPB","time":9,"i_lat":-6.132549,"line":4,"is_transit":true},{"time":3,"is_transit":false,"station_name":"Rajawali","station_id":"RJW","distance":1444,"i_long":106.836569,"i_lat":-6.14505,"transit":false,"line":11},{"transit":false,"time":5,"i_lat":-6.161728,"line":11,"station_id":"KMO","i_long":106.839204,"station_name":"Kemayoran","distance":1901,"is_transit":false},{"station_name":"Pasar Senen","distance":1436,"line":11,"i_lat":-6.174784,"time":4,"station_id":"PSE","is_transit":false,"i_long":106.84368,"transit":false},{"station_name":"Gang Sentiong","i_long":106.850107,"transit":false,"line":11,"i_lat":-6.185975,"is_transit":false,"station_id":"GST","distance":1567,"time":8},{"i_long":106.855437,"station_name":"Kramat","time":1,"line":11,"is_transit":false,"i_lat":-6.193792,"transit":false,"station_id":"KMT","distance":973},{"distance":1829,"i_lat":-6.209188,"is_transit":false,"station_id":"POK","time":2,"transit":false,"station_name":"Pondok Jati","line":11,"i_long":106.861737},{"is_transit":true,"distance":1236,"i_long":106.86807400000001,"line":1,"station_id":"JNG","station_name":"Jatinegara","i_lat":-6.215091,"time":9,"transit":true},{"time":2,"transit":false,"station_name":"Matraman","distance":1377,"line":1,"i_lat":-6.212485,"is_transit":false,"i_long":106.858896,"station_id":"MTR"},{"station_id":"MRI","is_transit":true,"distance":1275,"i_long":106.84912,"i_lat":-6.209883,"line":2,"time":2,"transit":true,"station_name":"Manggarai"},{"line":2,"station_name":"Tebet","distance":2610,"i_long":106.857948,"is_transit":false,"time":4,"transit":false,"station_id":"TEB","i_lat":-6.226659}]]}