{"data":[[{"time":0,"station_name":"Pondokranji","i_lat":-6.276362,"line":6,"distance":0,"transit":false,"is_transit":false,"station_id":"PDJ","i_long":106.74273},{"i_long":106.780334,"transit":false,"is_transit":false,"line":6,"time":8,"station_name":"Kebayoran","distance":6218,"station_id":"KBY","i_lat":-6.237242},{"station_name":"Palmerah","line":6,"time":7,"station_id":"PLM","is_transit":false,"transit":false,"i_long":106.79689,"distance":3737,"i_lat":-6.207404},{"station_id":"THB","time":6,"i_lat":-6.185545,"distance":3191,"is_transit":true,"i_long":106.811091,"transit":true,"line":1,"station_name":"Tanah Abang"},{"is_transit":false,"transit":false,"i_lat":-6.20132,"i_long":106.816351,"distance":2029,"station_id":"KAT","time":5,"station_name":"Karet","line":1},{"station_name":"Sudirman Baru","line":1,"time":1,"i_lat":-6.201433,"transit":false,"is_transit":false,"station_id":"SUDB","distance":471,"i_long":106.819881},{"i_lat":-6.202263,"station_name":"Sudirman","i_long":106.822649,"line":1,"is_transit":false,"distance":280,"transit":false,"time":1,"station_id":"SUD"},{"transit":true,"station_name":"Manggarai","station_id":"MRI","i_long":106.84912,"i_lat":-6.209883,"line":0,"distance":3186,"time":4,"is_transit":true},{"i_long":106.857948,"station_name":"Tebet","line":2,"transit":false,"distance":2610,"is_transit":false,"station_id":"TEB","time":4,"i_lat":-6.226659}],[{"i_long":106.74273,"time":0,"transit":false,"station_id":"PDJ","i_lat":-6.276362,"distance":0,"line":6,"station_name":"Pondokranji","is_transit":false},{"i_lat":-6.237242,"is_transit":false,"station_id":"KBY","distance":6218,"station_name":"Kebayoran","transit":false,"time":8,"i_long":106.780334,"line":6},{"station_id":"PLM","i_long":106.79689,"line":6,"station_name":"Palmerah","is_transit":false,"distance":3737,"transit":false,"time":7,"i_lat":-6.207404},{"is_transit":true,"i_lat":-6.185545,"time":6,"station_name":"Tanah Abang","distance":3191,"transit":true,"station_id":"THB","i_long":106.811091,"line":1},{"distance":3632,"line":1,"i_long":106.800832,"time":8,"station_name":"Duri","is_transit":true,"transit":true,"station_id":"DU","i_lat":-6.155215},{"station_name":"Angke","distance":1230,"is_transit":false,"transit":false,"i_lat":-6.144674,"station_id":"AK","i_long":106.79867,"time":4,"line":0},{"i_lat":-6.132549,"i_long":106.826365,"transit":false,"is_transit":true,"station_name":"Kampung Bandan","time":9,"station_id":"KPB","line":0,"distance":4102},{"line":0,"station_name":"Jakarta Kota","distance":1364,"is_transit":true,"i_long":106.812439,"time":3,"i_lat":-6.137569,"station_id":"JAKK","transit":true},{"station_name":"Jayakarta","i_long":106.820901,"distance":1264,"station_id":"JAY","i_lat":-6.141205,"line":7,"is_transit":false,"transit":false,"time":4},{"distance":1080,"station_name":"Manggabesar","i_long":106.82482,"is_transit":false,"transit":false,"line":2,"i_lat":-6.149769,"time":2,"station_id":"MGB"},{"transit":false,"line":2,"time":2,"i_long":106.827103,"distance":906,"station_name":"Sawah Besar","station_id":"SW","i_lat":-6.160725,"is_transit":false},{"station_id":"JUA","time":2,"distance":1149,"line":2,"i_long":106.828284,"transit":false,"station_name":"Juanda","is_transit":false,"i_lat":-6.166716},{"station_name":"Gondangdia","i_lat":-6.186295,"i_long":106.832183,"time":4,"station_id":"GDD","is_transit":false,"distance":2015,"line":2,"transit":false},{"line":0,"transit":false,"station_id":"CKI","station_name":"Cikini","distance":1750,"is_transit":false,"i_lat":-6.198556,"i_long":106.840169,"time":3},{"distance":1590,"station_name":"Manggarai","station_id":"MRI","i_lat":-6.209883,"transit":true,"i_long":106.84912,"line":0,"is_transit":true,"time":4},{"is_transit":false,"transit":false,"line":2,"station_name":"Tebet","distance":2610,"i_lat":-6.226659,"i_long":106.857948,"time":4,"station_id":"TEB"}],[{"distance":0,"i_lat":-6.276362,"station_name":"Pondokranji","i_long":106.74273,"is_transit":false,"transit":false,"station_id":"PDJ","time":0,"line":6},{"i_long":106.780334,"time":8,"is_transit":false,"transit":false,"line":6,"i_lat":-6.237242,"station_id":"KBY","station_name":"Kebayoran","distance":6218},{"i_long":106.79689,"i_lat":-6.207404,"station_id":"PLM","station_name":"Palmerah","time":7,"distance":3737,"is_transit":false,"transit":false,"line":6},{"i_lat":-6.185545,"station_name":"Tanah Abang","distance":3191,"transit":true,"time":6,"line":1,"i_long":106.811091,"station_id":"THB","is_transit":true},{"time":8,"is_transit":true,"distance":3632,"station_id":"DU","transit":true,"i_long":106.800832,"line":1,"station_name":"Duri","i_lat":-6.155215},{"time":4,"distance":1230,"i_long":106.79867,"is_transit":false,"line":0,"station_id":"AK","transit":false,"i_lat":-6.144674,"station_name":"Angke"},{"station_name":"Kampung Bandan","station_id":"KPB","i_long":106.826365,"distance":4102,"is_transit":true,"line":0,"transit":true,"i_lat":-6.132549,"time":9},{"transit":false,"i_lat":-6.14505,"time":3,"line":11,"i_long":106.836569,"station_name":"Rajawali","station_id":"RJW","is_transit":false,"distance":1444},{"time":5,"i_lat":-6.161728,"is_transit":false,"distance":1901,"station_id":"KMO","transit":false,"station_name":"Kemayoran","line":11,"i_long":106.839204},{"station_name":"Pasar Senen","time":4,"station_id":"PSE","distance":1436,"line":11,"is_transit":false,"i_lat":-6.174784,"transit":false,"i_long":106.84368},{"station_id":"GST","transit":false,"station_name":"Gang Sentiong","i_lat":-6.185975,"line":11,"i_long":106.850107,"is_transit":false,"distance":1567,"time":8},{"transit":false,"distance":973,"station_id":"KMT","station_name":"Kramat","line":11,"is_transit":false,"time":1,"i_long":106.855437,"i_lat":-6.193792},{"distance":1829,"station_name":"Pondok Jati","i_lat":-6.209188,"line":11,"transit":false,"is_transit":false,"time":2,"station_id":"POK","i_long":106.861737},{"line":0,"time":9,"distance":1236,"i_lat":-6.215091,"i_long":106.86807400000001,"station_id":"JNG","station_name":"Jatinegara","is_transit":true,"transit":true},{"distance":1377,"is_transit":false,"transit":false,"station_id":"MTR","i_lat":-6.212485,"line":1,"time":2,"i_long":106.858896,"station_name":"Matraman"},{"i_long":106.84912,"line":0,"transit":true,"distance":1275,"station_id":"MRI","time":2,"station_name":"Manggarai","i_lat":-6.209883,"is_transit":true},{"is_transit":false,"line":2,"distance":2610,"transit":false,"station_id":"TEB","i_lat":-6.226659,"time":4,"station_name":"Tebet","i_long":106.857948}]]}