{"data":[[{"station_id":"PDJ","is_transit":false,"station_name":"Pondokranji","distance":0,"time":0,"i_long":106.74273,"line":6,"i_lat":-6.276362,"transit":false},{"time":8,"i_lat":-6.237242,"is_transit":false,"transit":false,"station_name":"Kebayoran","station_id":"KBY","distance":6218,"i_long":106.780334,"line":6},{"distance":3737,"station_name":"Palmerah","time":7,"transit":false,"station_id":"PLM","is_transit":false,"i_long":106.79689,"line":6,"i_lat":-6.207404},{"i_lat":-6.185545,"i_long":106.811091,"line":1,"transit":true,"time":6,"station_id":"THB","station_name":"Tanah Abang","is_transit":true,"distance":3191},{"time":5,"distance":2029,"i_lat":-6.20132,"station_id":"KAT","transit":false,"is_transit":false,"i_long":106.816351,"line":1,"station_name":"Karet"},{"distance":471,"is_transit":false,"i_long":106.819881,"time":1,"station_id":"SUDB","line":1,"transit":false,"i_lat":-6.201433,"station_name":"Sudirman Baru"},{"station_id":"SUD","i_long":106.822649,"line":1,"transit":false,"station_name":"Sudirman","time":1,"distance":280,"i_lat":-6.202263,"is_transit":false}],[{"station_id":"PDJ","time":0,"line":6,"station_name":"Pondokranji","transit":false,"i_lat":-6.276362,"is_transit":false,"i_long":106.74273,"distance":0},{"distance":6218,"is_transit":false,"i_long":106.780334,"transit":false,"station_id":"KBY","station_name":"Kebayoran","time":8,"i_lat":-6.237242,"line":6},{"distance":3737,"i_long":106.79689,"transit":false,"line":6,"i_lat":-6.207404,"is_transit":false,"station_id":"PLM","time":7,"station_name":"Palmerah"},{"distance":3191,"i_long":106.811091,"i_lat":-6.185545,"station_name":"Tanah Abang","time":6,"transit":true,"station_id":"THB","is_transit":true,"line":1},{"time":8,"distance":3632,"station_id":"DU","i_long":106.800832,"is_transit":false,"station_name":"Duri","i_lat":-6.155215,"transit":false,"line":1},{"is_transit":false,"distance":1230,"transit":false,"i_long":106.79867,"i_lat":-6.144674,"station_name":"Angke","station_id":"AK","time":4,"line":1},{"i_lat":-6.132549,"is_transit":true,"line":4,"distance":4102,"station_name":"Kampung Bandan","station_id":"KPB","time":9,"i_long":106.826365,"transit":true},{"i_lat":-6.137569,"is_transit":true,"transit":true,"time":3,"i_long":106.812439,"line":2,"distance":1364,"station_id":"JAKK","station_name":"Jakarta Kota"},{"i_lat":-6.141205,"i_long":106.820901,"station_id":"JAY","time":4,"distance":1264,"transit":false,"line":2,"station_name":"Jayakarta","is_transit":false},{"i_lat":-6.149769,"line":2,"station_id":"MGB","is_transit":false,"station_name":"Manggabesar","time":2,"distance":1080,"i_long":106.82482,"transit":false},{"distance":906,"line":2,"transit":false,"i_long":106.827103,"time":2,"is_transit":false,"i_lat":-6.160725,"station_id":"SW","station_name":"Sawah Besar"},{"time":2,"i_lat":-6.166716,"line":2,"station_name":"Juanda","distance":1149,"i_long":106.828284,"station_id":"JUA","transit":false,"is_transit":false},{"transit":false,"i_lat":-6.186295,"time":4,"station_name":"Gondangdia","is_transit":false,"i_long":106.832183,"line":2,"station_id":"GDD","distance":2015},{"station_name":"Cikini","time":3,"transit":false,"is_transit":false,"distance":1750,"i_long":106.840169,"line":2,"i_lat":-6.198556,"station_id":"CKI"},{"time":4,"is_transit":true,"station_id":"MRI","i_lat":-6.209883,"i_long":106.84912,"station_name":"Manggarai","distance":1590,"line":2,"transit":true},{"station_name":"Sudirman","distance":3186,"i_long":106.822649,"line":1,"time":4,"station_id":"SUD","transit":false,"is_transit":false,"i_lat":-6.202263}],[{"station_name":"Pondokranji","is_transit":false,"line":6,"distance":0,"time":0,"i_lat":-6.276362,"station_id":"PDJ","i_long":106.74273,"transit":false},{"station_id":"KBY","is_transit":false,"i_long":106.780334,"line":6,"transit":false,"station_name":"Kebayoran","i_lat":-6.237242,"time":8,"distance":6218},{"is_transit":false,"transit":false,"i_lat":-6.207404,"i_long":106.79689,"distance":3737,"station_name":"Palmerah","line":6,"station_id":"PLM","time":7},{"transit":true,"line":1,"distance":3191,"station_name":"Tanah Abang","station_id":"THB","i_lat":-6.185545,"i_long":106.811091,"is_transit":true,"time":6},{"is_transit":false,"i_long":106.800832,"time":8,"distance":3632,"transit":false,"station_id":"DU","station_name":"Duri","line":1,"i_lat":-6.155215},{"station_name":"Angke","line":1,"time":4,"i_long":106.79867,"is_transit":false,"transit":false,"distance":1230,"station_id":"AK","i_lat":-6.144674},{"i_lat":-6.132549,"station_name":"Kampung Bandan","station_id":"KPB","time":9,"distance":4102,"line":4,"transit":true,"i_long":106.826365,"is_transit":true},{"i_lat":-6.14505,"station_name":"Rajawali","distance":1444,"line":11,"transit":false,"station_id":"RJW","is_transit":false,"time":3,"i_long":106.836569},{"time":5,"i_long":106.839204,"transit":false,"is_transit":false,"i_lat":-6.161728,"line":11,"station_id":"KMO","station_name":"Kemayoran","distance":1901},{"is_transit":false,"transit":false,"time":4,"station_id":"PSE","station_name":"Pasar Senen","distance":1436,"i_lat":-6.174784,"i_long":106.84368,"line":11},{"station_name":"Gang Sentiong","i_lat":-6.185975,"is_transit":false,"time":8,"line":11,"transit":false,"distance":1567,"station_id":"GST","i_long":106.850107},{"time":1,"is_transit":false,"distance":973,"i_long":106.855437,"transit":false,"station_id":"KMT","i_lat":-6.193792,"line":11,"station_name":"Kramat"},{"transit":false,"line":11,"time":2,"station_name":"Pondok Jati","station_id":"POK","distance":1829,"is_transit":false,"i_lat":-6.209188,"i_long":106.861737},{"i_long":106.86807400000001,"is_transit":true,"i_lat":-6.215091,"line":1,"time":9,"station_id":"JNG","distance":1236,"station_name":"Jatinegara","transit":true},{"i_lat":-6.212485,"i_long":106.858896,"station_name":"Matraman","time":2,"distance":1377,"transit":false,"line":1,"is_transit":false,"station_id":"MTR"},{"station_id":"MRI","time":2,"is_transit":false,"transit":false,"station_name":"Manggarai","i_lat":-6.209883,"distance":1275,"i_long":106.84912,"line":2},{"station_name":"Sudirman","time":4,"distance":3186,"i_lat":-6.202263,"line":1,"station_id":"SUD","is_transit":false,"transit":false,"i_long":106.822649}]]}