{"data":[[{"transit":false,"station_id":"PDJ","i_long":106.74273,"distance":0,"is_transit":false,"i_lat":-6.276362,"time":0,"line":6,"station_name":"Pondokranji"},{"i_lat":-6.237242,"time":8,"i_long":106.780334,"station_name":"Kebayoran","line":6,"transit":false,"is_transit":false,"distance":6218,"station_id":"KBY"},{"i_lat":-6.207404,"i_long":106.79689,"distance":3737,"is_transit":false,"line":6,"transit":false,"station_name":"Palmerah","station_id":"PLM","time":7},{"time":6,"i_long":106.811091,"line":1,"station_name":"Tanah Abang","i_lat":-6.185545,"transit":true,"distance":3191,"station_id":"THB","is_transit":true},{"station_id":"KAT","line":1,"time":5,"distance":2029,"station_name":"Karet","transit":false,"i_long":106.816351,"i_lat":-6.20132,"is_transit":false},{"transit":false,"station_name":"Sudirman Baru","is_transit":false,"i_long":106.819881,"station_id":"SUDB","distance":471,"line":1,"i_lat":-6.201433,"time":1},{"line":1,"station_name":"Sudirman","is_transit":false,"i_long":106.822649,"distance":280,"time":1,"transit":false,"station_id":"SUD","i_lat":-6.202263},{"station_id":"MRI","i_long":106.84912,"station_name":"Manggarai","transit":false,"time":4,"distance":3186,"line":2,"is_transit":false,"i_lat":-6.209883},{"i_lat":-6.212485,"time":2,"station_id":"MTR","station_name":"Matraman","i_long":106.858896,"line":1,"transit":false,"distance":1275,"is_transit":false},{"time":8,"i_lat":-6.215091,"distance":1377,"is_transit":true,"transit":true,"i_long":106.86807400000001,"line":1,"station_id":"JNG","station_name":"Jatinegara"},{"time":2,"transit":false,"station_id":"POK","i_long":106.861737,"station_name":"Pondok Jati","distance":1236,"is_transit":false,"line":11,"i_lat":-6.209188}],[{"station_id":"PDJ","is_transit":false,"line":6,"distance":0,"i_lat":-6.276362,"time":0,"transit":false,"station_name":"Pondokranji","i_long":106.74273},{"i_lat":-6.237242,"time":8,"station_id":"KBY","is_transit":false,"i_long":106.780334,"line":6,"station_name":"Kebayoran","transit":false,"distance":6218},{"station_name":"Palmerah","line":6,"station_id":"PLM","distance":3737,"is_transit":false,"i_lat":-6.207404,"transit":false,"time":7,"i_long":106.79689},{"transit":true,"station_name":"Tanah Abang","i_lat":-6.185545,"is_transit":true,"line":1,"distance":3191,"time":6,"i_long":106.811091,"station_id":"THB"},{"is_transit":false,"time":8,"transit":false,"distance":3632,"i_lat":-6.155215,"station_name":"Duri","i_long":106.800832,"line":1,"station_id":"DU"},{"distance":1230,"station_name":"Angke","line":1,"time":4,"station_id":"AK","i_long":106.79867,"i_lat":-6.144674,"is_transit":false,"transit":false},{"station_name":"Kampung Bandan","i_long":106.826365,"station_id":"KPB","is_transit":true,"time":9,"distance":4102,"transit":true,"i_lat":-6.132549,"line":4},{"is_transit":false,"distance":1444,"station_id":"RJW","i_lat":-6.14505,"time":3,"line":11,"i_long":106.836569,"transit":false,"station_name":"Rajawali"},{"i_lat":-6.161728,"is_transit":false,"line":11,"station_name":"Kemayoran","station_id":"KMO","i_long":106.839204,"transit":false,"time":5,"distance":1901},{"time":4,"distance":1436,"i_lat":-6.174784,"line":11,"is_transit":false,"transit":false,"station_id":"PSE","station_name":"Pasar Senen","i_long":106.84368},{"time":8,"station_name":"Gang Sentiong","is_transit":false,"station_id":"GST","distance":1567,"i_lat":-6.185975,"line":11,"transit":false,"i_long":106.850107},{"distance":973,"i_long":106.855437,"station_name":"Kramat","is_transit":false,"transit":false,"time":1,"i_lat":-6.193792,"station_id":"KMT","line":11},{"station_name":"Pondok Jati","i_long":106.861737,"station_id":"POK","distance":1829,"i_lat":-6.209188,"time":2,"transit":false,"is_transit":false,"line":11}],[{"station_id":"PDJ","time":0,"distance":0,"is_transit":false,"i_long":106.74273,"line":6,"transit":false,"i_lat":-6.276362,"station_name":"Pondokranji"},{"distance":6218,"is_transit":false,"transit":false,"i_long":106.780334,"i_lat":-6.237242,"line":6,"time":8,"station_id":"KBY","station_name":"Kebayoran"},{"i_lat":-6.207404,"transit":false,"station_id":"PLM","station_name":"Palmerah","is_transit":false,"time":7,"i_long":106.79689,"line":6,"distance":3737},{"line":1,"transit":true,"station_name":"Tanah Abang","distance":3191,"i_lat":-6.185545,"station_id":"THB","is_transit":true,"time":6,"i_long":106.811091},{"transit":false,"station_id":"DU","i_lat":-6.155215,"i_long":106.800832,"time":8,"line":1,"station_name":"Duri","is_transit":false,"distance":3632},{"transit":false,"station_name":"Angke","distance":1230,"is_transit":false,"line":1,"i_long":106.79867,"time":4,"station_id":"AK","i_lat":-6.144674},{"line":4,"i_lat":-6.132549,"station_name":"Kampung Bandan","distance":4102,"station_id":"KPB","time":9,"transit":true,"is_transit":true,"i_long":106.826365},{"station_name":"Jakarta Kota","time":3,"transit":true,"is_transit":true,"i_lat":-6.137569,"i_long":106.812439,"line":2,"station_id":"JAKK","distance":1364},{"station_id":"JAY","distance":1264,"i_lat":-6.141205,"station_name":"Jayakarta","is_transit":false,"time":4,"i_long":106.820901,"line":2,"transit":false},{"is_transit":false,"station_name":"Manggabesar","time":2,"i_lat":-6.149769,"i_long":106.82482,"line":2,"station_id":"MGB","distance":1080,"transit":false},{"time":2,"transit":false,"station_id":"SW","station_name":"Sawah Besar","i_lat":-6.160725,"distance":906,"i_long":106.827103,"line":2,"is_transit":false},{"i_lat":-6.166716,"time":2,"station_id":"JUA","transit":false,"station_name":"Juanda","i_long":106.828284,"line":2,"distance":1149,"is_transit":false},{"time":4,"line":2,"i_lat":-6.186295,"transit":false,"station_name":"Gondangdia","i_long":106.832183,"distance":2015,"is_transit":false,"station_id":"GDD"},{"line":2,"i_lat":-6.198556,"i_long":106.840169,"distance":1750,"station_id":"CKI","transit":false,"station_name":"Cikini","is_transit":false,"time":3},{"i_lat":-6.209883,"time":4,"transit":true,"i_long":106.84912,"station_name":"Manggarai","distance":1590,"line":2,"is_transit":true,"station_id":"MRI"},{"station_id":"MTR","line":1,"distance":1275,"is_transit":false,"time":2,"i_lat":-6.212485,"station_name":"Matraman","transit":false,"i_long":106.858896},{"station_id":"JNG","station_name":"Jatinegara","distance":1377,"line":1,"is_transit":true,"i_long":106.86807400000001,"transit":true,"time":8,"i_lat":-6.215091},{"station_name":"Pondok Jati","i_long":106.861737,"time":2,"transit":false,"i_lat":-6.209188,"station_id":"POK","line":11,"distance":1236,"is_transit":false}],[{"distance":0,"i_long":106.74273,"i_lat":-6.276362,"transit":false,"station_name":"Pondokranji","line":6,"time":0,"is_transit":false,"station_id":"PDJ"},{"transit":false,"station_id":"KBY","time":8,"is_transit":false,"i_lat":-6.237242,"distance":6218,"line":6,"station_name":"Kebayoran","i_long":106.780334},{"transit":false,"i_lat":-6.207404,"i_long":106.79689,"line":6,"station_name":"Palmerah","time":7,"station_id":"PLM","distance":3737,"is_transit":false},{"station_id":"THB","station_name":"Tanah Abang","line":1,"is_transit":true,"i_long":106.811091,"transit":true,"time":6,"distance":3191,"i_lat":-6.185545},{"is_transit":false,"time":5,"transit":false,"i_lat":-6.20132,"line":1,"i_long":106.816351,"station_id":"KAT","distance":2029,"station_name":"Karet"},{"station_id":"SUDB","station_name":"Sudirman Baru","time":1,"i_lat":-6.201433,"transit":false,"line":1,"i_long":106.819881,"is_transit":false,"distance":471},{"time":1,"is_transit":false,"station_name":"Sudirman","transit":false,"station_id":"SUD","distance":280,"i_long":106.822649,"i_lat":-6.202263,"line":1},{"i_lat":-6.209883,"is_transit":true,"transit":true,"i_long":106.84912,"distance":3186,"time":4,"station_name":"Manggarai","line":2,"station_id":"MRI"},{"time":4,"station_id":"CKI","distance":1590,"station_name":"Cikini","is_transit":false,"i_long":106.840169,"transit":false,"i_lat":-6.198556,"line":2},{"station_id":"GDD","time":3,"is_transit":false,"station_name":"Gondangdia","line":2,"distance":1750,"i_long":106.832183,"i_lat":-6.186295,"transit":false},{"station_id":"JUA","distance":2015,"i_long":106.828284,"is_transit":false,"line":2,"transit":false,"time":4,"station_name":"Juanda","i_lat":-6.166716},{"distance":1149,"i_lat":-6.160725,"is_transit":false,"i_long":106.827103,"line":2,"time":2,"station_name":"Sawah Besar","transit":false,"station_id":"SW"},{"is_transit":false,"i_long":106.82482,"station_id":"MGB","distance":906,"i_lat":-6.149769,"line":2,"time":2,"transit":false,"station_name":"Manggabesar"},{"transit":false,"line":2,"time":2,"distance":1080,"station_id":"JAY","i_long":106.820901,"station_name":"Jayakarta","is_transit":false,"i_lat":-6.141205},{"distance":1264,"i_lat":-6.137569,"i_long":106.812439,"line":2,"time":4,"station_id":"JAKK","is_transit":true,"transit":true,"station_name":"Jakarta Kota"},{"distance":1364,"time":3,"i_lat":-6.132549,"i_long":106.826365,"line":4,"station_id":"KPB","station_name":"Kampung Bandan","is_transit":true,"transit":true},{"line":11,"station_name":"Rajawali","i_long":106.836569,"distance":1444,"time":3,"station_id":"RJW","is_transit":false,"transit":false,"i_lat":-6.14505},{"distance":1901,"station_name":"Kemayoran","i_long":106.839204,"i_lat":-6.161728,"transit":false,"line":11,"time":5,"station_id":"KMO","is_transit":false},{"time":4,"i_lat":-6.174784,"i_long":106.84368,"line":11,"is_transit":false,"transit":false,"station_id":"PSE","station_name":"Pasar Senen","distance":1436},{"station_id":"GST","station_name":"Gang Sentiong","distance":1567,"time":8,"is_transit":false,"transit":false,"line":11,"i_lat":-6.185975,"i_long":106.850107},{"line":11,"transit":false,"station_name":"Kramat","station_id":"KMT","is_transit":false,"i_lat":-6.193792,"distance":973,"time":1,"i_long":106.855437},{"distance":1829,"i_long":106.861737,"line":11,"is_transit":false,"station_name":"Pondok Jati","time":2,"station_id":"POK","transit":false,"i_lat":-6.209188}]]}