{"data":[[{"station_name":"Pondokranji","transit":false,"time":0,"is_transit":false,"i_lat":-6.276362,"station_id":"PDJ","i_long":106.74273,"distance":0,"line":6},{"line":6,"i_long":106.780334,"i_lat":-6.237242,"time":8,"distance":6218,"station_id":"KBY","station_name":"Kebayoran","is_transit":false,"transit":false},{"time":7,"is_transit":false,"station_name":"Palmerah","i_lat":-6.207404,"i_long":106.79689,"station_id":"PLM","line":6,"transit":false,"distance":3737},{"i_long":106.811091,"transit":true,"station_name":"Tanah Abang","i_lat":-6.185545,"is_transit":true,"distance":3191,"station_id":"THB","line":1,"time":6},{"station_id":"KAT","i_long":106.816351,"line":1,"distance":2029,"time":5,"station_name":"Karet","i_lat":-6.20132,"is_transit":false,"transit":false},{"station_name":"Sudirman Baru","transit":false,"i_long":106.819881,"time":1,"line":1,"station_id":"SUDB","distance":471,"is_transit":false,"i_lat":-6.201433},{"transit":false,"i_lat":-6.202263,"line":1,"is_transit":false,"i_long":106.822649,"distance":280,"station_id":"SUD","time":1,"station_name":"Sudirman"}],[{"line":6,"time":0,"distance":0,"is_transit":false,"i_long":106.74273,"i_lat":-6.276362,"station_id":"PDJ","transit":false,"station_name":"Pondokranji"},{"is_transit":false,"station_name":"Kebayoran","time":8,"distance":6218,"transit":false,"i_lat":-6.237242,"station_id":"KBY","line":6,"i_long":106.780334},{"line":6,"is_transit":false,"distance":3737,"transit":false,"i_lat":-6.207404,"time":7,"station_id":"PLM","i_long":106.79689,"station_name":"Palmerah"},{"station_name":"Tanah Abang","station_id":"THB","line":1,"time":6,"distance":3191,"transit":true,"i_lat":-6.185545,"i_long":106.811091,"is_transit":true},{"i_lat":-6.155215,"line":1,"station_name":"Duri","distance":3632,"is_transit":false,"station_id":"DU","time":8,"transit":false,"i_long":106.800832},{"transit":false,"time":4,"station_id":"AK","station_name":"Angke","i_lat":-6.144674,"line":1,"distance":1230,"is_transit":false,"i_long":106.79867},{"station_name":"Kampung Bandan","is_transit":true,"i_long":106.826365,"line":4,"time":9,"station_id":"KPB","transit":true,"distance":4102,"i_lat":-6.132549},{"i_long":106.812439,"distance":1364,"transit":true,"time":3,"i_lat":-6.137569,"line":2,"station_id":"JAKK","station_name":"Jakarta Kota","is_transit":true},{"is_transit":false,"distance":1264,"transit":false,"station_name":"Jayakarta","i_lat":-6.141205,"i_long":106.820901,"time":4,"line":2,"station_id":"JAY"},{"is_transit":false,"line":2,"i_long":106.82482,"station_name":"Manggabesar","time":2,"distance":1080,"station_id":"MGB","transit":false,"i_lat":-6.149769},{"time":2,"is_transit":false,"station_name":"Sawah Besar","i_lat":-6.160725,"line":2,"distance":906,"i_long":106.827103,"station_id":"SW","transit":false},{"time":2,"distance":1149,"i_long":106.828284,"station_id":"JUA","station_name":"Juanda","transit":false,"line":2,"is_transit":false,"i_lat":-6.166716},{"distance":2015,"i_lat":-6.186295,"line":2,"i_long":106.832183,"station_id":"GDD","station_name":"Gondangdia","is_transit":false,"transit":false,"time":4},{"transit":false,"station_name":"Cikini","time":3,"line":2,"is_transit":false,"distance":1750,"i_long":106.840169,"i_lat":-6.198556,"station_id":"CKI"},{"station_id":"MRI","time":4,"station_name":"Manggarai","distance":1590,"is_transit":true,"transit":true,"i_lat":-6.209883,"line":2,"i_long":106.84912},{"transit":false,"distance":3186,"station_id":"SUD","station_name":"Sudirman","is_transit":false,"i_lat":-6.202263,"i_long":106.822649,"line":1,"time":4}],[{"transit":false,"station_name":"Pondokranji","line":6,"i_lat":-6.276362,"time":0,"distance":0,"i_long":106.74273,"station_id":"PDJ","is_transit":false},{"i_long":106.780334,"is_transit":false,"time":8,"station_id":"KBY","station_name":"Kebayoran","line":6,"transit":false,"i_lat":-6.237242,"distance":6218},{"distance":3737,"transit":false,"station_id":"PLM","time":7,"is_transit":false,"station_name":"Palmerah","i_long":106.79689,"line":6,"i_lat":-6.207404},{"i_long":106.811091,"line":1,"station_name":"Tanah Abang","transit":true,"distance":3191,"i_lat":-6.185545,"time":6,"station_id":"THB","is_transit":true},{"station_id":"DU","is_transit":false,"i_long":106.800832,"line":1,"transit":false,"distance":3632,"time":8,"station_name":"Duri","i_lat":-6.155215},{"transit":false,"i_lat":-6.144674,"line":1,"distance":1230,"station_id":"AK","i_long":106.79867,"is_transit":false,"time":4,"station_name":"Angke"},{"is_transit":true,"station_id":"KPB","time":9,"station_name":"Kampung Bandan","transit":true,"i_lat":-6.132549,"distance":4102,"line":4,"i_long":106.826365},{"i_long":106.836569,"station_name":"Rajawali","distance":1444,"i_lat":-6.14505,"time":3,"transit":false,"is_transit":false,"line":11,"station_id":"RJW"},{"line":11,"time":5,"distance":1901,"is_transit":false,"i_lat":-6.161728,"i_long":106.839204,"station_id":"KMO","station_name":"Kemayoran","transit":false},{"transit":false,"is_transit":false,"line":11,"station_id":"PSE","station_name":"Pasar Senen","distance":1436,"time":4,"i_lat":-6.174784,"i_long":106.84368},{"line":11,"distance":1567,"station_name":"Gang Sentiong","time":8,"station_id":"GST","i_long":106.850107,"transit":false,"i_lat":-6.185975,"is_transit":false},{"i_long":106.855437,"station_id":"KMT","time":1,"transit":false,"station_name":"Kramat","is_transit":false,"distance":973,"i_lat":-6.193792,"line":11},{"distance":1829,"is_transit":false,"line":11,"station_name":"Pondok Jati","transit":false,"i_lat":-6.209188,"i_long":106.861737,"time":2,"station_id":"POK"},{"station_name":"Jatinegara","line":1,"i_lat":-6.215091,"is_transit":true,"transit":true,"time":9,"i_long":106.86807400000001,"distance":1236,"station_id":"JNG"},{"is_transit":false,"transit":false,"line":1,"time":2,"i_long":106.858896,"distance":1377,"station_name":"Matraman","i_lat":-6.212485,"station_id":"MTR"},{"i_lat":-6.209883,"time":2,"line":2,"distance":1275,"station_id":"MRI","station_name":"Manggarai","is_transit":false,"i_long":106.84912,"transit":false},{"is_transit":false,"i_lat":-6.202263,"time":4,"station_id":"SUD","station_name":"Sudirman","transit":false,"i_long":106.822649,"distance":3186,"line":1}]]}