{"data":[[{"i_long":106.74273,"transit":false,"time":0,"is_transit":false,"station_name":"Pondokranji","station_id":"PDJ","line":6,"i_lat":-6.276362,"distance":0},{"time":8,"i_lat":-6.237242,"distance":6218,"i_long":106.780334,"line":6,"station_name":"Kebayoran","transit":false,"is_transit":false,"station_id":"KBY"},{"station_name":"Palmerah","transit":false,"i_lat":-6.207404,"distance":3737,"station_id":"PLM","is_transit":false,"i_long":106.79689,"time":7,"line":6},{"i_long":106.811091,"distance":3191,"time":6,"station_id":"THB","station_name":"Tanah Abang","transit":true,"is_transit":true,"i_lat":-6.185545,"line":1},{"i_long":106.800832,"distance":3632,"station_id":"DU","station_name":"Duri","time":8,"line":1,"is_transit":false,"i_lat":-6.155215,"transit":false},{"is_transit":false,"line":1,"transit":false,"station_id":"AK","i_lat":-6.144674,"time":4,"distance":1230,"station_name":"Angke","i_long":106.79867},{"i_long":106.826365,"transit":false,"line":4,"station_id":"KPB","distance":4102,"time":9,"station_name":"Kampung Bandan","is_transit":false,"i_lat":-6.132549}],[{"i_long":106.74273,"is_transit":false,"station_name":"Pondokranji","i_lat":-6.276362,"line":6,"station_id":"PDJ","time":0,"transit":false,"distance":0},{"transit":false,"station_id":"KBY","i_lat":-6.237242,"time":8,"distance":6218,"line":6,"i_long":106.780334,"station_name":"Kebayoran","is_transit":false},{"station_name":"Palmerah","i_long":106.79689,"transit":false,"distance":3737,"station_id":"PLM","i_lat":-6.207404,"is_transit":false,"line":6,"time":7},{"station_name":"Tanah Abang","is_transit":true,"transit":true,"line":1,"i_lat":-6.185545,"i_long":106.811091,"distance":3191,"time":6,"station_id":"THB"},{"distance":2029,"i_lat":-6.20132,"station_id":"KAT","i_long":106.816351,"transit":false,"station_name":"Karet","time":5,"is_transit":false,"line":1},{"station_name":"Sudirman Baru","distance":471,"station_id":"SUDB","line":1,"i_lat":-6.201433,"time":1,"i_long":106.819881,"transit":false,"is_transit":false},{"i_lat":-6.202263,"station_name":"Sudirman","station_id":"SUD","line":1,"is_transit":false,"transit":false,"i_long":106.822649,"distance":280,"time":1},{"line":2,"i_long":106.84912,"transit":true,"station_name":"Manggarai","time":4,"distance":3186,"station_id":"MRI","is_transit":true,"i_lat":-6.209883},{"station_id":"CKI","i_long":106.840169,"station_name":"Cikini","time":4,"transit":false,"i_lat":-6.198556,"is_transit":false,"distance":1590,"line":2},{"station_name":"Gondangdia","station_id":"GDD","is_transit":false,"i_long":106.832183,"transit":false,"line":2,"i_lat":-6.186295,"distance":1750,"time":3},{"station_id":"JUA","is_transit":false,"time":4,"station_name":"Juanda","transit":false,"line":2,"i_lat":-6.166716,"i_long":106.828284,"distance":2015},{"station_name":"Sawah Besar","time":2,"distance":1149,"i_lat":-6.160725,"station_id":"SW","line":2,"is_transit":false,"i_long":106.827103,"transit":false},{"station_id":"MGB","is_transit":false,"i_long":106.82482,"line":2,"transit":false,"i_lat":-6.149769,"station_name":"Manggabesar","time":2,"distance":906},{"distance":1080,"station_id":"JAY","is_transit":false,"line":2,"station_name":"Jayakarta","i_lat":-6.141205,"transit":false,"i_long":106.820901,"time":2},{"i_lat":-6.137569,"i_long":106.812439,"station_id":"JAKK","is_transit":true,"time":4,"station_name":"Jakarta Kota","line":2,"transit":true,"distance":1264},{"is_transit":false,"i_lat":-6.132549,"line":4,"transit":false,"station_id":"KPB","i_long":106.826365,"station_name":"Kampung Bandan","time":3,"distance":1364}],[{"station_id":"PDJ","time":0,"station_name":"Pondokranji","is_transit":false,"distance":0,"line":6,"transit":false,"i_lat":-6.276362,"i_long":106.74273},{"is_transit":false,"distance":6218,"i_long":106.780334,"i_lat":-6.237242,"time":8,"station_id":"KBY","station_name":"Kebayoran","line":6,"transit":false},{"transit":false,"station_id":"PLM","is_transit":false,"i_lat":-6.207404,"station_name":"Palmerah","time":7,"i_long":106.79689,"line":6,"distance":3737},{"is_transit":true,"station_name":"Tanah Abang","i_long":106.811091,"i_lat":-6.185545,"time":6,"transit":true,"distance":3191,"station_id":"THB","line":1},{"time":5,"station_id":"KAT","is_transit":false,"transit":false,"station_name":"Karet","i_long":106.816351,"distance":2029,"i_lat":-6.20132,"line":1},{"time":1,"station_id":"SUDB","transit":false,"is_transit":false,"i_lat":-6.201433,"line":1,"station_name":"Sudirman Baru","distance":471,"i_long":106.819881},{"station_id":"SUD","line":1,"station_name":"Sudirman","transit":false,"distance":280,"is_transit":false,"i_lat":-6.202263,"i_long":106.822649,"time":1},{"line":2,"station_id":"MRI","i_lat":-6.209883,"transit":false,"station_name":"Manggarai","time":4,"distance":3186,"is_transit":false,"i_long":106.84912},{"station_name":"Matraman","time":2,"is_transit":false,"distance":1275,"i_long":106.858896,"line":1,"i_lat":-6.212485,"station_id":"MTR","transit":false},{"station_name":"Jatinegara","station_id":"JNG","i_lat":-6.215091,"i_long":106.86807400000001,"line":1,"time":8,"is_transit":true,"transit":true,"distance":1377},{"transit":false,"is_transit":false,"i_lat":-6.209188,"distance":1236,"line":11,"station_name":"Pondok Jati","station_id":"POK","i_long":106.861737,"time":2},{"transit":false,"time":2,"distance":1829,"is_transit":false,"i_lat":-6.193792,"i_long":106.855437,"station_name":"Kramat","station_id":"KMT","line":11},{"station_name":"Gang Sentiong","line":11,"transit":false,"i_lat":-6.185975,"time":1,"station_id":"GST","is_transit":false,"i_long":106.850107,"distance":973},{"line":11,"station_name":"Pasar Senen","i_long":106.84368,"distance":1567,"station_id":"PSE","is_transit":false,"time":8,"i_lat":-6.174784,"transit":false},{"transit":false,"is_transit":false,"line":11,"i_lat":-6.161728,"station_id":"KMO","time":4,"station_name":"Kemayoran","distance":1436,"i_long":106.839204},{"station_name":"Rajawali","transit":false,"line":11,"time":5,"distance":1901,"station_id":"RJW","is_transit":false,"i_lat":-6.14505,"i_long":106.836569},{"time":3,"distance":1444,"station_id":"KPB","transit":false,"i_lat":-6.132549,"i_long":106.826365,"line":4,"station_name":"Kampung Bandan","is_transit":false}]]}