{"data":[[{"transit":false,"station_id":"PDJ","i_lat":-6.276362,"line":6,"station_name":"Pondokranji","i_long":106.74273,"is_transit":false,"distance":0,"time":0},{"i_long":106.780334,"is_transit":false,"time":8,"station_name":"Kebayoran","i_lat":-6.237242,"line":6,"station_id":"KBY","distance":6218,"transit":false},{"i_lat":-6.207404,"station_id":"PLM","time":7,"i_long":106.79689,"line":6,"is_transit":false,"station_name":"Palmerah","distance":3737,"transit":false},{"transit":true,"time":6,"line":1,"station_id":"THB","i_long":106.811091,"station_name":"Tanah Abang","i_lat":-6.185545,"is_transit":true,"distance":3191},{"i_long":106.816351,"i_lat":-6.20132,"station_name":"Karet","transit":false,"is_transit":false,"distance":2029,"time":5,"station_id":"KAT","line":1},{"time":1,"line":1,"transit":false,"station_name":"Sudirman Baru","is_transit":false,"distance":471,"i_lat":-6.201433,"i_long":106.819881,"station_id":"SUDB"},{"station_id":"SUD","i_long":106.822649,"i_lat":-6.202263,"is_transit":false,"line":1,"time":1,"distance":280,"transit":false,"station_name":"Sudirman"},{"line":2,"is_transit":true,"distance":3186,"time":4,"station_id":"MRI","station_name":"Manggarai","transit":true,"i_long":106.84912,"i_lat":-6.209883},{"is_transit":false,"i_lat":-6.226659,"distance":2610,"station_name":"Tebet","i_long":106.857948,"line":2,"transit":false,"station_id":"TEB","time":4},{"transit":false,"station_id":"CW","i_long":106.856607,"distance":1230,"i_lat":-6.242512,"line":2,"is_transit":false,"time":2,"station_name":"Cawang"},{"is_transit":false,"line":2,"i_long":106.85449,"station_id":"DRN","i_lat":-6.255332,"transit":false,"station_name":"Duren Kalibata","distance":1546,"time":3},{"distance":824,"is_transit":false,"i_long":106.851577,"transit":false,"time":2,"i_lat":-6.263214,"line":2,"station_id":"PSMB","station_name":"Pasar Minggu Baru"},{"station_name":"Pasar Minggu","distance":2380,"time":2,"transit":false,"i_lat":-6.2842400000000005,"i_long":106.843999,"is_transit":false,"station_id":"PSM","line":2},{"transit":false,"station_id":"TNT","station_name":"Tanjung Barat","line":2,"time":4,"i_lat":-6.3080680000000005,"i_long":106.838896,"distance":2820,"is_transit":false},{"i_lat":-6.330363,"i_long":106.832616,"time":3,"is_transit":false,"transit":false,"station_name":"Lenteng Agung","distance":2671,"station_id":"LNA","line":2}],[{"line":6,"station_name":"Pondokranji","transit":false,"distance":0,"station_id":"PDJ","i_long":106.74273,"is_transit":false,"time":0,"i_lat":-6.276362},{"is_transit":false,"transit":false,"station_name":"Kebayoran","i_lat":-6.237242,"i_long":106.780334,"time":8,"line":6,"station_id":"KBY","distance":6218},{"is_transit":false,"distance":3737,"station_id":"PLM","i_lat":-6.207404,"i_long":106.79689,"station_name":"Palmerah","transit":false,"time":7,"line":6},{"station_name":"Tanah Abang","transit":true,"time":6,"is_transit":true,"i_lat":-6.185545,"line":1,"distance":3191,"station_id":"THB","i_long":106.811091},{"line":1,"station_name":"Duri","transit":false,"i_lat":-6.155215,"distance":3632,"is_transit":false,"time":8,"station_id":"DU","i_long":106.800832},{"transit":false,"station_name":"Angke","time":4,"i_long":106.79867,"distance":1230,"is_transit":false,"station_id":"AK","i_lat":-6.144674,"line":1},{"i_long":106.826365,"distance":4102,"i_lat":-6.132549,"is_transit":true,"transit":true,"time":9,"line":4,"station_name":"Kampung Bandan","station_id":"KPB"},{"station_name":"Jakarta Kota","is_transit":true,"transit":true,"i_lat":-6.137569,"station_id":"JAKK","i_long":106.812439,"line":2,"time":3,"distance":1364},{"transit":false,"station_id":"JAY","i_long":106.820901,"station_name":"Jayakarta","is_transit":false,"distance":1264,"i_lat":-6.141205,"line":2,"time":4},{"station_id":"MGB","is_transit":false,"i_long":106.82482,"time":2,"transit":false,"i_lat":-6.149769,"line":2,"station_name":"Manggabesar","distance":1080},{"time":2,"i_long":106.827103,"line":2,"is_transit":false,"station_name":"Sawah Besar","i_lat":-6.160725,"station_id":"SW","transit":false,"distance":906},{"is_transit":false,"i_lat":-6.166716,"station_name":"Juanda","station_id":"JUA","time":2,"line":2,"transit":false,"distance":1149,"i_long":106.828284},{"station_id":"GDD","line":2,"station_name":"Gondangdia","distance":2015,"is_transit":false,"transit":false,"time":4,"i_lat":-6.186295,"i_long":106.832183},{"i_lat":-6.198556,"transit":false,"line":2,"station_name":"Cikini","distance":1750,"station_id":"CKI","is_transit":false,"i_long":106.840169,"time":3},{"is_transit":false,"time":4,"i_long":106.84912,"transit":false,"line":2,"station_id":"MRI","distance":1590,"i_lat":-6.209883,"station_name":"Manggarai"},{"transit":false,"i_lat":-6.226659,"is_transit":false,"time":4,"station_id":"TEB","station_name":"Tebet","distance":2610,"i_long":106.857948,"line":2},{"line":2,"i_lat":-6.242512,"i_long":106.856607,"time":2,"is_transit":false,"station_id":"CW","transit":false,"distance":1230,"station_name":"Cawang"},{"station_name":"Duren Kalibata","is_transit":false,"distance":1546,"transit":false,"i_long":106.85449,"station_id":"DRN","time":3,"i_lat":-6.255332,"line":2},{"i_lat":-6.263214,"i_long":106.851577,"transit":false,"station_name":"Pasar Minggu Baru","distance":824,"time":2,"line":2,"is_transit":false,"station_id":"PSMB"},{"station_name":"Pasar Minggu","i_long":106.843999,"is_transit":false,"i_lat":-6.2842400000000005,"time":2,"transit":false,"distance":2380,"line":2,"station_id":"PSM"},{"i_long":106.838896,"is_transit":false,"distance":2820,"i_lat":-6.3080680000000005,"station_name":"Tanjung Barat","time":4,"transit":false,"station_id":"TNT","line":2},{"transit":false,"time":3,"i_lat":-6.330363,"line":2,"is_transit":false,"i_long":106.832616,"station_name":"Lenteng Agung","station_id":"LNA","distance":2671}],[{"line":6,"time":0,"is_transit":false,"distance":0,"transit":false,"i_long":106.74273,"station_name":"Pondokranji","station_id":"PDJ","i_lat":-6.276362},{"transit":false,"time":8,"i_lat":-6.237242,"i_long":106.780334,"distance":6218,"station_id":"KBY","is_transit":false,"line":6,"station_name":"Kebayoran"},{"is_transit":false,"i_lat":-6.207404,"station_name":"Palmerah","i_long":106.79689,"station_id":"PLM","transit":false,"line":6,"distance":3737,"time":7},{"station_name":"Tanah Abang","transit":true,"station_id":"THB","line":1,"distance":3191,"i_long":106.811091,"is_transit":true,"time":6,"i_lat":-6.185545},{"station_name":"Duri","time":8,"i_lat":-6.155215,"i_long":106.800832,"transit":false,"station_id":"DU","line":1,"distance":3632,"is_transit":false},{"i_lat":-6.144674,"transit":false,"distance":1230,"i_long":106.79867,"line":1,"time":4,"station_name":"Angke","station_id":"AK","is_transit":false},{"is_transit":true,"transit":true,"station_id":"KPB","i_lat":-6.132549,"time":9,"distance":4102,"i_long":106.826365,"station_name":"Kampung Bandan","line":4},{"i_lat":-6.14505,"station_name":"Rajawali","distance":1444,"i_long":106.836569,"line":11,"time":3,"is_transit":false,"transit":false,"station_id":"RJW"},{"time":5,"station_id":"KMO","distance":1901,"station_name":"Kemayoran","i_long":106.839204,"transit":false,"is_transit":false,"line":11,"i_lat":-6.161728},{"station_name":"Pasar Senen","line":11,"is_transit":false,"distance":1436,"transit":false,"station_id":"PSE","i_lat":-6.174784,"time":4,"i_long":106.84368},{"station_name":"Gang Sentiong","time":8,"distance":1567,"i_lat":-6.185975,"is_transit":false,"line":11,"station_id":"GST","i_long":106.850107,"transit":false},{"station_name":"Kramat","i_long":106.855437,"line":11,"station_id":"KMT","is_transit":false,"i_lat":-6.193792,"time":1,"transit":false,"distance":973},{"line":11,"transit":false,"distance":1829,"i_lat":-6.209188,"station_name":"Pondok Jati","is_transit":false,"time":2,"station_id":"POK","i_long":106.861737},{"transit":true,"distance":1236,"station_id":"JNG","i_long":106.86807400000001,"i_lat":-6.215091,"line":1,"time":9,"is_transit":true,"station_name":"Jatinegara"},{"transit":false,"station_name":"Matraman","distance":1377,"i_lat":-6.212485,"line":1,"is_transit":false,"time":2,"station_id":"MTR","i_long":106.858896},{"line":2,"is_transit":true,"transit":true,"distance":1275,"time":2,"station_name":"Manggarai","i_long":106.84912,"i_lat":-6.209883,"station_id":"MRI"},{"line":2,"station_name":"Tebet","time":4,"i_lat":-6.226659,"distance":2610,"is_transit":false,"i_long":106.857948,"station_id":"TEB","transit":false},{"line":2,"transit":false,"distance":1230,"station_id":"CW","i_long":106.856607,"is_transit":false,"station_name":"Cawang","time":2,"i_lat":-6.242512},{"is_transit":false,"station_id":"DRN","i_lat":-6.255332,"line":2,"station_name":"Duren Kalibata","transit":false,"distance":1546,"time":3,"i_long":106.85449},{"i_long":106.851577,"transit":false,"distance":824,"line":2,"station_name":"Pasar Minggu Baru","is_transit":false,"i_lat":-6.263214,"time":2,"station_id":"PSMB"},{"distance":2380,"time":2,"i_lat":-6.2842400000000005,"is_transit":false,"transit":false,"i_long":106.843999,"station_name":"Pasar Minggu","station_id":"PSM","line":2},{"station_id":"TNT","i_lat":-6.3080680000000005,"i_long":106.838896,"station_name":"Tanjung Barat","time":4,"transit":false,"distance":2820,"line":2,"is_transit":false},{"is_transit":false,"i_lat":-6.330363,"time":3,"station_name":"Lenteng Agung","station_id":"LNA","transit":false,"line":2,"distance":2671,"i_long":106.832616}]]}