{"data":[[{"line":6,"station_id":"PDJ","station_name":"Pondokranji","time":0,"i_lat":-6.276362,"i_long":106.74273,"transit":false,"is_transit":false,"distance":0},{"distance":6218,"i_lat":-6.237242,"line":6,"station_id":"KBY","station_name":"Kebayoran","is_transit":false,"transit":false,"time":8,"i_long":106.780334},{"station_name":"Palmerah","is_transit":false,"time":7,"i_long":106.79689,"line":6,"distance":3737,"transit":false,"station_id":"PLM","i_lat":-6.207404},{"line":1,"i_long":106.811091,"station_name":"Tanah Abang","i_lat":-6.185545,"is_transit":true,"distance":3191,"transit":true,"station_id":"THB","time":6},{"distance":2029,"transit":false,"line":1,"i_lat":-6.20132,"station_name":"Karet","station_id":"KAT","i_long":106.816351,"is_transit":false,"time":5},{"distance":471,"time":1,"i_lat":-6.201433,"is_transit":false,"line":1,"i_long":106.819881,"station_id":"SUDB","station_name":"Sudirman Baru","transit":false},{"transit":false,"station_name":"Sudirman","time":1,"distance":280,"i_long":106.822649,"line":1,"is_transit":false,"i_lat":-6.202263,"station_id":"SUD"},{"time":4,"i_lat":-6.209883,"station_name":"Manggarai","distance":3186,"line":2,"i_long":106.84912,"transit":true,"station_id":"MRI","is_transit":true},{"station_id":"TEB","i_long":106.857948,"is_transit":false,"line":2,"distance":2610,"station_name":"Tebet","time":4,"i_lat":-6.226659,"transit":false},{"station_name":"Cawang","station_id":"CW","is_transit":false,"distance":1230,"transit":false,"line":2,"time":2,"i_lat":-6.242512,"i_long":106.856607},{"station_id":"DRN","is_transit":false,"distance":1546,"transit":false,"station_name":"Duren Kalibata","i_lat":-6.255332,"time":3,"line":2,"i_long":106.85449},{"is_transit":false,"station_name":"Pasar Minggu Baru","distance":824,"i_long":106.851577,"time":2,"line":2,"station_id":"PSMB","i_lat":-6.263214,"transit":false},{"i_long":106.843999,"line":2,"time":2,"transit":false,"i_lat":-6.2842400000000005,"distance":2380,"is_transit":false,"station_name":"Pasar Minggu","station_id":"PSM"},{"i_lat":-6.3080680000000005,"transit":false,"time":4,"line":2,"is_transit":false,"station_id":"TNT","distance":2820,"station_name":"Tanjung Barat","i_long":106.838896},{"station_name":"Lenteng Agung","distance":2671,"i_long":106.832616,"line":2,"is_transit":false,"time":3,"station_id":"LNA","i_lat":-6.330363,"transit":false},{"distance":1029,"transit":false,"i_long":106.834175,"is_transit":false,"station_id":"UP","time":2,"line":2,"i_lat":-6.339291,"station_name":"Univ. Pancasila"},{"i_lat":-6.360749,"station_id":"UI","transit":false,"is_transit":false,"time":3,"distance":2264,"line":2,"i_long":106.831474,"station_name":"Univ. Indonesia"},{"time":2,"transit":false,"distance":1109,"station_name":"Pondok Cina","station_id":"POC","i_lat":-6.369073,"is_transit":false,"i_long":106.831114,"line":2},{"transit":false,"time":4,"is_transit":false,"i_lat":-6.391065,"station_name":"Depokbaru","line":2,"i_long":106.819451,"distance":2727,"station_id":"DPB"},{"transit":false,"station_name":"Depok","i_lat":-6.405256,"time":3,"is_transit":false,"i_long":106.816926,"station_id":"DP","distance":1584,"line":2},{"is_transit":true,"i_lat":-6.448811,"time":6,"i_long":106.800298,"transit":true,"distance":5084,"station_name":"Citayam","line":2,"station_id":"CTA"},{"distance":0,"station_id":"PDRG","i_lat":-6.460735,"i_long":106.824374,"line":21,"transit":false,"time":0,"is_transit":false,"station_name":"Pondok Rajeg"}],[{"i_lat":-6.276362,"station_name":"Pondokranji","transit":false,"i_long":106.74273,"is_transit":false,"time":0,"station_id":"PDJ","line":6,"distance":0},{"time":8,"transit":false,"line":6,"is_transit":false,"station_name":"Kebayoran","distance":6218,"station_id":"KBY","i_long":106.780334,"i_lat":-6.237242},{"station_name":"Palmerah","transit":false,"i_lat":-6.207404,"line":6,"is_transit":false,"time":7,"i_long":106.79689,"station_id":"PLM","distance":3737},{"station_id":"THB","i_long":106.811091,"transit":true,"line":1,"time":6,"distance":3191,"station_name":"Tanah Abang","is_transit":true,"i_lat":-6.185545},{"station_name":"Duri","distance":3632,"time":8,"is_transit":false,"i_long":106.800832,"line":1,"transit":false,"station_id":"DU","i_lat":-6.155215},{"line":1,"transit":false,"i_lat":-6.144674,"time":4,"is_transit":false,"station_id":"AK","i_long":106.79867,"distance":1230,"station_name":"Angke"},{"station_name":"Kampung Bandan","i_long":106.826365,"line":4,"station_id":"KPB","is_transit":true,"transit":true,"time":9,"distance":4102,"i_lat":-6.132549},{"time":3,"station_id":"JAKK","line":2,"i_long":106.812439,"is_transit":true,"i_lat":-6.137569,"distance":1364,"transit":true,"station_name":"Jakarta Kota"},{"distance":1264,"is_transit":false,"time":4,"line":2,"station_id":"JAY","i_lat":-6.141205,"i_long":106.820901,"station_name":"Jayakarta","transit":false},{"transit":false,"i_lat":-6.149769,"line":2,"time":2,"i_long":106.82482,"station_name":"Manggabesar","is_transit":false,"distance":1080,"station_id":"MGB"},{"transit":false,"is_transit":false,"time":2,"i_long":106.827103,"station_name":"Sawah Besar","station_id":"SW","line":2,"i_lat":-6.160725,"distance":906},{"line":2,"station_name":"Juanda","is_transit":false,"time":2,"distance":1149,"station_id":"JUA","i_lat":-6.166716,"i_long":106.828284,"transit":false},{"i_lat":-6.186295,"time":4,"distance":2015,"station_name":"Gondangdia","i_long":106.832183,"station_id":"GDD","line":2,"transit":false,"is_transit":false},{"transit":false,"distance":1750,"line":2,"is_transit":false,"station_name":"Cikini","time":3,"i_lat":-6.198556,"i_long":106.840169,"station_id":"CKI"},{"station_id":"MRI","transit":false,"i_long":106.84912,"i_lat":-6.209883,"is_transit":false,"line":2,"station_name":"Manggarai","time":4,"distance":1590},{"i_lat":-6.226659,"time":4,"station_name":"Tebet","is_transit":false,"i_long":106.857948,"distance":2610,"line":2,"transit":false,"station_id":"TEB"},{"transit":false,"i_lat":-6.242512,"time":2,"station_id":"CW","line":2,"is_transit":false,"i_long":106.856607,"distance":1230,"station_name":"Cawang"},{"station_id":"DRN","transit":false,"distance":1546,"line":2,"station_name":"Duren Kalibata","i_long":106.85449,"is_transit":false,"i_lat":-6.255332,"time":3},{"station_name":"Pasar Minggu Baru","is_transit":false,"distance":824,"time":2,"transit":false,"i_lat":-6.263214,"line":2,"station_id":"PSMB","i_long":106.851577},{"transit":false,"time":2,"i_long":106.843999,"distance":2380,"i_lat":-6.2842400000000005,"is_transit":false,"station_id":"PSM","line":2,"station_name":"Pasar Minggu"},{"i_lat":-6.3080680000000005,"transit":false,"station_name":"Tanjung Barat","time":4,"i_long":106.838896,"line":2,"distance":2820,"is_transit":false,"station_id":"TNT"},{"distance":2671,"i_lat":-6.330363,"is_transit":false,"line":2,"station_name":"Lenteng Agung","time":3,"transit":false,"i_long":106.832616,"station_id":"LNA"},{"station_id":"UP","i_lat":-6.339291,"distance":1029,"station_name":"Univ. Pancasila","is_transit":false,"time":2,"transit":false,"i_long":106.834175,"line":2},{"distance":2264,"station_name":"Univ. Indonesia","i_long":106.831474,"line":2,"is_transit":false,"i_lat":-6.360749,"transit":false,"station_id":"UI","time":3},{"is_transit":false,"distance":1109,"i_lat":-6.369073,"i_long":106.831114,"line":2,"transit":false,"station_id":"POC","time":2,"station_name":"Pondok Cina"},{"i_long":106.819451,"station_name":"Depokbaru","time":4,"line":2,"station_id":"DPB","transit":false,"is_transit":false,"i_lat":-6.391065,"distance":2727},{"i_long":106.816926,"i_lat":-6.405256,"station_name":"Depok","station_id":"DP","line":2,"distance":1584,"is_transit":false,"time":3,"transit":false},{"i_lat":-6.448811,"station_name":"Citayam","distance":5084,"transit":true,"line":2,"station_id":"CTA","is_transit":true,"time":6,"i_long":106.800298},{"transit":false,"distance":0,"is_transit":false,"line":21,"time":0,"i_long":106.824374,"station_name":"Pondok Rajeg","station_id":"PDRG","i_lat":-6.460735}],[{"distance":0,"line":6,"time":0,"station_name":"Pondokranji","i_long":106.74273,"i_lat":-6.276362,"transit":false,"station_id":"PDJ","is_transit":false},{"i_lat":-6.237242,"is_transit":false,"transit":false,"station_name":"Kebayoran","station_id":"KBY","distance":6218,"time":8,"i_long":106.780334,"line":6},{"station_name":"Palmerah","line":6,"transit":false,"i_long":106.79689,"is_transit":false,"time":7,"distance":3737,"i_lat":-6.207404,"station_id":"PLM"},{"transit":true,"distance":3191,"station_name":"Tanah Abang","i_lat":-6.185545,"is_transit":true,"time":6,"i_long":106.811091,"line":1,"station_id":"THB"},{"i_long":106.800832,"transit":false,"distance":3632,"i_lat":-6.155215,"station_id":"DU","line":1,"time":8,"station_name":"Duri","is_transit":false},{"transit":false,"distance":1230,"station_id":"AK","station_name":"Angke","i_long":106.79867,"is_transit":false,"line":1,"i_lat":-6.144674,"time":4},{"station_id":"KPB","is_transit":true,"transit":true,"time":9,"station_name":"Kampung Bandan","distance":4102,"i_lat":-6.132549,"i_long":106.826365,"line":4},{"station_id":"RJW","transit":false,"time":3,"distance":1444,"station_name":"Rajawali","i_lat":-6.14505,"i_long":106.836569,"is_transit":false,"line":11},{"transit":false,"i_long":106.839204,"line":11,"station_name":"Kemayoran","time":5,"is_transit":false,"i_lat":-6.161728,"station_id":"KMO","distance":1901},{"distance":1436,"i_lat":-6.174784,"i_long":106.84368,"time":4,"transit":false,"station_name":"Pasar Senen","is_transit":false,"line":11,"station_id":"PSE"},{"transit":false,"station_name":"Gang Sentiong","is_transit":false,"time":8,"distance":1567,"line":11,"station_id":"GST","i_lat":-6.185975,"i_long":106.850107},{"time":1,"transit":false,"is_transit":false,"distance":973,"i_lat":-6.193792,"station_name":"Kramat","i_long":106.855437,"line":11,"station_id":"KMT"},{"line":11,"station_id":"POK","station_name":"Pondok Jati","i_long":106.861737,"is_transit":false,"distance":1829,"transit":false,"time":2,"i_lat":-6.209188},{"i_long":106.86807400000001,"line":1,"i_lat":-6.215091,"station_name":"Jatinegara","station_id":"JNG","time":9,"is_transit":true,"transit":true,"distance":1236},{"time":2,"i_lat":-6.212485,"i_long":106.858896,"is_transit":false,"station_id":"MTR","line":1,"transit":false,"station_name":"Matraman","distance":1377},{"station_id":"MRI","i_long":106.84912,"time":2,"station_name":"Manggarai","is_transit":true,"line":2,"distance":1275,"i_lat":-6.209883,"transit":true},{"station_id":"TEB","is_transit":false,"time":4,"transit":false,"distance":2610,"station_name":"Tebet","line":2,"i_long":106.857948,"i_lat":-6.226659},{"distance":1230,"station_id":"CW","i_long":106.856607,"transit":false,"is_transit":false,"station_name":"Cawang","time":2,"i_lat":-6.242512,"line":2},{"distance":1546,"is_transit":false,"station_id":"DRN","time":3,"i_lat":-6.255332,"station_name":"Duren Kalibata","i_long":106.85449,"line":2,"transit":false},{"station_name":"Pasar Minggu Baru","distance":824,"station_id":"PSMB","i_long":106.851577,"line":2,"is_transit":false,"i_lat":-6.263214,"transit":false,"time":2},{"station_name":"Pasar Minggu","line":2,"distance":2380,"time":2,"station_id":"PSM","transit":false,"is_transit":false,"i_long":106.843999,"i_lat":-6.2842400000000005},{"is_transit":false,"line":2,"transit":false,"station_name":"Tanjung Barat","i_lat":-6.3080680000000005,"distance":2820,"time":4,"station_id":"TNT","i_long":106.838896},{"i_long":106.832616,"transit":false,"distance":2671,"i_lat":-6.330363,"station_id":"LNA","station_name":"Lenteng Agung","time":3,"is_transit":false,"line":2},{"time":2,"distance":1029,"transit":false,"station_name":"Univ. Pancasila","line":2,"station_id":"UP","i_long":106.834175,"i_lat":-6.339291,"is_transit":false},{"transit":false,"is_transit":false,"station_id":"UI","i_lat":-6.360749,"i_long":106.831474,"time":3,"distance":2264,"station_name":"Univ. Indonesia","line":2},{"time":2,"is_transit":false,"line":2,"transit":false,"station_name":"Pondok Cina","i_lat":-6.369073,"i_long":106.831114,"distance":1109,"station_id":"POC"},{"line":2,"transit":false,"i_lat":-6.391065,"distance":2727,"i_long":106.819451,"station_id":"DPB","station_name":"Depokbaru","is_transit":false,"time":4},{"time":3,"distance":1584,"i_long":106.816926,"line":2,"station_name":"Depok","i_lat":-6.405256,"is_transit":false,"transit":false,"station_id":"DP"},{"distance":5084,"transit":true,"i_long":106.800298,"is_transit":true,"i_lat":-6.448811,"line":2,"station_name":"Citayam","station_id":"CTA","time":6},{"transit":false,"time":0,"station_id":"PDRG","distance":0,"station_name":"Pondok Rajeg","is_transit":false,"i_lat":-6.460735,"i_long":106.824374,"line":21}]]}