{"data":[[{"i_long":106.74273,"is_transit":false,"station_name":"Pondokranji","time":0,"i_lat":-6.276362,"transit":false,"station_id":"PDJ","distance":0,"line":6},{"transit":false,"i_long":106.780334,"time":8,"is_transit":false,"line":6,"distance":6218,"i_lat":-6.237242,"station_name":"Kebayoran","station_id":"KBY"},{"distance":3737,"is_transit":false,"time":7,"transit":false,"i_lat":-6.207404,"i_long":106.79689,"line":6,"station_id":"PLM","station_name":"Palmerah"},{"distance":3191,"i_lat":-6.185545,"is_transit":true,"line":1,"station_name":"Tanah Abang","transit":true,"station_id":"THB","time":6,"i_long":106.811091},{"transit":false,"station_name":"Karet","line":1,"i_lat":-6.20132,"time":5,"station_id":"KAT","distance":2029,"is_transit":false,"i_long":106.816351},{"transit":false,"is_transit":false,"line":1,"distance":471,"station_name":"Sudirman Baru","station_id":"SUDB","i_lat":-6.201433,"i_long":106.819881,"time":1},{"is_transit":false,"distance":280,"i_lat":-6.202263,"line":1,"transit":false,"station_id":"SUD","station_name":"Sudirman","time":1,"i_long":106.822649},{"line":2,"transit":true,"station_name":"Manggarai","is_transit":true,"station_id":"MRI","distance":3186,"i_long":106.84912,"i_lat":-6.209883,"time":4},{"is_transit":false,"distance":2610,"line":2,"i_long":106.857948,"transit":false,"station_name":"Tebet","station_id":"TEB","time":4,"i_lat":-6.226659},{"transit":false,"station_id":"CW","line":2,"i_lat":-6.242512,"station_name":"Cawang","time":2,"is_transit":false,"i_long":106.856607,"distance":1230},{"is_transit":false,"line":2,"transit":false,"station_id":"DRN","distance":1546,"station_name":"Duren Kalibata","i_lat":-6.255332,"time":3,"i_long":106.85449},{"is_transit":false,"transit":false,"time":2,"distance":824,"i_long":106.851577,"i_lat":-6.263214,"station_name":"Pasar Minggu Baru","line":2,"station_id":"PSMB"},{"i_long":106.843999,"time":2,"line":2,"station_id":"PSM","i_lat":-6.2842400000000005,"is_transit":false,"transit":false,"station_name":"Pasar Minggu","distance":2380},{"station_name":"Tanjung Barat","distance":2820,"station_id":"TNT","line":2,"time":4,"i_lat":-6.3080680000000005,"i_long":106.838896,"is_transit":false,"transit":false},{"transit":false,"station_name":"Lenteng Agung","i_long":106.832616,"line":2,"time":3,"station_id":"LNA","distance":2671,"i_lat":-6.330363,"is_transit":false},{"line":2,"transit":false,"station_name":"Univ. Pancasila","distance":1029,"i_lat":-6.339291,"i_long":106.834175,"time":2,"is_transit":false,"station_id":"UP"}],[{"line":6,"is_transit":false,"station_name":"Pondokranji","time":0,"i_lat":-6.276362,"distance":0,"i_long":106.74273,"station_id":"PDJ","transit":false},{"station_id":"KBY","time":8,"station_name":"Kebayoran","distance":6218,"transit":false,"i_lat":-6.237242,"i_long":106.780334,"line":6,"is_transit":false},{"line":6,"transit":false,"distance":3737,"is_transit":false,"i_lat":-6.207404,"station_id":"PLM","i_long":106.79689,"station_name":"Palmerah","time":7},{"time":6,"transit":true,"station_name":"Tanah Abang","is_transit":true,"distance":3191,"line":1,"station_id":"THB","i_lat":-6.185545,"i_long":106.811091},{"time":8,"i_long":106.800832,"transit":false,"station_name":"Duri","is_transit":false,"line":1,"station_id":"DU","distance":3632,"i_lat":-6.155215},{"station_name":"Angke","is_transit":false,"distance":1230,"line":1,"i_lat":-6.144674,"station_id":"AK","i_long":106.79867,"time":4,"transit":false},{"station_name":"Kampung Bandan","i_long":106.826365,"station_id":"KPB","time":9,"i_lat":-6.132549,"is_transit":true,"line":4,"distance":4102,"transit":true},{"station_id":"JAKK","time":3,"i_lat":-6.137569,"is_transit":true,"i_long":106.812439,"line":2,"distance":1364,"station_name":"Jakarta Kota","transit":true},{"transit":false,"time":4,"i_long":106.820901,"line":2,"distance":1264,"station_name":"Jayakarta","is_transit":false,"i_lat":-6.141205,"station_id":"JAY"},{"i_long":106.82482,"is_transit":false,"time":2,"station_name":"Manggabesar","line":2,"distance":1080,"i_lat":-6.149769,"transit":false,"station_id":"MGB"},{"i_long":106.827103,"i_lat":-6.160725,"transit":false,"station_name":"Sawah Besar","station_id":"SW","is_transit":false,"time":2,"distance":906,"line":2},{"transit":false,"time":2,"line":2,"station_name":"Juanda","station_id":"JUA","i_long":106.828284,"is_transit":false,"i_lat":-6.166716,"distance":1149},{"station_id":"GDD","station_name":"Gondangdia","is_transit":false,"time":4,"transit":false,"distance":2015,"i_long":106.832183,"i_lat":-6.186295,"line":2},{"i_long":106.840169,"is_transit":false,"line":2,"station_name":"Cikini","distance":1750,"i_lat":-6.198556,"transit":false,"time":3,"station_id":"CKI"},{"station_name":"Manggarai","station_id":"MRI","i_lat":-6.209883,"i_long":106.84912,"line":2,"time":4,"is_transit":false,"transit":false,"distance":1590},{"station_name":"Tebet","is_transit":false,"distance":2610,"transit":false,"i_lat":-6.226659,"time":4,"i_long":106.857948,"station_id":"TEB","line":2},{"station_id":"CW","i_long":106.856607,"transit":false,"time":2,"line":2,"station_name":"Cawang","i_lat":-6.242512,"is_transit":false,"distance":1230},{"station_name":"Duren Kalibata","time":3,"i_lat":-6.255332,"is_transit":false,"station_id":"DRN","transit":false,"line":2,"distance":1546,"i_long":106.85449},{"line":2,"transit":false,"i_lat":-6.263214,"time":2,"i_long":106.851577,"distance":824,"is_transit":false,"station_name":"Pasar Minggu Baru","station_id":"PSMB"},{"distance":2380,"transit":false,"station_name":"Pasar Minggu","i_long":106.843999,"time":2,"line":2,"station_id":"PSM","i_lat":-6.2842400000000005,"is_transit":false},{"i_long":106.838896,"transit":false,"line":2,"is_transit":false,"i_lat":-6.3080680000000005,"station_id":"TNT","time":4,"distance":2820,"station_name":"Tanjung Barat"},{"station_id":"LNA","station_name":"Lenteng Agung","i_long":106.832616,"time":3,"i_lat":-6.330363,"is_transit":false,"transit":false,"distance":2671,"line":2},{"i_long":106.834175,"transit":false,"station_id":"UP","station_name":"Univ. Pancasila","line":2,"is_transit":false,"i_lat":-6.339291,"time":2,"distance":1029}],[{"i_long":106.74273,"line":6,"distance":0,"time":0,"transit":false,"station_name":"Pondokranji","is_transit":false,"i_lat":-6.276362,"station_id":"PDJ"},{"station_name":"Kebayoran","is_transit":false,"time":8,"i_long":106.780334,"transit":false,"station_id":"KBY","i_lat":-6.237242,"distance":6218,"line":6},{"time":7,"line":6,"i_lat":-6.207404,"is_transit":false,"station_id":"PLM","station_name":"Palmerah","distance":3737,"transit":false,"i_long":106.79689},{"distance":3191,"station_id":"THB","transit":true,"is_transit":true,"line":1,"i_lat":-6.185545,"i_long":106.811091,"time":6,"station_name":"Tanah Abang"},{"i_long":106.800832,"station_id":"DU","is_transit":false,"station_name":"Duri","time":8,"i_lat":-6.155215,"distance":3632,"line":1,"transit":false},{"station_id":"AK","transit":false,"is_transit":false,"i_lat":-6.144674,"station_name":"Angke","time":4,"i_long":106.79867,"distance":1230,"line":1},{"station_name":"Kampung Bandan","station_id":"KPB","i_lat":-6.132549,"distance":4102,"transit":true,"line":4,"i_long":106.826365,"is_transit":true,"time":9},{"i_long":106.836569,"is_transit":false,"distance":1444,"i_lat":-6.14505,"station_id":"RJW","line":11,"station_name":"Rajawali","transit":false,"time":3},{"line":11,"time":5,"station_id":"KMO","transit":false,"is_transit":false,"distance":1901,"i_long":106.839204,"station_name":"Kemayoran","i_lat":-6.161728},{"transit":false,"line":11,"time":4,"distance":1436,"i_lat":-6.174784,"i_long":106.84368,"station_id":"PSE","is_transit":false,"station_name":"Pasar Senen"},{"line":11,"transit":false,"i_long":106.850107,"time":8,"i_lat":-6.185975,"station_name":"Gang Sentiong","is_transit":false,"station_id":"GST","distance":1567},{"transit":false,"time":1,"station_name":"Kramat","i_lat":-6.193792,"line":11,"distance":973,"station_id":"KMT","i_long":106.855437,"is_transit":false},{"transit":false,"distance":1829,"i_long":106.861737,"i_lat":-6.209188,"station_name":"Pondok Jati","is_transit":false,"time":2,"line":11,"station_id":"POK"},{"station_name":"Jatinegara","is_transit":true,"i_long":106.86807400000001,"time":9,"line":1,"transit":true,"station_id":"JNG","distance":1236,"i_lat":-6.215091},{"time":2,"i_lat":-6.212485,"station_name":"Matraman","distance":1377,"station_id":"MTR","is_transit":false,"line":1,"transit":false,"i_long":106.858896},{"time":2,"is_transit":true,"station_name":"Manggarai","i_lat":-6.209883,"i_long":106.84912,"line":2,"transit":true,"distance":1275,"station_id":"MRI"},{"is_transit":false,"transit":false,"distance":2610,"station_id":"TEB","i_lat":-6.226659,"i_long":106.857948,"station_name":"Tebet","time":4,"line":2},{"transit":false,"is_transit":false,"i_lat":-6.242512,"line":2,"distance":1230,"time":2,"station_name":"Cawang","i_long":106.856607,"station_id":"CW"},{"i_long":106.85449,"line":2,"time":3,"station_id":"DRN","i_lat":-6.255332,"transit":false,"is_transit":false,"distance":1546,"station_name":"Duren Kalibata"},{"time":2,"transit":false,"i_lat":-6.263214,"station_id":"PSMB","is_transit":false,"line":2,"station_name":"Pasar Minggu Baru","i_long":106.851577,"distance":824},{"station_id":"PSM","i_long":106.843999,"is_transit":false,"distance":2380,"i_lat":-6.2842400000000005,"time":2,"transit":false,"line":2,"station_name":"Pasar Minggu"},{"i_long":106.838896,"transit":false,"time":4,"line":2,"station_name":"Tanjung Barat","distance":2820,"is_transit":false,"i_lat":-6.3080680000000005,"station_id":"TNT"},{"is_transit":false,"line":2,"station_name":"Lenteng Agung","distance":2671,"i_lat":-6.330363,"station_id":"LNA","transit":false,"time":3,"i_long":106.832616},{"i_lat":-6.339291,"station_id":"UP","time":2,"line":2,"station_name":"Univ. Pancasila","is_transit":false,"i_long":106.834175,"distance":1029,"transit":false}]]}