{"data":[[{"is_transit":false,"i_lat":-6.276362,"distance":0,"station_name":"Pondokranji","station_id":"PDJ","i_long":106.74273,"time":0,"transit":false,"line":6},{"time":8,"i_lat":-6.237242,"line":6,"transit":false,"i_long":106.780334,"station_name":"Kebayoran","is_transit":false,"station_id":"KBY","distance":6218},{"transit":false,"is_transit":false,"i_lat":-6.207404,"distance":3737,"line":6,"station_name":"Palmerah","station_id":"PLM","i_long":106.79689,"time":7},{"i_long":106.811091,"is_transit":true,"station_id":"THB","time":6,"transit":true,"i_lat":-6.185545,"line":1,"distance":3191,"station_name":"Tanah Abang"},{"i_lat":-6.155215,"station_name":"Duri","is_transit":true,"transit":true,"distance":3632,"line":1,"i_long":106.800832,"time":8,"station_id":"DU"},{"line":0,"station_name":"Angke","i_long":106.79867,"distance":1230,"i_lat":-6.144674,"station_id":"AK","time":4,"transit":false,"is_transit":false},{"is_transit":true,"station_id":"KPB","i_lat":-6.132549,"time":9,"line":0,"transit":true,"station_name":"Kampung Bandan","distance":4102,"i_long":106.826365},{"transit":false,"station_id":"RJW","time":3,"i_lat":-6.14505,"i_long":106.836569,"is_transit":false,"distance":1444,"line":11,"station_name":"Rajawali"},{"distance":1901,"i_lat":-6.161728,"time":5,"transit":false,"station_name":"Kemayoran","is_transit":false,"i_long":106.839204,"station_id":"KMO","line":11},{"time":4,"transit":false,"line":11,"station_name":"Pasar Senen","station_id":"PSE","is_transit":false,"distance":1436,"i_lat":-6.174784,"i_long":106.84368},{"transit":false,"i_lat":-6.185975,"line":11,"distance":1567,"time":8,"is_transit":false,"i_long":106.850107,"station_id":"GST","station_name":"Gang Sentiong"}],[{"distance":0,"time":0,"i_long":106.74273,"station_id":"PDJ","is_transit":false,"i_lat":-6.276362,"station_name":"Pondokranji","line":6,"transit":false},{"is_transit":false,"distance":6218,"station_name":"Kebayoran","line":6,"i_lat":-6.237242,"station_id":"KBY","i_long":106.780334,"time":8,"transit":false},{"station_id":"PLM","time":7,"i_lat":-6.207404,"distance":3737,"station_name":"Palmerah","transit":false,"i_long":106.79689,"is_transit":false,"line":6},{"station_id":"THB","time":6,"i_long":106.811091,"distance":3191,"transit":true,"line":1,"station_name":"Tanah Abang","i_lat":-6.185545,"is_transit":true},{"transit":false,"time":5,"distance":2029,"i_lat":-6.20132,"line":1,"station_id":"KAT","station_name":"Karet","i_long":106.816351,"is_transit":false},{"distance":471,"station_name":"Sudirman Baru","i_lat":-6.201433,"line":1,"is_transit":false,"i_long":106.819881,"station_id":"SUDB","transit":false,"time":1},{"i_long":106.822649,"station_id":"SUD","transit":false,"line":1,"is_transit":false,"time":1,"i_lat":-6.202263,"distance":280,"station_name":"Sudirman"},{"distance":3186,"station_name":"Manggarai","station_id":"MRI","line":0,"time":4,"is_transit":true,"transit":false,"i_lat":-6.209883,"i_long":106.84912},{"station_name":"Matraman","distance":1275,"station_id":"MTR","line":1,"time":2,"transit":false,"i_long":106.858896,"i_lat":-6.212485,"is_transit":false},{"i_long":106.86807400000001,"station_name":"Jatinegara","is_transit":true,"distance":1377,"time":8,"i_lat":-6.215091,"line":0,"transit":true,"station_id":"JNG"},{"time":2,"distance":1236,"is_transit":false,"i_lat":-6.209188,"i_long":106.861737,"station_id":"POK","line":11,"station_name":"Pondok Jati","transit":false},{"distance":1829,"is_transit":false,"i_long":106.855437,"station_name":"Kramat","station_id":"KMT","i_lat":-6.193792,"time":2,"transit":false,"line":11},{"i_long":106.850107,"transit":false,"distance":973,"time":1,"station_id":"GST","line":11,"i_lat":-6.185975,"station_name":"Gang Sentiong","is_transit":false}],[{"transit":false,"station_id":"PDJ","is_transit":false,"station_name":"Pondokranji","distance":0,"time":0,"i_lat":-6.276362,"i_long":106.74273,"line":6},{"i_long":106.780334,"is_transit":false,"station_id":"KBY","time":8,"line":6,"station_name":"Kebayoran","transit":false,"i_lat":-6.237242,"distance":6218},{"station_id":"PLM","is_transit":false,"time":7,"station_name":"Palmerah","distance":3737,"line":6,"i_lat":-6.207404,"transit":false,"i_long":106.79689},{"time":6,"line":1,"i_long":106.811091,"is_transit":true,"station_name":"Tanah Abang","station_id":"THB","i_lat":-6.185545,"transit":true,"distance":3191},{"line":1,"i_lat":-6.155215,"is_transit":true,"distance":3632,"station_id":"DU","time":8,"station_name":"Duri","transit":true,"i_long":106.800832},{"time":4,"station_id":"AK","i_lat":-6.144674,"distance":1230,"is_transit":false,"i_long":106.79867,"station_name":"Angke","transit":false,"line":0},{"distance":4102,"i_long":106.826365,"i_lat":-6.132549,"time":9,"station_id":"KPB","station_name":"Kampung Bandan","transit":false,"is_transit":true,"line":0},{"station_id":"JAKK","distance":1364,"i_lat":-6.137569,"i_long":106.812439,"station_name":"Jakarta Kota","is_transit":true,"line":0,"time":3,"transit":true},{"is_transit":false,"distance":1264,"station_name":"Jayakarta","i_lat":-6.141205,"transit":false,"i_long":106.820901,"time":4,"station_id":"JAY","line":7},{"is_transit":false,"i_long":106.82482,"distance":1080,"time":2,"i_lat":-6.149769,"station_name":"Manggabesar","line":2,"station_id":"MGB","transit":false},{"station_id":"SW","i_long":106.827103,"station_name":"Sawah Besar","distance":906,"transit":false,"is_transit":false,"time":2,"line":2,"i_lat":-6.160725},{"station_id":"JUA","i_long":106.828284,"distance":1149,"i_lat":-6.166716,"transit":false,"is_transit":false,"station_name":"Juanda","time":2,"line":2},{"i_long":106.832183,"i_lat":-6.186295,"station_name":"Gondangdia","line":2,"station_id":"GDD","distance":2015,"transit":false,"time":4,"is_transit":false},{"distance":1750,"station_id":"CKI","transit":false,"i_long":106.840169,"i_lat":-6.198556,"station_name":"Cikini","is_transit":false,"line":0,"time":3},{"i_long":106.84912,"line":0,"is_transit":true,"transit":true,"station_id":"MRI","distance":1590,"time":4,"station_name":"Manggarai","i_lat":-6.209883},{"i_long":106.858896,"is_transit":false,"distance":1275,"i_lat":-6.212485,"time":2,"station_id":"MTR","line":1,"transit":false,"station_name":"Matraman"},{"distance":1377,"is_transit":true,"line":0,"i_lat":-6.215091,"station_name":"Jatinegara","i_long":106.86807400000001,"time":8,"transit":true,"station_id":"JNG"},{"transit":false,"line":11,"station_name":"Pondok Jati","distance":1236,"is_transit":false,"station_id":"POK","time":2,"i_long":106.861737,"i_lat":-6.209188},{"station_name":"Kramat","is_transit":false,"distance":1829,"station_id":"KMT","i_lat":-6.193792,"i_long":106.855437,"transit":false,"time":2,"line":11},{"distance":973,"line":11,"station_name":"Gang Sentiong","i_long":106.850107,"time":1,"is_transit":false,"station_id":"GST","i_lat":-6.185975,"transit":false}],[{"line":6,"station_name":"Pondokranji","transit":false,"station_id":"PDJ","time":0,"is_transit":false,"i_lat":-6.276362,"i_long":106.74273,"distance":0},{"time":8,"i_lat":-6.237242,"station_name":"Kebayoran","transit":false,"i_long":106.780334,"line":6,"station_id":"KBY","is_transit":false,"distance":6218},{"line":6,"station_name":"Palmerah","station_id":"PLM","transit":false,"i_lat":-6.207404,"i_long":106.79689,"is_transit":false,"time":7,"distance":3737},{"i_lat":-6.185545,"line":1,"i_long":106.811091,"is_transit":true,"transit":true,"station_id":"THB","station_name":"Tanah Abang","time":6,"distance":3191},{"time":5,"i_long":106.816351,"line":1,"is_transit":false,"distance":2029,"station_name":"Karet","station_id":"KAT","transit":false,"i_lat":-6.20132},{"i_lat":-6.201433,"time":1,"transit":false,"line":1,"distance":471,"is_transit":false,"station_id":"SUDB","station_name":"Sudirman Baru","i_long":106.819881},{"transit":false,"time":1,"line":1,"distance":280,"is_transit":false,"station_id":"SUD","i_long":106.822649,"station_name":"Sudirman","i_lat":-6.202263},{"station_id":"MRI","transit":true,"i_lat":-6.209883,"distance":3186,"i_long":106.84912,"is_transit":true,"time":4,"line":0,"station_name":"Manggarai"},{"station_name":"Cikini","station_id":"CKI","i_lat":-6.198556,"i_long":106.840169,"line":0,"time":4,"transit":false,"distance":1590,"is_transit":false},{"line":2,"time":3,"i_long":106.832183,"is_transit":false,"station_id":"GDD","i_lat":-6.186295,"transit":false,"station_name":"Gondangdia","distance":1750},{"distance":2015,"line":2,"i_long":106.828284,"time":4,"station_name":"Juanda","transit":false,"i_lat":-6.166716,"station_id":"JUA","is_transit":false},{"transit":false,"line":2,"time":2,"station_name":"Sawah Besar","station_id":"SW","is_transit":false,"i_long":106.827103,"i_lat":-6.160725,"distance":1149},{"station_id":"MGB","time":2,"station_name":"Manggabesar","i_long":106.82482,"line":2,"is_transit":false,"distance":906,"i_lat":-6.149769,"transit":false},{"transit":false,"distance":1080,"i_long":106.820901,"is_transit":false,"station_name":"Jayakarta","time":2,"station_id":"JAY","i_lat":-6.141205,"line":7},{"transit":true,"is_transit":true,"station_id":"JAKK","i_lat":-6.137569,"i_long":106.812439,"station_name":"Jakarta Kota","distance":1264,"time":4,"line":0},{"is_transit":true,"i_lat":-6.132549,"station_name":"Kampung Bandan","i_long":106.826365,"line":0,"time":3,"transit":true,"station_id":"KPB","distance":1364},{"station_id":"RJW","transit":false,"i_lat":-6.14505,"distance":1444,"time":3,"is_transit":false,"station_name":"Rajawali","i_long":106.836569,"line":11},{"station_id":"KMO","distance":1901,"transit":false,"i_lat":-6.161728,"line":11,"i_long":106.839204,"time":5,"station_name":"Kemayoran","is_transit":false},{"line":11,"time":4,"station_id":"PSE","is_transit":false,"station_name":"Pasar Senen","i_lat":-6.174784,"transit":false,"distance":1436,"i_long":106.84368},{"is_transit":false,"transit":false,"station_id":"GST","i_lat":-6.185975,"station_name":"Gang Sentiong","i_long":106.850107,"line":11,"distance":1567,"time":8}]]}