{"data":[[{"transit":false,"is_transit":false,"line":6,"i_long":106.74273,"station_name":"Pondokranji","time":0,"distance":0,"station_id":"PDJ","i_lat":-6.276362},{"transit":false,"station_name":"Kebayoran","is_transit":false,"distance":6218,"i_lat":-6.237242,"i_long":106.780334,"line":6,"station_id":"KBY","time":8},{"transit":false,"time":7,"station_id":"PLM","distance":3737,"i_long":106.79689,"is_transit":false,"i_lat":-6.207404,"line":6,"station_name":"Palmerah"},{"station_name":"Tanah Abang","time":6,"station_id":"THB","i_lat":-6.185545,"line":1,"distance":3191,"transit":true,"i_long":106.811091,"is_transit":true},{"station_name":"Karet","station_id":"KAT","time":5,"distance":2029,"i_long":106.816351,"line":1,"i_lat":-6.20132,"transit":false,"is_transit":false},{"line":1,"station_id":"SUDB","transit":false,"is_transit":false,"time":1,"i_long":106.819881,"station_name":"Sudirman Baru","distance":471,"i_lat":-6.201433},{"station_name":"Sudirman","time":1,"i_long":106.822649,"i_lat":-6.202263,"transit":false,"station_id":"SUD","distance":280,"is_transit":false,"line":1},{"distance":3186,"transit":false,"i_lat":-6.209883,"is_transit":false,"time":4,"station_name":"Manggarai","station_id":"MRI","line":2,"i_long":106.84912},{"distance":1275,"i_lat":-6.212485,"i_long":106.858896,"line":1,"transit":false,"is_transit":false,"time":2,"station_id":"MTR","station_name":"Matraman"},{"i_long":106.86807400000001,"station_id":"JNG","is_transit":false,"distance":1377,"station_name":"Jatinegara","time":8,"i_lat":-6.215091,"line":1,"transit":false},{"station_name":"Klender","time":3,"station_id":"KLD","i_lat":-6.2135,"i_long":106.899548,"line":1,"distance":3395,"transit":false,"is_transit":false},{"transit":false,"time":2,"is_transit":false,"station_id":"BUA","distance":3100,"i_lat":-6.215568,"line":1,"i_long":106.922662,"station_name":"Buaran"}],[{"i_long":106.74273,"is_transit":false,"time":0,"station_name":"Pondokranji","distance":0,"station_id":"PDJ","line":6,"i_lat":-6.276362,"transit":false},{"line":6,"transit":false,"station_name":"Kebayoran","is_transit":false,"distance":6218,"time":8,"i_lat":-6.237242,"i_long":106.780334,"station_id":"KBY"},{"transit":false,"station_name":"Palmerah","station_id":"PLM","is_transit":false,"i_lat":-6.207404,"i_long":106.79689,"time":7,"distance":3737,"line":6},{"station_name":"Tanah Abang","time":6,"distance":3191,"transit":true,"is_transit":true,"i_lat":-6.185545,"i_long":106.811091,"line":1,"station_id":"THB"},{"i_long":106.800832,"time":8,"distance":3632,"is_transit":false,"transit":false,"line":1,"i_lat":-6.155215,"station_name":"Duri","station_id":"DU"},{"i_long":106.79867,"is_transit":false,"i_lat":-6.144674,"distance":1230,"transit":false,"time":4,"station_id":"AK","station_name":"Angke","line":1},{"transit":true,"time":9,"i_lat":-6.132549,"station_name":"Kampung Bandan","is_transit":true,"i_long":106.826365,"line":4,"distance":4102,"station_id":"KPB"},{"line":11,"is_transit":false,"time":3,"transit":false,"i_lat":-6.14505,"station_name":"Rajawali","distance":1444,"i_long":106.836569,"station_id":"RJW"},{"is_transit":false,"station_name":"Kemayoran","station_id":"KMO","i_long":106.839204,"transit":false,"line":11,"time":5,"distance":1901,"i_lat":-6.161728},{"is_transit":false,"transit":false,"line":11,"distance":1436,"station_name":"Pasar Senen","station_id":"PSE","time":4,"i_lat":-6.174784,"i_long":106.84368},{"station_name":"Gang Sentiong","is_transit":false,"transit":false,"i_long":106.850107,"station_id":"GST","line":11,"time":8,"i_lat":-6.185975,"distance":1567},{"station_id":"KMT","distance":973,"i_lat":-6.193792,"time":1,"i_long":106.855437,"line":11,"transit":false,"is_transit":false,"station_name":"Kramat"},{"distance":1829,"transit":false,"station_id":"POK","is_transit":false,"i_lat":-6.209188,"i_long":106.861737,"line":11,"time":2,"station_name":"Pondok Jati"},{"station_id":"JNG","time":9,"i_long":106.86807400000001,"transit":true,"distance":1236,"is_transit":true,"line":1,"i_lat":-6.215091,"station_name":"Jatinegara"},{"line":1,"station_name":"Klender","time":3,"i_long":106.899548,"transit":false,"is_transit":false,"distance":3395,"station_id":"KLD","i_lat":-6.2135},{"station_id":"BUA","line":1,"i_lat":-6.215568,"is_transit":false,"i_long":106.922662,"distance":3100,"time":2,"station_name":"Buaran","transit":false}],[{"i_lat":-6.276362,"i_long":106.74273,"station_id":"PDJ","line":6,"transit":false,"station_name":"Pondokranji","time":0,"distance":0,"is_transit":false},{"station_id":"KBY","is_transit":false,"time":8,"station_name":"Kebayoran","distance":6218,"i_lat":-6.237242,"transit":false,"line":6,"i_long":106.780334},{"transit":false,"station_name":"Palmerah","line":6,"distance":3737,"i_long":106.79689,"i_lat":-6.207404,"is_transit":false,"station_id":"PLM","time":7},{"station_id":"THB","time":6,"distance":3191,"transit":true,"station_name":"Tanah Abang","i_lat":-6.185545,"line":1,"is_transit":true,"i_long":106.811091},{"line":1,"is_transit":false,"i_long":106.800832,"station_id":"DU","transit":false,"time":8,"i_lat":-6.155215,"station_name":"Duri","distance":3632},{"is_transit":false,"station_name":"Angke","station_id":"AK","line":1,"transit":false,"i_long":106.79867,"time":4,"distance":1230,"i_lat":-6.144674},{"station_name":"Kampung Bandan","distance":4102,"i_long":106.826365,"transit":true,"line":4,"station_id":"KPB","time":9,"is_transit":true,"i_lat":-6.132549},{"i_lat":-6.137569,"line":2,"time":3,"transit":true,"distance":1364,"i_long":106.812439,"station_name":"Jakarta Kota","station_id":"JAKK","is_transit":true},{"station_id":"JAY","is_transit":false,"i_lat":-6.141205,"i_long":106.820901,"transit":false,"line":2,"time":4,"station_name":"Jayakarta","distance":1264},{"station_id":"MGB","line":2,"i_long":106.82482,"station_name":"Manggabesar","is_transit":false,"time":2,"i_lat":-6.149769,"transit":false,"distance":1080},{"transit":false,"time":2,"station_name":"Sawah Besar","i_lat":-6.160725,"line":2,"station_id":"SW","is_transit":false,"distance":906,"i_long":106.827103},{"is_transit":false,"line":2,"transit":false,"station_id":"JUA","i_long":106.828284,"distance":1149,"station_name":"Juanda","time":2,"i_lat":-6.166716},{"time":4,"i_lat":-6.186295,"i_long":106.832183,"line":2,"transit":false,"is_transit":false,"distance":2015,"station_name":"Gondangdia","station_id":"GDD"},{"station_id":"CKI","i_lat":-6.198556,"i_long":106.840169,"station_name":"Cikini","transit":false,"is_transit":false,"distance":1750,"time":3,"line":2},{"transit":true,"station_name":"Manggarai","distance":1590,"i_lat":-6.209883,"line":2,"station_id":"MRI","i_long":106.84912,"time":4,"is_transit":true},{"line":1,"transit":false,"distance":1275,"station_name":"Matraman","i_lat":-6.212485,"i_long":106.858896,"station_id":"MTR","is_transit":false,"time":2},{"i_long":106.86807400000001,"is_transit":false,"distance":1377,"station_name":"Jatinegara","transit":false,"i_lat":-6.215091,"line":1,"time":8,"station_id":"JNG"},{"i_lat":-6.2135,"i_long":106.899548,"station_id":"KLD","transit":false,"station_name":"Klender","is_transit":false,"time":3,"distance":3395,"line":1},{"station_id":"BUA","i_long":106.922662,"line":1,"time":2,"i_lat":-6.215568,"distance":3100,"transit":false,"is_transit":false,"station_name":"Buaran"}],[{"station_name":"Pondokranji","transit":false,"i_long":106.74273,"distance":0,"is_transit":false,"line":6,"i_lat":-6.276362,"station_id":"PDJ","time":0},{"station_id":"KBY","i_lat":-6.237242,"is_transit":false,"time":8,"distance":6218,"station_name":"Kebayoran","i_long":106.780334,"line":6,"transit":false},{"station_id":"PLM","transit":false,"station_name":"Palmerah","time":7,"i_lat":-6.207404,"i_long":106.79689,"line":6,"is_transit":false,"distance":3737},{"time":6,"line":1,"station_name":"Tanah Abang","station_id":"THB","is_transit":true,"distance":3191,"i_lat":-6.185545,"transit":true,"i_long":106.811091},{"i_lat":-6.20132,"transit":false,"distance":2029,"line":1,"is_transit":false,"time":5,"i_long":106.816351,"station_name":"Karet","station_id":"KAT"},{"is_transit":false,"station_name":"Sudirman Baru","distance":471,"transit":false,"i_long":106.819881,"line":1,"time":1,"station_id":"SUDB","i_lat":-6.201433},{"transit":false,"is_transit":false,"station_name":"Sudirman","i_lat":-6.202263,"station_id":"SUD","line":1,"time":1,"i_long":106.822649,"distance":280},{"distance":3186,"is_transit":true,"station_id":"MRI","line":2,"time":4,"i_lat":-6.209883,"transit":true,"i_long":106.84912,"station_name":"Manggarai"},{"i_lat":-6.198556,"line":2,"distance":1590,"i_long":106.840169,"station_name":"Cikini","transit":false,"station_id":"CKI","time":4,"is_transit":false},{"station_name":"Gondangdia","time":3,"line":2,"station_id":"GDD","distance":1750,"i_long":106.832183,"i_lat":-6.186295,"transit":false,"is_transit":false},{"transit":false,"line":2,"station_name":"Juanda","station_id":"JUA","distance":2015,"i_lat":-6.166716,"i_long":106.828284,"time":4,"is_transit":false},{"station_name":"Sawah Besar","i_lat":-6.160725,"time":2,"is_transit":false,"station_id":"SW","i_long":106.827103,"distance":1149,"transit":false,"line":2},{"is_transit":false,"station_id":"MGB","line":2,"distance":906,"i_lat":-6.149769,"time":2,"i_long":106.82482,"station_name":"Manggabesar","transit":false},{"distance":1080,"station_name":"Jayakarta","station_id":"JAY","is_transit":false,"time":2,"i_long":106.820901,"i_lat":-6.141205,"line":2,"transit":false},{"station_name":"Jakarta Kota","line":2,"i_long":106.812439,"distance":1264,"is_transit":true,"transit":true,"time":4,"station_id":"JAKK","i_lat":-6.137569},{"transit":true,"station_name":"Kampung Bandan","is_transit":true,"distance":1364,"i_long":106.826365,"station_id":"KPB","line":4,"time":3,"i_lat":-6.132549},{"i_long":106.836569,"station_id":"RJW","station_name":"Rajawali","transit":false,"i_lat":-6.14505,"line":11,"distance":1444,"is_transit":false,"time":3},{"i_lat":-6.161728,"station_name":"Kemayoran","distance":1901,"transit":false,"i_long":106.839204,"line":11,"is_transit":false,"station_id":"KMO","time":5},{"transit":false,"station_id":"PSE","is_transit":false,"time":4,"distance":1436,"line":11,"station_name":"Pasar Senen","i_long":106.84368,"i_lat":-6.174784},{"i_lat":-6.185975,"transit":false,"is_transit":false,"line":11,"station_name":"Gang Sentiong","i_long":106.850107,"distance":1567,"station_id":"GST","time":8},{"i_long":106.855437,"line":11,"time":1,"station_id":"KMT","distance":973,"is_transit":false,"i_lat":-6.193792,"transit":false,"station_name":"Kramat"},{"station_name":"Pondok Jati","i_lat":-6.209188,"station_id":"POK","transit":false,"time":2,"i_long":106.861737,"line":11,"distance":1829,"is_transit":false},{"i_lat":-6.215091,"transit":true,"line":1,"station_name":"Jatinegara","is_transit":true,"station_id":"JNG","time":9,"distance":1236,"i_long":106.86807400000001},{"time":3,"distance":3395,"i_long":106.899548,"i_lat":-6.2135,"line":1,"transit":false,"station_name":"Klender","station_id":"KLD","is_transit":false},{"station_id":"BUA","transit":false,"is_transit":false,"time":2,"i_lat":-6.215568,"i_long":106.922662,"station_name":"Buaran","distance":3100,"line":1}]]}