{"data":[[{"time":0,"station_name":"Pondokranji","i_long":106.74273,"distance":0,"line":6,"i_lat":-6.276362,"is_transit":false,"station_id":"PDJ","transit":false},{"time":8,"i_long":106.780334,"distance":6218,"line":6,"station_name":"Kebayoran","is_transit":false,"i_lat":-6.237242,"transit":false,"station_id":"KBY"},{"i_long":106.79689,"time":7,"is_transit":false,"i_lat":-6.207404,"line":6,"distance":3737,"station_id":"PLM","station_name":"Palmerah","transit":false},{"station_id":"THB","is_transit":true,"distance":3191,"i_lat":-6.185545,"time":6,"i_long":106.811091,"station_name":"Tanah Abang","line":1,"transit":true},{"i_lat":-6.20132,"time":5,"station_name":"Karet","i_long":106.816351,"transit":false,"station_id":"KAT","distance":2029,"line":1,"is_transit":false},{"transit":false,"station_name":"Sudirman Baru","is_transit":false,"distance":471,"i_lat":-6.201433,"i_long":106.819881,"station_id":"SUDB","time":1,"line":1},{"station_id":"SUD","transit":false,"is_transit":false,"i_long":106.822649,"station_name":"Sudirman","line":1,"time":1,"distance":280,"i_lat":-6.202263},{"i_long":106.84912,"time":4,"station_id":"MRI","transit":true,"is_transit":true,"station_name":"Manggarai","i_lat":-6.209883,"distance":3186,"line":2},{"time":4,"i_long":106.857948,"line":2,"station_name":"Tebet","distance":2610,"i_lat":-6.226659,"is_transit":false,"transit":false,"station_id":"TEB"},{"station_name":"Cawang","is_transit":false,"line":2,"i_long":106.856607,"distance":1230,"i_lat":-6.242512,"station_id":"CW","transit":false,"time":2},{"station_name":"Duren Kalibata","is_transit":false,"time":3,"distance":1546,"i_lat":-6.255332,"station_id":"DRN","i_long":106.85449,"line":2,"transit":false},{"is_transit":false,"time":2,"transit":false,"distance":824,"station_name":"Pasar Minggu Baru","i_long":106.851577,"station_id":"PSMB","line":2,"i_lat":-6.263214},{"is_transit":false,"i_lat":-6.2842400000000005,"distance":2380,"i_long":106.843999,"station_name":"Pasar Minggu","line":2,"transit":false,"station_id":"PSM","time":2},{"time":4,"transit":false,"i_long":106.838896,"line":2,"station_id":"TNT","distance":2820,"is_transit":false,"station_name":"Tanjung Barat","i_lat":-6.3080680000000005},{"station_name":"Lenteng Agung","transit":false,"line":2,"station_id":"LNA","time":3,"is_transit":false,"i_lat":-6.330363,"i_long":106.832616,"distance":2671},{"line":2,"is_transit":false,"i_long":106.834175,"station_id":"UP","time":2,"station_name":"Univ. Pancasila","transit":false,"distance":1029,"i_lat":-6.339291},{"transit":false,"line":2,"i_long":106.831474,"is_transit":false,"i_lat":-6.360749,"station_id":"UI","time":3,"distance":2264,"station_name":"Univ. Indonesia"}],[{"i_lat":-6.276362,"transit":false,"is_transit":false,"i_long":106.74273,"line":6,"distance":0,"station_id":"PDJ","time":0,"station_name":"Pondokranji"},{"station_name":"Kebayoran","station_id":"KBY","is_transit":false,"transit":false,"time":8,"i_long":106.780334,"distance":6218,"line":6,"i_lat":-6.237242},{"time":7,"i_long":106.79689,"station_name":"Palmerah","transit":false,"station_id":"PLM","is_transit":false,"distance":3737,"i_lat":-6.207404,"line":6},{"station_name":"Tanah Abang","time":6,"distance":3191,"is_transit":true,"i_lat":-6.185545,"station_id":"THB","transit":true,"i_long":106.811091,"line":1},{"i_lat":-6.155215,"i_long":106.800832,"line":1,"station_name":"Duri","time":8,"transit":false,"station_id":"DU","is_transit":false,"distance":3632},{"line":1,"transit":false,"i_long":106.79867,"station_id":"AK","time":4,"i_lat":-6.144674,"station_name":"Angke","is_transit":false,"distance":1230},{"distance":4102,"i_lat":-6.132549,"i_long":106.826365,"transit":true,"station_id":"KPB","is_transit":true,"time":9,"line":4,"station_name":"Kampung Bandan"},{"i_long":106.812439,"is_transit":true,"station_name":"Jakarta Kota","time":3,"station_id":"JAKK","distance":1364,"line":2,"i_lat":-6.137569,"transit":true},{"transit":false,"is_transit":false,"distance":1264,"station_name":"Jayakarta","time":4,"i_lat":-6.141205,"i_long":106.820901,"station_id":"JAY","line":2},{"line":2,"distance":1080,"transit":false,"i_long":106.82482,"station_name":"Manggabesar","station_id":"MGB","is_transit":false,"time":2,"i_lat":-6.149769},{"station_name":"Sawah Besar","transit":false,"distance":906,"station_id":"SW","i_long":106.827103,"time":2,"is_transit":false,"i_lat":-6.160725,"line":2},{"is_transit":false,"station_name":"Juanda","time":2,"i_lat":-6.166716,"i_long":106.828284,"station_id":"JUA","distance":1149,"line":2,"transit":false},{"is_transit":false,"line":2,"station_name":"Gondangdia","transit":false,"station_id":"GDD","i_long":106.832183,"distance":2015,"time":4,"i_lat":-6.186295},{"time":3,"line":2,"distance":1750,"station_name":"Cikini","station_id":"CKI","is_transit":false,"transit":false,"i_long":106.840169,"i_lat":-6.198556},{"station_id":"MRI","distance":1590,"transit":false,"i_long":106.84912,"is_transit":false,"i_lat":-6.209883,"station_name":"Manggarai","time":4,"line":2},{"distance":2610,"station_name":"Tebet","i_lat":-6.226659,"station_id":"TEB","is_transit":false,"transit":false,"time":4,"i_long":106.857948,"line":2},{"station_id":"CW","line":2,"is_transit":false,"time":2,"distance":1230,"i_long":106.856607,"transit":false,"station_name":"Cawang","i_lat":-6.242512},{"line":2,"i_lat":-6.255332,"transit":false,"station_name":"Duren Kalibata","is_transit":false,"station_id":"DRN","time":3,"distance":1546,"i_long":106.85449},{"distance":824,"i_lat":-6.263214,"i_long":106.851577,"line":2,"station_id":"PSMB","is_transit":false,"time":2,"transit":false,"station_name":"Pasar Minggu Baru"},{"station_id":"PSM","time":2,"transit":false,"i_long":106.843999,"line":2,"distance":2380,"is_transit":false,"station_name":"Pasar Minggu","i_lat":-6.2842400000000005},{"i_lat":-6.3080680000000005,"i_long":106.838896,"transit":false,"is_transit":false,"line":2,"station_name":"Tanjung Barat","distance":2820,"station_id":"TNT","time":4},{"station_name":"Lenteng Agung","is_transit":false,"distance":2671,"i_long":106.832616,"time":3,"i_lat":-6.330363,"line":2,"transit":false,"station_id":"LNA"},{"is_transit":false,"i_long":106.834175,"station_name":"Univ. Pancasila","line":2,"station_id":"UP","time":2,"transit":false,"i_lat":-6.339291,"distance":1029},{"i_lat":-6.360749,"is_transit":false,"distance":2264,"transit":false,"station_name":"Univ. Indonesia","station_id":"UI","time":3,"i_long":106.831474,"line":2}],[{"i_long":106.74273,"station_name":"Pondokranji","time":0,"i_lat":-6.276362,"transit":false,"distance":0,"is_transit":false,"station_id":"PDJ","line":6},{"distance":6218,"i_long":106.780334,"line":6,"station_name":"Kebayoran","time":8,"station_id":"KBY","i_lat":-6.237242,"transit":false,"is_transit":false},{"is_transit":false,"transit":false,"station_name":"Palmerah","distance":3737,"i_lat":-6.207404,"time":7,"i_long":106.79689,"line":6,"station_id":"PLM"},{"distance":3191,"i_lat":-6.185545,"is_transit":true,"line":1,"time":6,"transit":true,"i_long":106.811091,"station_id":"THB","station_name":"Tanah Abang"},{"line":1,"transit":false,"station_id":"DU","time":8,"distance":3632,"i_long":106.800832,"is_transit":false,"i_lat":-6.155215,"station_name":"Duri"},{"i_long":106.79867,"line":1,"distance":1230,"is_transit":false,"transit":false,"station_name":"Angke","station_id":"AK","i_lat":-6.144674,"time":4},{"time":9,"transit":true,"i_long":106.826365,"distance":4102,"station_id":"KPB","i_lat":-6.132549,"line":4,"is_transit":true,"station_name":"Kampung Bandan"},{"i_long":106.836569,"i_lat":-6.14505,"station_id":"RJW","is_transit":false,"station_name":"Rajawali","distance":1444,"time":3,"transit":false,"line":11},{"station_name":"Kemayoran","time":5,"line":11,"transit":false,"distance":1901,"i_long":106.839204,"is_transit":false,"i_lat":-6.161728,"station_id":"KMO"},{"i_long":106.84368,"distance":1436,"is_transit":false,"time":4,"i_lat":-6.174784,"station_name":"Pasar Senen","line":11,"station_id":"PSE","transit":false},{"transit":false,"station_name":"Gang Sentiong","station_id":"GST","line":11,"distance":1567,"i_lat":-6.185975,"is_transit":false,"time":8,"i_long":106.850107},{"i_long":106.855437,"i_lat":-6.193792,"station_id":"KMT","time":1,"station_name":"Kramat","is_transit":false,"transit":false,"line":11,"distance":973},{"i_long":106.861737,"station_name":"Pondok Jati","i_lat":-6.209188,"station_id":"POK","line":11,"time":2,"is_transit":false,"transit":false,"distance":1829},{"i_long":106.86807400000001,"line":1,"i_lat":-6.215091,"time":9,"is_transit":true,"transit":true,"distance":1236,"station_name":"Jatinegara","station_id":"JNG"},{"distance":1377,"i_lat":-6.212485,"station_id":"MTR","line":1,"time":2,"transit":false,"is_transit":false,"station_name":"Matraman","i_long":106.858896},{"transit":true,"line":2,"i_lat":-6.209883,"station_id":"MRI","station_name":"Manggarai","is_transit":true,"time":2,"i_long":106.84912,"distance":1275},{"i_long":106.857948,"transit":false,"distance":2610,"line":2,"is_transit":false,"station_id":"TEB","time":4,"i_lat":-6.226659,"station_name":"Tebet"},{"distance":1230,"station_name":"Cawang","i_long":106.856607,"line":2,"transit":false,"time":2,"station_id":"CW","is_transit":false,"i_lat":-6.242512},{"line":2,"station_name":"Duren Kalibata","i_lat":-6.255332,"time":3,"transit":false,"is_transit":false,"station_id":"DRN","distance":1546,"i_long":106.85449},{"i_long":106.851577,"transit":false,"distance":824,"station_name":"Pasar Minggu Baru","line":2,"station_id":"PSMB","time":2,"is_transit":false,"i_lat":-6.263214},{"transit":false,"distance":2380,"is_transit":false,"i_lat":-6.2842400000000005,"i_long":106.843999,"station_name":"Pasar Minggu","station_id":"PSM","time":2,"line":2},{"distance":2820,"i_lat":-6.3080680000000005,"transit":false,"station_name":"Tanjung Barat","station_id":"TNT","time":4,"line":2,"is_transit":false,"i_long":106.838896},{"distance":2671,"station_id":"LNA","i_lat":-6.330363,"i_long":106.832616,"is_transit":false,"station_name":"Lenteng Agung","transit":false,"line":2,"time":3},{"line":2,"station_name":"Univ. Pancasila","transit":false,"time":2,"station_id":"UP","i_lat":-6.339291,"distance":1029,"i_long":106.834175,"is_transit":false},{"station_id":"UI","transit":false,"station_name":"Univ. Indonesia","distance":2264,"i_lat":-6.360749,"line":2,"is_transit":false,"i_long":106.831474,"time":3}]]}