{"data":[[{"transit":false,"station_id":"PDJ","station_name":"Pondokranji","is_transit":false,"distance":0,"i_lat":-6.276362,"i_long":106.74273,"line":6,"time":0},{"is_transit":false,"time":8,"distance":6218,"line":6,"station_id":"KBY","station_name":"Kebayoran","transit":false,"i_long":106.780334,"i_lat":-6.237242},{"line":6,"time":7,"distance":3737,"station_name":"Palmerah","transit":false,"i_lat":-6.207404,"i_long":106.79689,"is_transit":false,"station_id":"PLM"},{"time":6,"i_lat":-6.185545,"station_id":"THB","i_long":106.811091,"station_name":"Tanah Abang","line":1,"transit":true,"is_transit":true,"distance":3191},{"time":5,"station_id":"KAT","i_lat":-6.20132,"distance":2029,"transit":false,"is_transit":false,"i_long":106.816351,"station_name":"Karet","line":1},{"i_long":106.819881,"transit":false,"distance":471,"station_name":"Sudirman Baru","line":1,"is_transit":false,"station_id":"SUDB","time":1,"i_lat":-6.201433},{"station_id":"SUD","transit":false,"is_transit":false,"distance":280,"i_lat":-6.202263,"i_long":106.822649,"line":1,"time":1,"station_name":"Sudirman"},{"station_name":"Manggarai","line":2,"is_transit":true,"time":4,"i_lat":-6.209883,"station_id":"MRI","i_long":106.84912,"distance":3186,"transit":true},{"i_long":106.857948,"transit":false,"time":4,"is_transit":false,"line":2,"distance":2610,"station_name":"Tebet","i_lat":-6.226659,"station_id":"TEB"},{"is_transit":false,"transit":false,"time":2,"i_lat":-6.242512,"i_long":106.856607,"station_name":"Cawang","line":2,"distance":1230,"station_id":"CW"}],[{"distance":0,"i_long":106.74273,"is_transit":false,"line":6,"transit":false,"time":0,"station_name":"Pondokranji","station_id":"PDJ","i_lat":-6.276362},{"distance":6218,"i_long":106.780334,"i_lat":-6.237242,"line":6,"time":8,"transit":false,"is_transit":false,"station_id":"KBY","station_name":"Kebayoran"},{"distance":3737,"line":6,"i_long":106.79689,"transit":false,"time":7,"station_id":"PLM","is_transit":false,"i_lat":-6.207404,"station_name":"Palmerah"},{"i_lat":-6.185545,"time":6,"distance":3191,"is_transit":true,"i_long":106.811091,"line":1,"transit":true,"station_id":"THB","station_name":"Tanah Abang"},{"station_name":"Duri","i_lat":-6.155215,"time":8,"i_long":106.800832,"line":1,"station_id":"DU","is_transit":false,"distance":3632,"transit":false},{"transit":false,"distance":1230,"station_name":"Angke","i_lat":-6.144674,"line":1,"station_id":"AK","is_transit":false,"i_long":106.79867,"time":4},{"station_name":"Kampung Bandan","i_long":106.826365,"distance":4102,"line":4,"transit":true,"time":9,"i_lat":-6.132549,"station_id":"KPB","is_transit":true},{"time":3,"is_transit":true,"station_name":"Jakarta Kota","distance":1364,"line":2,"i_long":106.812439,"i_lat":-6.137569,"station_id":"JAKK","transit":true},{"i_lat":-6.141205,"station_id":"JAY","time":4,"distance":1264,"station_name":"Jayakarta","transit":false,"is_transit":false,"i_long":106.820901,"line":2},{"is_transit":false,"line":2,"station_id":"MGB","station_name":"Manggabesar","time":2,"i_lat":-6.149769,"transit":false,"distance":1080,"i_long":106.82482},{"station_id":"SW","time":2,"i_long":106.827103,"line":2,"station_name":"Sawah Besar","is_transit":false,"i_lat":-6.160725,"distance":906,"transit":false},{"time":2,"station_name":"Juanda","distance":1149,"i_long":106.828284,"line":2,"i_lat":-6.166716,"transit":false,"is_transit":false,"station_id":"JUA"},{"is_transit":false,"i_lat":-6.186295,"i_long":106.832183,"transit":false,"time":4,"distance":2015,"station_id":"GDD","station_name":"Gondangdia","line":2},{"transit":false,"i_lat":-6.198556,"time":3,"station_name":"Cikini","is_transit":false,"line":2,"i_long":106.840169,"station_id":"CKI","distance":1750},{"time":4,"station_id":"MRI","is_transit":false,"station_name":"Manggarai","i_lat":-6.209883,"distance":1590,"i_long":106.84912,"line":2,"transit":false},{"distance":2610,"station_name":"Tebet","time":4,"i_long":106.857948,"line":2,"is_transit":false,"i_lat":-6.226659,"station_id":"TEB","transit":false},{"time":2,"distance":1230,"station_name":"Cawang","i_lat":-6.242512,"line":2,"is_transit":false,"station_id":"CW","i_long":106.856607,"transit":false}],[{"distance":0,"time":0,"i_lat":-6.276362,"transit":false,"station_name":"Pondokranji","line":6,"is_transit":false,"station_id":"PDJ","i_long":106.74273},{"i_lat":-6.237242,"distance":6218,"transit":false,"time":8,"station_id":"KBY","is_transit":false,"station_name":"Kebayoran","i_long":106.780334,"line":6},{"station_name":"Palmerah","transit":false,"distance":3737,"is_transit":false,"station_id":"PLM","time":7,"i_long":106.79689,"line":6,"i_lat":-6.207404},{"station_name":"Tanah Abang","i_long":106.811091,"station_id":"THB","i_lat":-6.185545,"distance":3191,"transit":true,"is_transit":true,"line":1,"time":6},{"is_transit":false,"station_id":"DU","i_long":106.800832,"line":1,"i_lat":-6.155215,"station_name":"Duri","transit":false,"time":8,"distance":3632},{"i_long":106.79867,"station_name":"Angke","time":4,"distance":1230,"is_transit":false,"transit":false,"i_lat":-6.144674,"station_id":"AK","line":1},{"distance":4102,"is_transit":true,"transit":true,"station_id":"KPB","line":4,"station_name":"Kampung Bandan","i_lat":-6.132549,"i_long":106.826365,"time":9},{"line":11,"station_id":"RJW","transit":false,"i_lat":-6.14505,"station_name":"Rajawali","is_transit":false,"i_long":106.836569,"time":3,"distance":1444},{"i_lat":-6.161728,"station_name":"Kemayoran","transit":false,"line":11,"distance":1901,"is_transit":false,"station_id":"KMO","i_long":106.839204,"time":5},{"i_lat":-6.174784,"i_long":106.84368,"station_id":"PSE","time":4,"transit":false,"station_name":"Pasar Senen","line":11,"distance":1436,"is_transit":false},{"station_id":"GST","time":8,"distance":1567,"station_name":"Gang Sentiong","i_long":106.850107,"is_transit":false,"i_lat":-6.185975,"line":11,"transit":false},{"distance":973,"station_id":"KMT","is_transit":false,"i_long":106.855437,"transit":false,"time":1,"station_name":"Kramat","i_lat":-6.193792,"line":11},{"time":2,"station_name":"Pondok Jati","is_transit":false,"i_lat":-6.209188,"transit":false,"distance":1829,"station_id":"POK","i_long":106.861737,"line":11},{"station_id":"JNG","time":9,"distance":1236,"line":1,"i_lat":-6.215091,"is_transit":true,"i_long":106.86807400000001,"station_name":"Jatinegara","transit":true},{"time":2,"is_transit":false,"station_name":"Matraman","i_lat":-6.212485,"line":1,"station_id":"MTR","transit":false,"distance":1377,"i_long":106.858896},{"is_transit":true,"station_id":"MRI","distance":1275,"i_long":106.84912,"i_lat":-6.209883,"transit":true,"line":2,"time":2,"station_name":"Manggarai"},{"distance":2610,"time":4,"station_name":"Tebet","line":2,"transit":false,"is_transit":false,"i_lat":-6.226659,"station_id":"TEB","i_long":106.857948},{"line":2,"i_long":106.856607,"distance":1230,"is_transit":false,"time":2,"transit":false,"station_name":"Cawang","station_id":"CW","i_lat":-6.242512}]]}