{"data":[[{"station_name":"Pondokranji","station_id":"PDJ","i_lat":-6.276362,"line":6,"time":0,"is_transit":false,"distance":0,"transit":false,"i_long":106.74273},{"i_lat":-6.237242,"transit":false,"line":6,"time":8,"station_name":"Kebayoran","is_transit":false,"distance":6218,"i_long":106.780334,"station_id":"KBY"},{"transit":false,"station_name":"Palmerah","station_id":"PLM","line":6,"i_long":106.79689,"distance":3737,"i_lat":-6.207404,"is_transit":false,"time":7},{"time":6,"i_lat":-6.185545,"is_transit":true,"transit":true,"station_name":"Tanah Abang","distance":3191,"station_id":"THB","i_long":106.811091,"line":1},{"i_long":106.816351,"transit":false,"distance":2029,"station_id":"KAT","i_lat":-6.20132,"line":1,"time":5,"station_name":"Karet","is_transit":false},{"time":1,"transit":false,"station_name":"Sudirman Baru","i_lat":-6.201433,"distance":471,"i_long":106.819881,"line":1,"is_transit":false,"station_id":"SUDB"},{"station_name":"Sudirman","is_transit":false,"station_id":"SUD","i_lat":-6.202263,"line":1,"i_long":106.822649,"transit":false,"distance":280,"time":1}],[{"is_transit":false,"transit":false,"station_id":"PDJ","i_lat":-6.276362,"station_name":"Pondokranji","distance":0,"line":6,"i_long":106.74273,"time":0},{"i_long":106.780334,"transit":false,"station_id":"KBY","is_transit":false,"time":8,"distance":6218,"i_lat":-6.237242,"station_name":"Kebayoran","line":6},{"transit":false,"time":7,"station_id":"PLM","i_lat":-6.207404,"station_name":"Palmerah","is_transit":false,"i_long":106.79689,"line":6,"distance":3737},{"i_lat":-6.185545,"i_long":106.811091,"time":6,"distance":3191,"transit":true,"station_id":"THB","station_name":"Tanah Abang","is_transit":true,"line":1},{"line":1,"station_name":"Duri","is_transit":true,"distance":3632,"i_long":106.800832,"station_id":"DU","transit":true,"time":8,"i_lat":-6.155215},{"i_long":106.79867,"time":4,"i_lat":-6.144674,"station_id":"AK","line":0,"distance":1230,"transit":false,"is_transit":false,"station_name":"Angke"},{"time":9,"station_name":"Kampung Bandan","i_lat":-6.132549,"i_long":106.826365,"line":0,"transit":false,"is_transit":true,"station_id":"KPB","distance":4102},{"station_name":"Jakarta Kota","i_long":106.812439,"is_transit":true,"distance":1364,"station_id":"JAKK","line":0,"transit":true,"i_lat":-6.137569,"time":3},{"station_id":"JAY","transit":false,"is_transit":false,"line":7,"station_name":"Jayakarta","i_long":106.820901,"i_lat":-6.141205,"time":4,"distance":1264},{"line":2,"is_transit":false,"distance":1080,"transit":false,"time":2,"station_id":"MGB","i_long":106.82482,"station_name":"Manggabesar","i_lat":-6.149769},{"line":2,"station_name":"Sawah Besar","is_transit":false,"transit":false,"station_id":"SW","i_long":106.827103,"time":2,"distance":906,"i_lat":-6.160725},{"is_transit":false,"time":2,"i_lat":-6.166716,"station_name":"Juanda","line":2,"transit":false,"distance":1149,"i_long":106.828284,"station_id":"JUA"},{"distance":2015,"i_long":106.832183,"station_id":"GDD","transit":false,"time":4,"is_transit":false,"line":2,"station_name":"Gondangdia","i_lat":-6.186295},{"time":3,"station_name":"Cikini","station_id":"CKI","is_transit":false,"transit":false,"distance":1750,"line":0,"i_lat":-6.198556,"i_long":106.840169},{"distance":1590,"transit":true,"i_long":106.84912,"is_transit":true,"line":0,"station_id":"MRI","time":4,"station_name":"Manggarai","i_lat":-6.209883},{"transit":false,"is_transit":false,"distance":3186,"i_lat":-6.202263,"line":1,"station_name":"Sudirman","station_id":"SUD","time":4,"i_long":106.822649}],[{"transit":false,"i_long":106.74273,"line":6,"distance":0,"station_id":"PDJ","is_transit":false,"i_lat":-6.276362,"time":0,"station_name":"Pondokranji"},{"is_transit":false,"i_lat":-6.237242,"i_long":106.780334,"station_id":"KBY","line":6,"time":8,"transit":false,"station_name":"Kebayoran","distance":6218},{"line":6,"transit":false,"distance":3737,"station_id":"PLM","is_transit":false,"i_lat":-6.207404,"i_long":106.79689,"station_name":"Palmerah","time":7},{"transit":true,"is_transit":true,"station_id":"THB","i_long":106.811091,"time":6,"distance":3191,"i_lat":-6.185545,"station_name":"Tanah Abang","line":1},{"line":1,"time":8,"is_transit":true,"i_lat":-6.155215,"transit":true,"station_id":"DU","station_name":"Duri","i_long":106.800832,"distance":3632},{"line":0,"is_transit":false,"time":4,"station_id":"AK","i_long":106.79867,"station_name":"Angke","transit":false,"distance":1230,"i_lat":-6.144674},{"distance":4102,"station_id":"KPB","i_long":106.826365,"station_name":"Kampung Bandan","i_lat":-6.132549,"is_transit":true,"line":0,"time":9,"transit":true},{"is_transit":false,"i_long":106.836569,"station_id":"RJW","transit":false,"line":11,"distance":1444,"i_lat":-6.14505,"time":3,"station_name":"Rajawali"},{"line":11,"transit":false,"is_transit":false,"distance":1901,"station_id":"KMO","i_lat":-6.161728,"time":5,"i_long":106.839204,"station_name":"Kemayoran"},{"line":11,"distance":1436,"station_name":"Pasar Senen","i_lat":-6.174784,"is_transit":false,"transit":false,"station_id":"PSE","i_long":106.84368,"time":4},{"time":8,"is_transit":false,"transit":false,"i_long":106.850107,"station_id":"GST","i_lat":-6.185975,"line":11,"distance":1567,"station_name":"Gang Sentiong"},{"is_transit":false,"line":11,"station_id":"KMT","station_name":"Kramat","i_lat":-6.193792,"time":1,"transit":false,"distance":973,"i_long":106.855437},{"i_lat":-6.209188,"station_id":"POK","i_long":106.861737,"time":2,"is_transit":false,"distance":1829,"transit":false,"station_name":"Pondok Jati","line":11},{"i_long":106.86807400000001,"time":9,"transit":true,"is_transit":true,"station_name":"Jatinegara","distance":1236,"station_id":"JNG","i_lat":-6.215091,"line":0},{"line":1,"i_lat":-6.212485,"time":2,"transit":false,"distance":1377,"station_name":"Matraman","is_transit":false,"station_id":"MTR","i_long":106.858896},{"is_transit":true,"transit":false,"i_lat":-6.209883,"station_id":"MRI","distance":1275,"i_long":106.84912,"time":2,"line":0,"station_name":"Manggarai"},{"distance":3186,"i_long":106.822649,"station_id":"SUD","station_name":"Sudirman","is_transit":false,"time":4,"transit":false,"i_lat":-6.202263,"line":1}]]}