{"data":[[{"is_transit":false,"i_lat":-6.276362,"line":6,"station_name":"Pondokranji","transit":false,"time":0,"distance":0,"station_id":"PDJ","i_long":106.74273},{"station_name":"Kebayoran","is_transit":false,"transit":false,"i_lat":-6.237242,"line":6,"distance":6218,"station_id":"KBY","i_long":106.780334,"time":8},{"station_id":"PLM","is_transit":false,"time":7,"i_lat":-6.207404,"distance":3737,"i_long":106.79689,"transit":false,"station_name":"Palmerah","line":6},{"i_lat":-6.185545,"transit":true,"i_long":106.811091,"line":1,"is_transit":true,"distance":3191,"station_name":"Tanah Abang","station_id":"THB","time":6},{"distance":3632,"transit":false,"i_long":106.800832,"is_transit":false,"station_name":"Duri","station_id":"DU","time":8,"i_lat":-6.155215,"line":1}],[{"distance":0,"time":0,"is_transit":false,"transit":false,"i_lat":-6.276362,"i_long":106.74273,"station_name":"Pondokranji","station_id":"PDJ","line":6},{"time":8,"station_id":"KBY","distance":6218,"station_name":"Kebayoran","line":6,"i_long":106.780334,"is_transit":false,"transit":false,"i_lat":-6.237242},{"distance":3737,"station_name":"Palmerah","transit":false,"i_lat":-6.207404,"is_transit":false,"i_long":106.79689,"line":6,"station_id":"PLM","time":7},{"time":6,"is_transit":true,"transit":true,"i_lat":-6.185545,"i_long":106.811091,"line":1,"station_id":"THB","station_name":"Tanah Abang","distance":3191},{"distance":2029,"time":5,"is_transit":false,"i_lat":-6.20132,"station_id":"KAT","transit":false,"line":1,"i_long":106.816351,"station_name":"Karet"},{"station_id":"SUDB","time":1,"is_transit":false,"distance":471,"station_name":"Sudirman Baru","transit":false,"i_long":106.819881,"line":1,"i_lat":-6.201433},{"time":1,"station_id":"SUD","transit":false,"is_transit":false,"distance":280,"station_name":"Sudirman","i_lat":-6.202263,"i_long":106.822649,"line":1},{"is_transit":true,"station_id":"MRI","time":4,"i_long":106.84912,"distance":3186,"station_name":"Manggarai","transit":true,"i_lat":-6.209883,"line":2},{"distance":1590,"is_transit":false,"station_name":"Cikini","line":2,"station_id":"CKI","transit":false,"time":4,"i_lat":-6.198556,"i_long":106.840169},{"is_transit":false,"station_name":"Gondangdia","transit":false,"time":3,"line":2,"i_long":106.832183,"station_id":"GDD","distance":1750,"i_lat":-6.186295},{"time":4,"i_long":106.828284,"line":2,"transit":false,"station_name":"Juanda","distance":2015,"station_id":"JUA","i_lat":-6.166716,"is_transit":false},{"time":2,"line":2,"i_lat":-6.160725,"station_id":"SW","is_transit":false,"transit":false,"i_long":106.827103,"distance":1149,"station_name":"Sawah Besar"},{"i_long":106.82482,"distance":906,"station_id":"MGB","is_transit":false,"time":2,"transit":false,"station_name":"Manggabesar","i_lat":-6.149769,"line":2},{"line":2,"transit":false,"station_name":"Jayakarta","time":2,"is_transit":false,"i_lat":-6.141205,"distance":1080,"i_long":106.820901,"station_id":"JAY"},{"station_id":"JAKK","time":4,"distance":1264,"transit":true,"i_lat":-6.137569,"is_transit":true,"i_long":106.812439,"line":2,"station_name":"Jakarta Kota"},{"station_id":"KPB","transit":true,"time":3,"is_transit":true,"line":4,"station_name":"Kampung Bandan","i_long":106.826365,"i_lat":-6.132549,"distance":1364},{"time":9,"transit":false,"i_long":106.79867,"station_name":"Angke","i_lat":-6.144674,"line":1,"station_id":"AK","distance":4102,"is_transit":false},{"transit":false,"time":4,"distance":1230,"station_name":"Duri","is_transit":false,"i_long":106.800832,"line":1,"station_id":"DU","i_lat":-6.155215}],[{"i_lat":-6.276362,"is_transit":false,"line":6,"distance":0,"time":0,"i_long":106.74273,"transit":false,"station_id":"PDJ","station_name":"Pondokranji"},{"distance":6218,"transit":false,"i_lat":-6.237242,"is_transit":false,"station_name":"Kebayoran","line":6,"station_id":"KBY","time":8,"i_long":106.780334},{"line":6,"distance":3737,"station_id":"PLM","time":7,"i_lat":-6.207404,"is_transit":false,"transit":false,"i_long":106.79689,"station_name":"Palmerah"},{"station_id":"THB","line":1,"distance":3191,"is_transit":true,"transit":true,"i_lat":-6.185545,"time":6,"station_name":"Tanah Abang","i_long":106.811091},{"line":1,"station_id":"KAT","transit":false,"i_long":106.816351,"time":5,"i_lat":-6.20132,"distance":2029,"station_name":"Karet","is_transit":false},{"is_transit":false,"i_lat":-6.201433,"i_long":106.819881,"station_id":"SUDB","line":1,"transit":false,"time":1,"station_name":"Sudirman Baru","distance":471},{"is_transit":false,"i_lat":-6.202263,"line":1,"station_id":"SUD","distance":280,"station_name":"Sudirman","time":1,"i_long":106.822649,"transit":false},{"i_long":106.84912,"transit":false,"time":4,"i_lat":-6.209883,"line":2,"distance":3186,"is_transit":false,"station_id":"MRI","station_name":"Manggarai"},{"line":1,"station_name":"Matraman","i_long":106.858896,"is_transit":false,"distance":1275,"transit":false,"station_id":"MTR","i_lat":-6.212485,"time":2},{"i_lat":-6.215091,"distance":1377,"station_name":"Jatinegara","time":8,"line":1,"station_id":"JNG","is_transit":true,"transit":true,"i_long":106.86807400000001},{"station_id":"POK","i_lat":-6.209188,"line":11,"transit":false,"is_transit":false,"time":2,"distance":1236,"station_name":"Pondok Jati","i_long":106.861737},{"i_long":106.855437,"is_transit":false,"station_id":"KMT","time":2,"station_name":"Kramat","transit":false,"i_lat":-6.193792,"line":11,"distance":1829},{"is_transit":false,"line":11,"time":1,"station_id":"GST","station_name":"Gang Sentiong","i_lat":-6.185975,"distance":973,"transit":false,"i_long":106.850107},{"i_lat":-6.174784,"station_id":"PSE","station_name":"Pasar Senen","time":8,"distance":1567,"line":11,"is_transit":false,"i_long":106.84368,"transit":false},{"line":11,"is_transit":false,"distance":1436,"i_lat":-6.161728,"station_id":"KMO","time":4,"transit":false,"i_long":106.839204,"station_name":"Kemayoran"},{"transit":false,"time":5,"is_transit":false,"station_id":"RJW","distance":1901,"station_name":"Rajawali","i_lat":-6.14505,"line":11,"i_long":106.836569},{"time":3,"transit":true,"is_transit":true,"line":4,"station_id":"KPB","distance":1444,"i_lat":-6.132549,"station_name":"Kampung Bandan","i_long":106.826365},{"line":1,"time":9,"i_long":106.79867,"station_name":"Angke","station_id":"AK","is_transit":false,"i_lat":-6.144674,"transit":false,"distance":4102},{"distance":1230,"station_name":"Duri","i_long":106.800832,"station_id":"DU","time":4,"i_lat":-6.155215,"transit":false,"is_transit":false,"line":1}]]}