{"data":[[{"transit":false,"station_name":"Pondokranji","distance":0,"time":0,"line":6,"i_long":106.74273,"is_transit":false,"station_id":"PDJ","i_lat":-6.276362},{"line":6,"transit":false,"distance":6218,"is_transit":false,"station_id":"KBY","station_name":"Kebayoran","time":8,"i_lat":-6.237242,"i_long":106.780334},{"i_long":106.79689,"line":6,"transit":false,"station_id":"PLM","i_lat":-6.207404,"is_transit":false,"time":7,"station_name":"Palmerah","distance":3737},{"station_name":"Tanah Abang","station_id":"THB","line":1,"i_lat":-6.185545,"time":6,"i_long":106.811091,"transit":true,"distance":3191,"is_transit":true},{"i_long":106.800832,"line":1,"distance":3632,"station_id":"DU","i_lat":-6.155215,"station_name":"Duri","time":8,"transit":false,"is_transit":false},{"line":1,"i_long":106.79867,"transit":false,"station_name":"Angke","station_id":"AK","i_lat":-6.144674,"distance":1230,"is_transit":false,"time":4},{"transit":true,"station_id":"KPB","i_long":106.826365,"time":9,"is_transit":true,"i_lat":-6.132549,"distance":4102,"line":4,"station_name":"Kampung Bandan"},{"station_id":"AC","line":4,"is_transit":false,"i_lat":-6.128023,"transit":false,"distance":2185,"time":4,"station_name":"Ancol","i_long":106.84464}],[{"station_name":"Pondokranji","station_id":"PDJ","time":0,"line":6,"i_lat":-6.276362,"is_transit":false,"transit":false,"distance":0,"i_long":106.74273},{"is_transit":false,"time":8,"station_id":"KBY","i_lat":-6.237242,"i_long":106.780334,"transit":false,"line":6,"station_name":"Kebayoran","distance":6218},{"transit":false,"i_lat":-6.207404,"is_transit":false,"time":7,"station_id":"PLM","i_long":106.79689,"distance":3737,"line":6,"station_name":"Palmerah"},{"i_long":106.811091,"distance":3191,"transit":true,"is_transit":true,"line":1,"station_name":"Tanah Abang","i_lat":-6.185545,"station_id":"THB","time":6},{"distance":2029,"time":5,"i_long":106.816351,"transit":false,"station_name":"Karet","station_id":"KAT","i_lat":-6.20132,"line":1,"is_transit":false},{"distance":471,"line":1,"transit":false,"station_name":"Sudirman Baru","station_id":"SUDB","i_lat":-6.201433,"is_transit":false,"time":1,"i_long":106.819881},{"time":1,"i_lat":-6.202263,"station_name":"Sudirman","i_long":106.822649,"station_id":"SUD","transit":false,"is_transit":false,"distance":280,"line":1},{"i_long":106.84912,"station_name":"Manggarai","i_lat":-6.209883,"distance":3186,"line":2,"station_id":"MRI","is_transit":true,"transit":true,"time":4},{"i_lat":-6.198556,"station_id":"CKI","transit":false,"station_name":"Cikini","time":4,"distance":1590,"line":2,"is_transit":false,"i_long":106.840169},{"i_long":106.832183,"transit":false,"station_name":"Gondangdia","time":3,"line":2,"distance":1750,"is_transit":false,"station_id":"GDD","i_lat":-6.186295},{"time":4,"line":2,"transit":false,"is_transit":false,"station_name":"Juanda","distance":2015,"station_id":"JUA","i_lat":-6.166716,"i_long":106.828284},{"distance":1149,"time":2,"i_lat":-6.160725,"is_transit":false,"i_long":106.827103,"transit":false,"line":2,"station_name":"Sawah Besar","station_id":"SW"},{"i_lat":-6.149769,"distance":906,"time":2,"i_long":106.82482,"transit":false,"station_id":"MGB","is_transit":false,"station_name":"Manggabesar","line":2},{"is_transit":false,"i_long":106.820901,"station_name":"Jayakarta","distance":1080,"time":2,"i_lat":-6.141205,"station_id":"JAY","line":2,"transit":false},{"line":2,"time":4,"station_id":"JAKK","is_transit":true,"transit":true,"station_name":"Jakarta Kota","i_lat":-6.137569,"i_long":106.812439,"distance":1264},{"station_id":"KPB","station_name":"Kampung Bandan","distance":1364,"time":3,"transit":true,"i_long":106.826365,"line":4,"i_lat":-6.132549,"is_transit":true},{"line":4,"i_lat":-6.128023,"station_id":"AC","is_transit":false,"station_name":"Ancol","transit":false,"distance":2185,"time":4,"i_long":106.84464}],[{"time":0,"station_id":"PDJ","i_lat":-6.276362,"line":6,"i_long":106.74273,"transit":false,"is_transit":false,"station_name":"Pondokranji","distance":0},{"i_lat":-6.237242,"line":6,"distance":6218,"is_transit":false,"transit":false,"time":8,"station_id":"KBY","station_name":"Kebayoran","i_long":106.780334},{"station_name":"Palmerah","line":6,"station_id":"PLM","i_long":106.79689,"transit":false,"is_transit":false,"distance":3737,"i_lat":-6.207404,"time":7},{"station_id":"THB","station_name":"Tanah Abang","is_transit":true,"i_long":106.811091,"time":6,"line":1,"distance":3191,"i_lat":-6.185545,"transit":true},{"distance":2029,"i_long":106.816351,"transit":false,"station_id":"KAT","line":1,"time":5,"i_lat":-6.20132,"is_transit":false,"station_name":"Karet"},{"station_id":"SUDB","transit":false,"time":1,"i_long":106.819881,"station_name":"Sudirman Baru","distance":471,"is_transit":false,"line":1,"i_lat":-6.201433},{"line":1,"station_id":"SUD","distance":280,"time":1,"transit":false,"station_name":"Sudirman","i_long":106.822649,"is_transit":false,"i_lat":-6.202263},{"i_long":106.84912,"line":2,"distance":3186,"is_transit":false,"station_id":"MRI","i_lat":-6.209883,"time":4,"station_name":"Manggarai","transit":false},{"station_id":"MTR","station_name":"Matraman","time":2,"i_long":106.858896,"i_lat":-6.212485,"line":1,"distance":1275,"transit":false,"is_transit":false},{"time":8,"distance":1377,"i_long":106.86807400000001,"line":1,"station_id":"JNG","is_transit":true,"i_lat":-6.215091,"station_name":"Jatinegara","transit":true},{"distance":1236,"station_name":"Pondok Jati","line":11,"station_id":"POK","time":2,"is_transit":false,"i_long":106.861737,"i_lat":-6.209188,"transit":false},{"station_name":"Kramat","station_id":"KMT","line":11,"distance":1829,"i_long":106.855437,"time":2,"transit":false,"is_transit":false,"i_lat":-6.193792},{"transit":false,"is_transit":false,"distance":973,"station_name":"Gang Sentiong","line":11,"station_id":"GST","i_lat":-6.185975,"time":1,"i_long":106.850107},{"i_lat":-6.174784,"station_id":"PSE","line":11,"time":8,"transit":false,"i_long":106.84368,"distance":1567,"is_transit":false,"station_name":"Pasar Senen"},{"distance":1436,"i_long":106.839204,"transit":false,"is_transit":false,"station_name":"Kemayoran","i_lat":-6.161728,"line":11,"time":4,"station_id":"KMO"},{"station_id":"RJW","i_lat":-6.14505,"transit":false,"distance":1901,"time":5,"i_long":106.836569,"line":11,"station_name":"Rajawali","is_transit":false},{"is_transit":true,"distance":1444,"i_lat":-6.132549,"transit":true,"time":3,"station_id":"KPB","i_long":106.826365,"line":4,"station_name":"Kampung Bandan"},{"is_transit":false,"time":4,"transit":false,"distance":2185,"i_long":106.84464,"line":4,"station_id":"AC","station_name":"Ancol","i_lat":-6.128023}]]}