{"data":[[{"i_lat":-6.276362,"distance":0,"station_id":"PDJ","time":0,"station_name":"Pondokranji","is_transit":false,"i_long":106.74273,"transit":false,"line":6},{"line":6,"station_name":"Kebayoran","station_id":"KBY","i_lat":-6.237242,"distance":6218,"is_transit":false,"transit":false,"i_long":106.780334,"time":8},{"is_transit":false,"i_lat":-6.207404,"i_long":106.79689,"time":7,"line":6,"station_name":"Palmerah","distance":3737,"transit":false,"station_id":"PLM"},{"station_id":"THB","time":6,"is_transit":true,"line":1,"i_lat":-6.185545,"distance":3191,"i_long":106.811091,"station_name":"Tanah Abang","transit":true},{"transit":false,"line":1,"station_id":"DU","i_long":106.800832,"time":8,"station_name":"Duri","is_transit":false,"distance":3632,"i_lat":-6.155215},{"station_name":"Angke","time":4,"distance":1230,"station_id":"AK","i_long":106.79867,"is_transit":false,"transit":false,"i_lat":-6.144674,"line":1},{"distance":4102,"transit":true,"is_transit":true,"station_name":"Kampung Bandan","station_id":"KPB","line":4,"i_long":106.826365,"time":9,"i_lat":-6.132549},{"distance":1444,"transit":false,"i_lat":-6.14505,"i_long":106.836569,"line":11,"is_transit":false,"station_id":"RJW","station_name":"Rajawali","time":3}],[{"distance":0,"line":6,"time":0,"station_id":"PDJ","i_long":106.74273,"station_name":"Pondokranji","i_lat":-6.276362,"is_transit":false,"transit":false},{"transit":false,"i_lat":-6.237242,"station_id":"KBY","line":6,"is_transit":false,"time":8,"station_name":"Kebayoran","distance":6218,"i_long":106.780334},{"station_name":"Palmerah","time":7,"transit":false,"line":6,"station_id":"PLM","i_lat":-6.207404,"distance":3737,"i_long":106.79689,"is_transit":false},{"line":1,"transit":true,"i_long":106.811091,"is_transit":true,"distance":3191,"station_name":"Tanah Abang","i_lat":-6.185545,"time":6,"station_id":"THB"},{"i_lat":-6.20132,"station_name":"Karet","is_transit":false,"i_long":106.816351,"transit":false,"time":5,"distance":2029,"line":1,"station_id":"KAT"},{"line":1,"i_lat":-6.201433,"transit":false,"is_transit":false,"distance":471,"i_long":106.819881,"time":1,"station_id":"SUDB","station_name":"Sudirman Baru"},{"distance":280,"line":1,"time":1,"station_id":"SUD","i_lat":-6.202263,"i_long":106.822649,"transit":false,"is_transit":false,"station_name":"Sudirman"},{"distance":3186,"i_lat":-6.209883,"time":4,"transit":false,"line":2,"i_long":106.84912,"station_id":"MRI","is_transit":false,"station_name":"Manggarai"},{"transit":false,"station_name":"Matraman","is_transit":false,"i_long":106.858896,"station_id":"MTR","distance":1275,"time":2,"i_lat":-6.212485,"line":1},{"i_long":106.86807400000001,"transit":true,"station_id":"JNG","line":1,"station_name":"Jatinegara","i_lat":-6.215091,"is_transit":true,"time":8,"distance":1377},{"distance":1236,"i_long":106.861737,"is_transit":false,"time":2,"i_lat":-6.209188,"transit":false,"station_name":"Pondok Jati","station_id":"POK","line":11},{"transit":false,"station_id":"KMT","station_name":"Kramat","line":11,"i_long":106.855437,"is_transit":false,"distance":1829,"i_lat":-6.193792,"time":2},{"station_name":"Gang Sentiong","distance":973,"station_id":"GST","transit":false,"is_transit":false,"time":1,"i_lat":-6.185975,"i_long":106.850107,"line":11},{"transit":false,"distance":1567,"time":8,"i_lat":-6.174784,"is_transit":false,"i_long":106.84368,"line":11,"station_id":"PSE","station_name":"Pasar Senen"},{"i_lat":-6.161728,"station_name":"Kemayoran","is_transit":false,"transit":false,"station_id":"KMO","distance":1436,"i_long":106.839204,"line":11,"time":4},{"transit":false,"is_transit":false,"distance":1901,"i_lat":-6.14505,"station_name":"Rajawali","i_long":106.836569,"time":5,"line":11,"station_id":"RJW"}],[{"time":0,"transit":false,"line":6,"station_id":"PDJ","i_long":106.74273,"distance":0,"station_name":"Pondokranji","is_transit":false,"i_lat":-6.276362},{"time":8,"distance":6218,"i_long":106.780334,"is_transit":false,"line":6,"station_id":"KBY","transit":false,"i_lat":-6.237242,"station_name":"Kebayoran"},{"transit":false,"line":6,"time":7,"station_id":"PLM","distance":3737,"i_long":106.79689,"i_lat":-6.207404,"station_name":"Palmerah","is_transit":false},{"i_lat":-6.185545,"is_transit":true,"distance":3191,"i_long":106.811091,"line":1,"station_name":"Tanah Abang","station_id":"THB","time":6,"transit":true},{"i_lat":-6.20132,"i_long":106.816351,"distance":2029,"station_id":"KAT","transit":false,"time":5,"line":1,"station_name":"Karet","is_transit":false},{"i_lat":-6.201433,"is_transit":false,"time":1,"i_long":106.819881,"station_name":"Sudirman Baru","line":1,"station_id":"SUDB","distance":471,"transit":false},{"transit":false,"time":1,"line":1,"is_transit":false,"i_long":106.822649,"station_name":"Sudirman","station_id":"SUD","i_lat":-6.202263,"distance":280},{"station_name":"Manggarai","i_long":106.84912,"line":2,"is_transit":true,"station_id":"MRI","i_lat":-6.209883,"transit":true,"time":4,"distance":3186},{"transit":false,"time":4,"is_transit":false,"i_lat":-6.198556,"i_long":106.840169,"line":2,"station_id":"CKI","distance":1590,"station_name":"Cikini"},{"line":2,"is_transit":false,"transit":false,"station_name":"Gondangdia","station_id":"GDD","i_long":106.832183,"i_lat":-6.186295,"distance":1750,"time":3},{"station_name":"Juanda","i_long":106.828284,"is_transit":false,"time":4,"distance":2015,"line":2,"transit":false,"i_lat":-6.166716,"station_id":"JUA"},{"station_name":"Sawah Besar","distance":1149,"i_lat":-6.160725,"station_id":"SW","i_long":106.827103,"time":2,"transit":false,"is_transit":false,"line":2},{"i_long":106.82482,"transit":false,"i_lat":-6.149769,"line":2,"is_transit":false,"station_name":"Manggabesar","station_id":"MGB","time":2,"distance":906},{"line":2,"i_long":106.820901,"is_transit":false,"time":2,"distance":1080,"i_lat":-6.141205,"station_name":"Jayakarta","transit":false,"station_id":"JAY"},{"distance":1264,"station_id":"JAKK","i_lat":-6.137569,"transit":true,"is_transit":true,"i_long":106.812439,"line":2,"station_name":"Jakarta Kota","time":4},{"station_name":"Kampung Bandan","is_transit":true,"transit":true,"time":3,"i_long":106.826365,"station_id":"KPB","distance":1364,"line":4,"i_lat":-6.132549},{"i_lat":-6.14505,"time":3,"transit":false,"station_name":"Rajawali","distance":1444,"is_transit":false,"line":11,"station_id":"RJW","i_long":106.836569}],[{"i_lat":-6.276362,"i_long":106.74273,"is_transit":false,"distance":0,"line":6,"transit":false,"station_name":"Pondokranji","station_id":"PDJ","time":0},{"time":8,"i_lat":-6.237242,"i_long":106.780334,"distance":6218,"station_id":"KBY","is_transit":false,"line":6,"station_name":"Kebayoran","transit":false},{"i_long":106.79689,"station_name":"Palmerah","is_transit":false,"distance":3737,"time":7,"line":6,"station_id":"PLM","i_lat":-6.207404,"transit":false},{"i_lat":-6.185545,"is_transit":true,"transit":true,"station_name":"Tanah Abang","distance":3191,"station_id":"THB","time":6,"line":1,"i_long":106.811091},{"line":1,"i_lat":-6.155215,"station_name":"Duri","transit":false,"station_id":"DU","is_transit":false,"distance":3632,"time":8,"i_long":106.800832},{"is_transit":false,"transit":false,"station_id":"AK","station_name":"Angke","i_long":106.79867,"time":4,"distance":1230,"i_lat":-6.144674,"line":1},{"i_lat":-6.132549,"time":9,"transit":true,"i_long":106.826365,"distance":4102,"is_transit":true,"line":4,"station_name":"Kampung Bandan","station_id":"KPB"},{"station_name":"Jakarta Kota","is_transit":true,"time":3,"i_long":106.812439,"station_id":"JAKK","distance":1364,"transit":true,"i_lat":-6.137569,"line":2},{"i_lat":-6.141205,"station_name":"Jayakarta","transit":false,"is_transit":false,"time":4,"i_long":106.820901,"line":2,"station_id":"JAY","distance":1264},{"transit":false,"time":2,"i_lat":-6.149769,"station_id":"MGB","line":2,"i_long":106.82482,"distance":1080,"station_name":"Manggabesar","is_transit":false},{"is_transit":false,"line":2,"station_name":"Sawah Besar","station_id":"SW","distance":906,"i_long":106.827103,"transit":false,"i_lat":-6.160725,"time":2},{"transit":false,"station_id":"JUA","time":2,"is_transit":false,"distance":1149,"i_lat":-6.166716,"i_long":106.828284,"station_name":"Juanda","line":2},{"line":2,"station_name":"Gondangdia","i_long":106.832183,"is_transit":false,"time":4,"station_id":"GDD","distance":2015,"i_lat":-6.186295,"transit":false},{"i_long":106.840169,"is_transit":false,"transit":false,"station_id":"CKI","distance":1750,"station_name":"Cikini","time":3,"line":2,"i_lat":-6.198556},{"transit":true,"station_id":"MRI","distance":1590,"is_transit":true,"time":4,"i_long":106.84912,"station_name":"Manggarai","i_lat":-6.209883,"line":2},{"transit":false,"station_name":"Matraman","i_lat":-6.212485,"i_long":106.858896,"is_transit":false,"line":1,"distance":1275,"station_id":"MTR","time":2},{"i_lat":-6.215091,"station_name":"Jatinegara","line":1,"i_long":106.86807400000001,"station_id":"JNG","is_transit":true,"transit":true,"time":8,"distance":1377},{"i_lat":-6.209188,"transit":false,"station_id":"POK","i_long":106.861737,"line":11,"is_transit":false,"distance":1236,"time":2,"station_name":"Pondok Jati"},{"is_transit":false,"distance":1829,"line":11,"i_lat":-6.193792,"time":2,"i_long":106.855437,"transit":false,"station_name":"Kramat","station_id":"KMT"},{"station_name":"Gang Sentiong","transit":false,"is_transit":false,"time":1,"distance":973,"i_long":106.850107,"line":11,"station_id":"GST","i_lat":-6.185975},{"time":8,"distance":1567,"i_lat":-6.174784,"transit":false,"i_long":106.84368,"station_id":"PSE","station_name":"Pasar Senen","is_transit":false,"line":11},{"time":4,"i_lat":-6.161728,"distance":1436,"station_name":"Kemayoran","is_transit":false,"i_long":106.839204,"line":11,"transit":false,"station_id":"KMO"},{"i_lat":-6.14505,"i_long":106.836569,"time":5,"line":11,"transit":false,"is_transit":false,"station_id":"RJW","station_name":"Rajawali","distance":1901}]]}