{"data":[[{"distance":0,"is_transit":false,"station_id":"PDJ","transit":false,"i_long":106.74273,"time":0,"line":6,"i_lat":-6.276362,"station_name":"Pondokranji"},{"i_lat":-6.237242,"is_transit":false,"distance":6218,"station_name":"Kebayoran","i_long":106.780334,"transit":false,"line":6,"station_id":"KBY","time":8},{"line":6,"station_id":"PLM","transit":false,"is_transit":false,"i_lat":-6.207404,"i_long":106.79689,"station_name":"Palmerah","time":7,"distance":3737},{"i_long":106.811091,"time":6,"line":1,"i_lat":-6.185545,"transit":true,"station_id":"THB","is_transit":true,"distance":3191,"station_name":"Tanah Abang"},{"station_name":"Karet","i_lat":-6.20132,"transit":false,"time":5,"station_id":"KAT","is_transit":false,"line":1,"distance":2029,"i_long":106.816351},{"distance":471,"is_transit":false,"i_lat":-6.201433,"time":1,"station_id":"SUDB","line":1,"station_name":"Sudirman Baru","i_long":106.819881,"transit":false},{"station_id":"SUD","transit":false,"is_transit":false,"time":1,"station_name":"Sudirman","i_long":106.822649,"distance":280,"line":1,"i_lat":-6.202263},{"station_id":"MRI","station_name":"Manggarai","distance":3186,"i_lat":-6.209883,"line":2,"is_transit":false,"transit":false,"time":4,"i_long":106.84912}],[{"i_long":106.74273,"line":6,"station_id":"PDJ","distance":0,"station_name":"Pondokranji","transit":false,"is_transit":false,"time":0,"i_lat":-6.276362},{"distance":6218,"station_name":"Kebayoran","i_lat":-6.237242,"is_transit":false,"transit":false,"line":6,"station_id":"KBY","time":8,"i_long":106.780334},{"time":7,"i_lat":-6.207404,"station_id":"PLM","i_long":106.79689,"transit":false,"is_transit":false,"station_name":"Palmerah","line":6,"distance":3737},{"line":1,"is_transit":true,"time":6,"i_long":106.811091,"distance":3191,"station_name":"Tanah Abang","station_id":"THB","transit":true,"i_lat":-6.185545},{"time":8,"i_lat":-6.155215,"line":1,"transit":false,"station_name":"Duri","station_id":"DU","distance":3632,"i_long":106.800832,"is_transit":false},{"station_name":"Angke","line":1,"time":4,"i_long":106.79867,"i_lat":-6.144674,"is_transit":false,"station_id":"AK","transit":false,"distance":1230},{"station_name":"Kampung Bandan","transit":true,"is_transit":true,"line":4,"station_id":"KPB","i_long":106.826365,"distance":4102,"i_lat":-6.132549,"time":9},{"time":3,"i_lat":-6.137569,"station_id":"JAKK","station_name":"Jakarta Kota","is_transit":true,"i_long":106.812439,"line":2,"distance":1364,"transit":true},{"distance":1264,"time":4,"i_lat":-6.141205,"transit":false,"is_transit":false,"i_long":106.820901,"station_name":"Jayakarta","station_id":"JAY","line":2},{"time":2,"transit":false,"station_id":"MGB","distance":1080,"i_lat":-6.149769,"line":2,"station_name":"Manggabesar","i_long":106.82482,"is_transit":false},{"i_lat":-6.160725,"transit":false,"station_name":"Sawah Besar","station_id":"SW","line":2,"is_transit":false,"distance":906,"time":2,"i_long":106.827103},{"i_long":106.828284,"station_id":"JUA","station_name":"Juanda","time":2,"transit":false,"distance":1149,"is_transit":false,"i_lat":-6.166716,"line":2},{"i_lat":-6.186295,"transit":false,"station_id":"GDD","is_transit":false,"distance":2015,"time":4,"station_name":"Gondangdia","i_long":106.832183,"line":2},{"line":2,"distance":1750,"station_name":"Cikini","transit":false,"i_lat":-6.198556,"station_id":"CKI","is_transit":false,"time":3,"i_long":106.840169},{"time":4,"line":2,"i_long":106.84912,"station_id":"MRI","distance":1590,"i_lat":-6.209883,"is_transit":false,"station_name":"Manggarai","transit":false}],[{"line":6,"transit":false,"distance":0,"is_transit":false,"station_id":"PDJ","i_long":106.74273,"time":0,"station_name":"Pondokranji","i_lat":-6.276362},{"is_transit":false,"time":8,"station_name":"Kebayoran","i_long":106.780334,"transit":false,"i_lat":-6.237242,"line":6,"distance":6218,"station_id":"KBY"},{"station_id":"PLM","distance":3737,"transit":false,"is_transit":false,"time":7,"i_lat":-6.207404,"station_name":"Palmerah","i_long":106.79689,"line":6},{"station_id":"THB","station_name":"Tanah Abang","i_long":106.811091,"time":6,"is_transit":true,"i_lat":-6.185545,"line":1,"distance":3191,"transit":true},{"transit":false,"i_long":106.800832,"line":1,"i_lat":-6.155215,"distance":3632,"station_name":"Duri","is_transit":false,"time":8,"station_id":"DU"},{"time":4,"is_transit":false,"i_lat":-6.144674,"station_id":"AK","line":1,"station_name":"Angke","i_long":106.79867,"distance":1230,"transit":false},{"i_long":106.826365,"distance":4102,"time":9,"i_lat":-6.132549,"transit":true,"station_name":"Kampung Bandan","is_transit":true,"line":4,"station_id":"KPB"},{"i_lat":-6.14505,"is_transit":false,"line":11,"distance":1444,"time":3,"transit":false,"station_id":"RJW","station_name":"Rajawali","i_long":106.836569},{"i_long":106.839204,"station_id":"KMO","station_name":"Kemayoran","time":5,"transit":false,"line":11,"i_lat":-6.161728,"distance":1901,"is_transit":false},{"station_id":"PSE","transit":false,"i_long":106.84368,"distance":1436,"i_lat":-6.174784,"station_name":"Pasar Senen","time":4,"line":11,"is_transit":false},{"station_id":"GST","is_transit":false,"time":8,"distance":1567,"i_lat":-6.185975,"station_name":"Gang Sentiong","transit":false,"i_long":106.850107,"line":11},{"time":1,"i_lat":-6.193792,"line":11,"distance":973,"i_long":106.855437,"transit":false,"station_id":"KMT","station_name":"Kramat","is_transit":false},{"time":2,"line":11,"i_lat":-6.209188,"i_long":106.861737,"station_id":"POK","distance":1829,"transit":false,"is_transit":false,"station_name":"Pondok Jati"},{"i_long":106.86807400000001,"time":9,"line":1,"station_id":"JNG","transit":true,"distance":1236,"is_transit":true,"station_name":"Jatinegara","i_lat":-6.215091},{"station_id":"MTR","transit":false,"is_transit":false,"station_name":"Matraman","distance":1377,"line":1,"i_lat":-6.212485,"i_long":106.858896,"time":2},{"distance":1275,"station_name":"Manggarai","time":2,"station_id":"MRI","i_long":106.84912,"line":2,"transit":false,"is_transit":false,"i_lat":-6.209883}]]}