{"data":[[{"distance":0,"station_id":"PDJ","transit":false,"i_lat":-6.276362,"station_name":"Pondokranji","time":0,"is_transit":false,"i_long":106.74273,"line":6},{"is_transit":false,"i_long":106.780334,"time":8,"line":6,"station_id":"KBY","i_lat":-6.237242,"distance":6218,"transit":false,"station_name":"Kebayoran"},{"station_name":"Palmerah","i_lat":-6.207404,"time":7,"is_transit":false,"station_id":"PLM","transit":false,"i_long":106.79689,"distance":3737,"line":6},{"transit":true,"i_lat":-6.185545,"distance":3191,"station_name":"Tanah Abang","line":1,"is_transit":true,"station_id":"THB","i_long":106.811091,"time":6},{"i_long":106.800832,"station_name":"Duri","time":8,"station_id":"DU","distance":3632,"i_lat":-6.155215,"transit":false,"line":1,"is_transit":false},{"station_id":"AK","station_name":"Angke","transit":false,"distance":1230,"i_lat":-6.144674,"time":4,"line":1,"i_long":106.79867,"is_transit":false},{"i_lat":-6.132549,"is_transit":true,"transit":true,"station_id":"KPB","time":9,"i_long":106.826365,"station_name":"Kampung Bandan","distance":4102,"line":4},{"station_name":"Jakarta Kota","distance":1364,"is_transit":false,"time":3,"line":2,"station_id":"JAKK","i_long":106.812439,"transit":false,"i_lat":-6.137569}],[{"station_id":"PDJ","is_transit":false,"time":0,"transit":false,"i_lat":-6.276362,"i_long":106.74273,"line":6,"station_name":"Pondokranji","distance":0},{"station_id":"KBY","station_name":"Kebayoran","time":8,"line":6,"distance":6218,"i_long":106.780334,"i_lat":-6.237242,"transit":false,"is_transit":false},{"is_transit":false,"station_id":"PLM","i_long":106.79689,"i_lat":-6.207404,"line":6,"station_name":"Palmerah","time":7,"transit":false,"distance":3737},{"time":6,"distance":3191,"line":1,"station_name":"Tanah Abang","station_id":"THB","i_lat":-6.185545,"i_long":106.811091,"transit":true,"is_transit":true},{"station_id":"KAT","i_long":106.816351,"i_lat":-6.20132,"distance":2029,"is_transit":false,"line":1,"transit":false,"station_name":"Karet","time":5},{"i_long":106.819881,"station_name":"Sudirman Baru","transit":false,"time":1,"i_lat":-6.201433,"line":1,"is_transit":false,"station_id":"SUDB","distance":471},{"distance":280,"line":1,"station_name":"Sudirman","station_id":"SUD","i_lat":-6.202263,"i_long":106.822649,"is_transit":false,"transit":false,"time":1},{"transit":true,"distance":3186,"time":4,"is_transit":true,"i_lat":-6.209883,"station_name":"Manggarai","i_long":106.84912,"station_id":"MRI","line":2},{"station_name":"Cikini","i_long":106.840169,"transit":false,"station_id":"CKI","time":4,"line":2,"distance":1590,"i_lat":-6.198556,"is_transit":false},{"i_long":106.832183,"line":2,"i_lat":-6.186295,"time":3,"station_name":"Gondangdia","transit":false,"station_id":"GDD","distance":1750,"is_transit":false},{"i_lat":-6.166716,"time":4,"distance":2015,"i_long":106.828284,"transit":false,"line":2,"station_name":"Juanda","is_transit":false,"station_id":"JUA"},{"station_name":"Sawah Besar","time":2,"station_id":"SW","i_lat":-6.160725,"is_transit":false,"i_long":106.827103,"transit":false,"distance":1149,"line":2},{"distance":906,"transit":false,"station_id":"MGB","is_transit":false,"time":2,"i_lat":-6.149769,"i_long":106.82482,"line":2,"station_name":"Manggabesar"},{"distance":1080,"line":2,"station_name":"Jayakarta","is_transit":false,"i_long":106.820901,"i_lat":-6.141205,"station_id":"JAY","time":2,"transit":false},{"i_long":106.812439,"i_lat":-6.137569,"line":2,"station_name":"Jakarta Kota","station_id":"JAKK","is_transit":false,"time":4,"transit":false,"distance":1264}],[{"i_long":106.74273,"line":6,"station_id":"PDJ","transit":false,"time":0,"is_transit":false,"station_name":"Pondokranji","distance":0,"i_lat":-6.276362},{"transit":false,"line":6,"station_id":"KBY","is_transit":false,"station_name":"Kebayoran","i_lat":-6.237242,"distance":6218,"i_long":106.780334,"time":8},{"i_long":106.79689,"i_lat":-6.207404,"station_id":"PLM","transit":false,"line":6,"time":7,"distance":3737,"station_name":"Palmerah","is_transit":false},{"i_long":106.811091,"distance":3191,"station_name":"Tanah Abang","line":1,"transit":true,"station_id":"THB","i_lat":-6.185545,"time":6,"is_transit":true},{"i_lat":-6.20132,"transit":false,"station_name":"Karet","time":5,"line":1,"is_transit":false,"distance":2029,"station_id":"KAT","i_long":106.816351},{"time":1,"i_long":106.819881,"line":1,"is_transit":false,"distance":471,"i_lat":-6.201433,"station_id":"SUDB","station_name":"Sudirman Baru","transit":false},{"distance":280,"i_long":106.822649,"line":1,"transit":false,"station_name":"Sudirman","time":1,"i_lat":-6.202263,"station_id":"SUD","is_transit":false},{"time":4,"is_transit":false,"i_long":106.84912,"transit":false,"station_id":"MRI","i_lat":-6.209883,"line":2,"station_name":"Manggarai","distance":3186},{"distance":1275,"i_long":106.858896,"time":2,"transit":false,"station_name":"Matraman","line":1,"is_transit":false,"i_lat":-6.212485,"station_id":"MTR"},{"time":8,"i_long":106.86807400000001,"i_lat":-6.215091,"is_transit":true,"distance":1377,"line":1,"station_id":"JNG","transit":true,"station_name":"Jatinegara"},{"is_transit":false,"station_name":"Pondok Jati","station_id":"POK","i_lat":-6.209188,"line":11,"time":2,"distance":1236,"i_long":106.861737,"transit":false},{"i_long":106.855437,"line":11,"distance":1829,"station_id":"KMT","station_name":"Kramat","time":2,"transit":false,"is_transit":false,"i_lat":-6.193792},{"distance":973,"line":11,"transit":false,"time":1,"station_id":"GST","i_lat":-6.185975,"station_name":"Gang Sentiong","is_transit":false,"i_long":106.850107},{"line":11,"station_name":"Pasar Senen","time":8,"transit":false,"is_transit":false,"i_long":106.84368,"i_lat":-6.174784,"distance":1567,"station_id":"PSE"},{"distance":1436,"line":11,"station_id":"KMO","transit":false,"station_name":"Kemayoran","is_transit":false,"i_long":106.839204,"i_lat":-6.161728,"time":4},{"station_id":"RJW","time":5,"i_lat":-6.14505,"i_long":106.836569,"distance":1901,"line":11,"transit":false,"is_transit":false,"station_name":"Rajawali"},{"i_lat":-6.132549,"i_long":106.826365,"transit":true,"time":3,"station_name":"Kampung Bandan","line":4,"is_transit":true,"station_id":"KPB","distance":1444},{"line":2,"is_transit":false,"transit":false,"i_long":106.812439,"i_lat":-6.137569,"distance":1364,"time":3,"station_id":"JAKK","station_name":"Jakarta Kota"}],[{"line":6,"distance":0,"i_lat":-6.276362,"station_name":"Pondokranji","transit":false,"is_transit":false,"i_long":106.74273,"time":0,"station_id":"PDJ"},{"time":8,"station_id":"KBY","is_transit":false,"line":6,"transit":false,"i_lat":-6.237242,"i_long":106.780334,"distance":6218,"station_name":"Kebayoran"},{"is_transit":false,"line":6,"i_long":106.79689,"transit":false,"i_lat":-6.207404,"station_name":"Palmerah","distance":3737,"time":7,"station_id":"PLM"},{"station_name":"Tanah Abang","line":1,"i_long":106.811091,"distance":3191,"transit":true,"i_lat":-6.185545,"station_id":"THB","is_transit":true,"time":6},{"transit":false,"station_id":"DU","i_long":106.800832,"i_lat":-6.155215,"line":1,"station_name":"Duri","time":8,"distance":3632,"is_transit":false},{"time":4,"transit":false,"station_id":"AK","i_long":106.79867,"station_name":"Angke","is_transit":false,"i_lat":-6.144674,"line":1,"distance":1230},{"distance":4102,"station_id":"KPB","transit":true,"i_long":106.826365,"is_transit":true,"station_name":"Kampung Bandan","time":9,"i_lat":-6.132549,"line":4},{"i_lat":-6.14505,"station_id":"RJW","time":3,"i_long":106.836569,"distance":1444,"is_transit":false,"transit":false,"line":11,"station_name":"Rajawali"},{"is_transit":false,"i_lat":-6.161728,"transit":false,"station_id":"KMO","station_name":"Kemayoran","i_long":106.839204,"line":11,"distance":1901,"time":5},{"station_name":"Pasar Senen","distance":1436,"time":4,"i_lat":-6.174784,"i_long":106.84368,"line":11,"transit":false,"station_id":"PSE","is_transit":false},{"i_lat":-6.185975,"station_name":"Gang Sentiong","line":11,"transit":false,"i_long":106.850107,"time":8,"station_id":"GST","distance":1567,"is_transit":false},{"i_lat":-6.193792,"transit":false,"station_name":"Kramat","time":1,"distance":973,"station_id":"KMT","is_transit":false,"i_long":106.855437,"line":11},{"distance":1829,"i_long":106.861737,"line":11,"transit":false,"station_id":"POK","is_transit":false,"station_name":"Pondok Jati","time":2,"i_lat":-6.209188},{"transit":true,"station_id":"JNG","distance":1236,"i_long":106.86807400000001,"is_transit":true,"time":9,"station_name":"Jatinegara","i_lat":-6.215091,"line":1},{"time":2,"i_long":106.858896,"distance":1377,"station_name":"Matraman","station_id":"MTR","transit":false,"i_lat":-6.212485,"line":1,"is_transit":false},{"is_transit":true,"transit":true,"station_name":"Manggarai","station_id":"MRI","time":2,"i_long":106.84912,"i_lat":-6.209883,"line":2,"distance":1275},{"time":4,"transit":false,"distance":1590,"station_id":"CKI","is_transit":false,"line":2,"station_name":"Cikini","i_long":106.840169,"i_lat":-6.198556},{"is_transit":false,"station_id":"GDD","time":3,"i_lat":-6.186295,"line":2,"i_long":106.832183,"station_name":"Gondangdia","transit":false,"distance":1750},{"i_long":106.828284,"transit":false,"time":4,"station_id":"JUA","is_transit":false,"i_lat":-6.166716,"station_name":"Juanda","line":2,"distance":2015},{"line":2,"station_name":"Sawah Besar","time":2,"transit":false,"station_id":"SW","i_lat":-6.160725,"distance":1149,"is_transit":false,"i_long":106.827103},{"line":2,"i_long":106.82482,"i_lat":-6.149769,"transit":false,"time":2,"distance":906,"station_id":"MGB","station_name":"Manggabesar","is_transit":false},{"station_id":"JAY","distance":1080,"transit":false,"is_transit":false,"line":2,"i_long":106.820901,"station_name":"Jayakarta","time":2,"i_lat":-6.141205},{"i_lat":-6.137569,"i_long":106.812439,"line":2,"station_name":"Jakarta Kota","station_id":"JAKK","time":4,"transit":false,"is_transit":false,"distance":1264}]]}