{"data":[[{"distance":0,"i_long":106.74273,"is_transit":false,"transit":false,"line":6,"i_lat":-6.276362,"station_id":"PDJ","time":0,"station_name":"Pondokranji"},{"i_lat":-6.237242,"is_transit":false,"line":6,"station_name":"Kebayoran","transit":false,"i_long":106.780334,"distance":6218,"time":8,"station_id":"KBY"},{"station_id":"PLM","i_long":106.79689,"time":7,"station_name":"Palmerah","is_transit":false,"transit":false,"i_lat":-6.207404,"line":6,"distance":3737},{"time":6,"transit":true,"station_id":"THB","i_long":106.811091,"is_transit":true,"line":1,"i_lat":-6.185545,"station_name":"Tanah Abang","distance":3191},{"station_id":"DU","i_long":106.800832,"station_name":"Duri","line":1,"time":8,"distance":3632,"transit":false,"is_transit":false,"i_lat":-6.155215},{"i_long":106.79867,"line":1,"station_id":"AK","station_name":"Angke","i_lat":-6.144674,"is_transit":false,"distance":1230,"time":4,"transit":false},{"distance":4102,"time":9,"is_transit":true,"transit":true,"station_id":"KPB","i_lat":-6.132549,"station_name":"Kampung Bandan","i_long":106.826365,"line":4},{"i_long":106.836569,"line":11,"transit":false,"time":3,"distance":1444,"station_name":"Rajawali","station_id":"RJW","is_transit":false,"i_lat":-6.14505},{"i_lat":-6.161728,"distance":1901,"station_name":"Kemayoran","transit":false,"is_transit":false,"time":5,"station_id":"KMO","line":11,"i_long":106.839204},{"line":11,"time":4,"distance":1436,"station_id":"PSE","station_name":"Pasar Senen","is_transit":false,"i_lat":-6.174784,"i_long":106.84368,"transit":false},{"is_transit":false,"station_name":"Gang Sentiong","station_id":"GST","time":8,"i_lat":-6.185975,"i_long":106.850107,"transit":false,"line":11,"distance":1567}],[{"transit":false,"station_id":"PDJ","time":0,"i_lat":-6.276362,"line":6,"distance":0,"station_name":"Pondokranji","i_long":106.74273,"is_transit":false},{"station_id":"KBY","time":8,"station_name":"Kebayoran","distance":6218,"i_lat":-6.237242,"transit":false,"i_long":106.780334,"is_transit":false,"line":6},{"i_lat":-6.207404,"distance":3737,"station_name":"Palmerah","station_id":"PLM","time":7,"line":6,"transit":false,"is_transit":false,"i_long":106.79689},{"distance":3191,"is_transit":true,"time":6,"i_lat":-6.185545,"station_id":"THB","i_long":106.811091,"line":1,"station_name":"Tanah Abang","transit":true},{"distance":2029,"time":5,"i_lat":-6.20132,"is_transit":false,"transit":false,"station_name":"Karet","i_long":106.816351,"line":1,"station_id":"KAT"},{"i_long":106.819881,"station_name":"Sudirman Baru","distance":471,"station_id":"SUDB","is_transit":false,"time":1,"i_lat":-6.201433,"line":1,"transit":false},{"line":1,"time":1,"i_lat":-6.202263,"station_id":"SUD","i_long":106.822649,"transit":false,"station_name":"Sudirman","distance":280,"is_transit":false},{"distance":3186,"i_lat":-6.209883,"station_name":"Manggarai","transit":false,"time":4,"station_id":"MRI","line":2,"i_long":106.84912,"is_transit":false},{"i_lat":-6.212485,"is_transit":false,"line":1,"transit":false,"station_name":"Matraman","time":2,"i_long":106.858896,"station_id":"MTR","distance":1275},{"is_transit":true,"i_lat":-6.215091,"distance":1377,"i_long":106.86807400000001,"line":1,"station_name":"Jatinegara","time":8,"transit":true,"station_id":"JNG"},{"i_lat":-6.209188,"station_name":"Pondok Jati","line":11,"station_id":"POK","distance":1236,"time":2,"is_transit":false,"transit":false,"i_long":106.861737},{"distance":1829,"line":11,"transit":false,"i_long":106.855437,"time":2,"station_id":"KMT","is_transit":false,"i_lat":-6.193792,"station_name":"Kramat"},{"distance":973,"transit":false,"station_id":"GST","is_transit":false,"station_name":"Gang Sentiong","time":1,"i_long":106.850107,"line":11,"i_lat":-6.185975}],[{"i_long":106.74273,"station_name":"Pondokranji","distance":0,"station_id":"PDJ","line":6,"time":0,"is_transit":false,"i_lat":-6.276362,"transit":false},{"station_name":"Kebayoran","time":8,"i_lat":-6.237242,"line":6,"distance":6218,"transit":false,"is_transit":false,"station_id":"KBY","i_long":106.780334},{"i_lat":-6.207404,"distance":3737,"station_name":"Palmerah","transit":false,"station_id":"PLM","is_transit":false,"time":7,"i_long":106.79689,"line":6},{"distance":3191,"is_transit":true,"i_lat":-6.185545,"station_name":"Tanah Abang","time":6,"line":1,"transit":true,"station_id":"THB","i_long":106.811091},{"station_name":"Duri","is_transit":false,"line":1,"i_long":106.800832,"distance":3632,"time":8,"transit":false,"i_lat":-6.155215,"station_id":"DU"},{"i_long":106.79867,"station_id":"AK","transit":false,"station_name":"Angke","is_transit":false,"distance":1230,"time":4,"i_lat":-6.144674,"line":1},{"i_long":106.826365,"line":4,"transit":true,"i_lat":-6.132549,"distance":4102,"station_id":"KPB","is_transit":true,"station_name":"Kampung Bandan","time":9},{"line":2,"is_transit":true,"transit":true,"station_name":"Jakarta Kota","i_lat":-6.137569,"i_long":106.812439,"distance":1364,"time":3,"station_id":"JAKK"},{"transit":false,"station_id":"JAY","time":4,"line":2,"i_lat":-6.141205,"is_transit":false,"distance":1264,"station_name":"Jayakarta","i_long":106.820901},{"station_name":"Manggabesar","station_id":"MGB","is_transit":false,"i_lat":-6.149769,"time":2,"line":2,"transit":false,"i_long":106.82482,"distance":1080},{"i_lat":-6.160725,"i_long":106.827103,"distance":906,"transit":false,"time":2,"line":2,"station_name":"Sawah Besar","is_transit":false,"station_id":"SW"},{"transit":false,"distance":1149,"line":2,"station_name":"Juanda","time":2,"station_id":"JUA","is_transit":false,"i_lat":-6.166716,"i_long":106.828284},{"transit":false,"station_id":"GDD","time":4,"i_lat":-6.186295,"is_transit":false,"i_long":106.832183,"line":2,"distance":2015,"station_name":"Gondangdia"},{"i_long":106.840169,"transit":false,"station_name":"Cikini","station_id":"CKI","line":2,"distance":1750,"time":3,"i_lat":-6.198556,"is_transit":false},{"is_transit":true,"i_lat":-6.209883,"line":2,"i_long":106.84912,"distance":1590,"transit":true,"station_name":"Manggarai","station_id":"MRI","time":4},{"transit":false,"station_id":"MTR","is_transit":false,"line":1,"i_long":106.858896,"time":2,"distance":1275,"i_lat":-6.212485,"station_name":"Matraman"},{"i_lat":-6.215091,"line":1,"is_transit":true,"station_name":"Jatinegara","transit":true,"i_long":106.86807400000001,"distance":1377,"time":8,"station_id":"JNG"},{"station_id":"POK","time":2,"station_name":"Pondok Jati","is_transit":false,"distance":1236,"line":11,"transit":false,"i_lat":-6.209188,"i_long":106.861737},{"is_transit":false,"distance":1829,"i_long":106.855437,"i_lat":-6.193792,"time":2,"station_id":"KMT","station_name":"Kramat","line":11,"transit":false},{"transit":false,"station_id":"GST","is_transit":false,"i_lat":-6.185975,"station_name":"Gang Sentiong","time":1,"i_long":106.850107,"line":11,"distance":973}],[{"is_transit":false,"station_name":"Pondokranji","i_long":106.74273,"i_lat":-6.276362,"time":0,"distance":0,"transit":false,"station_id":"PDJ","line":6},{"time":8,"station_id":"KBY","is_transit":false,"transit":false,"station_name":"Kebayoran","i_long":106.780334,"distance":6218,"i_lat":-6.237242,"line":6},{"time":7,"station_id":"PLM","transit":false,"is_transit":false,"i_lat":-6.207404,"line":6,"station_name":"Palmerah","distance":3737,"i_long":106.79689},{"station_id":"THB","line":1,"station_name":"Tanah Abang","transit":true,"distance":3191,"is_transit":true,"i_lat":-6.185545,"i_long":106.811091,"time":6},{"line":1,"station_id":"KAT","i_lat":-6.20132,"transit":false,"station_name":"Karet","time":5,"distance":2029,"is_transit":false,"i_long":106.816351},{"station_name":"Sudirman Baru","time":1,"is_transit":false,"distance":471,"i_long":106.819881,"line":1,"i_lat":-6.201433,"station_id":"SUDB","transit":false},{"station_name":"Sudirman","station_id":"SUD","i_lat":-6.202263,"i_long":106.822649,"line":1,"time":1,"is_transit":false,"transit":false,"distance":280},{"transit":true,"is_transit":true,"i_lat":-6.209883,"distance":3186,"line":2,"station_name":"Manggarai","station_id":"MRI","i_long":106.84912,"time":4},{"transit":false,"is_transit":false,"distance":1590,"time":4,"i_lat":-6.198556,"i_long":106.840169,"station_name":"Cikini","station_id":"CKI","line":2},{"station_name":"Gondangdia","line":2,"transit":false,"i_lat":-6.186295,"time":3,"station_id":"GDD","is_transit":false,"i_long":106.832183,"distance":1750},{"line":2,"station_name":"Juanda","i_long":106.828284,"distance":2015,"station_id":"JUA","is_transit":false,"time":4,"i_lat":-6.166716,"transit":false},{"transit":false,"is_transit":false,"line":2,"i_lat":-6.160725,"station_id":"SW","time":2,"station_name":"Sawah Besar","distance":1149,"i_long":106.827103},{"station_name":"Manggabesar","transit":false,"line":2,"distance":906,"time":2,"station_id":"MGB","is_transit":false,"i_lat":-6.149769,"i_long":106.82482},{"distance":1080,"station_id":"JAY","time":2,"transit":false,"i_lat":-6.141205,"i_long":106.820901,"line":2,"station_name":"Jayakarta","is_transit":false},{"station_id":"JAKK","is_transit":true,"i_lat":-6.137569,"station_name":"Jakarta Kota","distance":1264,"transit":true,"time":4,"i_long":106.812439,"line":2},{"transit":true,"station_name":"Kampung Bandan","distance":1364,"is_transit":true,"i_long":106.826365,"line":4,"station_id":"KPB","time":3,"i_lat":-6.132549},{"station_name":"Rajawali","distance":1444,"i_long":106.836569,"i_lat":-6.14505,"time":3,"line":11,"station_id":"RJW","transit":false,"is_transit":false},{"transit":false,"station_id":"KMO","is_transit":false,"time":5,"distance":1901,"station_name":"Kemayoran","i_lat":-6.161728,"i_long":106.839204,"line":11},{"i_lat":-6.174784,"transit":false,"station_name":"Pasar Senen","station_id":"PSE","time":4,"i_long":106.84368,"is_transit":false,"line":11,"distance":1436},{"station_name":"Gang Sentiong","i_long":106.850107,"i_lat":-6.185975,"distance":1567,"time":8,"line":11,"station_id":"GST","transit":false,"is_transit":false}]]}