{"data":[[{"station_id":"PDJ","i_lat":-6.276362,"transit":false,"time":0,"distance":0,"is_transit":false,"i_long":106.74273,"line":6,"station_name":"Pondokranji"},{"time":8,"line":6,"transit":false,"i_lat":-6.237242,"station_name":"Kebayoran","is_transit":false,"i_long":106.780334,"distance":6218,"station_id":"KBY"},{"i_long":106.79689,"transit":false,"station_name":"Palmerah","time":7,"i_lat":-6.207404,"line":6,"is_transit":false,"distance":3737,"station_id":"PLM"},{"transit":true,"i_long":106.811091,"time":6,"is_transit":true,"line":1,"station_id":"THB","distance":3191,"station_name":"Tanah Abang","i_lat":-6.185545},{"i_long":106.816351,"transit":false,"line":1,"distance":2029,"i_lat":-6.20132,"is_transit":false,"time":5,"station_name":"Karet","station_id":"KAT"},{"time":1,"i_long":106.819881,"station_name":"Sudirman Baru","is_transit":false,"station_id":"SUDB","distance":471,"transit":false,"i_lat":-6.201433,"line":1},{"distance":280,"station_id":"SUD","transit":false,"i_lat":-6.202263,"station_name":"Sudirman","i_long":106.822649,"is_transit":false,"line":1,"time":1},{"time":4,"i_long":106.84912,"is_transit":true,"distance":3186,"station_name":"Manggarai","station_id":"MRI","i_lat":-6.209883,"transit":true,"line":2},{"distance":1590,"transit":false,"is_transit":false,"i_lat":-6.198556,"line":2,"time":4,"station_name":"Cikini","station_id":"CKI","i_long":106.840169},{"station_name":"Gondangdia","station_id":"GDD","line":2,"i_long":106.832183,"i_lat":-6.186295,"time":3,"transit":false,"is_transit":false,"distance":1750}],[{"i_long":106.74273,"station_name":"Pondokranji","line":6,"transit":false,"is_transit":false,"distance":0,"station_id":"PDJ","i_lat":-6.276362,"time":0},{"i_long":106.780334,"line":6,"time":8,"station_id":"KBY","distance":6218,"is_transit":false,"transit":false,"station_name":"Kebayoran","i_lat":-6.237242},{"i_long":106.79689,"line":6,"distance":3737,"transit":false,"time":7,"station_name":"Palmerah","station_id":"PLM","is_transit":false,"i_lat":-6.207404},{"i_long":106.811091,"line":1,"time":6,"distance":3191,"station_name":"Tanah Abang","transit":true,"station_id":"THB","is_transit":true,"i_lat":-6.185545},{"is_transit":false,"distance":3632,"i_lat":-6.155215,"i_long":106.800832,"transit":false,"line":1,"station_name":"Duri","station_id":"DU","time":8},{"time":4,"line":1,"station_name":"Angke","i_long":106.79867,"transit":false,"station_id":"AK","distance":1230,"is_transit":false,"i_lat":-6.144674},{"station_name":"Kampung Bandan","i_lat":-6.132549,"time":9,"line":4,"i_long":106.826365,"is_transit":true,"station_id":"KPB","transit":true,"distance":4102},{"station_name":"Jakarta Kota","distance":1364,"i_long":106.812439,"is_transit":true,"line":2,"time":3,"i_lat":-6.137569,"transit":true,"station_id":"JAKK"},{"time":4,"i_long":106.820901,"transit":false,"distance":1264,"line":2,"is_transit":false,"i_lat":-6.141205,"station_name":"Jayakarta","station_id":"JAY"},{"i_lat":-6.149769,"station_name":"Manggabesar","time":2,"line":2,"transit":false,"station_id":"MGB","is_transit":false,"i_long":106.82482,"distance":1080},{"i_lat":-6.160725,"time":2,"is_transit":false,"distance":906,"i_long":106.827103,"transit":false,"station_id":"SW","line":2,"station_name":"Sawah Besar"},{"line":2,"distance":1149,"is_transit":false,"station_id":"JUA","station_name":"Juanda","time":2,"i_lat":-6.166716,"transit":false,"i_long":106.828284},{"station_name":"Gondangdia","station_id":"GDD","line":2,"is_transit":false,"time":4,"transit":false,"distance":2015,"i_lat":-6.186295,"i_long":106.832183}],[{"is_transit":false,"time":0,"station_name":"Pondokranji","transit":false,"station_id":"PDJ","i_long":106.74273,"line":6,"distance":0,"i_lat":-6.276362},{"station_name":"Kebayoran","time":8,"transit":false,"i_long":106.780334,"is_transit":false,"station_id":"KBY","distance":6218,"i_lat":-6.237242,"line":6},{"is_transit":false,"line":6,"time":7,"i_lat":-6.207404,"transit":false,"i_long":106.79689,"station_name":"Palmerah","station_id":"PLM","distance":3737},{"transit":true,"i_long":106.811091,"is_transit":true,"line":1,"station_id":"THB","i_lat":-6.185545,"time":6,"station_name":"Tanah Abang","distance":3191},{"is_transit":false,"transit":false,"station_name":"Duri","station_id":"DU","i_lat":-6.155215,"line":1,"distance":3632,"time":8,"i_long":106.800832},{"station_id":"AK","line":1,"time":4,"transit":false,"distance":1230,"i_lat":-6.144674,"is_transit":false,"i_long":106.79867,"station_name":"Angke"},{"is_transit":true,"station_name":"Kampung Bandan","distance":4102,"station_id":"KPB","time":9,"i_lat":-6.132549,"line":4,"i_long":106.826365,"transit":true},{"transit":false,"distance":1444,"station_name":"Rajawali","line":11,"time":3,"i_long":106.836569,"is_transit":false,"station_id":"RJW","i_lat":-6.14505},{"i_lat":-6.161728,"is_transit":false,"transit":false,"time":5,"distance":1901,"station_name":"Kemayoran","station_id":"KMO","i_long":106.839204,"line":11},{"station_name":"Pasar Senen","time":4,"transit":false,"station_id":"PSE","distance":1436,"is_transit":false,"line":11,"i_long":106.84368,"i_lat":-6.174784},{"i_long":106.850107,"transit":false,"is_transit":false,"station_name":"Gang Sentiong","i_lat":-6.185975,"station_id":"GST","distance":1567,"line":11,"time":8},{"distance":973,"time":1,"i_lat":-6.193792,"i_long":106.855437,"line":11,"station_name":"Kramat","is_transit":false,"station_id":"KMT","transit":false},{"station_name":"Pondok Jati","station_id":"POK","i_lat":-6.209188,"distance":1829,"i_long":106.861737,"is_transit":false,"line":11,"transit":false,"time":2},{"transit":true,"station_name":"Jatinegara","is_transit":true,"time":9,"station_id":"JNG","i_lat":-6.215091,"i_long":106.86807400000001,"distance":1236,"line":1},{"transit":false,"station_name":"Matraman","station_id":"MTR","time":2,"line":1,"i_long":106.858896,"distance":1377,"i_lat":-6.212485,"is_transit":false},{"transit":true,"station_id":"MRI","line":2,"is_transit":true,"station_name":"Manggarai","distance":1275,"time":2,"i_lat":-6.209883,"i_long":106.84912},{"line":2,"i_lat":-6.198556,"i_long":106.840169,"is_transit":false,"time":4,"distance":1590,"transit":false,"station_name":"Cikini","station_id":"CKI"},{"i_lat":-6.186295,"i_long":106.832183,"is_transit":false,"line":2,"time":3,"station_name":"Gondangdia","distance":1750,"station_id":"GDD","transit":false}],[{"station_name":"Pondokranji","station_id":"PDJ","is_transit":false,"time":0,"i_lat":-6.276362,"line":6,"distance":0,"transit":false,"i_long":106.74273},{"i_long":106.780334,"line":6,"is_transit":false,"distance":6218,"time":8,"i_lat":-6.237242,"station_name":"Kebayoran","transit":false,"station_id":"KBY"},{"station_id":"PLM","i_long":106.79689,"transit":false,"i_lat":-6.207404,"station_name":"Palmerah","is_transit":false,"distance":3737,"time":7,"line":6},{"station_name":"Tanah Abang","i_long":106.811091,"line":1,"distance":3191,"station_id":"THB","transit":true,"time":6,"is_transit":true,"i_lat":-6.185545},{"station_name":"Karet","transit":false,"i_lat":-6.20132,"is_transit":false,"distance":2029,"line":1,"station_id":"KAT","i_long":106.816351,"time":5},{"station_name":"Sudirman Baru","transit":false,"i_long":106.819881,"distance":471,"line":1,"i_lat":-6.201433,"time":1,"station_id":"SUDB","is_transit":false},{"line":1,"distance":280,"station_name":"Sudirman","is_transit":false,"i_long":106.822649,"i_lat":-6.202263,"transit":false,"station_id":"SUD","time":1},{"station_id":"MRI","is_transit":false,"time":4,"i_lat":-6.209883,"i_long":106.84912,"transit":false,"station_name":"Manggarai","distance":3186,"line":2},{"time":2,"transit":false,"distance":1275,"line":1,"i_lat":-6.212485,"i_long":106.858896,"station_name":"Matraman","station_id":"MTR","is_transit":false},{"i_long":106.86807400000001,"is_transit":true,"station_id":"JNG","time":8,"i_lat":-6.215091,"station_name":"Jatinegara","transit":true,"distance":1377,"line":1},{"time":2,"line":11,"is_transit":false,"i_lat":-6.209188,"transit":false,"station_name":"Pondok Jati","distance":1236,"station_id":"POK","i_long":106.861737},{"station_id":"KMT","i_lat":-6.193792,"is_transit":false,"station_name":"Kramat","distance":1829,"i_long":106.855437,"line":11,"transit":false,"time":2},{"station_name":"Gang Sentiong","line":11,"distance":973,"i_lat":-6.185975,"time":1,"station_id":"GST","is_transit":false,"i_long":106.850107,"transit":false},{"is_transit":false,"i_lat":-6.174784,"station_name":"Pasar Senen","transit":false,"station_id":"PSE","i_long":106.84368,"distance":1567,"line":11,"time":8},{"station_name":"Kemayoran","station_id":"KMO","time":4,"i_long":106.839204,"i_lat":-6.161728,"line":11,"transit":false,"is_transit":false,"distance":1436},{"distance":1901,"i_long":106.836569,"station_name":"Rajawali","transit":false,"station_id":"RJW","is_transit":false,"i_lat":-6.14505,"line":11,"time":5},{"transit":true,"time":3,"station_id":"KPB","is_transit":true,"i_lat":-6.132549,"line":4,"i_long":106.826365,"distance":1444,"station_name":"Kampung Bandan"},{"time":3,"distance":1364,"i_lat":-6.137569,"station_name":"Jakarta Kota","i_long":106.812439,"station_id":"JAKK","line":2,"transit":true,"is_transit":true},{"line":2,"transit":false,"i_lat":-6.141205,"i_long":106.820901,"is_transit":false,"time":4,"distance":1264,"station_name":"Jayakarta","station_id":"JAY"},{"time":2,"station_id":"MGB","distance":1080,"transit":false,"line":2,"i_long":106.82482,"i_lat":-6.149769,"station_name":"Manggabesar","is_transit":false},{"time":2,"distance":906,"transit":false,"station_name":"Sawah Besar","station_id":"SW","is_transit":false,"i_lat":-6.160725,"line":2,"i_long":106.827103},{"i_long":106.828284,"distance":1149,"station_name":"Juanda","transit":false,"station_id":"JUA","time":2,"is_transit":false,"line":2,"i_lat":-6.166716},{"i_long":106.832183,"distance":2015,"time":4,"station_id":"GDD","transit":false,"station_name":"Gondangdia","i_lat":-6.186295,"line":2,"is_transit":false}]]}