{"data":[[{"line":6,"distance":0,"is_transit":false,"station_id":"PDJ","transit":false,"i_lat":-6.276362,"i_long":106.74273,"time":0,"station_name":"Pondokranji"},{"station_name":"Kebayoran","is_transit":false,"station_id":"KBY","i_lat":-6.237242,"distance":6218,"i_long":106.780334,"line":6,"time":8,"transit":false},{"i_long":106.79689,"distance":3737,"station_name":"Palmerah","is_transit":false,"i_lat":-6.207404,"time":7,"transit":false,"line":6,"station_id":"PLM"},{"time":6,"is_transit":true,"station_name":"Tanah Abang","i_long":106.811091,"transit":true,"station_id":"THB","i_lat":-6.185545,"line":1,"distance":3191},{"i_long":106.816351,"time":5,"is_transit":false,"transit":false,"i_lat":-6.20132,"line":1,"station_name":"Karet","distance":2029,"station_id":"KAT"},{"transit":false,"time":1,"station_id":"SUDB","station_name":"Sudirman Baru","i_lat":-6.201433,"is_transit":false,"distance":471,"i_long":106.819881,"line":1},{"station_id":"SUD","line":1,"station_name":"Sudirman","distance":280,"i_long":106.822649,"time":1,"transit":false,"is_transit":false,"i_lat":-6.202263},{"time":4,"distance":3186,"line":0,"station_name":"Manggarai","is_transit":true,"station_id":"MRI","transit":false,"i_long":106.84912,"i_lat":-6.209883},{"transit":false,"station_name":"Matraman","i_long":106.858896,"time":2,"distance":1275,"is_transit":false,"station_id":"MTR","line":1,"i_lat":-6.212485},{"transit":false,"is_transit":true,"i_long":106.86807400000001,"i_lat":-6.215091,"distance":1377,"line":0,"station_name":"Jatinegara","station_id":"JNG","time":8},{"station_name":"Klender","time":3,"i_long":106.899548,"i_lat":-6.2135,"is_transit":false,"line":1,"transit":false,"station_id":"KLD","distance":3395},{"distance":3100,"i_lat":-6.215568,"i_long":106.922662,"station_id":"BUA","time":2,"is_transit":false,"station_name":"Buaran","transit":false,"line":0}],[{"line":6,"transit":false,"station_name":"Pondokranji","time":0,"i_long":106.74273,"is_transit":false,"i_lat":-6.276362,"distance":0,"station_id":"PDJ"},{"i_long":106.780334,"line":6,"station_name":"Kebayoran","station_id":"KBY","i_lat":-6.237242,"distance":6218,"is_transit":false,"time":8,"transit":false},{"is_transit":false,"time":7,"station_id":"PLM","i_long":106.79689,"distance":3737,"transit":false,"station_name":"Palmerah","line":6,"i_lat":-6.207404},{"station_name":"Tanah Abang","distance":3191,"station_id":"THB","i_long":106.811091,"transit":true,"i_lat":-6.185545,"line":1,"time":6,"is_transit":true},{"i_lat":-6.155215,"line":1,"i_long":106.800832,"is_transit":true,"transit":true,"station_name":"Duri","distance":3632,"station_id":"DU","time":8},{"station_id":"AK","line":0,"time":4,"distance":1230,"transit":false,"is_transit":false,"i_long":106.79867,"i_lat":-6.144674,"station_name":"Angke"},{"i_lat":-6.132549,"time":9,"line":0,"station_id":"KPB","distance":4102,"is_transit":true,"station_name":"Kampung Bandan","i_long":106.826365,"transit":true},{"distance":1444,"line":11,"station_name":"Rajawali","i_lat":-6.14505,"is_transit":false,"i_long":106.836569,"transit":false,"station_id":"RJW","time":3},{"i_lat":-6.161728,"transit":false,"line":11,"time":5,"station_id":"KMO","i_long":106.839204,"station_name":"Kemayoran","is_transit":false,"distance":1901},{"station_id":"PSE","transit":false,"i_lat":-6.174784,"line":11,"time":4,"is_transit":false,"i_long":106.84368,"distance":1436,"station_name":"Pasar Senen"},{"i_lat":-6.185975,"station_name":"Gang Sentiong","distance":1567,"time":8,"is_transit":false,"station_id":"GST","transit":false,"i_long":106.850107,"line":11},{"i_long":106.855437,"is_transit":false,"distance":973,"station_name":"Kramat","i_lat":-6.193792,"station_id":"KMT","transit":false,"line":11,"time":1},{"distance":1829,"transit":false,"is_transit":false,"station_id":"POK","station_name":"Pondok Jati","i_lat":-6.209188,"i_long":106.861737,"line":11,"time":2},{"time":9,"i_lat":-6.215091,"station_name":"Jatinegara","is_transit":true,"transit":true,"i_long":106.86807400000001,"station_id":"JNG","line":0,"distance":1236},{"transit":false,"line":1,"station_name":"Klender","distance":3395,"is_transit":false,"i_lat":-6.2135,"time":3,"i_long":106.899548,"station_id":"KLD"},{"station_name":"Buaran","line":0,"station_id":"BUA","i_lat":-6.215568,"time":2,"i_long":106.922662,"is_transit":false,"distance":3100,"transit":false}],[{"distance":0,"line":6,"transit":false,"time":0,"i_lat":-6.276362,"station_id":"PDJ","i_long":106.74273,"station_name":"Pondokranji","is_transit":false},{"transit":false,"distance":6218,"line":6,"station_id":"KBY","i_long":106.780334,"i_lat":-6.237242,"station_name":"Kebayoran","is_transit":false,"time":8},{"is_transit":false,"station_id":"PLM","i_lat":-6.207404,"i_long":106.79689,"station_name":"Palmerah","distance":3737,"time":7,"line":6,"transit":false},{"transit":true,"i_lat":-6.185545,"time":6,"i_long":106.811091,"station_name":"Tanah Abang","distance":3191,"line":1,"is_transit":true,"station_id":"THB"},{"is_transit":true,"station_name":"Duri","distance":3632,"i_lat":-6.155215,"i_long":106.800832,"line":1,"time":8,"station_id":"DU","transit":true},{"transit":false,"time":4,"i_long":106.79867,"station_id":"AK","i_lat":-6.144674,"is_transit":false,"distance":1230,"station_name":"Angke","line":0},{"line":0,"transit":false,"station_name":"Kampung Bandan","distance":4102,"is_transit":true,"time":9,"i_lat":-6.132549,"station_id":"KPB","i_long":106.826365},{"station_name":"Jakarta Kota","time":3,"transit":true,"station_id":"JAKK","i_long":106.812439,"distance":1364,"i_lat":-6.137569,"line":0,"is_transit":true},{"i_lat":-6.141205,"line":7,"is_transit":false,"station_name":"Jayakarta","distance":1264,"station_id":"JAY","transit":false,"time":4,"i_long":106.820901},{"station_id":"MGB","transit":false,"time":2,"is_transit":false,"station_name":"Manggabesar","i_lat":-6.149769,"distance":1080,"i_long":106.82482,"line":2},{"station_name":"Sawah Besar","is_transit":false,"transit":false,"i_long":106.827103,"line":2,"time":2,"distance":906,"i_lat":-6.160725,"station_id":"SW"},{"distance":1149,"is_transit":false,"station_id":"JUA","station_name":"Juanda","time":2,"i_lat":-6.166716,"i_long":106.828284,"line":2,"transit":false},{"i_lat":-6.186295,"transit":false,"distance":2015,"station_name":"Gondangdia","line":2,"time":4,"i_long":106.832183,"station_id":"GDD","is_transit":false},{"i_lat":-6.198556,"station_id":"CKI","i_long":106.840169,"is_transit":false,"transit":false,"line":0,"station_name":"Cikini","distance":1750,"time":3},{"station_id":"MRI","i_long":106.84912,"line":0,"distance":1590,"is_transit":true,"i_lat":-6.209883,"station_name":"Manggarai","time":4,"transit":true},{"station_name":"Matraman","distance":1275,"station_id":"MTR","transit":false,"time":2,"line":1,"i_lat":-6.212485,"i_long":106.858896,"is_transit":false},{"i_lat":-6.215091,"i_long":106.86807400000001,"station_id":"JNG","line":0,"time":8,"transit":false,"station_name":"Jatinegara","distance":1377,"is_transit":true},{"transit":false,"i_lat":-6.2135,"line":1,"i_long":106.899548,"distance":3395,"station_id":"KLD","is_transit":false,"time":3,"station_name":"Klender"},{"i_long":106.922662,"line":0,"station_name":"Buaran","time":2,"station_id":"BUA","is_transit":false,"distance":3100,"transit":false,"i_lat":-6.215568}],[{"station_name":"Pondokranji","transit":false,"distance":0,"is_transit":false,"i_lat":-6.276362,"i_long":106.74273,"station_id":"PDJ","time":0,"line":6},{"line":6,"time":8,"station_id":"KBY","distance":6218,"i_long":106.780334,"station_name":"Kebayoran","transit":false,"is_transit":false,"i_lat":-6.237242},{"is_transit":false,"transit":false,"station_name":"Palmerah","station_id":"PLM","i_lat":-6.207404,"line":6,"distance":3737,"i_long":106.79689,"time":7},{"station_name":"Tanah Abang","is_transit":true,"station_id":"THB","i_long":106.811091,"line":1,"distance":3191,"time":6,"i_lat":-6.185545,"transit":true},{"time":5,"transit":false,"i_lat":-6.20132,"i_long":106.816351,"station_id":"KAT","distance":2029,"station_name":"Karet","is_transit":false,"line":1},{"i_lat":-6.201433,"line":1,"distance":471,"is_transit":false,"time":1,"station_id":"SUDB","i_long":106.819881,"station_name":"Sudirman Baru","transit":false},{"transit":false,"station_name":"Sudirman","distance":280,"i_lat":-6.202263,"i_long":106.822649,"station_id":"SUD","time":1,"is_transit":false,"line":1},{"i_lat":-6.209883,"is_transit":true,"station_id":"MRI","transit":true,"time":4,"station_name":"Manggarai","i_long":106.84912,"line":0,"distance":3186},{"time":4,"is_transit":false,"i_lat":-6.198556,"station_name":"Cikini","i_long":106.840169,"transit":false,"distance":1590,"line":0,"station_id":"CKI"},{"time":3,"i_long":106.832183,"line":2,"station_id":"GDD","transit":false,"station_name":"Gondangdia","is_transit":false,"i_lat":-6.186295,"distance":1750},{"distance":2015,"station_name":"Juanda","line":2,"station_id":"JUA","is_transit":false,"transit":false,"i_lat":-6.166716,"time":4,"i_long":106.828284},{"is_transit":false,"i_lat":-6.160725,"station_name":"Sawah Besar","distance":1149,"transit":false,"time":2,"i_long":106.827103,"station_id":"SW","line":2},{"i_lat":-6.149769,"line":2,"is_transit":false,"distance":906,"i_long":106.82482,"station_name":"Manggabesar","station_id":"MGB","time":2,"transit":false},{"station_name":"Jayakarta","i_lat":-6.141205,"is_transit":false,"transit":false,"i_long":106.820901,"line":7,"time":2,"distance":1080,"station_id":"JAY"},{"station_name":"Jakarta Kota","line":0,"is_transit":true,"i_lat":-6.137569,"time":4,"distance":1264,"station_id":"JAKK","transit":true,"i_long":106.812439},{"line":0,"i_lat":-6.132549,"station_name":"Kampung Bandan","transit":true,"station_id":"KPB","time":3,"distance":1364,"is_transit":true,"i_long":106.826365},{"distance":1444,"is_transit":false,"transit":false,"station_id":"RJW","station_name":"Rajawali","i_lat":-6.14505,"line":11,"i_long":106.836569,"time":3},{"distance":1901,"station_id":"KMO","transit":false,"i_long":106.839204,"i_lat":-6.161728,"station_name":"Kemayoran","is_transit":false,"line":11,"time":5},{"i_long":106.84368,"line":11,"is_transit":false,"transit":false,"time":4,"distance":1436,"station_id":"PSE","station_name":"Pasar Senen","i_lat":-6.174784},{"i_long":106.850107,"distance":1567,"is_transit":false,"i_lat":-6.185975,"time":8,"station_id":"GST","line":11,"transit":false,"station_name":"Gang Sentiong"},{"distance":973,"is_transit":false,"line":11,"i_lat":-6.193792,"station_name":"Kramat","i_long":106.855437,"time":1,"transit":false,"station_id":"KMT"},{"station_name":"Pondok Jati","transit":false,"i_long":106.861737,"station_id":"POK","is_transit":false,"distance":1829,"i_lat":-6.209188,"time":2,"line":11},{"distance":1236,"is_transit":true,"station_id":"JNG","time":9,"transit":true,"i_lat":-6.215091,"i_long":106.86807400000001,"line":0,"station_name":"Jatinegara"},{"time":3,"is_transit":false,"i_long":106.899548,"line":1,"distance":3395,"station_name":"Klender","transit":false,"station_id":"KLD","i_lat":-6.2135},{"i_lat":-6.215568,"is_transit":false,"station_id":"BUA","transit":false,"i_long":106.922662,"station_name":"Buaran","time":2,"distance":3100,"line":0}]]}