{"data":[[{"station_name":"Pondokranji","distance":0,"line":6,"i_lat":-6.276362,"i_long":106.74273,"is_transit":false,"time":0,"station_id":"PDJ","transit":false},{"distance":6218,"i_lat":-6.237242,"station_name":"Kebayoran","line":6,"station_id":"KBY","i_long":106.780334,"time":8,"transit":false,"is_transit":false},{"time":7,"station_name":"Palmerah","transit":false,"i_long":106.79689,"line":6,"station_id":"PLM","distance":3737,"is_transit":false,"i_lat":-6.207404},{"station_name":"Tanah Abang","line":1,"distance":3191,"i_lat":-6.185545,"station_id":"THB","is_transit":true,"transit":true,"time":6,"i_long":106.811091},{"station_name":"Duri","i_lat":-6.155215,"station_id":"DU","time":8,"distance":3632,"is_transit":false,"line":1,"i_long":106.800832,"transit":false},{"station_id":"AK","station_name":"Angke","time":4,"distance":1230,"transit":false,"i_long":106.79867,"line":1,"i_lat":-6.144674,"is_transit":false},{"line":4,"station_name":"Kampung Bandan","distance":4102,"transit":true,"i_lat":-6.132549,"time":9,"is_transit":true,"i_long":106.826365,"station_id":"KPB"},{"i_lat":-6.128023,"i_long":106.84464,"time":4,"is_transit":false,"line":4,"station_name":"Ancol","transit":false,"distance":2185,"station_id":"AC"},{"line":4,"transit":false,"time":9,"i_lat":-6.1109480000000005,"i_long":106.880089,"station_name":"Tanjung Priuk","station_id":"TPK","is_transit":false,"distance":4566}],[{"station_id":"PDJ","transit":false,"time":0,"i_lat":-6.276362,"i_long":106.74273,"station_name":"Pondokranji","is_transit":false,"line":6,"distance":0},{"transit":false,"i_lat":-6.237242,"i_long":106.780334,"distance":6218,"line":6,"time":8,"station_name":"Kebayoran","is_transit":false,"station_id":"KBY"},{"i_lat":-6.207404,"is_transit":false,"line":6,"station_name":"Palmerah","transit":false,"time":7,"i_long":106.79689,"distance":3737,"station_id":"PLM"},{"station_name":"Tanah Abang","station_id":"THB","i_lat":-6.185545,"time":6,"is_transit":true,"transit":true,"i_long":106.811091,"distance":3191,"line":1},{"transit":false,"i_lat":-6.20132,"line":1,"i_long":106.816351,"time":5,"station_id":"KAT","station_name":"Karet","is_transit":false,"distance":2029},{"i_long":106.819881,"station_id":"SUDB","station_name":"Sudirman Baru","is_transit":false,"time":1,"transit":false,"i_lat":-6.201433,"distance":471,"line":1},{"is_transit":false,"station_name":"Sudirman","line":1,"distance":280,"transit":false,"time":1,"station_id":"SUD","i_lat":-6.202263,"i_long":106.822649},{"i_lat":-6.209883,"is_transit":true,"i_long":106.84912,"time":4,"line":2,"station_id":"MRI","station_name":"Manggarai","transit":true,"distance":3186},{"line":2,"is_transit":false,"time":4,"distance":1590,"i_long":106.840169,"station_id":"CKI","station_name":"Cikini","transit":false,"i_lat":-6.198556},{"i_lat":-6.186295,"i_long":106.832183,"line":2,"time":3,"is_transit":false,"station_id":"GDD","distance":1750,"transit":false,"station_name":"Gondangdia"},{"transit":false,"i_lat":-6.166716,"line":2,"distance":2015,"time":4,"station_name":"Juanda","i_long":106.828284,"is_transit":false,"station_id":"JUA"},{"transit":false,"distance":1149,"i_long":106.827103,"is_transit":false,"i_lat":-6.160725,"time":2,"station_id":"SW","station_name":"Sawah Besar","line":2},{"line":2,"transit":false,"i_lat":-6.149769,"time":2,"station_id":"MGB","distance":906,"station_name":"Manggabesar","is_transit":false,"i_long":106.82482},{"i_long":106.820901,"is_transit":false,"i_lat":-6.141205,"distance":1080,"transit":false,"station_id":"JAY","station_name":"Jayakarta","line":2,"time":2},{"distance":1264,"station_id":"JAKK","station_name":"Jakarta Kota","transit":true,"i_lat":-6.137569,"i_long":106.812439,"time":4,"is_transit":true,"line":2},{"time":3,"station_id":"KPB","is_transit":true,"i_long":106.826365,"station_name":"Kampung Bandan","transit":true,"line":4,"i_lat":-6.132549,"distance":1364},{"station_id":"AC","i_long":106.84464,"time":4,"station_name":"Ancol","transit":false,"distance":2185,"i_lat":-6.128023,"line":4,"is_transit":false},{"station_id":"TPK","distance":4566,"transit":false,"station_name":"Tanjung Priuk","i_lat":-6.1109480000000005,"time":9,"i_long":106.880089,"is_transit":false,"line":4}],[{"transit":false,"station_id":"PDJ","distance":0,"is_transit":false,"time":0,"i_long":106.74273,"line":6,"i_lat":-6.276362,"station_name":"Pondokranji"},{"is_transit":false,"distance":6218,"i_lat":-6.237242,"i_long":106.780334,"transit":false,"line":6,"time":8,"station_name":"Kebayoran","station_id":"KBY"},{"line":6,"distance":3737,"i_long":106.79689,"i_lat":-6.207404,"transit":false,"station_name":"Palmerah","station_id":"PLM","is_transit":false,"time":7},{"transit":true,"time":6,"i_lat":-6.185545,"station_id":"THB","line":1,"distance":3191,"is_transit":true,"station_name":"Tanah Abang","i_long":106.811091},{"i_long":106.816351,"station_name":"Karet","transit":false,"station_id":"KAT","i_lat":-6.20132,"time":5,"is_transit":false,"line":1,"distance":2029},{"time":1,"station_name":"Sudirman Baru","station_id":"SUDB","is_transit":false,"i_lat":-6.201433,"line":1,"transit":false,"distance":471,"i_long":106.819881},{"time":1,"line":1,"i_long":106.822649,"is_transit":false,"station_name":"Sudirman","distance":280,"station_id":"SUD","transit":false,"i_lat":-6.202263},{"time":4,"station_name":"Manggarai","transit":false,"i_lat":-6.209883,"station_id":"MRI","line":2,"distance":3186,"is_transit":false,"i_long":106.84912},{"distance":1275,"is_transit":false,"station_name":"Matraman","station_id":"MTR","i_long":106.858896,"time":2,"i_lat":-6.212485,"transit":false,"line":1},{"i_long":106.86807400000001,"distance":1377,"time":8,"transit":true,"station_id":"JNG","i_lat":-6.215091,"line":1,"is_transit":true,"station_name":"Jatinegara"},{"is_transit":false,"line":11,"i_lat":-6.209188,"station_name":"Pondok Jati","station_id":"POK","transit":false,"distance":1236,"time":2,"i_long":106.861737},{"station_name":"Kramat","line":11,"distance":1829,"station_id":"KMT","time":2,"transit":false,"i_lat":-6.193792,"i_long":106.855437,"is_transit":false},{"is_transit":false,"station_name":"Gang Sentiong","i_long":106.850107,"i_lat":-6.185975,"station_id":"GST","time":1,"distance":973,"line":11,"transit":false},{"i_lat":-6.174784,"time":8,"transit":false,"is_transit":false,"line":11,"i_long":106.84368,"station_id":"PSE","station_name":"Pasar Senen","distance":1567},{"time":4,"i_lat":-6.161728,"transit":false,"station_name":"Kemayoran","i_long":106.839204,"is_transit":false,"line":11,"station_id":"KMO","distance":1436},{"station_name":"Rajawali","transit":false,"i_lat":-6.14505,"is_transit":false,"line":11,"time":5,"distance":1901,"station_id":"RJW","i_long":106.836569},{"i_lat":-6.132549,"line":4,"i_long":106.826365,"time":3,"is_transit":true,"station_id":"KPB","distance":1444,"station_name":"Kampung Bandan","transit":true},{"station_id":"AC","distance":2185,"time":4,"station_name":"Ancol","transit":false,"i_long":106.84464,"i_lat":-6.128023,"is_transit":false,"line":4},{"station_id":"TPK","distance":4566,"i_lat":-6.1109480000000005,"line":4,"transit":false,"i_long":106.880089,"station_name":"Tanjung Priuk","time":9,"is_transit":false}]]}