{"data":[[{"i_long":106.824374,"station_id":"PDRG","station_name":"Pondok Rajeg","line":21,"is_transit":false,"i_lat":-6.460735,"distance":0,"time":0,"transit":false},{"transit":true,"i_long":106.800298,"i_lat":-6.448811,"station_id":"CTA","time":0,"is_transit":true,"distance":0,"line":2,"station_name":"Citayam"},{"station_id":"DP","time":6,"transit":false,"distance":5084,"station_name":"Depok","is_transit":false,"i_lat":-6.405256,"line":2,"i_long":106.816926},{"transit":false,"station_name":"Depokbaru","station_id":"DPB","time":3,"is_transit":false,"i_long":106.819451,"i_lat":-6.391065,"distance":1584,"line":2},{"station_name":"Pondok Cina","transit":false,"is_transit":false,"station_id":"POC","line":2,"i_lat":-6.369073,"i_long":106.831114,"time":4,"distance":2727},{"transit":false,"is_transit":false,"time":2,"i_long":106.831474,"station_id":"UI","i_lat":-6.360749,"line":2,"station_name":"Univ. Indonesia","distance":1109},{"line":2,"i_long":106.834175,"is_transit":false,"time":3,"distance":2264,"i_lat":-6.339291,"station_id":"UP","station_name":"Univ. Pancasila","transit":false},{"station_name":"Lenteng Agung","i_lat":-6.330363,"is_transit":false,"transit":false,"line":2,"time":2,"station_id":"LNA","distance":1029,"i_long":106.832616},{"line":2,"station_id":"TNT","station_name":"Tanjung Barat","is_transit":false,"time":3,"i_lat":-6.3080680000000005,"i_long":106.838896,"distance":2671,"transit":false},{"station_name":"Pasar Minggu","i_long":106.843999,"i_lat":-6.2842400000000005,"is_transit":false,"station_id":"PSM","time":4,"transit":false,"line":2,"distance":2820},{"distance":2380,"i_long":106.851577,"line":2,"transit":false,"i_lat":-6.263214,"station_id":"PSMB","station_name":"Pasar Minggu Baru","is_transit":false,"time":2},{"station_id":"DRN","transit":false,"is_transit":false,"distance":824,"i_long":106.85449,"i_lat":-6.255332,"time":2,"line":2,"station_name":"Duren Kalibata"},{"station_name":"Cawang","transit":false,"distance":1546,"i_lat":-6.242512,"i_long":106.856607,"line":2,"station_id":"CW","is_transit":false,"time":3},{"distance":1230,"station_id":"TEB","transit":false,"i_long":106.857948,"is_transit":false,"time":2,"line":2,"i_lat":-6.226659,"station_name":"Tebet"},{"i_long":106.84912,"station_name":"Manggarai","i_lat":-6.209883,"is_transit":true,"time":4,"distance":2610,"station_id":"MRI","line":2,"transit":true},{"line":1,"station_id":"MTR","station_name":"Matraman","transit":false,"is_transit":false,"i_long":106.858896,"distance":1275,"i_lat":-6.212485,"time":2},{"distance":1377,"i_long":106.86807400000001,"is_transit":false,"time":8,"transit":false,"station_id":"JNG","i_lat":-6.215091,"station_name":"Jatinegara","line":1},{"line":1,"i_long":106.899548,"is_transit":false,"station_id":"KLD","station_name":"Klender","time":3,"i_lat":-6.2135,"distance":3395,"transit":false},{"time":2,"transit":false,"i_long":106.922662,"line":1,"distance":3100,"is_transit":false,"station_name":"Buaran","i_lat":-6.215568,"station_id":"BUA"},{"station_name":"Klenderbaru","time":1,"i_long":106.939679,"line":1,"transit":false,"i_lat":-6.217455,"station_id":"KLDB","is_transit":false,"distance":1305},{"line":1,"i_lat":-6.219053,"distance":1385,"station_name":"Cakung","is_transit":false,"station_id":"CUK","time":8,"i_long":106.951283,"transit":false},{"is_transit":false,"transit":false,"station_id":"KRI","i_long":106.977657,"distance":3097,"station_name":"Kranji","time":3,"i_lat":-6.224515,"line":1}],[{"time":0,"line":21,"station_name":"Pondok Rajeg","transit":false,"station_id":"PDRG","i_long":106.824374,"distance":0,"is_transit":false,"i_lat":-6.460735},{"i_long":106.800298,"is_transit":true,"transit":true,"station_name":"Citayam","station_id":"CTA","distance":0,"time":0,"i_lat":-6.448811,"line":2},{"station_name":"Depok","time":6,"distance":5084,"station_id":"DP","i_lat":-6.405256,"is_transit":false,"i_long":106.816926,"line":2,"transit":false},{"line":2,"time":3,"station_name":"Depokbaru","i_long":106.819451,"is_transit":false,"distance":1584,"i_lat":-6.391065,"transit":false,"station_id":"DPB"},{"is_transit":false,"time":4,"station_id":"POC","station_name":"Pondok Cina","i_lat":-6.369073,"i_long":106.831114,"transit":false,"line":2,"distance":2727},{"station_id":"UI","is_transit":false,"transit":false,"i_lat":-6.360749,"distance":1109,"station_name":"Univ. Indonesia","i_long":106.831474,"time":2,"line":2},{"i_long":106.834175,"time":3,"station_name":"Univ. Pancasila","station_id":"UP","distance":2264,"line":2,"transit":false,"is_transit":false,"i_lat":-6.339291},{"time":2,"transit":false,"station_name":"Lenteng Agung","station_id":"LNA","line":2,"distance":1029,"is_transit":false,"i_lat":-6.330363,"i_long":106.832616},{"station_name":"Tanjung Barat","transit":false,"distance":2671,"is_transit":false,"time":3,"line":2,"station_id":"TNT","i_long":106.838896,"i_lat":-6.3080680000000005},{"station_name":"Pasar Minggu","i_lat":-6.2842400000000005,"distance":2820,"transit":false,"time":4,"station_id":"PSM","i_long":106.843999,"line":2,"is_transit":false},{"line":2,"i_lat":-6.263214,"transit":false,"is_transit":false,"time":2,"distance":2380,"i_long":106.851577,"station_name":"Pasar Minggu Baru","station_id":"PSMB"},{"is_transit":false,"station_id":"DRN","i_lat":-6.255332,"transit":false,"time":2,"i_long":106.85449,"line":2,"station_name":"Duren Kalibata","distance":824},{"i_long":106.856607,"line":2,"station_name":"Cawang","time":3,"transit":false,"i_lat":-6.242512,"station_id":"CW","is_transit":false,"distance":1546},{"i_lat":-6.226659,"line":2,"time":2,"is_transit":false,"i_long":106.857948,"transit":false,"station_name":"Tebet","station_id":"TEB","distance":1230},{"station_id":"MRI","i_lat":-6.209883,"transit":true,"i_long":106.84912,"is_transit":true,"line":2,"time":4,"distance":2610,"station_name":"Manggarai"},{"is_transit":false,"line":1,"time":4,"i_long":106.822649,"transit":false,"station_id":"SUD","distance":3186,"i_lat":-6.202263,"station_name":"Sudirman"},{"transit":false,"i_long":106.819881,"distance":280,"time":1,"station_name":"Sudirman Baru","is_transit":false,"i_lat":-6.201433,"line":1,"station_id":"SUDB"},{"transit":false,"station_name":"Karet","line":1,"is_transit":false,"station_id":"KAT","distance":471,"time":1,"i_lat":-6.20132,"i_long":106.816351},{"distance":2029,"station_name":"Tanah Abang","station_id":"THB","i_lat":-6.185545,"transit":false,"line":1,"i_long":106.811091,"time":5,"is_transit":false},{"is_transit":false,"station_name":"Duri","distance":3632,"line":1,"i_long":106.800832,"time":8,"transit":false,"station_id":"DU","i_lat":-6.155215},{"station_id":"AK","distance":1230,"i_lat":-6.144674,"time":4,"transit":false,"line":1,"i_long":106.79867,"is_transit":false,"station_name":"Angke"},{"line":4,"station_name":"Kampung Bandan","is_transit":true,"station_id":"KPB","i_lat":-6.132549,"distance":4102,"i_long":106.826365,"time":9,"transit":true},{"is_transit":false,"transit":false,"distance":1444,"time":3,"i_lat":-6.14505,"station_id":"RJW","line":11,"station_name":"Rajawali","i_long":106.836569},{"transit":false,"is_transit":false,"i_lat":-6.161728,"line":11,"distance":1901,"station_id":"KMO","i_long":106.839204,"station_name":"Kemayoran","time":5},{"distance":1436,"station_id":"PSE","i_long":106.84368,"i_lat":-6.174784,"is_transit":false,"transit":false,"station_name":"Pasar Senen","line":11,"time":4},{"station_id":"GST","line":11,"i_long":106.850107,"station_name":"Gang Sentiong","i_lat":-6.185975,"transit":false,"is_transit":false,"time":8,"distance":1567},{"is_transit":false,"i_long":106.855437,"station_name":"Kramat","transit":false,"time":1,"station_id":"KMT","i_lat":-6.193792,"line":11,"distance":973},{"i_long":106.861737,"time":2,"i_lat":-6.209188,"station_name":"Pondok Jati","station_id":"POK","is_transit":false,"line":11,"transit":false,"distance":1829},{"station_id":"JNG","time":9,"i_lat":-6.215091,"transit":true,"line":1,"distance":1236,"i_long":106.86807400000001,"station_name":"Jatinegara","is_transit":true},{"i_long":106.899548,"transit":false,"i_lat":-6.2135,"station_id":"KLD","is_transit":false,"station_name":"Klender","distance":3395,"line":1,"time":3},{"line":1,"station_name":"Buaran","distance":3100,"transit":false,"time":2,"station_id":"BUA","is_transit":false,"i_lat":-6.215568,"i_long":106.922662},{"i_long":106.939679,"line":1,"is_transit":false,"station_id":"KLDB","distance":1305,"i_lat":-6.217455,"transit":false,"station_name":"Klenderbaru","time":1},{"station_name":"Cakung","i_long":106.951283,"transit":false,"is_transit":false,"line":1,"i_lat":-6.219053,"distance":1385,"station_id":"CUK","time":8},{"time":3,"i_lat":-6.224515,"station_id":"KRI","line":1,"transit":false,"distance":3097,"station_name":"Kranji","i_long":106.977657,"is_transit":false}],[{"time":0,"is_transit":false,"i_lat":-6.460735,"distance":0,"i_long":106.824374,"station_id":"PDRG","line":21,"transit":false,"station_name":"Pondok Rajeg"},{"is_transit":true,"distance":0,"station_name":"Citayam","time":0,"station_id":"CTA","i_lat":-6.448811,"i_long":106.800298,"line":2,"transit":true},{"transit":false,"i_long":106.816926,"station_name":"Depok","station_id":"DP","is_transit":false,"time":6,"i_lat":-6.405256,"line":2,"distance":5084},{"time":3,"station_id":"DPB","distance":1584,"station_name":"Depokbaru","i_lat":-6.391065,"transit":false,"is_transit":false,"line":2,"i_long":106.819451},{"distance":2727,"station_name":"Pondok Cina","station_id":"POC","i_long":106.831114,"i_lat":-6.369073,"time":4,"line":2,"is_transit":false,"transit":false},{"transit":false,"station_name":"Univ. Indonesia","is_transit":false,"i_long":106.831474,"line":2,"distance":1109,"station_id":"UI","time":2,"i_lat":-6.360749},{"station_id":"UP","i_lat":-6.339291,"time":3,"distance":2264,"i_long":106.834175,"station_name":"Univ. Pancasila","line":2,"transit":false,"is_transit":false},{"distance":1029,"time":2,"is_transit":false,"transit":false,"i_long":106.832616,"station_name":"Lenteng Agung","station_id":"LNA","i_lat":-6.330363,"line":2},{"i_long":106.838896,"is_transit":false,"distance":2671,"transit":false,"station_id":"TNT","time":3,"i_lat":-6.3080680000000005,"line":2,"station_name":"Tanjung Barat"},{"station_name":"Pasar Minggu","transit":false,"distance":2820,"is_transit":false,"station_id":"PSM","i_lat":-6.2842400000000005,"time":4,"line":2,"i_long":106.843999},{"transit":false,"is_transit":false,"station_id":"PSMB","time":2,"i_lat":-6.263214,"i_long":106.851577,"distance":2380,"station_name":"Pasar Minggu Baru","line":2},{"line":2,"station_name":"Duren Kalibata","transit":false,"distance":824,"i_long":106.85449,"station_id":"DRN","is_transit":false,"time":2,"i_lat":-6.255332},{"transit":false,"station_id":"CW","line":2,"i_long":106.856607,"distance":1546,"is_transit":false,"i_lat":-6.242512,"time":3,"station_name":"Cawang"},{"station_name":"Tebet","line":2,"transit":false,"station_id":"TEB","distance":1230,"i_lat":-6.226659,"is_transit":false,"time":2,"i_long":106.857948},{"transit":false,"i_long":106.84912,"line":2,"station_id":"MRI","time":4,"distance":2610,"i_lat":-6.209883,"is_transit":false,"station_name":"Manggarai"},{"station_name":"Cikini","is_transit":false,"i_lat":-6.198556,"i_long":106.840169,"line":2,"distance":1590,"station_id":"CKI","transit":false,"time":4},{"distance":1750,"i_lat":-6.186295,"time":3,"line":2,"i_long":106.832183,"is_transit":false,"station_name":"Gondangdia","station_id":"GDD","transit":false},{"station_name":"Juanda","time":4,"station_id":"JUA","line":2,"distance":2015,"is_transit":false,"i_long":106.828284,"transit":false,"i_lat":-6.166716},{"station_id":"SW","station_name":"Sawah Besar","transit":false,"is_transit":false,"time":2,"i_lat":-6.160725,"i_long":106.827103,"distance":1149,"line":2},{"i_lat":-6.149769,"distance":906,"station_name":"Manggabesar","time":2,"is_transit":false,"station_id":"MGB","line":2,"transit":false,"i_long":106.82482},{"time":2,"distance":1080,"is_transit":false,"i_lat":-6.141205,"line":2,"station_id":"JAY","i_long":106.820901,"transit":false,"station_name":"Jayakarta"},{"distance":1264,"transit":true,"i_long":106.812439,"is_transit":true,"station_id":"JAKK","time":4,"line":2,"i_lat":-6.137569,"station_name":"Jakarta Kota"},{"i_lat":-6.132549,"line":4,"transit":true,"distance":1364,"station_name":"Kampung Bandan","is_transit":true,"time":3,"i_long":106.826365,"station_id":"KPB"},{"station_name":"Rajawali","time":3,"i_long":106.836569,"transit":false,"distance":1444,"is_transit":false,"line":11,"station_id":"RJW","i_lat":-6.14505},{"transit":false,"station_id":"KMO","station_name":"Kemayoran","distance":1901,"time":5,"i_lat":-6.161728,"i_long":106.839204,"line":11,"is_transit":false},{"is_transit":false,"station_id":"PSE","distance":1436,"time":4,"transit":false,"station_name":"Pasar Senen","i_lat":-6.174784,"line":11,"i_long":106.84368},{"time":8,"line":11,"transit":false,"i_lat":-6.185975,"station_name":"Gang Sentiong","is_transit":false,"distance":1567,"station_id":"GST","i_long":106.850107},{"i_lat":-6.193792,"is_transit":false,"distance":973,"transit":false,"time":1,"station_name":"Kramat","line":11,"i_long":106.855437,"station_id":"KMT"},{"distance":1829,"i_long":106.861737,"is_transit":false,"station_id":"POK","i_lat":-6.209188,"transit":false,"line":11,"time":2,"station_name":"Pondok Jati"},{"transit":true,"is_transit":true,"distance":1236,"station_name":"Jatinegara","station_id":"JNG","time":9,"i_lat":-6.215091,"i_long":106.86807400000001,"line":1},{"transit":false,"time":3,"line":1,"i_long":106.899548,"station_id":"KLD","station_name":"Klender","is_transit":false,"i_lat":-6.2135,"distance":3395},{"i_long":106.922662,"station_id":"BUA","line":1,"is_transit":false,"time":2,"transit":false,"distance":3100,"station_name":"Buaran","i_lat":-6.215568},{"i_long":106.939679,"i_lat":-6.217455,"transit":false,"line":1,"station_name":"Klenderbaru","time":1,"is_transit":false,"distance":1305,"station_id":"KLDB"},{"distance":1385,"is_transit":false,"line":1,"transit":false,"time":8,"i_lat":-6.219053,"station_id":"CUK","i_long":106.951283,"station_name":"Cakung"},{"line":1,"transit":false,"station_id":"KRI","station_name":"Kranji","is_transit":false,"distance":3097,"i_long":106.977657,"time":3,"i_lat":-6.224515}]]}