{"data":[[{"time":0,"transit":false,"i_long":106.824374,"distance":0,"is_transit":false,"station_name":"Pondok Rajeg","station_id":"PDRG","i_lat":-6.460735,"line":21},{"time":0,"station_name":"Citayam","is_transit":true,"transit":true,"station_id":"CTA","i_lat":-6.448811,"distance":0,"line":2,"i_long":106.800298},{"time":6,"transit":false,"station_name":"Depok","distance":5084,"is_transit":false,"i_long":106.816926,"station_id":"DP","i_lat":-6.405256,"line":2},{"i_lat":-6.391065,"is_transit":false,"i_long":106.819451,"transit":false,"line":2,"distance":1584,"station_id":"DPB","station_name":"Depokbaru","time":3},{"station_id":"POC","is_transit":false,"line":2,"time":4,"station_name":"Pondok Cina","transit":false,"distance":2727,"i_lat":-6.369073,"i_long":106.831114},{"transit":false,"distance":1109,"i_long":106.831474,"i_lat":-6.360749,"station_id":"UI","line":2,"station_name":"Univ. Indonesia","is_transit":false,"time":2},{"time":3,"transit":false,"station_id":"UP","i_long":106.834175,"i_lat":-6.339291,"line":2,"distance":2264,"is_transit":false,"station_name":"Univ. Pancasila"},{"transit":false,"i_long":106.832616,"line":2,"is_transit":false,"time":2,"i_lat":-6.330363,"station_name":"Lenteng Agung","distance":1029,"station_id":"LNA"},{"distance":2671,"i_long":106.838896,"line":2,"is_transit":false,"transit":false,"i_lat":-6.3080680000000005,"station_name":"Tanjung Barat","station_id":"TNT","time":3},{"time":4,"transit":false,"distance":2820,"is_transit":false,"station_id":"PSM","i_long":106.843999,"line":2,"station_name":"Pasar Minggu","i_lat":-6.2842400000000005},{"i_lat":-6.263214,"station_id":"PSMB","distance":2380,"time":2,"transit":false,"is_transit":false,"i_long":106.851577,"line":2,"station_name":"Pasar Minggu Baru"},{"time":2,"is_transit":false,"line":2,"station_name":"Duren Kalibata","transit":false,"station_id":"DRN","i_lat":-6.255332,"i_long":106.85449,"distance":824},{"distance":1546,"station_id":"CW","i_lat":-6.242512,"line":2,"is_transit":false,"time":3,"transit":false,"station_name":"Cawang","i_long":106.856607},{"distance":1230,"time":2,"station_name":"Tebet","i_lat":-6.226659,"i_long":106.857948,"line":2,"is_transit":false,"transit":false,"station_id":"TEB"},{"i_lat":-6.209883,"i_long":106.84912,"is_transit":true,"station_id":"MRI","transit":true,"distance":2610,"line":2,"station_name":"Manggarai","time":4},{"station_name":"Sudirman","station_id":"SUD","line":1,"distance":3186,"transit":false,"is_transit":false,"i_long":106.822649,"i_lat":-6.202263,"time":4},{"i_lat":-6.201433,"time":1,"line":1,"distance":280,"transit":false,"station_id":"SUDB","i_long":106.819881,"station_name":"Sudirman Baru","is_transit":false},{"transit":false,"i_long":106.816351,"is_transit":false,"station_name":"Karet","time":1,"i_lat":-6.20132,"station_id":"KAT","line":1,"distance":471},{"station_id":"THB","transit":true,"i_lat":-6.185545,"i_long":106.811091,"line":1,"station_name":"Tanah Abang","distance":2029,"is_transit":true,"time":5},{"i_lat":-6.207404,"time":6,"transit":false,"station_name":"Palmerah","station_id":"PLM","is_transit":false,"line":6,"i_long":106.79689,"distance":3191},{"time":7,"i_long":106.780334,"is_transit":false,"i_lat":-6.237242,"distance":3737,"line":6,"station_name":"Kebayoran","station_id":"KBY","transit":false},{"transit":false,"station_name":"Pondokranji","station_id":"PDJ","is_transit":false,"time":8,"line":6,"i_lat":-6.276362,"i_long":106.74273,"distance":6218},{"time":3,"line":6,"station_name":"Jurangmangu","station_id":"JMU","transit":false,"distance":2179,"is_transit":false,"i_lat":-6.288927,"i_long":106.728916},{"is_transit":false,"i_long":106.712277,"distance":1994,"station_name":"Sudimara","time":4,"i_lat":-6.296963,"line":6,"station_id":"SDM","transit":false},{"station_id":"RU","line":6,"transit":false,"station_name":"Rawa Buntu","i_long":106.675475,"is_transit":false,"time":6,"i_lat":-6.314823,"distance":4566},{"i_long":106.66566,"line":6,"station_id":"SRP","transit":false,"station_name":"Serpong","distance":2413,"is_transit":false,"time":4,"i_lat":-6.319871}],[{"distance":0,"transit":false,"station_name":"Pondok Rajeg","is_transit":false,"i_lat":-6.460735,"i_long":106.824374,"time":0,"line":21,"station_id":"PDRG"},{"i_lat":-6.448811,"station_id":"CTA","line":2,"is_transit":true,"time":0,"station_name":"Citayam","i_long":106.800298,"distance":0,"transit":true},{"i_lat":-6.405256,"is_transit":false,"i_long":106.816926,"time":6,"transit":false,"distance":5084,"line":2,"station_id":"DP","station_name":"Depok"},{"is_transit":false,"transit":false,"station_name":"Depokbaru","time":3,"i_long":106.819451,"distance":1584,"station_id":"DPB","i_lat":-6.391065,"line":2},{"i_lat":-6.369073,"station_name":"Pondok Cina","transit":false,"line":2,"is_transit":false,"i_long":106.831114,"time":4,"station_id":"POC","distance":2727},{"transit":false,"distance":1109,"time":2,"station_name":"Univ. Indonesia","station_id":"UI","is_transit":false,"i_long":106.831474,"line":2,"i_lat":-6.360749},{"station_name":"Univ. Pancasila","i_long":106.834175,"line":2,"transit":false,"is_transit":false,"i_lat":-6.339291,"time":3,"station_id":"UP","distance":2264},{"distance":1029,"station_name":"Lenteng Agung","is_transit":false,"i_long":106.832616,"line":2,"i_lat":-6.330363,"time":2,"transit":false,"station_id":"LNA"},{"distance":2671,"time":3,"i_long":106.838896,"line":2,"station_id":"TNT","i_lat":-6.3080680000000005,"transit":false,"station_name":"Tanjung Barat","is_transit":false},{"line":2,"transit":false,"is_transit":false,"i_long":106.843999,"station_name":"Pasar Minggu","time":4,"station_id":"PSM","distance":2820,"i_lat":-6.2842400000000005},{"line":2,"i_long":106.851577,"station_id":"PSMB","is_transit":false,"transit":false,"station_name":"Pasar Minggu Baru","i_lat":-6.263214,"time":2,"distance":2380},{"line":2,"i_long":106.85449,"transit":false,"i_lat":-6.255332,"station_id":"DRN","distance":824,"time":2,"is_transit":false,"station_name":"Duren Kalibata"},{"i_long":106.856607,"line":2,"station_id":"CW","station_name":"Cawang","time":3,"is_transit":false,"i_lat":-6.242512,"transit":false,"distance":1546},{"time":2,"i_long":106.857948,"transit":false,"distance":1230,"is_transit":false,"i_lat":-6.226659,"station_name":"Tebet","station_id":"TEB","line":2},{"i_long":106.84912,"line":2,"transit":false,"time":4,"station_name":"Manggarai","station_id":"MRI","distance":2610,"is_transit":false,"i_lat":-6.209883},{"i_long":106.840169,"i_lat":-6.198556,"station_name":"Cikini","time":4,"is_transit":false,"line":2,"transit":false,"distance":1590,"station_id":"CKI"},{"is_transit":false,"i_lat":-6.186295,"line":2,"distance":1750,"i_long":106.832183,"station_id":"GDD","transit":false,"time":3,"station_name":"Gondangdia"},{"station_name":"Juanda","i_long":106.828284,"transit":false,"distance":2015,"is_transit":false,"i_lat":-6.166716,"time":4,"line":2,"station_id":"JUA"},{"i_lat":-6.160725,"station_name":"Sawah Besar","distance":1149,"time":2,"is_transit":false,"line":2,"transit":false,"station_id":"SW","i_long":106.827103},{"transit":false,"is_transit":false,"i_long":106.82482,"i_lat":-6.149769,"station_name":"Manggabesar","line":2,"time":2,"distance":906,"station_id":"MGB"},{"is_transit":false,"distance":1080,"station_id":"JAY","time":2,"transit":false,"i_long":106.820901,"line":2,"station_name":"Jayakarta","i_lat":-6.141205},{"transit":true,"distance":1264,"i_long":106.812439,"line":2,"station_id":"JAKK","is_transit":true,"time":4,"station_name":"Jakarta Kota","i_lat":-6.137569},{"transit":true,"distance":1364,"station_name":"Kampung Bandan","i_lat":-6.132549,"station_id":"KPB","line":4,"is_transit":true,"time":3,"i_long":106.826365},{"station_id":"AK","i_lat":-6.144674,"i_long":106.79867,"distance":4102,"time":9,"line":1,"is_transit":false,"transit":false,"station_name":"Angke"},{"station_id":"DU","time":4,"transit":false,"is_transit":false,"i_lat":-6.155215,"distance":1230,"station_name":"Duri","line":1,"i_long":106.800832},{"station_id":"THB","line":1,"i_lat":-6.185545,"time":8,"distance":3632,"is_transit":true,"station_name":"Tanah Abang","i_long":106.811091,"transit":true},{"station_name":"Palmerah","distance":3191,"i_lat":-6.207404,"transit":false,"time":6,"i_long":106.79689,"is_transit":false,"line":6,"station_id":"PLM"},{"transit":false,"station_id":"KBY","station_name":"Kebayoran","i_long":106.780334,"time":7,"line":6,"distance":3737,"is_transit":false,"i_lat":-6.237242},{"station_name":"Pondokranji","transit":false,"distance":6218,"station_id":"PDJ","is_transit":false,"i_long":106.74273,"i_lat":-6.276362,"line":6,"time":8},{"transit":false,"station_name":"Jurangmangu","station_id":"JMU","line":6,"distance":2179,"is_transit":false,"i_lat":-6.288927,"time":3,"i_long":106.728916},{"station_name":"Sudimara","is_transit":false,"station_id":"SDM","i_lat":-6.296963,"time":4,"transit":false,"line":6,"distance":1994,"i_long":106.712277},{"time":6,"is_transit":false,"distance":4566,"transit":false,"i_long":106.675475,"station_id":"RU","station_name":"Rawa Buntu","i_lat":-6.314823,"line":6},{"transit":false,"station_id":"SRP","station_name":"Serpong","line":6,"i_lat":-6.319871,"is_transit":false,"distance":2413,"i_long":106.66566,"time":4}],[{"transit":false,"station_id":"PDRG","i_lat":-6.460735,"station_name":"Pondok Rajeg","i_long":106.824374,"is_transit":false,"distance":0,"time":0,"line":21},{"time":0,"station_name":"Citayam","i_lat":-6.448811,"i_long":106.800298,"line":2,"transit":true,"station_id":"CTA","is_transit":true,"distance":0},{"time":6,"transit":false,"station_name":"Depok","i_long":106.816926,"station_id":"DP","is_transit":false,"i_lat":-6.405256,"distance":5084,"line":2},{"station_id":"DPB","time":3,"transit":false,"station_name":"Depokbaru","is_transit":false,"distance":1584,"i_long":106.819451,"line":2,"i_lat":-6.391065},{"transit":false,"i_lat":-6.369073,"time":4,"station_id":"POC","i_long":106.831114,"line":2,"station_name":"Pondok Cina","is_transit":false,"distance":2727},{"station_name":"Univ. Indonesia","station_id":"UI","i_lat":-6.360749,"is_transit":false,"line":2,"distance":1109,"time":2,"transit":false,"i_long":106.831474},{"distance":2264,"transit":false,"time":3,"i_lat":-6.339291,"is_transit":false,"station_id":"UP","station_name":"Univ. Pancasila","line":2,"i_long":106.834175},{"i_lat":-6.330363,"i_long":106.832616,"line":2,"station_name":"Lenteng Agung","transit":false,"station_id":"LNA","time":2,"distance":1029,"is_transit":false},{"time":3,"distance":2671,"station_name":"Tanjung Barat","station_id":"TNT","i_lat":-6.3080680000000005,"transit":false,"line":2,"is_transit":false,"i_long":106.838896},{"distance":2820,"station_name":"Pasar Minggu","i_long":106.843999,"time":4,"is_transit":false,"i_lat":-6.2842400000000005,"line":2,"station_id":"PSM","transit":false},{"line":2,"is_transit":false,"i_long":106.851577,"station_name":"Pasar Minggu Baru","transit":false,"time":2,"i_lat":-6.263214,"distance":2380,"station_id":"PSMB"},{"station_id":"DRN","transit":false,"i_lat":-6.255332,"i_long":106.85449,"line":2,"distance":824,"station_name":"Duren Kalibata","time":2,"is_transit":false},{"is_transit":false,"line":2,"i_long":106.856607,"transit":false,"time":3,"station_name":"Cawang","station_id":"CW","i_lat":-6.242512,"distance":1546},{"i_lat":-6.226659,"i_long":106.857948,"time":2,"station_name":"Tebet","is_transit":false,"distance":1230,"transit":false,"line":2,"station_id":"TEB"},{"time":4,"distance":2610,"station_name":"Manggarai","i_long":106.84912,"i_lat":-6.209883,"station_id":"MRI","transit":true,"is_transit":true,"line":2},{"distance":1275,"is_transit":false,"line":1,"time":2,"i_lat":-6.212485,"station_name":"Matraman","station_id":"MTR","i_long":106.858896,"transit":false},{"is_transit":true,"transit":true,"distance":1377,"i_lat":-6.215091,"time":8,"line":1,"station_name":"Jatinegara","i_long":106.86807400000001,"station_id":"JNG"},{"i_long":106.861737,"time":2,"transit":false,"i_lat":-6.209188,"line":11,"distance":1236,"station_id":"POK","is_transit":false,"station_name":"Pondok Jati"},{"station_id":"KMT","i_lat":-6.193792,"line":11,"station_name":"Kramat","distance":1829,"is_transit":false,"transit":false,"time":2,"i_long":106.855437},{"distance":973,"station_id":"GST","i_lat":-6.185975,"i_long":106.850107,"line":11,"transit":false,"station_name":"Gang Sentiong","time":1,"is_transit":false},{"station_id":"PSE","i_lat":-6.174784,"i_long":106.84368,"line":11,"time":8,"station_name":"Pasar Senen","distance":1567,"transit":false,"is_transit":false},{"station_name":"Kemayoran","time":4,"i_lat":-6.161728,"i_long":106.839204,"transit":false,"line":11,"is_transit":false,"station_id":"KMO","distance":1436},{"is_transit":false,"time":5,"station_name":"Rajawali","i_long":106.836569,"distance":1901,"station_id":"RJW","i_lat":-6.14505,"line":11,"transit":false},{"line":4,"is_transit":true,"i_lat":-6.132549,"i_long":106.826365,"distance":1444,"station_id":"KPB","transit":true,"time":3,"station_name":"Kampung Bandan"},{"station_id":"AK","station_name":"Angke","i_lat":-6.144674,"time":9,"transit":false,"is_transit":false,"line":1,"distance":4102,"i_long":106.79867},{"is_transit":false,"transit":false,"station_name":"Duri","i_long":106.800832,"time":4,"distance":1230,"station_id":"DU","i_lat":-6.155215,"line":1},{"line":1,"time":8,"station_name":"Tanah Abang","i_long":106.811091,"is_transit":true,"station_id":"THB","i_lat":-6.185545,"transit":true,"distance":3632},{"time":6,"line":6,"i_lat":-6.207404,"station_id":"PLM","is_transit":false,"distance":3191,"transit":false,"station_name":"Palmerah","i_long":106.79689},{"station_name":"Kebayoran","time":7,"distance":3737,"line":6,"i_lat":-6.237242,"i_long":106.780334,"station_id":"KBY","transit":false,"is_transit":false},{"i_long":106.74273,"line":6,"transit":false,"station_name":"Pondokranji","station_id":"PDJ","distance":6218,"is_transit":false,"i_lat":-6.276362,"time":8},{"station_name":"Jurangmangu","station_id":"JMU","transit":false,"distance":2179,"is_transit":false,"i_long":106.728916,"line":6,"i_lat":-6.288927,"time":3},{"distance":1994,"station_name":"Sudimara","time":4,"i_lat":-6.296963,"line":6,"i_long":106.712277,"transit":false,"station_id":"SDM","is_transit":false},{"line":6,"distance":4566,"transit":false,"i_long":106.675475,"time":6,"station_id":"RU","is_transit":false,"i_lat":-6.314823,"station_name":"Rawa Buntu"},{"i_lat":-6.319871,"distance":2413,"is_transit":false,"station_id":"SRP","transit":false,"time":4,"line":6,"station_name":"Serpong","i_long":106.66566}]]}