{"data":[[{"i_long":106.824374,"transit":false,"station_name":"Pondok Rajeg","time":0,"station_id":"PDRG","distance":0,"is_transit":false,"i_lat":-6.460735,"line":21},{"i_lat":-6.448811,"time":0,"distance":0,"station_name":"Citayam","is_transit":true,"line":2,"transit":true,"i_long":106.800298,"station_id":"CTA"},{"distance":5084,"line":2,"i_lat":-6.405256,"station_id":"DP","i_long":106.816926,"time":6,"transit":false,"station_name":"Depok","is_transit":false},{"station_id":"DPB","is_transit":false,"transit":false,"i_lat":-6.391065,"station_name":"Depokbaru","i_long":106.819451,"distance":1584,"time":3,"line":2},{"distance":2727,"station_id":"POC","line":2,"time":4,"transit":false,"station_name":"Pondok Cina","i_long":106.831114,"i_lat":-6.369073,"is_transit":false},{"line":2,"is_transit":false,"station_name":"Univ. Indonesia","transit":false,"station_id":"UI","distance":1109,"i_lat":-6.360749,"i_long":106.831474,"time":2},{"i_lat":-6.339291,"transit":false,"is_transit":false,"station_id":"UP","distance":2264,"station_name":"Univ. Pancasila","time":3,"line":2,"i_long":106.834175},{"time":2,"station_name":"Lenteng Agung","transit":false,"line":2,"i_long":106.832616,"i_lat":-6.330363,"station_id":"LNA","is_transit":false,"distance":1029},{"time":3,"station_id":"TNT","i_long":106.838896,"is_transit":false,"distance":2671,"i_lat":-6.3080680000000005,"station_name":"Tanjung Barat","transit":false,"line":2},{"station_name":"Pasar Minggu","line":2,"is_transit":false,"distance":2820,"time":4,"station_id":"PSM","transit":false,"i_lat":-6.2842400000000005,"i_long":106.843999},{"time":2,"i_lat":-6.263214,"line":2,"station_id":"PSMB","transit":false,"station_name":"Pasar Minggu Baru","distance":2380,"i_long":106.851577,"is_transit":false},{"transit":false,"time":2,"distance":824,"i_lat":-6.255332,"line":2,"i_long":106.85449,"station_name":"Duren Kalibata","is_transit":false,"station_id":"DRN"},{"is_transit":false,"station_id":"CW","i_lat":-6.242512,"line":2,"time":3,"station_name":"Cawang","transit":false,"distance":1546,"i_long":106.856607},{"station_id":"TEB","is_transit":false,"i_lat":-6.226659,"i_long":106.857948,"distance":1230,"station_name":"Tebet","line":2,"time":2,"transit":false},{"i_lat":-6.209883,"distance":2610,"is_transit":true,"transit":true,"i_long":106.84912,"line":2,"station_name":"Manggarai","station_id":"MRI","time":4},{"station_id":"SUD","i_long":106.822649,"distance":3186,"i_lat":-6.202263,"transit":false,"line":1,"is_transit":false,"station_name":"Sudirman","time":4},{"i_lat":-6.201433,"line":1,"station_name":"Sudirman Baru","i_long":106.819881,"transit":false,"is_transit":false,"distance":280,"time":1,"station_id":"SUDB"},{"station_name":"Karet","station_id":"KAT","time":1,"transit":false,"i_lat":-6.20132,"is_transit":false,"i_long":106.816351,"line":1,"distance":471},{"station_id":"THB","time":5,"i_lat":-6.185545,"i_long":106.811091,"is_transit":false,"distance":2029,"station_name":"Tanah Abang","line":1,"transit":false},{"time":8,"station_id":"DU","is_transit":true,"line":1,"i_lat":-6.155215,"station_name":"Duri","i_long":106.800832,"distance":3632,"transit":true},{"station_name":"Grogol","i_lat":-6.162021,"line":5,"i_long":106.788277,"is_transit":false,"distance":1700,"time":3,"transit":false,"station_id":"GGL"},{"time":2,"line":5,"station_id":"PSG","i_lat":-6.161433,"distance":2036,"transit":false,"station_name":"Pesing","is_transit":false,"i_long":106.771379},{"i_lat":-6.1587309999999995,"line":5,"station_id":"TKO","is_transit":false,"time":2,"transit":false,"distance":1614,"station_name":"Taman Kota","i_long":106.756522},{"transit":false,"distance":2334,"i_lat":-6.159876,"station_id":"BOI","i_long":106.737035,"is_transit":false,"time":2,"line":5,"station_name":"Bojongindah"},{"station_name":"Rawa Buaya","time":4,"i_long":106.723064,"line":5,"transit":false,"station_id":"RW","is_transit":false,"distance":1152,"i_lat":-6.162758},{"i_long":106.701612,"line":5,"transit":false,"station_id":"KDS","is_transit":false,"distance":2504,"time":3,"station_name":"Kalideres","i_lat":-6.166068},{"i_long":106.679458,"is_transit":false,"station_name":"Poris","transit":false,"station_id":"PI","distance":2548,"i_lat":-6.169933,"time":3,"line":5},{"transit":false,"i_lat":-6.171811,"station_id":"BPR","line":5,"is_transit":false,"i_long":106.665036,"distance":1834,"station_name":"Batuceper","time":3},{"distance":2028,"is_transit":false,"time":3,"line":5,"transit":false,"station_id":"TTI","i_lat":-6.17331,"i_long":106.64657,"station_name":"Tanah Tinggi"}],[{"time":0,"distance":0,"station_name":"Pondok Rajeg","line":21,"transit":false,"station_id":"PDRG","is_transit":false,"i_lat":-6.460735,"i_long":106.824374},{"i_lat":-6.448811,"line":2,"transit":true,"distance":0,"i_long":106.800298,"station_name":"Citayam","station_id":"CTA","is_transit":true,"time":0},{"is_transit":false,"distance":5084,"i_long":106.816926,"transit":false,"station_name":"Depok","line":2,"station_id":"DP","time":6,"i_lat":-6.405256},{"is_transit":false,"station_name":"Depokbaru","time":3,"distance":1584,"i_lat":-6.391065,"i_long":106.819451,"line":2,"transit":false,"station_id":"DPB"},{"station_name":"Pondok Cina","is_transit":false,"i_lat":-6.369073,"line":2,"station_id":"POC","transit":false,"time":4,"distance":2727,"i_long":106.831114},{"i_lat":-6.360749,"transit":false,"time":2,"station_id":"UI","i_long":106.831474,"distance":1109,"station_name":"Univ. Indonesia","is_transit":false,"line":2},{"time":3,"transit":false,"distance":2264,"station_id":"UP","i_lat":-6.339291,"station_name":"Univ. Pancasila","is_transit":false,"i_long":106.834175,"line":2},{"is_transit":false,"distance":1029,"i_lat":-6.330363,"line":2,"station_id":"LNA","station_name":"Lenteng Agung","i_long":106.832616,"time":2,"transit":false},{"time":3,"line":2,"is_transit":false,"transit":false,"station_name":"Tanjung Barat","station_id":"TNT","i_long":106.838896,"i_lat":-6.3080680000000005,"distance":2671},{"station_name":"Pasar Minggu","distance":2820,"is_transit":false,"time":4,"station_id":"PSM","transit":false,"i_long":106.843999,"line":2,"i_lat":-6.2842400000000005},{"i_lat":-6.263214,"transit":false,"station_id":"PSMB","time":2,"i_long":106.851577,"station_name":"Pasar Minggu Baru","distance":2380,"line":2,"is_transit":false},{"time":2,"transit":false,"station_name":"Duren Kalibata","i_long":106.85449,"station_id":"DRN","distance":824,"i_lat":-6.255332,"line":2,"is_transit":false},{"transit":false,"i_long":106.856607,"station_id":"CW","is_transit":false,"time":3,"i_lat":-6.242512,"station_name":"Cawang","distance":1546,"line":2},{"transit":false,"time":2,"i_lat":-6.226659,"station_name":"Tebet","station_id":"TEB","distance":1230,"is_transit":false,"i_long":106.857948,"line":2},{"is_transit":false,"distance":2610,"transit":false,"i_long":106.84912,"station_id":"MRI","i_lat":-6.209883,"line":2,"time":4,"station_name":"Manggarai"},{"station_id":"CKI","distance":1590,"line":2,"station_name":"Cikini","time":4,"i_lat":-6.198556,"is_transit":false,"i_long":106.840169,"transit":false},{"station_name":"Gondangdia","distance":1750,"station_id":"GDD","transit":false,"i_lat":-6.186295,"line":2,"time":3,"is_transit":false,"i_long":106.832183},{"is_transit":false,"i_lat":-6.166716,"station_id":"JUA","station_name":"Juanda","distance":2015,"i_long":106.828284,"line":2,"time":4,"transit":false},{"station_name":"Sawah Besar","distance":1149,"i_long":106.827103,"i_lat":-6.160725,"is_transit":false,"time":2,"transit":false,"station_id":"SW","line":2},{"i_lat":-6.149769,"time":2,"line":2,"is_transit":false,"transit":false,"station_name":"Manggabesar","station_id":"MGB","distance":906,"i_long":106.82482},{"i_lat":-6.141205,"transit":false,"i_long":106.820901,"distance":1080,"time":2,"is_transit":false,"station_name":"Jayakarta","station_id":"JAY","line":2},{"station_id":"JAKK","line":2,"station_name":"Jakarta Kota","is_transit":true,"i_long":106.812439,"time":4,"distance":1264,"transit":true,"i_lat":-6.137569},{"distance":1364,"station_name":"Kampung Bandan","i_lat":-6.132549,"station_id":"KPB","i_long":106.826365,"transit":true,"line":4,"is_transit":true,"time":3},{"station_id":"AK","line":1,"is_transit":false,"time":9,"i_lat":-6.144674,"i_long":106.79867,"transit":false,"station_name":"Angke","distance":4102},{"is_transit":true,"station_name":"Duri","i_lat":-6.155215,"time":4,"transit":true,"distance":1230,"i_long":106.800832,"station_id":"DU","line":1},{"i_long":106.788277,"is_transit":false,"station_id":"GGL","station_name":"Grogol","transit":false,"line":5,"time":3,"distance":1700,"i_lat":-6.162021},{"time":2,"line":5,"station_id":"PSG","distance":2036,"station_name":"Pesing","i_long":106.771379,"i_lat":-6.161433,"is_transit":false,"transit":false},{"distance":1614,"station_id":"TKO","is_transit":false,"transit":false,"station_name":"Taman Kota","time":2,"i_long":106.756522,"i_lat":-6.1587309999999995,"line":5},{"transit":false,"station_name":"Bojongindah","i_lat":-6.159876,"distance":2334,"station_id":"BOI","i_long":106.737035,"time":2,"is_transit":false,"line":5},{"is_transit":false,"line":5,"transit":false,"time":4,"i_long":106.723064,"station_name":"Rawa Buaya","i_lat":-6.162758,"distance":1152,"station_id":"RW"},{"time":3,"i_lat":-6.166068,"distance":2504,"is_transit":false,"line":5,"station_id":"KDS","station_name":"Kalideres","i_long":106.701612,"transit":false},{"station_id":"PI","time":3,"i_lat":-6.169933,"distance":2548,"line":5,"station_name":"Poris","i_long":106.679458,"transit":false,"is_transit":false},{"i_lat":-6.171811,"transit":false,"station_name":"Batuceper","is_transit":false,"time":3,"i_long":106.665036,"distance":1834,"station_id":"BPR","line":5},{"station_name":"Tanah Tinggi","transit":false,"station_id":"TTI","i_long":106.64657,"i_lat":-6.17331,"line":5,"distance":2028,"is_transit":false,"time":3}],[{"line":21,"station_name":"Pondok Rajeg","i_long":106.824374,"transit":false,"station_id":"PDRG","is_transit":false,"time":0,"distance":0,"i_lat":-6.460735},{"time":0,"transit":true,"station_id":"CTA","station_name":"Citayam","line":2,"i_lat":-6.448811,"is_transit":true,"distance":0,"i_long":106.800298},{"time":6,"line":2,"is_transit":false,"distance":5084,"i_long":106.816926,"transit":false,"station_name":"Depok","i_lat":-6.405256,"station_id":"DP"},{"distance":1584,"i_lat":-6.391065,"i_long":106.819451,"time":3,"transit":false,"line":2,"station_id":"DPB","station_name":"Depokbaru","is_transit":false},{"i_lat":-6.369073,"is_transit":false,"i_long":106.831114,"line":2,"station_id":"POC","time":4,"transit":false,"distance":2727,"station_name":"Pondok Cina"},{"line":2,"i_lat":-6.360749,"station_name":"Univ. Indonesia","time":2,"transit":false,"is_transit":false,"i_long":106.831474,"distance":1109,"station_id":"UI"},{"i_long":106.834175,"i_lat":-6.339291,"is_transit":false,"station_id":"UP","station_name":"Univ. Pancasila","distance":2264,"transit":false,"time":3,"line":2},{"line":2,"is_transit":false,"transit":false,"station_id":"LNA","distance":1029,"time":2,"i_lat":-6.330363,"i_long":106.832616,"station_name":"Lenteng Agung"},{"station_id":"TNT","i_long":106.838896,"transit":false,"distance":2671,"line":2,"is_transit":false,"time":3,"i_lat":-6.3080680000000005,"station_name":"Tanjung Barat"},{"station_name":"Pasar Minggu","station_id":"PSM","transit":false,"i_long":106.843999,"time":4,"line":2,"i_lat":-6.2842400000000005,"distance":2820,"is_transit":false},{"transit":false,"i_long":106.851577,"station_id":"PSMB","station_name":"Pasar Minggu Baru","is_transit":false,"i_lat":-6.263214,"time":2,"distance":2380,"line":2},{"time":2,"is_transit":false,"distance":824,"transit":false,"station_id":"DRN","i_lat":-6.255332,"station_name":"Duren Kalibata","i_long":106.85449,"line":2},{"station_name":"Cawang","station_id":"CW","is_transit":false,"time":3,"i_lat":-6.242512,"i_long":106.856607,"transit":false,"distance":1546,"line":2},{"transit":false,"line":2,"time":2,"is_transit":false,"distance":1230,"station_id":"TEB","i_long":106.857948,"station_name":"Tebet","i_lat":-6.226659},{"distance":2610,"line":2,"time":4,"transit":true,"station_name":"Manggarai","is_transit":true,"i_long":106.84912,"station_id":"MRI","i_lat":-6.209883},{"is_transit":false,"station_id":"MTR","line":1,"transit":false,"station_name":"Matraman","time":2,"distance":1275,"i_long":106.858896,"i_lat":-6.212485},{"line":1,"transit":true,"station_id":"JNG","time":8,"is_transit":true,"i_long":106.86807400000001,"distance":1377,"i_lat":-6.215091,"station_name":"Jatinegara"},{"line":11,"station_id":"POK","distance":1236,"station_name":"Pondok Jati","is_transit":false,"i_lat":-6.209188,"transit":false,"time":2,"i_long":106.861737},{"is_transit":false,"station_id":"KMT","distance":1829,"i_long":106.855437,"transit":false,"i_lat":-6.193792,"station_name":"Kramat","time":2,"line":11},{"transit":false,"is_transit":false,"time":1,"line":11,"i_lat":-6.185975,"i_long":106.850107,"station_id":"GST","distance":973,"station_name":"Gang Sentiong"},{"station_name":"Pasar Senen","time":8,"station_id":"PSE","i_long":106.84368,"transit":false,"is_transit":false,"i_lat":-6.174784,"distance":1567,"line":11},{"line":11,"time":4,"is_transit":false,"transit":false,"i_lat":-6.161728,"distance":1436,"station_name":"Kemayoran","i_long":106.839204,"station_id":"KMO"},{"transit":false,"distance":1901,"time":5,"is_transit":false,"i_lat":-6.14505,"i_long":106.836569,"line":11,"station_name":"Rajawali","station_id":"RJW"},{"station_name":"Kampung Bandan","transit":true,"i_lat":-6.132549,"station_id":"KPB","i_long":106.826365,"distance":1444,"line":4,"time":3,"is_transit":true},{"i_long":106.79867,"i_lat":-6.144674,"time":9,"is_transit":false,"station_name":"Angke","distance":4102,"line":1,"station_id":"AK","transit":false},{"distance":1230,"i_lat":-6.155215,"line":1,"i_long":106.800832,"station_id":"DU","is_transit":true,"time":4,"station_name":"Duri","transit":true},{"station_id":"GGL","transit":false,"station_name":"Grogol","is_transit":false,"distance":1700,"i_lat":-6.162021,"time":3,"i_long":106.788277,"line":5},{"i_lat":-6.161433,"i_long":106.771379,"time":2,"station_name":"Pesing","transit":false,"distance":2036,"line":5,"station_id":"PSG","is_transit":false},{"station_name":"Taman Kota","i_lat":-6.1587309999999995,"transit":false,"station_id":"TKO","is_transit":false,"time":2,"i_long":106.756522,"line":5,"distance":1614},{"i_lat":-6.159876,"station_name":"Bojongindah","is_transit":false,"line":5,"transit":false,"distance":2334,"i_long":106.737035,"station_id":"BOI","time":2},{"i_lat":-6.162758,"station_id":"RW","distance":1152,"is_transit":false,"line":5,"station_name":"Rawa Buaya","i_long":106.723064,"transit":false,"time":4},{"i_long":106.701612,"station_id":"KDS","is_transit":false,"time":3,"i_lat":-6.166068,"transit":false,"line":5,"distance":2504,"station_name":"Kalideres"},{"transit":false,"i_lat":-6.169933,"i_long":106.679458,"is_transit":false,"station_id":"PI","station_name":"Poris","distance":2548,"time":3,"line":5},{"time":3,"distance":1834,"is_transit":false,"line":5,"transit":false,"station_name":"Batuceper","i_lat":-6.171811,"station_id":"BPR","i_long":106.665036},{"line":5,"station_id":"TTI","station_name":"Tanah Tinggi","time":3,"i_lat":-6.17331,"i_long":106.64657,"transit":false,"distance":2028,"is_transit":false}]]}