{"data":[[{"time":0,"station_id":"PDRG","line":21,"station_name":"Pondok Rajeg","transit":false,"i_lat":-6.460735,"i_long":106.824374,"is_transit":false,"distance":0},{"i_lat":-6.448811,"i_long":106.800298,"is_transit":true,"transit":true,"station_id":"CTA","time":0,"line":2,"station_name":"Citayam","distance":0},{"transit":false,"is_transit":false,"i_lat":-6.405256,"station_name":"Depok","line":2,"distance":5084,"i_long":106.816926,"station_id":"DP","time":6},{"time":3,"i_long":106.819451,"distance":1584,"line":2,"i_lat":-6.391065,"station_id":"DPB","station_name":"Depokbaru","transit":false,"is_transit":false},{"time":4,"station_id":"POC","line":2,"i_long":106.831114,"station_name":"Pondok Cina","is_transit":false,"transit":false,"i_lat":-6.369073,"distance":2727},{"station_id":"UI","line":2,"is_transit":false,"i_lat":-6.360749,"i_long":106.831474,"transit":false,"station_name":"Univ. Indonesia","time":2,"distance":1109},{"line":2,"i_lat":-6.339291,"is_transit":false,"time":3,"transit":false,"i_long":106.834175,"station_name":"Univ. Pancasila","station_id":"UP","distance":2264},{"time":2,"i_lat":-6.330363,"station_id":"LNA","i_long":106.832616,"line":2,"distance":1029,"is_transit":false,"station_name":"Lenteng Agung","transit":false},{"i_long":106.838896,"is_transit":false,"transit":false,"i_lat":-6.3080680000000005,"line":2,"station_id":"TNT","distance":2671,"time":3,"station_name":"Tanjung Barat"},{"i_lat":-6.2842400000000005,"station_name":"Pasar Minggu","line":2,"distance":2820,"station_id":"PSM","time":4,"transit":false,"is_transit":false,"i_long":106.843999},{"is_transit":false,"line":2,"transit":false,"station_id":"PSMB","i_lat":-6.263214,"time":2,"distance":2380,"i_long":106.851577,"station_name":"Pasar Minggu Baru"},{"i_long":106.85449,"line":2,"time":2,"distance":824,"is_transit":false,"i_lat":-6.255332,"station_id":"DRN","transit":false,"station_name":"Duren Kalibata"},{"time":3,"transit":false,"station_name":"Cawang","station_id":"CW","distance":1546,"i_lat":-6.242512,"line":2,"is_transit":false,"i_long":106.856607},{"is_transit":false,"time":2,"station_id":"TEB","i_long":106.857948,"line":2,"transit":false,"station_name":"Tebet","distance":1230,"i_lat":-6.226659},{"is_transit":true,"transit":true,"line":2,"time":4,"i_lat":-6.209883,"distance":2610,"i_long":106.84912,"station_id":"MRI","station_name":"Manggarai"},{"i_long":106.822649,"station_name":"Sudirman","station_id":"SUD","line":1,"transit":false,"i_lat":-6.202263,"distance":3186,"is_transit":false,"time":4},{"station_name":"Sudirman Baru","i_lat":-6.201433,"is_transit":false,"station_id":"SUDB","distance":280,"i_long":106.819881,"line":1,"transit":false,"time":1},{"line":1,"station_id":"KAT","station_name":"Karet","is_transit":false,"i_lat":-6.20132,"transit":false,"time":1,"distance":471,"i_long":106.816351}],[{"station_name":"Pondok Rajeg","transit":false,"distance":0,"is_transit":false,"station_id":"PDRG","i_long":106.824374,"line":21,"i_lat":-6.460735,"time":0},{"i_long":106.800298,"transit":true,"station_id":"CTA","time":0,"distance":0,"i_lat":-6.448811,"line":2,"is_transit":true,"station_name":"Citayam"},{"distance":5084,"i_long":106.816926,"is_transit":false,"line":2,"station_id":"DP","station_name":"Depok","transit":false,"i_lat":-6.405256,"time":6},{"distance":1584,"i_long":106.819451,"station_name":"Depokbaru","station_id":"DPB","i_lat":-6.391065,"line":2,"is_transit":false,"transit":false,"time":3},{"station_id":"POC","station_name":"Pondok Cina","i_lat":-6.369073,"is_transit":false,"distance":2727,"i_long":106.831114,"line":2,"transit":false,"time":4},{"distance":1109,"i_lat":-6.360749,"i_long":106.831474,"line":2,"station_id":"UI","station_name":"Univ. Indonesia","time":2,"is_transit":false,"transit":false},{"i_lat":-6.339291,"line":2,"station_id":"UP","is_transit":false,"station_name":"Univ. Pancasila","distance":2264,"time":3,"transit":false,"i_long":106.834175},{"distance":1029,"i_lat":-6.330363,"i_long":106.832616,"line":2,"transit":false,"time":2,"station_id":"LNA","station_name":"Lenteng Agung","is_transit":false},{"transit":false,"distance":2671,"i_lat":-6.3080680000000005,"time":3,"station_id":"TNT","station_name":"Tanjung Barat","line":2,"i_long":106.838896,"is_transit":false},{"transit":false,"i_long":106.843999,"time":4,"station_id":"PSM","distance":2820,"station_name":"Pasar Minggu","i_lat":-6.2842400000000005,"is_transit":false,"line":2},{"time":2,"station_name":"Pasar Minggu Baru","distance":2380,"station_id":"PSMB","is_transit":false,"i_lat":-6.263214,"i_long":106.851577,"line":2,"transit":false},{"station_name":"Duren Kalibata","station_id":"DRN","line":2,"i_lat":-6.255332,"time":2,"distance":824,"transit":false,"is_transit":false,"i_long":106.85449},{"transit":false,"i_lat":-6.242512,"line":2,"station_id":"CW","i_long":106.856607,"station_name":"Cawang","time":3,"distance":1546,"is_transit":false},{"distance":1230,"line":2,"transit":false,"station_id":"TEB","station_name":"Tebet","i_lat":-6.226659,"time":2,"is_transit":false,"i_long":106.857948},{"is_transit":false,"line":2,"station_name":"Manggarai","time":4,"transit":false,"station_id":"MRI","distance":2610,"i_lat":-6.209883,"i_long":106.84912},{"station_id":"CKI","time":4,"transit":false,"distance":1590,"is_transit":false,"i_long":106.840169,"i_lat":-6.198556,"line":2,"station_name":"Cikini"},{"line":2,"distance":1750,"transit":false,"is_transit":false,"time":3,"i_lat":-6.186295,"station_name":"Gondangdia","station_id":"GDD","i_long":106.832183},{"is_transit":false,"station_id":"JUA","i_lat":-6.166716,"line":2,"station_name":"Juanda","time":4,"distance":2015,"i_long":106.828284,"transit":false},{"line":2,"i_long":106.827103,"station_id":"SW","station_name":"Sawah Besar","i_lat":-6.160725,"time":2,"distance":1149,"transit":false,"is_transit":false},{"transit":false,"i_lat":-6.149769,"i_long":106.82482,"distance":906,"station_id":"MGB","time":2,"station_name":"Manggabesar","is_transit":false,"line":2},{"distance":1080,"station_id":"JAY","i_lat":-6.141205,"time":2,"is_transit":false,"station_name":"Jayakarta","transit":false,"i_long":106.820901,"line":2},{"i_lat":-6.137569,"is_transit":true,"station_id":"JAKK","distance":1264,"transit":true,"line":2,"time":4,"i_long":106.812439,"station_name":"Jakarta Kota"},{"i_long":106.826365,"is_transit":true,"line":4,"distance":1364,"i_lat":-6.132549,"station_id":"KPB","station_name":"Kampung Bandan","transit":true,"time":3},{"station_name":"Angke","distance":4102,"i_lat":-6.144674,"i_long":106.79867,"transit":false,"time":9,"line":1,"station_id":"AK","is_transit":false},{"station_name":"Duri","transit":false,"distance":1230,"is_transit":false,"time":4,"line":1,"station_id":"DU","i_long":106.800832,"i_lat":-6.155215},{"station_name":"Tanah Abang","i_lat":-6.185545,"transit":false,"time":8,"distance":3632,"station_id":"THB","i_long":106.811091,"line":1,"is_transit":false},{"line":1,"i_lat":-6.20132,"transit":false,"time":5,"is_transit":false,"distance":2029,"i_long":106.816351,"station_name":"Karet","station_id":"KAT"}],[{"is_transit":false,"station_id":"PDRG","i_lat":-6.460735,"transit":false,"time":0,"i_long":106.824374,"line":21,"station_name":"Pondok Rajeg","distance":0},{"i_long":106.800298,"line":2,"station_name":"Citayam","time":0,"transit":true,"i_lat":-6.448811,"station_id":"CTA","is_transit":true,"distance":0},{"i_lat":-6.405256,"line":2,"time":6,"is_transit":false,"i_long":106.816926,"transit":false,"station_name":"Depok","station_id":"DP","distance":5084},{"station_id":"DPB","i_lat":-6.391065,"transit":false,"i_long":106.819451,"is_transit":false,"line":2,"time":3,"distance":1584,"station_name":"Depokbaru"},{"is_transit":false,"line":2,"time":4,"i_long":106.831114,"transit":false,"station_id":"POC","distance":2727,"i_lat":-6.369073,"station_name":"Pondok Cina"},{"transit":false,"i_long":106.831474,"time":2,"distance":1109,"station_name":"Univ. Indonesia","is_transit":false,"i_lat":-6.360749,"line":2,"station_id":"UI"},{"transit":false,"time":3,"station_id":"UP","is_transit":false,"i_lat":-6.339291,"distance":2264,"i_long":106.834175,"station_name":"Univ. Pancasila","line":2},{"time":2,"is_transit":false,"i_lat":-6.330363,"line":2,"station_id":"LNA","transit":false,"distance":1029,"i_long":106.832616,"station_name":"Lenteng Agung"},{"line":2,"transit":false,"station_name":"Tanjung Barat","time":3,"i_long":106.838896,"station_id":"TNT","distance":2671,"i_lat":-6.3080680000000005,"is_transit":false},{"station_name":"Pasar Minggu","distance":2820,"transit":false,"is_transit":false,"i_lat":-6.2842400000000005,"i_long":106.843999,"station_id":"PSM","time":4,"line":2},{"transit":false,"station_name":"Pasar Minggu Baru","time":2,"i_lat":-6.263214,"station_id":"PSMB","is_transit":false,"i_long":106.851577,"distance":2380,"line":2},{"distance":824,"is_transit":false,"line":2,"time":2,"i_lat":-6.255332,"station_id":"DRN","station_name":"Duren Kalibata","i_long":106.85449,"transit":false},{"station_id":"CW","line":2,"station_name":"Cawang","time":3,"is_transit":false,"distance":1546,"transit":false,"i_lat":-6.242512,"i_long":106.856607},{"i_long":106.857948,"i_lat":-6.226659,"line":2,"transit":false,"time":2,"station_name":"Tebet","is_transit":false,"station_id":"TEB","distance":1230},{"time":4,"line":2,"i_long":106.84912,"is_transit":true,"transit":true,"station_id":"MRI","station_name":"Manggarai","distance":2610,"i_lat":-6.209883},{"i_long":106.858896,"transit":false,"distance":1275,"is_transit":false,"time":2,"station_id":"MTR","station_name":"Matraman","i_lat":-6.212485,"line":1},{"station_id":"JNG","station_name":"Jatinegara","time":8,"transit":true,"i_lat":-6.215091,"i_long":106.86807400000001,"distance":1377,"is_transit":true,"line":1},{"station_id":"POK","time":2,"i_lat":-6.209188,"transit":false,"line":11,"distance":1236,"i_long":106.861737,"station_name":"Pondok Jati","is_transit":false},{"i_long":106.855437,"transit":false,"i_lat":-6.193792,"station_id":"KMT","is_transit":false,"station_name":"Kramat","distance":1829,"line":11,"time":2},{"line":11,"station_name":"Gang Sentiong","distance":973,"transit":false,"time":1,"station_id":"GST","is_transit":false,"i_lat":-6.185975,"i_long":106.850107},{"i_long":106.84368,"line":11,"is_transit":false,"station_id":"PSE","distance":1567,"i_lat":-6.174784,"transit":false,"station_name":"Pasar Senen","time":8},{"station_name":"Kemayoran","i_long":106.839204,"transit":false,"is_transit":false,"line":11,"i_lat":-6.161728,"station_id":"KMO","distance":1436,"time":4},{"line":11,"time":5,"transit":false,"station_name":"Rajawali","station_id":"RJW","is_transit":false,"i_lat":-6.14505,"i_long":106.836569,"distance":1901},{"station_name":"Kampung Bandan","i_long":106.826365,"line":4,"transit":true,"station_id":"KPB","i_lat":-6.132549,"distance":1444,"is_transit":true,"time":3},{"transit":false,"i_lat":-6.144674,"time":9,"station_name":"Angke","distance":4102,"line":1,"i_long":106.79867,"is_transit":false,"station_id":"AK"},{"i_long":106.800832,"station_id":"DU","line":1,"i_lat":-6.155215,"station_name":"Duri","is_transit":false,"transit":false,"time":4,"distance":1230},{"station_id":"THB","transit":false,"time":8,"distance":3632,"station_name":"Tanah Abang","i_long":106.811091,"i_lat":-6.185545,"is_transit":false,"line":1},{"i_lat":-6.20132,"transit":false,"time":5,"station_name":"Karet","distance":2029,"i_long":106.816351,"line":1,"station_id":"KAT","is_transit":false}]]}