{"data":[[{"station_name":"Pondok Rajeg","transit":false,"station_id":"PDRG","distance":0,"time":0,"is_transit":false,"line":21,"i_lat":-6.460735,"i_long":106.824374},{"distance":0,"time":0,"station_id":"CTA","i_long":106.800298,"line":2,"station_name":"Citayam","transit":true,"i_lat":-6.448811,"is_transit":true},{"is_transit":false,"i_lat":-6.405256,"i_long":106.816926,"line":2,"transit":false,"distance":5084,"time":6,"station_name":"Depok","station_id":"DP"},{"i_lat":-6.391065,"is_transit":false,"line":2,"distance":1584,"station_id":"DPB","transit":false,"i_long":106.819451,"time":3,"station_name":"Depokbaru"},{"transit":false,"time":4,"station_name":"Pondok Cina","station_id":"POC","distance":2727,"i_lat":-6.369073,"is_transit":false,"line":2,"i_long":106.831114},{"station_name":"Univ. Indonesia","i_lat":-6.360749,"time":2,"i_long":106.831474,"line":2,"is_transit":false,"transit":false,"station_id":"UI","distance":1109},{"transit":false,"is_transit":false,"distance":2264,"station_name":"Univ. Pancasila","i_lat":-6.339291,"time":3,"station_id":"UP","i_long":106.834175,"line":2},{"i_lat":-6.330363,"time":2,"distance":1029,"i_long":106.832616,"station_name":"Lenteng Agung","station_id":"LNA","is_transit":false,"line":2,"transit":false},{"distance":2671,"station_name":"Tanjung Barat","line":2,"is_transit":false,"i_long":106.838896,"i_lat":-6.3080680000000005,"station_id":"TNT","transit":false,"time":3},{"time":4,"transit":false,"station_name":"Pasar Minggu","station_id":"PSM","is_transit":false,"distance":2820,"i_long":106.843999,"line":2,"i_lat":-6.2842400000000005},{"transit":false,"station_name":"Pasar Minggu Baru","i_long":106.851577,"is_transit":false,"line":2,"time":2,"station_id":"PSMB","distance":2380,"i_lat":-6.263214},{"is_transit":false,"station_id":"DRN","line":2,"i_long":106.85449,"transit":false,"time":2,"station_name":"Duren Kalibata","distance":824,"i_lat":-6.255332},{"station_name":"Cawang","station_id":"CW","time":3,"distance":1546,"i_lat":-6.242512,"line":2,"transit":false,"i_long":106.856607,"is_transit":false},{"station_name":"Tebet","transit":false,"line":2,"station_id":"TEB","i_long":106.857948,"time":2,"distance":1230,"is_transit":false,"i_lat":-6.226659},{"transit":true,"station_id":"MRI","station_name":"Manggarai","i_lat":-6.209883,"line":2,"time":4,"i_long":106.84912,"distance":2610,"is_transit":true},{"i_lat":-6.202263,"is_transit":false,"i_long":106.822649,"line":1,"distance":3186,"transit":false,"time":4,"station_name":"Sudirman","station_id":"SUD"}],[{"station_name":"Pondok Rajeg","line":21,"station_id":"PDRG","i_lat":-6.460735,"i_long":106.824374,"is_transit":false,"distance":0,"transit":false,"time":0},{"is_transit":true,"time":0,"station_id":"CTA","station_name":"Citayam","i_lat":-6.448811,"i_long":106.800298,"distance":0,"line":2,"transit":true},{"time":6,"i_long":106.816926,"distance":5084,"line":2,"transit":false,"station_name":"Depok","is_transit":false,"i_lat":-6.405256,"station_id":"DP"},{"is_transit":false,"i_lat":-6.391065,"station_name":"Depokbaru","i_long":106.819451,"line":2,"station_id":"DPB","time":3,"distance":1584,"transit":false},{"time":4,"station_name":"Pondok Cina","is_transit":false,"i_long":106.831114,"line":2,"distance":2727,"transit":false,"i_lat":-6.369073,"station_id":"POC"},{"time":2,"station_id":"UI","station_name":"Univ. Indonesia","transit":false,"i_lat":-6.360749,"i_long":106.831474,"distance":1109,"is_transit":false,"line":2},{"time":3,"transit":false,"i_lat":-6.339291,"i_long":106.834175,"station_id":"UP","distance":2264,"line":2,"station_name":"Univ. Pancasila","is_transit":false},{"time":2,"i_long":106.832616,"station_name":"Lenteng Agung","station_id":"LNA","distance":1029,"is_transit":false,"line":2,"i_lat":-6.330363,"transit":false},{"i_lat":-6.3080680000000005,"station_id":"TNT","transit":false,"station_name":"Tanjung Barat","i_long":106.838896,"is_transit":false,"time":3,"distance":2671,"line":2},{"is_transit":false,"i_lat":-6.2842400000000005,"station_id":"PSM","line":2,"station_name":"Pasar Minggu","transit":false,"time":4,"distance":2820,"i_long":106.843999},{"is_transit":false,"i_long":106.851577,"station_name":"Pasar Minggu Baru","transit":false,"station_id":"PSMB","time":2,"i_lat":-6.263214,"distance":2380,"line":2},{"transit":false,"is_transit":false,"station_id":"DRN","time":2,"i_long":106.85449,"line":2,"station_name":"Duren Kalibata","distance":824,"i_lat":-6.255332},{"station_id":"CW","distance":1546,"station_name":"Cawang","i_lat":-6.242512,"line":2,"is_transit":false,"transit":false,"i_long":106.856607,"time":3},{"distance":1230,"station_name":"Tebet","time":2,"i_long":106.857948,"transit":false,"line":2,"is_transit":false,"i_lat":-6.226659,"station_id":"TEB"},{"i_long":106.84912,"distance":2610,"station_id":"MRI","station_name":"Manggarai","is_transit":false,"i_lat":-6.209883,"line":2,"transit":false,"time":4},{"station_name":"Cikini","transit":false,"station_id":"CKI","distance":1590,"i_lat":-6.198556,"is_transit":false,"i_long":106.840169,"time":4,"line":2},{"time":3,"station_id":"GDD","is_transit":false,"distance":1750,"line":2,"i_lat":-6.186295,"station_name":"Gondangdia","transit":false,"i_long":106.832183},{"i_lat":-6.166716,"station_name":"Juanda","line":2,"transit":false,"distance":2015,"i_long":106.828284,"time":4,"station_id":"JUA","is_transit":false},{"time":2,"distance":1149,"i_long":106.827103,"is_transit":false,"i_lat":-6.160725,"line":2,"station_name":"Sawah Besar","station_id":"SW","transit":false},{"is_transit":false,"time":2,"line":2,"i_long":106.82482,"station_id":"MGB","transit":false,"station_name":"Manggabesar","distance":906,"i_lat":-6.149769},{"station_name":"Jayakarta","station_id":"JAY","is_transit":false,"i_long":106.820901,"time":2,"distance":1080,"i_lat":-6.141205,"transit":false,"line":2},{"i_lat":-6.137569,"line":2,"is_transit":true,"i_long":106.812439,"time":4,"distance":1264,"station_name":"Jakarta Kota","station_id":"JAKK","transit":true},{"line":4,"i_lat":-6.132549,"transit":true,"station_id":"KPB","distance":1364,"station_name":"Kampung Bandan","is_transit":true,"time":3,"i_long":106.826365},{"i_lat":-6.144674,"is_transit":false,"transit":false,"station_id":"AK","time":9,"distance":4102,"station_name":"Angke","i_long":106.79867,"line":1},{"i_lat":-6.155215,"line":1,"i_long":106.800832,"station_name":"Duri","station_id":"DU","is_transit":false,"transit":false,"time":4,"distance":1230},{"i_lat":-6.185545,"is_transit":false,"i_long":106.811091,"line":1,"transit":false,"station_name":"Tanah Abang","station_id":"THB","distance":3632,"time":8},{"station_name":"Karet","station_id":"KAT","is_transit":false,"line":1,"transit":false,"distance":2029,"i_lat":-6.20132,"i_long":106.816351,"time":5},{"is_transit":false,"transit":false,"i_long":106.819881,"distance":471,"time":1,"line":1,"i_lat":-6.201433,"station_name":"Sudirman Baru","station_id":"SUDB"},{"time":1,"is_transit":false,"i_lat":-6.202263,"line":1,"station_name":"Sudirman","transit":false,"station_id":"SUD","i_long":106.822649,"distance":280}],[{"line":21,"i_lat":-6.460735,"i_long":106.824374,"station_name":"Pondok Rajeg","station_id":"PDRG","distance":0,"transit":false,"is_transit":false,"time":0},{"transit":true,"station_name":"Citayam","is_transit":true,"time":0,"i_lat":-6.448811,"line":2,"distance":0,"station_id":"CTA","i_long":106.800298},{"time":6,"transit":false,"distance":5084,"station_id":"DP","station_name":"Depok","i_long":106.816926,"line":2,"is_transit":false,"i_lat":-6.405256},{"transit":false,"time":3,"station_id":"DPB","i_lat":-6.391065,"is_transit":false,"line":2,"i_long":106.819451,"distance":1584,"station_name":"Depokbaru"},{"i_long":106.831114,"distance":2727,"is_transit":false,"station_id":"POC","time":4,"line":2,"transit":false,"station_name":"Pondok Cina","i_lat":-6.369073},{"distance":1109,"i_long":106.831474,"time":2,"i_lat":-6.360749,"station_id":"UI","is_transit":false,"line":2,"transit":false,"station_name":"Univ. Indonesia"},{"is_transit":false,"transit":false,"station_name":"Univ. Pancasila","distance":2264,"line":2,"station_id":"UP","time":3,"i_lat":-6.339291,"i_long":106.834175},{"station_id":"LNA","distance":1029,"i_lat":-6.330363,"time":2,"is_transit":false,"station_name":"Lenteng Agung","line":2,"i_long":106.832616,"transit":false},{"is_transit":false,"station_id":"TNT","time":3,"i_lat":-6.3080680000000005,"transit":false,"line":2,"distance":2671,"i_long":106.838896,"station_name":"Tanjung Barat"},{"i_lat":-6.2842400000000005,"line":2,"distance":2820,"i_long":106.843999,"station_name":"Pasar Minggu","is_transit":false,"station_id":"PSM","transit":false,"time":4},{"time":2,"distance":2380,"i_lat":-6.263214,"transit":false,"is_transit":false,"station_id":"PSMB","line":2,"i_long":106.851577,"station_name":"Pasar Minggu Baru"},{"transit":false,"line":2,"time":2,"distance":824,"station_name":"Duren Kalibata","is_transit":false,"station_id":"DRN","i_lat":-6.255332,"i_long":106.85449},{"station_name":"Cawang","i_long":106.856607,"transit":false,"line":2,"i_lat":-6.242512,"distance":1546,"time":3,"is_transit":false,"station_id":"CW"},{"i_long":106.857948,"station_name":"Tebet","time":2,"i_lat":-6.226659,"transit":false,"line":2,"station_id":"TEB","is_transit":false,"distance":1230},{"distance":2610,"i_lat":-6.209883,"station_id":"MRI","i_long":106.84912,"line":2,"station_name":"Manggarai","is_transit":true,"transit":true,"time":4},{"i_long":106.858896,"i_lat":-6.212485,"is_transit":false,"station_name":"Matraman","transit":false,"station_id":"MTR","distance":1275,"line":1,"time":2},{"time":8,"transit":true,"station_name":"Jatinegara","i_long":106.86807400000001,"is_transit":true,"distance":1377,"station_id":"JNG","i_lat":-6.215091,"line":1},{"station_id":"POK","transit":false,"is_transit":false,"distance":1236,"i_lat":-6.209188,"station_name":"Pondok Jati","time":2,"i_long":106.861737,"line":11},{"line":11,"is_transit":false,"i_lat":-6.193792,"transit":false,"station_id":"KMT","distance":1829,"i_long":106.855437,"station_name":"Kramat","time":2},{"station_name":"Gang Sentiong","time":1,"line":11,"i_lat":-6.185975,"distance":973,"station_id":"GST","is_transit":false,"transit":false,"i_long":106.850107},{"i_lat":-6.174784,"i_long":106.84368,"station_name":"Pasar Senen","line":11,"distance":1567,"time":8,"transit":false,"is_transit":false,"station_id":"PSE"},{"i_long":106.839204,"station_name":"Kemayoran","station_id":"KMO","line":11,"is_transit":false,"i_lat":-6.161728,"transit":false,"time":4,"distance":1436},{"i_lat":-6.14505,"line":11,"i_long":106.836569,"transit":false,"station_name":"Rajawali","is_transit":false,"time":5,"station_id":"RJW","distance":1901},{"time":3,"i_lat":-6.132549,"station_name":"Kampung Bandan","is_transit":true,"distance":1444,"i_long":106.826365,"station_id":"KPB","transit":true,"line":4},{"line":1,"time":9,"i_lat":-6.144674,"distance":4102,"station_name":"Angke","i_long":106.79867,"station_id":"AK","transit":false,"is_transit":false},{"i_lat":-6.155215,"transit":false,"i_long":106.800832,"line":1,"station_name":"Duri","distance":1230,"is_transit":false,"time":4,"station_id":"DU"},{"distance":3632,"i_lat":-6.185545,"station_id":"THB","line":1,"time":8,"is_transit":false,"i_long":106.811091,"transit":false,"station_name":"Tanah Abang"},{"distance":2029,"station_name":"Karet","i_lat":-6.20132,"is_transit":false,"i_long":106.816351,"line":1,"transit":false,"station_id":"KAT","time":5},{"station_name":"Sudirman Baru","station_id":"SUDB","time":1,"is_transit":false,"line":1,"i_long":106.819881,"distance":471,"transit":false,"i_lat":-6.201433},{"line":1,"station_name":"Sudirman","transit":false,"i_lat":-6.202263,"i_long":106.822649,"station_id":"SUD","time":1,"is_transit":false,"distance":280}]]}