{"data":[[{"time":0,"station_id":"PDRG","i_lat":-6.460735,"distance":0,"transit":false,"station_name":"Pondok Rajeg","is_transit":false,"i_long":106.824374,"line":21},{"station_id":"CTA","distance":0,"is_transit":true,"i_lat":-6.448811,"time":0,"line":2,"transit":true,"i_long":106.800298,"station_name":"Citayam"},{"is_transit":false,"station_id":"DP","distance":5084,"line":2,"i_lat":-6.405256,"station_name":"Depok","time":6,"i_long":106.816926,"transit":false},{"is_transit":false,"time":3,"distance":1584,"line":2,"transit":false,"station_id":"DPB","station_name":"Depokbaru","i_long":106.819451,"i_lat":-6.391065},{"time":4,"line":2,"i_long":106.831114,"i_lat":-6.369073,"station_name":"Pondok Cina","distance":2727,"transit":false,"is_transit":false,"station_id":"POC"},{"station_id":"UI","line":2,"time":2,"is_transit":false,"station_name":"Univ. Indonesia","transit":false,"i_lat":-6.360749,"distance":1109,"i_long":106.831474},{"station_id":"UP","time":3,"station_name":"Univ. Pancasila","i_lat":-6.339291,"i_long":106.834175,"distance":2264,"transit":false,"is_transit":false,"line":2},{"distance":1029,"i_long":106.832616,"is_transit":false,"time":2,"i_lat":-6.330363,"line":2,"transit":false,"station_name":"Lenteng Agung","station_id":"LNA"},{"line":2,"i_lat":-6.3080680000000005,"station_id":"TNT","time":3,"distance":2671,"transit":false,"station_name":"Tanjung Barat","i_long":106.838896,"is_transit":false},{"station_id":"PSM","transit":false,"is_transit":false,"i_long":106.843999,"time":4,"i_lat":-6.2842400000000005,"line":2,"distance":2820,"station_name":"Pasar Minggu"},{"i_lat":-6.263214,"line":2,"station_name":"Pasar Minggu Baru","time":2,"station_id":"PSMB","is_transit":false,"i_long":106.851577,"transit":false,"distance":2380},{"transit":false,"is_transit":false,"station_id":"DRN","time":2,"line":2,"i_long":106.85449,"station_name":"Duren Kalibata","distance":824,"i_lat":-6.255332},{"distance":1546,"station_id":"CW","time":3,"line":2,"i_long":106.856607,"transit":false,"i_lat":-6.242512,"is_transit":false,"station_name":"Cawang"},{"i_lat":-6.226659,"transit":false,"time":2,"station_name":"Tebet","distance":1230,"station_id":"TEB","is_transit":false,"line":2,"i_long":106.857948},{"line":2,"is_transit":true,"time":4,"i_long":106.84912,"i_lat":-6.209883,"station_name":"Manggarai","transit":true,"station_id":"MRI","distance":2610},{"i_long":106.858896,"is_transit":false,"distance":1275,"time":2,"i_lat":-6.212485,"line":1,"station_id":"MTR","station_name":"Matraman","transit":false},{"time":8,"line":1,"station_name":"Jatinegara","i_lat":-6.215091,"transit":false,"is_transit":false,"distance":1377,"station_id":"JNG","i_long":106.86807400000001}],[{"transit":false,"i_long":106.824374,"line":21,"distance":0,"station_name":"Pondok Rajeg","time":0,"station_id":"PDRG","is_transit":false,"i_lat":-6.460735},{"line":2,"is_transit":true,"station_name":"Citayam","time":0,"transit":true,"i_lat":-6.448811,"station_id":"CTA","distance":0,"i_long":106.800298},{"station_name":"Depok","is_transit":false,"line":2,"time":6,"i_lat":-6.405256,"transit":false,"station_id":"DP","i_long":106.816926,"distance":5084},{"time":3,"station_name":"Depokbaru","i_lat":-6.391065,"i_long":106.819451,"distance":1584,"station_id":"DPB","line":2,"is_transit":false,"transit":false},{"i_long":106.831114,"transit":false,"distance":2727,"station_name":"Pondok Cina","i_lat":-6.369073,"is_transit":false,"time":4,"station_id":"POC","line":2},{"i_long":106.831474,"time":2,"transit":false,"station_name":"Univ. Indonesia","station_id":"UI","i_lat":-6.360749,"distance":1109,"line":2,"is_transit":false},{"distance":2264,"i_lat":-6.339291,"transit":false,"is_transit":false,"i_long":106.834175,"line":2,"time":3,"station_name":"Univ. Pancasila","station_id":"UP"},{"station_id":"LNA","station_name":"Lenteng Agung","is_transit":false,"distance":1029,"line":2,"i_lat":-6.330363,"time":2,"transit":false,"i_long":106.832616},{"station_name":"Tanjung Barat","time":3,"transit":false,"station_id":"TNT","is_transit":false,"i_long":106.838896,"line":2,"distance":2671,"i_lat":-6.3080680000000005},{"distance":2820,"transit":false,"i_lat":-6.2842400000000005,"station_name":"Pasar Minggu","i_long":106.843999,"line":2,"is_transit":false,"station_id":"PSM","time":4},{"time":2,"transit":false,"station_id":"PSMB","station_name":"Pasar Minggu Baru","is_transit":false,"distance":2380,"i_lat":-6.263214,"i_long":106.851577,"line":2},{"i_lat":-6.255332,"transit":false,"i_long":106.85449,"station_name":"Duren Kalibata","is_transit":false,"line":2,"distance":824,"time":2,"station_id":"DRN"},{"i_long":106.856607,"time":3,"station_name":"Cawang","distance":1546,"transit":false,"station_id":"CW","is_transit":false,"line":2,"i_lat":-6.242512},{"time":2,"i_lat":-6.226659,"is_transit":false,"line":2,"transit":false,"station_name":"Tebet","i_long":106.857948,"station_id":"TEB","distance":1230},{"line":2,"distance":2610,"i_lat":-6.209883,"i_long":106.84912,"station_name":"Manggarai","is_transit":true,"transit":true,"station_id":"MRI","time":4},{"is_transit":false,"i_lat":-6.202263,"time":4,"i_long":106.822649,"station_name":"Sudirman","line":1,"transit":false,"distance":3186,"station_id":"SUD"},{"transit":false,"time":1,"i_long":106.819881,"distance":280,"is_transit":false,"station_id":"SUDB","i_lat":-6.201433,"line":1,"station_name":"Sudirman Baru"},{"distance":471,"i_long":106.816351,"station_name":"Karet","transit":false,"station_id":"KAT","time":1,"i_lat":-6.20132,"is_transit":false,"line":1},{"station_id":"THB","transit":false,"line":1,"is_transit":false,"time":5,"i_lat":-6.185545,"i_long":106.811091,"distance":2029,"station_name":"Tanah Abang"},{"station_id":"DU","time":8,"is_transit":false,"i_lat":-6.155215,"i_long":106.800832,"line":1,"transit":false,"distance":3632,"station_name":"Duri"},{"transit":false,"is_transit":false,"distance":1230,"i_long":106.79867,"time":4,"line":1,"station_id":"AK","station_name":"Angke","i_lat":-6.144674},{"distance":4102,"line":4,"station_id":"KPB","time":9,"i_long":106.826365,"is_transit":true,"station_name":"Kampung Bandan","i_lat":-6.132549,"transit":true},{"time":3,"station_name":"Rajawali","is_transit":false,"i_lat":-6.14505,"i_long":106.836569,"line":11,"station_id":"RJW","distance":1444,"transit":false},{"station_id":"KMO","transit":false,"line":11,"distance":1901,"i_long":106.839204,"is_transit":false,"station_name":"Kemayoran","time":5,"i_lat":-6.161728},{"is_transit":false,"i_long":106.84368,"line":11,"transit":false,"station_name":"Pasar Senen","time":4,"i_lat":-6.174784,"station_id":"PSE","distance":1436},{"station_name":"Gang Sentiong","transit":false,"time":8,"line":11,"is_transit":false,"i_long":106.850107,"i_lat":-6.185975,"distance":1567,"station_id":"GST"},{"station_id":"KMT","i_lat":-6.193792,"line":11,"i_long":106.855437,"transit":false,"time":1,"station_name":"Kramat","is_transit":false,"distance":973},{"station_name":"Pondok Jati","transit":false,"distance":1829,"is_transit":false,"i_lat":-6.209188,"i_long":106.861737,"line":11,"station_id":"POK","time":2},{"station_id":"JNG","line":1,"i_long":106.86807400000001,"i_lat":-6.215091,"transit":false,"distance":1236,"station_name":"Jatinegara","is_transit":false,"time":9}],[{"is_transit":false,"distance":0,"i_lat":-6.460735,"i_long":106.824374,"line":21,"station_id":"PDRG","station_name":"Pondok Rajeg","time":0,"transit":false},{"i_long":106.800298,"is_transit":true,"line":2,"station_name":"Citayam","station_id":"CTA","distance":0,"i_lat":-6.448811,"transit":true,"time":0},{"is_transit":false,"i_lat":-6.405256,"i_long":106.816926,"transit":false,"station_id":"DP","line":2,"distance":5084,"time":6,"station_name":"Depok"},{"is_transit":false,"i_lat":-6.391065,"line":2,"transit":false,"station_name":"Depokbaru","station_id":"DPB","time":3,"distance":1584,"i_long":106.819451},{"distance":2727,"i_lat":-6.369073,"is_transit":false,"i_long":106.831114,"line":2,"time":4,"transit":false,"station_name":"Pondok Cina","station_id":"POC"},{"is_transit":false,"i_lat":-6.360749,"line":2,"station_name":"Univ. Indonesia","distance":1109,"transit":false,"time":2,"i_long":106.831474,"station_id":"UI"},{"transit":false,"station_id":"UP","i_long":106.834175,"distance":2264,"line":2,"is_transit":false,"station_name":"Univ. Pancasila","i_lat":-6.339291,"time":3},{"transit":false,"station_id":"LNA","time":2,"distance":1029,"station_name":"Lenteng Agung","line":2,"is_transit":false,"i_long":106.832616,"i_lat":-6.330363},{"transit":false,"i_lat":-6.3080680000000005,"i_long":106.838896,"line":2,"station_name":"Tanjung Barat","station_id":"TNT","time":3,"is_transit":false,"distance":2671},{"transit":false,"i_lat":-6.2842400000000005,"station_id":"PSM","i_long":106.843999,"line":2,"station_name":"Pasar Minggu","time":4,"is_transit":false,"distance":2820},{"distance":2380,"transit":false,"station_id":"PSMB","station_name":"Pasar Minggu Baru","i_lat":-6.263214,"time":2,"line":2,"i_long":106.851577,"is_transit":false},{"i_lat":-6.255332,"line":2,"is_transit":false,"time":2,"station_id":"DRN","distance":824,"transit":false,"station_name":"Duren Kalibata","i_long":106.85449},{"station_id":"CW","is_transit":false,"time":3,"distance":1546,"line":2,"i_lat":-6.242512,"transit":false,"station_name":"Cawang","i_long":106.856607},{"is_transit":false,"station_id":"TEB","time":2,"line":2,"transit":false,"station_name":"Tebet","distance":1230,"i_lat":-6.226659,"i_long":106.857948},{"i_lat":-6.209883,"station_name":"Manggarai","time":4,"i_long":106.84912,"transit":false,"is_transit":false,"station_id":"MRI","line":2,"distance":2610},{"is_transit":false,"station_name":"Cikini","line":2,"time":4,"transit":false,"distance":1590,"i_lat":-6.198556,"station_id":"CKI","i_long":106.840169},{"is_transit":false,"transit":false,"i_lat":-6.186295,"time":3,"station_id":"GDD","distance":1750,"line":2,"station_name":"Gondangdia","i_long":106.832183},{"distance":2015,"line":2,"is_transit":false,"i_lat":-6.166716,"time":4,"station_id":"JUA","i_long":106.828284,"station_name":"Juanda","transit":false},{"transit":false,"i_long":106.827103,"i_lat":-6.160725,"station_name":"Sawah Besar","is_transit":false,"distance":1149,"line":2,"station_id":"SW","time":2},{"is_transit":false,"transit":false,"station_id":"MGB","station_name":"Manggabesar","distance":906,"time":2,"i_lat":-6.149769,"line":2,"i_long":106.82482},{"transit":false,"time":2,"distance":1080,"line":2,"i_lat":-6.141205,"i_long":106.820901,"is_transit":false,"station_name":"Jayakarta","station_id":"JAY"},{"station_id":"JAKK","time":4,"is_transit":true,"transit":true,"station_name":"Jakarta Kota","line":2,"distance":1264,"i_lat":-6.137569,"i_long":106.812439},{"line":4,"station_id":"KPB","i_lat":-6.132549,"distance":1364,"i_long":106.826365,"is_transit":true,"transit":true,"station_name":"Kampung Bandan","time":3},{"i_long":106.836569,"line":11,"transit":false,"is_transit":false,"time":3,"station_id":"RJW","station_name":"Rajawali","distance":1444,"i_lat":-6.14505},{"transit":false,"time":5,"station_id":"KMO","i_lat":-6.161728,"line":11,"is_transit":false,"station_name":"Kemayoran","i_long":106.839204,"distance":1901},{"line":11,"i_long":106.84368,"is_transit":false,"station_name":"Pasar Senen","i_lat":-6.174784,"station_id":"PSE","time":4,"distance":1436,"transit":false},{"line":11,"distance":1567,"i_long":106.850107,"time":8,"i_lat":-6.185975,"station_name":"Gang Sentiong","station_id":"GST","is_transit":false,"transit":false},{"is_transit":false,"time":1,"i_lat":-6.193792,"line":11,"distance":973,"i_long":106.855437,"transit":false,"station_name":"Kramat","station_id":"KMT"},{"is_transit":false,"station_id":"POK","line":11,"transit":false,"station_name":"Pondok Jati","i_long":106.861737,"i_lat":-6.209188,"time":2,"distance":1829},{"time":9,"station_name":"Jatinegara","transit":false,"i_long":106.86807400000001,"i_lat":-6.215091,"station_id":"JNG","line":1,"is_transit":false,"distance":1236}]]}