{"data":[[{"line":21,"station_name":"Pondok Rajeg","station_id":"PDRG","is_transit":false,"time":0,"transit":false,"distance":0,"i_lat":-6.460735,"i_long":106.824374},{"i_long":106.800298,"transit":true,"is_transit":true,"i_lat":-6.448811,"line":2,"station_name":"Citayam","time":0,"distance":0,"station_id":"CTA"},{"is_transit":false,"transit":false,"station_name":"Depok","distance":5084,"i_long":106.816926,"line":2,"time":6,"station_id":"DP","i_lat":-6.405256},{"station_id":"DPB","time":3,"line":2,"i_long":106.819451,"distance":1584,"station_name":"Depokbaru","is_transit":false,"i_lat":-6.391065,"transit":false},{"distance":2727,"time":4,"i_long":106.831114,"station_name":"Pondok Cina","transit":false,"is_transit":false,"station_id":"POC","i_lat":-6.369073,"line":2},{"time":2,"station_id":"UI","is_transit":false,"i_lat":-6.360749,"i_long":106.831474,"transit":false,"station_name":"Univ. Indonesia","distance":1109,"line":2},{"is_transit":false,"i_lat":-6.339291,"i_long":106.834175,"time":3,"line":2,"distance":2264,"station_id":"UP","transit":false,"station_name":"Univ. Pancasila"},{"distance":1029,"transit":false,"station_name":"Lenteng Agung","station_id":"LNA","is_transit":false,"i_lat":-6.330363,"line":2,"time":2,"i_long":106.832616},{"i_lat":-6.3080680000000005,"transit":false,"line":2,"station_name":"Tanjung Barat","distance":2671,"is_transit":false,"time":3,"station_id":"TNT","i_long":106.838896},{"time":4,"i_lat":-6.2842400000000005,"station_name":"Pasar Minggu","i_long":106.843999,"line":2,"station_id":"PSM","distance":2820,"is_transit":false,"transit":false},{"distance":2380,"transit":false,"time":2,"station_name":"Pasar Minggu Baru","i_lat":-6.263214,"i_long":106.851577,"is_transit":false,"line":2,"station_id":"PSMB"},{"transit":false,"station_id":"DRN","i_long":106.85449,"line":2,"time":2,"station_name":"Duren Kalibata","is_transit":false,"distance":824,"i_lat":-6.255332},{"station_name":"Cawang","is_transit":false,"time":3,"station_id":"CW","transit":false,"i_lat":-6.242512,"distance":1546,"i_long":106.856607,"line":2},{"i_lat":-6.226659,"transit":false,"station_id":"TEB","time":2,"i_long":106.857948,"station_name":"Tebet","is_transit":false,"line":2,"distance":1230},{"station_id":"MRI","time":4,"i_long":106.84912,"station_name":"Manggarai","line":2,"transit":true,"is_transit":true,"distance":2610,"i_lat":-6.209883},{"line":1,"distance":3186,"is_transit":false,"time":4,"i_lat":-6.202263,"station_name":"Sudirman","station_id":"SUD","transit":false,"i_long":106.822649},{"station_name":"Sudirman Baru","distance":280,"is_transit":false,"station_id":"SUDB","i_lat":-6.201433,"time":1,"i_long":106.819881,"line":1,"transit":false},{"line":1,"station_id":"KAT","transit":false,"i_lat":-6.20132,"station_name":"Karet","is_transit":false,"time":1,"i_long":106.816351,"distance":471},{"station_id":"THB","line":1,"transit":true,"time":5,"is_transit":true,"station_name":"Tanah Abang","distance":2029,"i_lat":-6.185545,"i_long":106.811091},{"transit":false,"distance":3191,"i_long":106.79689,"time":6,"i_lat":-6.207404,"station_id":"PLM","line":6,"station_name":"Palmerah","is_transit":false},{"i_long":106.780334,"station_id":"KBY","distance":3737,"transit":false,"line":6,"is_transit":false,"time":7,"station_name":"Kebayoran","i_lat":-6.237242},{"station_name":"Pondokranji","distance":6218,"line":6,"station_id":"PDJ","is_transit":false,"time":8,"i_long":106.74273,"i_lat":-6.276362,"transit":false},{"station_id":"JMU","is_transit":false,"time":3,"i_long":106.728916,"line":6,"i_lat":-6.288927,"distance":2179,"station_name":"Jurangmangu","transit":false},{"transit":false,"distance":1994,"line":6,"time":4,"i_long":106.712277,"i_lat":-6.296963,"station_name":"Sudimara","is_transit":false,"station_id":"SDM"},{"station_id":"RU","i_lat":-6.314823,"transit":false,"i_long":106.675475,"line":6,"station_name":"Rawa Buntu","distance":4566,"is_transit":false,"time":6},{"time":4,"station_name":"Serpong","transit":false,"distance":2413,"line":6,"i_lat":-6.319871,"station_id":"SRP","is_transit":false,"i_long":106.66566},{"i_lat":-6.32484,"station_name":"Cisauk","station_id":"CSK","line":3,"time":4,"i_long":106.640411,"transit":false,"is_transit":false,"distance":1784},{"time":4,"station_id":"CC","line":3,"i_long":106.617853,"station_name":"Cicayur","transit":false,"i_lat":-6.329547,"is_transit":false,"distance":2519},{"i_lat":-6.3441410000000005,"transit":false,"i_long":106.568863,"station_id":"PRP","is_transit":false,"line":6,"distance":5968,"time":8,"station_name":"Parung Panjang"},{"i_long":106.508482,"station_name":"Cilejit","line":3,"distance":7025,"transit":false,"is_transit":false,"station_id":"CJT","time":9,"i_lat":-6.354349},{"time":6,"i_long":106.491338,"distance":2675,"transit":false,"is_transit":false,"line":0,"i_lat":-6.338021,"station_name":"Daru","station_id":"DAR"}],[{"station_id":"PDRG","is_transit":false,"i_lat":-6.460735,"line":21,"i_long":106.824374,"distance":0,"time":0,"station_name":"Pondok Rajeg","transit":false},{"station_name":"Citayam","time":0,"station_id":"CTA","is_transit":true,"transit":true,"distance":0,"line":2,"i_lat":-6.448811,"i_long":106.800298},{"distance":5084,"i_lat":-6.405256,"station_name":"Depok","i_long":106.816926,"line":2,"station_id":"DP","transit":false,"is_transit":false,"time":6},{"i_lat":-6.391065,"i_long":106.819451,"station_id":"DPB","station_name":"Depokbaru","distance":1584,"line":2,"time":3,"transit":false,"is_transit":false},{"time":4,"i_long":106.831114,"line":2,"is_transit":false,"transit":false,"station_name":"Pondok Cina","station_id":"POC","distance":2727,"i_lat":-6.369073},{"station_id":"UI","line":2,"is_transit":false,"station_name":"Univ. Indonesia","time":2,"transit":false,"distance":1109,"i_lat":-6.360749,"i_long":106.831474},{"transit":false,"is_transit":false,"station_name":"Univ. Pancasila","distance":2264,"station_id":"UP","i_long":106.834175,"time":3,"line":2,"i_lat":-6.339291},{"i_long":106.832616,"station_name":"Lenteng Agung","transit":false,"station_id":"LNA","time":2,"is_transit":false,"i_lat":-6.330363,"line":2,"distance":1029},{"time":3,"i_long":106.838896,"transit":false,"i_lat":-6.3080680000000005,"station_id":"TNT","is_transit":false,"distance":2671,"line":2,"station_name":"Tanjung Barat"},{"station_id":"PSM","is_transit":false,"i_long":106.843999,"line":2,"transit":false,"distance":2820,"time":4,"i_lat":-6.2842400000000005,"station_name":"Pasar Minggu"},{"station_id":"PSMB","i_long":106.851577,"station_name":"Pasar Minggu Baru","is_transit":false,"time":2,"i_lat":-6.263214,"transit":false,"distance":2380,"line":2},{"i_long":106.85449,"i_lat":-6.255332,"line":2,"distance":824,"station_id":"DRN","transit":false,"is_transit":false,"station_name":"Duren Kalibata","time":2},{"distance":1546,"transit":false,"i_lat":-6.242512,"is_transit":false,"time":3,"station_name":"Cawang","station_id":"CW","i_long":106.856607,"line":2},{"time":2,"i_lat":-6.226659,"station_name":"Tebet","i_long":106.857948,"distance":1230,"station_id":"TEB","is_transit":false,"line":2,"transit":false},{"is_transit":false,"i_lat":-6.209883,"station_id":"MRI","i_long":106.84912,"station_name":"Manggarai","line":2,"transit":false,"distance":2610,"time":4},{"station_name":"Cikini","is_transit":false,"time":4,"i_lat":-6.198556,"transit":false,"line":2,"station_id":"CKI","distance":1590,"i_long":106.840169},{"time":3,"transit":false,"distance":1750,"station_id":"GDD","i_lat":-6.186295,"line":2,"i_long":106.832183,"station_name":"Gondangdia","is_transit":false},{"is_transit":false,"line":2,"station_id":"JUA","transit":false,"time":4,"distance":2015,"i_lat":-6.166716,"station_name":"Juanda","i_long":106.828284},{"i_lat":-6.160725,"i_long":106.827103,"transit":false,"station_name":"Sawah Besar","is_transit":false,"time":2,"line":2,"distance":1149,"station_id":"SW"},{"i_lat":-6.149769,"transit":false,"distance":906,"i_long":106.82482,"time":2,"station_name":"Manggabesar","line":2,"station_id":"MGB","is_transit":false},{"distance":1080,"transit":false,"is_transit":false,"station_id":"JAY","i_lat":-6.141205,"i_long":106.820901,"time":2,"line":2,"station_name":"Jayakarta"},{"time":4,"line":2,"i_long":106.812439,"is_transit":true,"station_id":"JAKK","distance":1264,"i_lat":-6.137569,"transit":true,"station_name":"Jakarta Kota"},{"distance":1364,"station_id":"KPB","transit":true,"i_long":106.826365,"line":4,"station_name":"Kampung Bandan","is_transit":true,"time":3,"i_lat":-6.132549},{"is_transit":false,"i_long":106.79867,"time":9,"station_name":"Angke","station_id":"AK","transit":false,"distance":4102,"i_lat":-6.144674,"line":1},{"is_transit":false,"i_lat":-6.155215,"line":1,"station_id":"DU","i_long":106.800832,"transit":false,"time":4,"distance":1230,"station_name":"Duri"},{"station_id":"THB","is_transit":true,"transit":true,"i_lat":-6.185545,"distance":3632,"line":1,"station_name":"Tanah Abang","i_long":106.811091,"time":8},{"time":6,"station_name":"Palmerah","transit":false,"station_id":"PLM","is_transit":false,"distance":3191,"i_long":106.79689,"line":6,"i_lat":-6.207404},{"station_name":"Kebayoran","line":6,"transit":false,"station_id":"KBY","i_long":106.780334,"time":7,"i_lat":-6.237242,"distance":3737,"is_transit":false},{"i_lat":-6.276362,"time":8,"distance":6218,"station_id":"PDJ","transit":false,"is_transit":false,"station_name":"Pondokranji","i_long":106.74273,"line":6},{"i_lat":-6.288927,"i_long":106.728916,"distance":2179,"time":3,"station_id":"JMU","line":6,"is_transit":false,"station_name":"Jurangmangu","transit":false},{"transit":false,"time":4,"distance":1994,"station_id":"SDM","i_long":106.712277,"is_transit":false,"i_lat":-6.296963,"station_name":"Sudimara","line":6},{"distance":4566,"time":6,"transit":false,"station_name":"Rawa Buntu","station_id":"RU","i_long":106.675475,"i_lat":-6.314823,"is_transit":false,"line":6},{"i_lat":-6.319871,"distance":2413,"station_name":"Serpong","station_id":"SRP","is_transit":false,"i_long":106.66566,"time":4,"line":6,"transit":false},{"i_long":106.640411,"time":4,"distance":1784,"transit":false,"i_lat":-6.32484,"is_transit":false,"line":3,"station_name":"Cisauk","station_id":"CSK"},{"station_name":"Cicayur","time":4,"distance":2519,"is_transit":false,"i_lat":-6.329547,"i_long":106.617853,"line":3,"station_id":"CC","transit":false},{"i_long":106.568863,"station_id":"PRP","is_transit":false,"line":6,"i_lat":-6.3441410000000005,"station_name":"Parung Panjang","transit":false,"distance":5968,"time":8},{"transit":false,"station_name":"Cilejit","time":9,"is_transit":false,"station_id":"CJT","distance":7025,"i_long":106.508482,"line":3,"i_lat":-6.354349},{"station_name":"Daru","transit":false,"time":6,"distance":2675,"is_transit":false,"i_lat":-6.338021,"i_long":106.491338,"station_id":"DAR","line":0}],[{"distance":0,"i_long":106.824374,"line":21,"time":0,"station_id":"PDRG","transit":false,"is_transit":false,"i_lat":-6.460735,"station_name":"Pondok Rajeg"},{"line":2,"i_lat":-6.448811,"is_transit":true,"i_long":106.800298,"station_id":"CTA","station_name":"Citayam","transit":true,"time":0,"distance":0},{"transit":false,"station_name":"Depok","station_id":"DP","i_lat":-6.405256,"i_long":106.816926,"is_transit":false,"distance":5084,"time":6,"line":2},{"transit":false,"is_transit":false,"time":3,"station_id":"DPB","station_name":"Depokbaru","i_lat":-6.391065,"distance":1584,"i_long":106.819451,"line":2},{"line":2,"i_lat":-6.369073,"station_name":"Pondok Cina","is_transit":false,"transit":false,"time":4,"station_id":"POC","distance":2727,"i_long":106.831114},{"line":2,"is_transit":false,"station_name":"Univ. Indonesia","time":2,"station_id":"UI","transit":false,"i_long":106.831474,"i_lat":-6.360749,"distance":1109},{"transit":false,"i_long":106.834175,"station_id":"UP","time":3,"station_name":"Univ. Pancasila","distance":2264,"is_transit":false,"i_lat":-6.339291,"line":2},{"transit":false,"station_id":"LNA","time":2,"station_name":"Lenteng Agung","line":2,"distance":1029,"is_transit":false,"i_lat":-6.330363,"i_long":106.832616},{"transit":false,"station_id":"TNT","i_long":106.838896,"time":3,"distance":2671,"is_transit":false,"station_name":"Tanjung Barat","line":2,"i_lat":-6.3080680000000005},{"distance":2820,"i_long":106.843999,"station_name":"Pasar Minggu","station_id":"PSM","time":4,"line":2,"is_transit":false,"transit":false,"i_lat":-6.2842400000000005},{"station_name":"Pasar Minggu Baru","station_id":"PSMB","is_transit":false,"i_lat":-6.263214,"transit":false,"time":2,"distance":2380,"i_long":106.851577,"line":2},{"line":2,"time":2,"station_id":"DRN","transit":false,"i_long":106.85449,"station_name":"Duren Kalibata","i_lat":-6.255332,"is_transit":false,"distance":824},{"is_transit":false,"i_lat":-6.242512,"distance":1546,"i_long":106.856607,"station_id":"CW","time":3,"transit":false,"station_name":"Cawang","line":2},{"i_long":106.857948,"station_id":"TEB","time":2,"distance":1230,"i_lat":-6.226659,"transit":false,"station_name":"Tebet","line":2,"is_transit":false},{"time":4,"station_id":"MRI","distance":2610,"station_name":"Manggarai","transit":true,"i_lat":-6.209883,"i_long":106.84912,"line":2,"is_transit":true},{"station_id":"MTR","transit":false,"line":1,"is_transit":false,"i_long":106.858896,"station_name":"Matraman","i_lat":-6.212485,"time":2,"distance":1275},{"i_long":106.86807400000001,"station_id":"JNG","is_transit":true,"time":8,"distance":1377,"i_lat":-6.215091,"transit":true,"station_name":"Jatinegara","line":1},{"is_transit":false,"i_lat":-6.209188,"line":11,"station_id":"POK","station_name":"Pondok Jati","transit":false,"distance":1236,"i_long":106.861737,"time":2},{"is_transit":false,"i_long":106.855437,"line":11,"station_name":"Kramat","station_id":"KMT","distance":1829,"i_lat":-6.193792,"transit":false,"time":2},{"distance":973,"i_long":106.850107,"line":11,"is_transit":false,"time":1,"station_name":"Gang Sentiong","i_lat":-6.185975,"station_id":"GST","transit":false},{"station_name":"Pasar Senen","line":11,"distance":1567,"transit":false,"time":8,"is_transit":false,"i_lat":-6.174784,"i_long":106.84368,"station_id":"PSE"},{"transit":false,"station_id":"KMO","is_transit":false,"i_long":106.839204,"i_lat":-6.161728,"line":11,"station_name":"Kemayoran","time":4,"distance":1436},{"transit":false,"distance":1901,"i_lat":-6.14505,"i_long":106.836569,"station_id":"RJW","is_transit":false,"line":11,"time":5,"station_name":"Rajawali"},{"time":3,"i_lat":-6.132549,"station_id":"KPB","station_name":"Kampung Bandan","line":4,"distance":1444,"transit":true,"is_transit":true,"i_long":106.826365},{"station_name":"Angke","i_lat":-6.144674,"line":1,"time":9,"transit":false,"station_id":"AK","is_transit":false,"distance":4102,"i_long":106.79867},{"i_lat":-6.155215,"is_transit":false,"i_long":106.800832,"transit":false,"distance":1230,"station_id":"DU","station_name":"Duri","time":4,"line":1},{"station_name":"Tanah Abang","line":1,"is_transit":true,"distance":3632,"station_id":"THB","i_lat":-6.185545,"transit":true,"time":8,"i_long":106.811091},{"i_long":106.79689,"time":6,"line":6,"station_id":"PLM","is_transit":false,"transit":false,"station_name":"Palmerah","distance":3191,"i_lat":-6.207404},{"line":6,"i_long":106.780334,"station_name":"Kebayoran","time":7,"station_id":"KBY","transit":false,"is_transit":false,"distance":3737,"i_lat":-6.237242},{"station_name":"Pondokranji","i_long":106.74273,"distance":6218,"time":8,"is_transit":false,"transit":false,"station_id":"PDJ","i_lat":-6.276362,"line":6},{"distance":2179,"is_transit":false,"station_id":"JMU","i_long":106.728916,"transit":false,"station_name":"Jurangmangu","time":3,"line":6,"i_lat":-6.288927},{"transit":false,"time":4,"line":6,"station_id":"SDM","distance":1994,"i_lat":-6.296963,"station_name":"Sudimara","is_transit":false,"i_long":106.712277},{"station_name":"Rawa Buntu","line":6,"transit":false,"distance":4566,"is_transit":false,"i_lat":-6.314823,"station_id":"RU","time":6,"i_long":106.675475},{"is_transit":false,"line":6,"transit":false,"time":4,"distance":2413,"i_lat":-6.319871,"i_long":106.66566,"station_name":"Serpong","station_id":"SRP"},{"i_lat":-6.32484,"station_name":"Cisauk","transit":false,"is_transit":false,"time":4,"distance":1784,"i_long":106.640411,"line":3,"station_id":"CSK"},{"is_transit":false,"i_lat":-6.329547,"line":3,"distance":2519,"transit":false,"station_name":"Cicayur","i_long":106.617853,"time":4,"station_id":"CC"},{"distance":5968,"transit":false,"line":6,"time":8,"i_long":106.568863,"station_name":"Parung Panjang","station_id":"PRP","i_lat":-6.3441410000000005,"is_transit":false},{"distance":7025,"station_name":"Cilejit","i_lat":-6.354349,"is_transit":false,"transit":false,"station_id":"CJT","time":9,"i_long":106.508482,"line":3},{"i_long":106.491338,"station_name":"Daru","station_id":"DAR","is_transit":false,"time":6,"distance":2675,"i_lat":-6.338021,"transit":false,"line":0}]]}