{"data":[[{"time":0,"station_name":"Pondok Rajeg","station_id":"PDRG","is_transit":false,"transit":false,"i_lat":-6.460735,"i_long":106.824374,"distance":0,"line":21},{"i_lat":-6.448811,"transit":true,"is_transit":true,"line":2,"i_long":106.800298,"distance":0,"station_name":"Citayam","time":0,"station_id":"CTA"},{"time":6,"distance":5084,"is_transit":false,"transit":false,"station_id":"DP","i_long":106.816926,"line":2,"station_name":"Depok","i_lat":-6.405256},{"distance":1584,"time":3,"i_long":106.819451,"is_transit":false,"i_lat":-6.391065,"station_name":"Depokbaru","transit":false,"line":2,"station_id":"DPB"},{"is_transit":false,"station_id":"POC","line":2,"station_name":"Pondok Cina","i_lat":-6.369073,"time":4,"transit":false,"distance":2727,"i_long":106.831114},{"time":2,"transit":false,"station_id":"UI","is_transit":false,"distance":1109,"i_lat":-6.360749,"i_long":106.831474,"line":2,"station_name":"Univ. Indonesia"},{"i_long":106.834175,"line":2,"is_transit":false,"station_name":"Univ. Pancasila","station_id":"UP","time":3,"transit":false,"distance":2264,"i_lat":-6.339291},{"i_lat":-6.330363,"i_long":106.832616,"transit":false,"station_id":"LNA","distance":1029,"line":2,"is_transit":false,"time":2,"station_name":"Lenteng Agung"},{"distance":2671,"line":2,"station_id":"TNT","time":3,"station_name":"Tanjung Barat","i_long":106.838896,"transit":false,"i_lat":-6.3080680000000005,"is_transit":false},{"distance":2820,"time":4,"transit":false,"station_id":"PSM","i_long":106.843999,"station_name":"Pasar Minggu","i_lat":-6.2842400000000005,"is_transit":false,"line":2},{"line":2,"is_transit":false,"i_lat":-6.263214,"station_id":"PSMB","distance":2380,"station_name":"Pasar Minggu Baru","time":2,"i_long":106.851577,"transit":false},{"station_name":"Duren Kalibata","transit":false,"i_lat":-6.255332,"station_id":"DRN","is_transit":false,"distance":824,"line":2,"time":2,"i_long":106.85449},{"i_long":106.856607,"transit":false,"time":3,"station_id":"CW","station_name":"Cawang","is_transit":false,"distance":1546,"line":2,"i_lat":-6.242512},{"time":2,"distance":1230,"station_name":"Tebet","station_id":"TEB","i_long":106.857948,"transit":false,"is_transit":false,"i_lat":-6.226659,"line":2},{"station_name":"Manggarai","i_long":106.84912,"line":2,"station_id":"MRI","i_lat":-6.209883,"distance":2610,"time":4,"transit":true,"is_transit":true},{"is_transit":false,"transit":false,"time":4,"station_id":"SUD","distance":3186,"i_long":106.822649,"i_lat":-6.202263,"line":1,"station_name":"Sudirman"}],[{"line":21,"distance":0,"i_lat":-6.460735,"transit":false,"is_transit":false,"time":0,"i_long":106.824374,"station_id":"PDRG","station_name":"Pondok Rajeg"},{"station_name":"Citayam","station_id":"CTA","is_transit":true,"i_long":106.800298,"line":2,"transit":true,"time":0,"distance":0,"i_lat":-6.448811},{"station_name":"Depok","distance":5084,"is_transit":false,"i_lat":-6.405256,"station_id":"DP","time":6,"i_long":106.816926,"transit":false,"line":2},{"is_transit":false,"i_long":106.819451,"station_name":"Depokbaru","line":2,"transit":false,"station_id":"DPB","time":3,"i_lat":-6.391065,"distance":1584},{"station_name":"Pondok Cina","station_id":"POC","time":4,"distance":2727,"i_lat":-6.369073,"line":2,"transit":false,"i_long":106.831114,"is_transit":false},{"time":2,"station_name":"Univ. Indonesia","transit":false,"is_transit":false,"station_id":"UI","distance":1109,"i_lat":-6.360749,"line":2,"i_long":106.831474},{"i_long":106.834175,"time":3,"station_id":"UP","line":2,"transit":false,"is_transit":false,"i_lat":-6.339291,"distance":2264,"station_name":"Univ. Pancasila"},{"time":2,"is_transit":false,"distance":1029,"i_lat":-6.330363,"transit":false,"station_id":"LNA","i_long":106.832616,"station_name":"Lenteng Agung","line":2},{"i_long":106.838896,"is_transit":false,"line":2,"i_lat":-6.3080680000000005,"transit":false,"time":3,"station_id":"TNT","distance":2671,"station_name":"Tanjung Barat"},{"station_name":"Pasar Minggu","i_lat":-6.2842400000000005,"station_id":"PSM","i_long":106.843999,"line":2,"transit":false,"is_transit":false,"time":4,"distance":2820},{"station_id":"PSMB","i_lat":-6.263214,"line":2,"is_transit":false,"i_long":106.851577,"transit":false,"station_name":"Pasar Minggu Baru","distance":2380,"time":2},{"line":2,"station_id":"DRN","time":2,"is_transit":false,"i_long":106.85449,"station_name":"Duren Kalibata","distance":824,"i_lat":-6.255332,"transit":false},{"i_long":106.856607,"is_transit":false,"line":2,"transit":false,"station_name":"Cawang","i_lat":-6.242512,"station_id":"CW","time":3,"distance":1546},{"station_id":"TEB","i_lat":-6.226659,"is_transit":false,"time":2,"line":2,"i_long":106.857948,"distance":1230,"station_name":"Tebet","transit":false},{"station_id":"MRI","is_transit":false,"i_long":106.84912,"line":2,"time":4,"i_lat":-6.209883,"distance":2610,"transit":false,"station_name":"Manggarai"},{"transit":false,"station_name":"Cikini","station_id":"CKI","i_long":106.840169,"is_transit":false,"line":2,"time":4,"distance":1590,"i_lat":-6.198556},{"is_transit":false,"station_name":"Gondangdia","line":2,"transit":false,"i_lat":-6.186295,"i_long":106.832183,"distance":1750,"time":3,"station_id":"GDD"},{"i_lat":-6.166716,"station_name":"Juanda","time":4,"station_id":"JUA","distance":2015,"is_transit":false,"transit":false,"i_long":106.828284,"line":2},{"station_name":"Sawah Besar","station_id":"SW","i_long":106.827103,"transit":false,"line":2,"i_lat":-6.160725,"distance":1149,"time":2,"is_transit":false},{"station_id":"MGB","i_long":106.82482,"line":2,"is_transit":false,"i_lat":-6.149769,"station_name":"Manggabesar","transit":false,"distance":906,"time":2},{"i_long":106.820901,"station_id":"JAY","station_name":"Jayakarta","line":2,"distance":1080,"time":2,"transit":false,"i_lat":-6.141205,"is_transit":false},{"distance":1264,"station_name":"Jakarta Kota","i_lat":-6.137569,"station_id":"JAKK","i_long":106.812439,"is_transit":true,"time":4,"transit":true,"line":2},{"distance":1364,"station_id":"KPB","time":3,"i_lat":-6.132549,"i_long":106.826365,"line":4,"is_transit":true,"station_name":"Kampung Bandan","transit":true},{"time":9,"distance":4102,"transit":false,"station_id":"AK","is_transit":false,"i_lat":-6.144674,"i_long":106.79867,"station_name":"Angke","line":1},{"station_id":"DU","distance":1230,"i_lat":-6.155215,"line":1,"time":4,"i_long":106.800832,"station_name":"Duri","transit":false,"is_transit":false},{"station_name":"Tanah Abang","station_id":"THB","time":8,"transit":false,"i_lat":-6.185545,"i_long":106.811091,"line":1,"distance":3632,"is_transit":false},{"transit":false,"station_id":"KAT","time":5,"line":1,"distance":2029,"i_lat":-6.20132,"station_name":"Karet","is_transit":false,"i_long":106.816351},{"station_id":"SUDB","is_transit":false,"distance":471,"i_long":106.819881,"time":1,"line":1,"station_name":"Sudirman Baru","i_lat":-6.201433,"transit":false},{"i_long":106.822649,"time":1,"transit":false,"distance":280,"line":1,"i_lat":-6.202263,"station_name":"Sudirman","station_id":"SUD","is_transit":false}],[{"is_transit":false,"distance":0,"station_name":"Pondok Rajeg","i_long":106.824374,"time":0,"transit":false,"i_lat":-6.460735,"line":21,"station_id":"PDRG"},{"line":2,"station_id":"CTA","distance":0,"transit":true,"is_transit":true,"station_name":"Citayam","i_lat":-6.448811,"i_long":106.800298,"time":0},{"station_name":"Depok","i_lat":-6.405256,"station_id":"DP","line":2,"time":6,"distance":5084,"transit":false,"i_long":106.816926,"is_transit":false},{"station_id":"DPB","i_lat":-6.391065,"time":3,"i_long":106.819451,"is_transit":false,"station_name":"Depokbaru","distance":1584,"line":2,"transit":false},{"time":4,"transit":false,"station_name":"Pondok Cina","line":2,"is_transit":false,"distance":2727,"i_lat":-6.369073,"station_id":"POC","i_long":106.831114},{"i_lat":-6.360749,"time":2,"is_transit":false,"line":2,"i_long":106.831474,"station_id":"UI","transit":false,"distance":1109,"station_name":"Univ. Indonesia"},{"station_id":"UP","i_lat":-6.339291,"line":2,"i_long":106.834175,"is_transit":false,"distance":2264,"station_name":"Univ. Pancasila","time":3,"transit":false},{"is_transit":false,"distance":1029,"station_id":"LNA","i_long":106.832616,"time":2,"line":2,"transit":false,"i_lat":-6.330363,"station_name":"Lenteng Agung"},{"time":3,"is_transit":false,"distance":2671,"i_long":106.838896,"line":2,"station_id":"TNT","station_name":"Tanjung Barat","transit":false,"i_lat":-6.3080680000000005},{"i_long":106.843999,"time":4,"distance":2820,"transit":false,"i_lat":-6.2842400000000005,"station_id":"PSM","is_transit":false,"station_name":"Pasar Minggu","line":2},{"transit":false,"time":2,"distance":2380,"line":2,"station_name":"Pasar Minggu Baru","is_transit":false,"i_lat":-6.263214,"station_id":"PSMB","i_long":106.851577},{"station_name":"Duren Kalibata","is_transit":false,"i_lat":-6.255332,"time":2,"distance":824,"transit":false,"station_id":"DRN","i_long":106.85449,"line":2},{"line":2,"transit":false,"time":3,"i_lat":-6.242512,"distance":1546,"i_long":106.856607,"is_transit":false,"station_name":"Cawang","station_id":"CW"},{"i_lat":-6.226659,"line":2,"station_name":"Tebet","distance":1230,"time":2,"is_transit":false,"transit":false,"i_long":106.857948,"station_id":"TEB"},{"i_lat":-6.209883,"i_long":106.84912,"line":2,"time":4,"transit":true,"station_id":"MRI","station_name":"Manggarai","distance":2610,"is_transit":true},{"time":2,"distance":1275,"is_transit":false,"i_long":106.858896,"station_id":"MTR","station_name":"Matraman","i_lat":-6.212485,"line":1,"transit":false},{"is_transit":true,"i_lat":-6.215091,"line":1,"time":8,"station_id":"JNG","transit":true,"i_long":106.86807400000001,"station_name":"Jatinegara","distance":1377},{"time":2,"i_long":106.861737,"is_transit":false,"i_lat":-6.209188,"station_id":"POK","line":11,"distance":1236,"transit":false,"station_name":"Pondok Jati"},{"transit":false,"i_lat":-6.193792,"station_name":"Kramat","line":11,"station_id":"KMT","is_transit":false,"distance":1829,"time":2,"i_long":106.855437},{"is_transit":false,"i_long":106.850107,"distance":973,"station_name":"Gang Sentiong","line":11,"transit":false,"station_id":"GST","time":1,"i_lat":-6.185975},{"station_id":"PSE","time":8,"is_transit":false,"station_name":"Pasar Senen","transit":false,"i_lat":-6.174784,"distance":1567,"i_long":106.84368,"line":11},{"line":11,"transit":false,"time":4,"station_id":"KMO","station_name":"Kemayoran","is_transit":false,"i_long":106.839204,"i_lat":-6.161728,"distance":1436},{"station_id":"RJW","transit":false,"distance":1901,"i_lat":-6.14505,"i_long":106.836569,"is_transit":false,"line":11,"station_name":"Rajawali","time":5},{"time":3,"i_long":106.826365,"station_name":"Kampung Bandan","line":4,"is_transit":true,"transit":true,"distance":1444,"station_id":"KPB","i_lat":-6.132549},{"time":9,"i_long":106.79867,"station_id":"AK","station_name":"Angke","distance":4102,"is_transit":false,"line":1,"i_lat":-6.144674,"transit":false},{"is_transit":false,"line":1,"distance":1230,"i_long":106.800832,"station_id":"DU","transit":false,"time":4,"station_name":"Duri","i_lat":-6.155215},{"is_transit":false,"time":8,"i_long":106.811091,"station_id":"THB","line":1,"i_lat":-6.185545,"distance":3632,"transit":false,"station_name":"Tanah Abang"},{"is_transit":false,"distance":2029,"line":1,"station_id":"KAT","station_name":"Karet","i_long":106.816351,"transit":false,"time":5,"i_lat":-6.20132},{"time":1,"station_id":"SUDB","station_name":"Sudirman Baru","is_transit":false,"distance":471,"transit":false,"i_lat":-6.201433,"i_long":106.819881,"line":1},{"transit":false,"station_name":"Sudirman","time":1,"i_long":106.822649,"distance":280,"i_lat":-6.202263,"line":1,"station_id":"SUD","is_transit":false}]]}