{"data":[[{"distance":0,"station_name":"Pondok Rajeg","is_transit":false,"station_id":"PDRG","i_lat":-6.460735,"line":21,"transit":false,"time":0,"i_long":106.824374},{"station_name":"Citayam","station_id":"CTA","i_lat":-6.448811,"transit":true,"i_long":106.800298,"line":2,"time":0,"distance":0,"is_transit":true},{"station_id":"DP","line":2,"distance":5084,"i_lat":-6.405256,"station_name":"Depok","transit":false,"is_transit":false,"time":6,"i_long":106.816926},{"is_transit":false,"station_name":"Depokbaru","time":3,"i_lat":-6.391065,"station_id":"DPB","distance":1584,"transit":false,"line":2,"i_long":106.819451},{"line":2,"station_name":"Pondok Cina","station_id":"POC","i_lat":-6.369073,"i_long":106.831114,"transit":false,"distance":2727,"time":4,"is_transit":false},{"station_id":"UI","distance":1109,"i_long":106.831474,"transit":false,"station_name":"Univ. Indonesia","is_transit":false,"i_lat":-6.360749,"line":2,"time":2},{"i_long":106.834175,"distance":2264,"is_transit":false,"transit":false,"time":3,"station_name":"Univ. Pancasila","line":2,"station_id":"UP","i_lat":-6.339291},{"is_transit":false,"station_name":"Lenteng Agung","time":2,"station_id":"LNA","i_long":106.832616,"line":2,"i_lat":-6.330363,"distance":1029,"transit":false},{"time":3,"transit":false,"station_name":"Tanjung Barat","i_long":106.838896,"is_transit":false,"distance":2671,"line":2,"station_id":"TNT","i_lat":-6.3080680000000005},{"time":4,"transit":false,"station_name":"Pasar Minggu","station_id":"PSM","distance":2820,"i_lat":-6.2842400000000005,"is_transit":false,"i_long":106.843999,"line":2},{"transit":false,"station_name":"Pasar Minggu Baru","line":2,"is_transit":false,"i_long":106.851577,"station_id":"PSMB","i_lat":-6.263214,"time":2,"distance":2380},{"station_name":"Duren Kalibata","time":2,"i_lat":-6.255332,"is_transit":false,"transit":false,"distance":824,"station_id":"DRN","i_long":106.85449,"line":2},{"i_long":106.856607,"transit":false,"is_transit":false,"line":2,"station_id":"CW","station_name":"Cawang","time":3,"distance":1546,"i_lat":-6.242512},{"i_long":106.857948,"line":2,"distance":1230,"station_id":"TEB","is_transit":false,"i_lat":-6.226659,"time":2,"transit":false,"station_name":"Tebet"},{"transit":true,"is_transit":true,"i_lat":-6.209883,"station_id":"MRI","time":4,"distance":2610,"i_long":106.84912,"line":2,"station_name":"Manggarai"},{"distance":1275,"i_long":106.858896,"is_transit":false,"station_name":"Matraman","i_lat":-6.212485,"time":2,"line":1,"station_id":"MTR","transit":false},{"station_id":"JNG","is_transit":false,"i_long":106.86807400000001,"line":1,"transit":false,"station_name":"Jatinegara","time":8,"distance":1377,"i_lat":-6.215091}],[{"transit":false,"distance":0,"line":21,"i_lat":-6.460735,"time":0,"is_transit":false,"i_long":106.824374,"station_name":"Pondok Rajeg","station_id":"PDRG"},{"transit":true,"is_transit":true,"line":2,"station_name":"Citayam","distance":0,"i_lat":-6.448811,"station_id":"CTA","i_long":106.800298,"time":0},{"station_id":"DP","time":6,"is_transit":false,"station_name":"Depok","line":2,"distance":5084,"i_long":106.816926,"i_lat":-6.405256,"transit":false},{"i_long":106.819451,"i_lat":-6.391065,"distance":1584,"station_id":"DPB","transit":false,"station_name":"Depokbaru","time":3,"is_transit":false,"line":2},{"time":4,"distance":2727,"station_name":"Pondok Cina","i_lat":-6.369073,"line":2,"transit":false,"is_transit":false,"station_id":"POC","i_long":106.831114},{"station_name":"Univ. Indonesia","i_lat":-6.360749,"time":2,"transit":false,"line":2,"is_transit":false,"i_long":106.831474,"distance":1109,"station_id":"UI"},{"transit":false,"distance":2264,"i_lat":-6.339291,"is_transit":false,"i_long":106.834175,"time":3,"station_name":"Univ. Pancasila","line":2,"station_id":"UP"},{"i_long":106.832616,"station_id":"LNA","station_name":"Lenteng Agung","time":2,"transit":false,"line":2,"i_lat":-6.330363,"is_transit":false,"distance":1029},{"i_lat":-6.3080680000000005,"line":2,"time":3,"transit":false,"station_name":"Tanjung Barat","is_transit":false,"distance":2671,"station_id":"TNT","i_long":106.838896},{"station_id":"PSM","i_long":106.843999,"station_name":"Pasar Minggu","line":2,"time":4,"is_transit":false,"transit":false,"i_lat":-6.2842400000000005,"distance":2820},{"transit":false,"station_name":"Pasar Minggu Baru","time":2,"i_lat":-6.263214,"line":2,"distance":2380,"station_id":"PSMB","is_transit":false,"i_long":106.851577},{"is_transit":false,"station_name":"Duren Kalibata","time":2,"transit":false,"station_id":"DRN","distance":824,"i_lat":-6.255332,"i_long":106.85449,"line":2},{"line":2,"station_id":"CW","time":3,"i_lat":-6.242512,"transit":false,"i_long":106.856607,"station_name":"Cawang","is_transit":false,"distance":1546},{"transit":false,"time":2,"is_transit":false,"station_id":"TEB","station_name":"Tebet","i_lat":-6.226659,"distance":1230,"i_long":106.857948,"line":2},{"line":2,"time":4,"i_long":106.84912,"station_name":"Manggarai","station_id":"MRI","i_lat":-6.209883,"transit":true,"is_transit":true,"distance":2610},{"station_id":"SUD","i_lat":-6.202263,"station_name":"Sudirman","time":4,"transit":false,"line":1,"is_transit":false,"i_long":106.822649,"distance":3186},{"distance":280,"time":1,"is_transit":false,"i_lat":-6.201433,"station_name":"Sudirman Baru","i_long":106.819881,"line":1,"transit":false,"station_id":"SUDB"},{"distance":471,"transit":false,"is_transit":false,"i_lat":-6.20132,"station_id":"KAT","station_name":"Karet","line":1,"i_long":106.816351,"time":1},{"station_name":"Tanah Abang","i_long":106.811091,"transit":false,"station_id":"THB","i_lat":-6.185545,"line":1,"time":5,"is_transit":false,"distance":2029},{"transit":false,"distance":3632,"is_transit":false,"time":8,"line":1,"station_name":"Duri","i_long":106.800832,"i_lat":-6.155215,"station_id":"DU"},{"transit":false,"station_id":"AK","line":1,"is_transit":false,"i_lat":-6.144674,"i_long":106.79867,"time":4,"distance":1230,"station_name":"Angke"},{"i_long":106.826365,"station_id":"KPB","i_lat":-6.132549,"distance":4102,"station_name":"Kampung Bandan","transit":true,"time":9,"is_transit":true,"line":4},{"station_id":"RJW","distance":1444,"i_lat":-6.14505,"i_long":106.836569,"station_name":"Rajawali","is_transit":false,"time":3,"transit":false,"line":11},{"i_lat":-6.161728,"station_name":"Kemayoran","i_long":106.839204,"line":11,"transit":false,"time":5,"station_id":"KMO","is_transit":false,"distance":1901},{"transit":false,"distance":1436,"line":11,"station_id":"PSE","i_lat":-6.174784,"station_name":"Pasar Senen","i_long":106.84368,"time":4,"is_transit":false},{"station_id":"GST","i_lat":-6.185975,"time":8,"station_name":"Gang Sentiong","distance":1567,"transit":false,"i_long":106.850107,"is_transit":false,"line":11},{"i_long":106.855437,"i_lat":-6.193792,"station_id":"KMT","distance":973,"time":1,"transit":false,"is_transit":false,"line":11,"station_name":"Kramat"},{"line":11,"station_id":"POK","station_name":"Pondok Jati","is_transit":false,"i_lat":-6.209188,"distance":1829,"transit":false,"i_long":106.861737,"time":2},{"station_name":"Jatinegara","transit":false,"distance":1236,"is_transit":false,"time":9,"line":1,"station_id":"JNG","i_long":106.86807400000001,"i_lat":-6.215091}],[{"station_name":"Pondok Rajeg","i_lat":-6.460735,"time":0,"distance":0,"transit":false,"station_id":"PDRG","i_long":106.824374,"line":21,"is_transit":false},{"line":2,"i_lat":-6.448811,"transit":true,"time":0,"is_transit":true,"distance":0,"i_long":106.800298,"station_name":"Citayam","station_id":"CTA"},{"is_transit":false,"station_id":"DP","i_lat":-6.405256,"transit":false,"time":6,"i_long":106.816926,"line":2,"station_name":"Depok","distance":5084},{"i_long":106.819451,"line":2,"station_name":"Depokbaru","time":3,"transit":false,"i_lat":-6.391065,"station_id":"DPB","is_transit":false,"distance":1584},{"i_lat":-6.369073,"line":2,"time":4,"is_transit":false,"i_long":106.831114,"station_name":"Pondok Cina","transit":false,"station_id":"POC","distance":2727},{"station_id":"UI","i_lat":-6.360749,"transit":false,"i_long":106.831474,"is_transit":false,"line":2,"time":2,"distance":1109,"station_name":"Univ. Indonesia"},{"is_transit":false,"line":2,"time":3,"i_long":106.834175,"transit":false,"station_id":"UP","distance":2264,"i_lat":-6.339291,"station_name":"Univ. Pancasila"},{"transit":false,"i_long":106.832616,"time":2,"distance":1029,"station_name":"Lenteng Agung","is_transit":false,"i_lat":-6.330363,"line":2,"station_id":"LNA"},{"transit":false,"time":3,"station_id":"TNT","is_transit":false,"i_lat":-6.3080680000000005,"distance":2671,"i_long":106.838896,"station_name":"Tanjung Barat","line":2},{"time":4,"is_transit":false,"i_lat":-6.2842400000000005,"line":2,"station_id":"PSM","transit":false,"distance":2820,"i_long":106.843999,"station_name":"Pasar Minggu"},{"line":2,"transit":false,"station_name":"Pasar Minggu Baru","time":2,"i_long":106.851577,"station_id":"PSMB","distance":2380,"i_lat":-6.263214,"is_transit":false},{"station_name":"Duren Kalibata","distance":824,"transit":false,"is_transit":false,"i_lat":-6.255332,"i_long":106.85449,"station_id":"DRN","time":2,"line":2},{"transit":false,"station_name":"Cawang","time":3,"i_lat":-6.242512,"station_id":"CW","is_transit":false,"i_long":106.856607,"distance":1546,"line":2},{"distance":1230,"is_transit":false,"line":2,"time":2,"i_lat":-6.226659,"station_id":"TEB","station_name":"Tebet","i_long":106.857948,"transit":false},{"station_id":"MRI","line":2,"station_name":"Manggarai","time":4,"is_transit":false,"distance":2610,"transit":false,"i_lat":-6.209883,"i_long":106.84912},{"i_long":106.840169,"i_lat":-6.198556,"line":2,"time":4,"transit":false,"station_name":"Cikini","is_transit":false,"station_id":"CKI","distance":1590},{"time":3,"line":2,"i_long":106.832183,"is_transit":false,"transit":false,"station_id":"GDD","station_name":"Gondangdia","distance":1750,"i_lat":-6.186295},{"is_transit":false,"i_long":106.828284,"station_name":"Juanda","transit":false,"time":4,"station_id":"JUA","i_lat":-6.166716,"line":2,"distance":2015},{"i_long":106.827103,"time":2,"i_lat":-6.160725,"station_name":"Sawah Besar","station_id":"SW","is_transit":false,"line":2,"transit":false,"distance":1149},{"station_id":"MGB","time":2,"i_lat":-6.149769,"transit":false,"line":2,"distance":906,"i_long":106.82482,"station_name":"Manggabesar","is_transit":false},{"i_long":106.820901,"transit":false,"i_lat":-6.141205,"station_id":"JAY","is_transit":false,"station_name":"Jayakarta","distance":1080,"line":2,"time":2},{"line":2,"station_name":"Jakarta Kota","distance":1264,"transit":true,"time":4,"station_id":"JAKK","is_transit":true,"i_lat":-6.137569,"i_long":106.812439},{"i_long":106.826365,"line":4,"is_transit":true,"station_id":"KPB","distance":1364,"i_lat":-6.132549,"transit":true,"station_name":"Kampung Bandan","time":3},{"station_name":"Rajawali","i_long":106.836569,"transit":false,"is_transit":false,"line":11,"i_lat":-6.14505,"distance":1444,"station_id":"RJW","time":3},{"line":11,"time":5,"transit":false,"station_name":"Kemayoran","station_id":"KMO","is_transit":false,"i_lat":-6.161728,"i_long":106.839204,"distance":1901},{"station_name":"Pasar Senen","i_long":106.84368,"line":11,"transit":false,"station_id":"PSE","i_lat":-6.174784,"distance":1436,"is_transit":false,"time":4},{"transit":false,"i_lat":-6.185975,"time":8,"station_name":"Gang Sentiong","distance":1567,"line":11,"i_long":106.850107,"is_transit":false,"station_id":"GST"},{"i_long":106.855437,"station_id":"KMT","line":11,"i_lat":-6.193792,"station_name":"Kramat","is_transit":false,"transit":false,"time":1,"distance":973},{"distance":1829,"transit":false,"time":2,"station_id":"POK","station_name":"Pondok Jati","i_long":106.861737,"i_lat":-6.209188,"is_transit":false,"line":11},{"i_lat":-6.215091,"transit":false,"time":9,"station_name":"Jatinegara","distance":1236,"i_long":106.86807400000001,"line":1,"station_id":"JNG","is_transit":false}]]}