{"data":[[{"time":0,"station_id":"PDRG","i_long":106.824374,"is_transit":false,"line":21,"station_name":"Pondok Rajeg","i_lat":-6.460735,"transit":false,"distance":0},{"is_transit":true,"time":0,"station_name":"Citayam","station_id":"CTA","line":2,"i_lat":-6.448811,"transit":true,"distance":0,"i_long":106.800298},{"i_long":106.816926,"line":2,"i_lat":-6.405256,"station_name":"Depok","distance":5084,"is_transit":false,"station_id":"DP","transit":false,"time":6},{"i_long":106.819451,"distance":1584,"i_lat":-6.391065,"transit":false,"line":2,"time":3,"station_id":"DPB","station_name":"Depokbaru","is_transit":false},{"i_long":106.831114,"transit":false,"line":2,"station_name":"Pondok Cina","station_id":"POC","is_transit":false,"distance":2727,"time":4,"i_lat":-6.369073}]]}