{"data":[[{"time":0,"station_name":"Pondok Rajeg","line":21,"transit":false,"distance":0,"i_long":106.824374,"station_id":"PDRG","is_transit":false,"i_lat":-6.460735},{"line":2,"is_transit":true,"station_id":"CTA","station_name":"Citayam","transit":true,"time":0,"distance":0,"i_lat":-6.448811,"i_long":106.800298},{"transit":false,"time":6,"distance":5084,"is_transit":false,"station_id":"DP","i_long":106.816926,"line":2,"station_name":"Depok","i_lat":-6.405256},{"time":3,"i_lat":-6.391065,"line":2,"is_transit":false,"transit":false,"station_id":"DPB","station_name":"Depokbaru","distance":1584,"i_long":106.819451},{"station_name":"Pondok Cina","time":4,"distance":2727,"i_long":106.831114,"station_id":"POC","is_transit":false,"transit":false,"line":2,"i_lat":-6.369073},{"i_long":106.831474,"i_lat":-6.360749,"is_transit":false,"time":2,"station_id":"UI","station_name":"Univ. Indonesia","distance":1109,"line":2,"transit":false},{"transit":false,"distance":2264,"station_name":"Univ. Pancasila","station_id":"UP","i_long":106.834175,"line":2,"is_transit":false,"i_lat":-6.339291,"time":3},{"station_name":"Lenteng Agung","transit":false,"is_transit":false,"distance":1029,"time":2,"line":2,"station_id":"LNA","i_long":106.832616,"i_lat":-6.330363},{"station_name":"Tanjung Barat","i_lat":-6.3080680000000005,"transit":false,"time":3,"distance":2671,"station_id":"TNT","i_long":106.838896,"line":2,"is_transit":false},{"line":2,"i_lat":-6.2842400000000005,"transit":false,"is_transit":false,"time":4,"distance":2820,"i_long":106.843999,"station_name":"Pasar Minggu","station_id":"PSM"}]]}