{"data":[[{"distance":0,"i_long":106.824374,"station_name":"Pondok Rajeg","is_transit":false,"station_id":"PDRG","transit":false,"i_lat":-6.460735,"line":21,"time":0},{"time":0,"is_transit":true,"station_name":"Citayam","i_long":106.800298,"i_lat":-6.448811,"distance":0,"transit":true,"station_id":"CTA","line":2},{"distance":5084,"station_name":"Depok","i_lat":-6.405256,"is_transit":false,"line":2,"time":6,"station_id":"DP","i_long":106.816926,"transit":false},{"line":2,"station_name":"Depokbaru","distance":1584,"transit":false,"i_lat":-6.391065,"time":3,"station_id":"DPB","is_transit":false,"i_long":106.819451},{"time":4,"is_transit":false,"i_long":106.831114,"transit":false,"station_id":"POC","i_lat":-6.369073,"distance":2727,"line":2,"station_name":"Pondok Cina"},{"distance":1109,"time":2,"station_id":"UI","station_name":"Univ. Indonesia","i_long":106.831474,"transit":false,"line":2,"is_transit":false,"i_lat":-6.360749},{"distance":2264,"time":3,"station_name":"Univ. Pancasila","line":2,"i_long":106.834175,"i_lat":-6.339291,"transit":false,"is_transit":false,"station_id":"UP"},{"distance":1029,"transit":false,"station_name":"Lenteng Agung","i_lat":-6.330363,"is_transit":false,"line":2,"i_long":106.832616,"time":2,"station_id":"LNA"},{"i_long":106.838896,"transit":false,"line":2,"time":3,"is_transit":false,"station_name":"Tanjung Barat","i_lat":-6.3080680000000005,"station_id":"TNT","distance":2671},{"station_id":"PSM","transit":false,"is_transit":false,"line":2,"i_lat":-6.2842400000000005,"i_long":106.843999,"time":4,"distance":2820,"station_name":"Pasar Minggu"},{"station_id":"PSMB","distance":2380,"station_name":"Pasar Minggu Baru","time":2,"i_lat":-6.263214,"line":2,"transit":false,"i_long":106.851577,"is_transit":false},{"is_transit":false,"station_name":"Duren Kalibata","distance":824,"i_lat":-6.255332,"transit":false,"time":2,"i_long":106.85449,"line":2,"station_id":"DRN"},{"transit":false,"time":3,"station_name":"Cawang","line":2,"distance":1546,"station_id":"CW","i_long":106.856607,"is_transit":false,"i_lat":-6.242512},{"station_name":"Tebet","is_transit":false,"i_lat":-6.226659,"time":2,"distance":1230,"station_id":"TEB","line":2,"transit":false,"i_long":106.857948},{"is_transit":true,"i_long":106.84912,"time":4,"station_id":"MRI","line":2,"transit":true,"station_name":"Manggarai","distance":2610,"i_lat":-6.209883},{"station_id":"SUD","i_lat":-6.202263,"transit":false,"station_name":"Sudirman","distance":3186,"line":1,"i_long":106.822649,"time":4,"is_transit":false},{"is_transit":false,"i_long":106.819881,"line":1,"time":1,"station_id":"SUDB","transit":false,"station_name":"Sudirman Baru","i_lat":-6.201433,"distance":280},{"station_id":"KAT","time":1,"station_name":"Karet","line":1,"i_lat":-6.20132,"distance":471,"transit":false,"i_long":106.816351,"is_transit":false},{"distance":2029,"station_name":"Tanah Abang","i_lat":-6.185545,"line":1,"station_id":"THB","time":5,"i_long":106.811091,"transit":false,"is_transit":false},{"station_id":"DU","time":8,"transit":true,"i_long":106.800832,"i_lat":-6.155215,"line":1,"station_name":"Duri","is_transit":true,"distance":3632},{"is_transit":false,"station_name":"Grogol","line":5,"time":3,"i_lat":-6.162021,"transit":false,"station_id":"GGL","distance":1700,"i_long":106.788277},{"transit":false,"station_name":"Pesing","i_lat":-6.161433,"is_transit":false,"station_id":"PSG","time":2,"line":5,"i_long":106.771379,"distance":2036},{"line":5,"transit":false,"distance":1614,"is_transit":false,"i_lat":-6.1587309999999995,"i_long":106.756522,"time":2,"station_name":"Taman Kota","station_id":"TKO"},{"is_transit":false,"i_long":106.737035,"station_name":"Bojongindah","station_id":"BOI","i_lat":-6.159876,"line":5,"time":2,"distance":2334,"transit":false},{"distance":1152,"transit":false,"is_transit":false,"station_name":"Rawa Buaya","i_lat":-6.162758,"line":5,"i_long":106.723064,"station_id":"RW","time":4},{"station_id":"KDS","distance":2504,"station_name":"Kalideres","time":3,"i_long":106.701612,"line":5,"transit":false,"is_transit":false,"i_lat":-6.166068},{"is_transit":false,"i_lat":-6.169933,"line":5,"station_id":"PI","i_long":106.679458,"transit":false,"station_name":"Poris","time":3,"distance":2548},{"is_transit":false,"station_name":"Batuceper","time":3,"i_long":106.665036,"i_lat":-6.171811,"line":5,"transit":false,"station_id":"BPR","distance":1834},{"transit":false,"station_name":"Tanah Tinggi","i_lat":-6.17331,"line":5,"is_transit":false,"station_id":"TTI","time":3,"distance":2028,"i_long":106.64657}],[{"distance":0,"transit":false,"time":0,"i_long":106.824374,"is_transit":false,"line":21,"station_name":"Pondok Rajeg","i_lat":-6.460735,"station_id":"PDRG"},{"station_id":"CTA","line":2,"distance":0,"is_transit":true,"transit":true,"station_name":"Citayam","time":0,"i_lat":-6.448811,"i_long":106.800298},{"station_name":"Depok","is_transit":false,"i_lat":-6.405256,"i_long":106.816926,"transit":false,"station_id":"DP","line":2,"distance":5084,"time":6},{"transit":false,"station_id":"DPB","is_transit":false,"distance":1584,"i_lat":-6.391065,"line":2,"time":3,"station_name":"Depokbaru","i_long":106.819451},{"is_transit":false,"station_id":"POC","time":4,"station_name":"Pondok Cina","transit":false,"distance":2727,"i_lat":-6.369073,"i_long":106.831114,"line":2},{"i_long":106.831474,"transit":false,"distance":1109,"station_id":"UI","time":2,"station_name":"Univ. Indonesia","i_lat":-6.360749,"is_transit":false,"line":2},{"station_name":"Univ. Pancasila","i_long":106.834175,"line":2,"transit":false,"i_lat":-6.339291,"station_id":"UP","is_transit":false,"distance":2264,"time":3},{"i_long":106.832616,"is_transit":false,"transit":false,"station_name":"Lenteng Agung","time":2,"line":2,"station_id":"LNA","distance":1029,"i_lat":-6.330363},{"time":3,"i_lat":-6.3080680000000005,"is_transit":false,"distance":2671,"station_id":"TNT","i_long":106.838896,"station_name":"Tanjung Barat","line":2,"transit":false},{"line":2,"station_id":"PSM","station_name":"Pasar Minggu","time":4,"distance":2820,"i_lat":-6.2842400000000005,"is_transit":false,"transit":false,"i_long":106.843999},{"line":2,"station_name":"Pasar Minggu Baru","distance":2380,"i_lat":-6.263214,"time":2,"transit":false,"station_id":"PSMB","is_transit":false,"i_long":106.851577},{"station_name":"Duren Kalibata","is_transit":false,"time":2,"i_long":106.85449,"line":2,"distance":824,"transit":false,"i_lat":-6.255332,"station_id":"DRN"},{"i_lat":-6.242512,"line":2,"station_id":"CW","time":3,"distance":1546,"transit":false,"station_name":"Cawang","i_long":106.856607,"is_transit":false},{"transit":false,"i_lat":-6.226659,"i_long":106.857948,"station_id":"TEB","time":2,"distance":1230,"station_name":"Tebet","line":2,"is_transit":false},{"time":4,"line":2,"transit":false,"station_id":"MRI","i_lat":-6.209883,"station_name":"Manggarai","is_transit":false,"distance":2610,"i_long":106.84912},{"transit":false,"station_id":"CKI","is_transit":false,"time":4,"distance":1590,"station_name":"Cikini","i_lat":-6.198556,"i_long":106.840169,"line":2},{"distance":1750,"is_transit":false,"line":2,"i_lat":-6.186295,"i_long":106.832183,"station_id":"GDD","station_name":"Gondangdia","time":3,"transit":false},{"distance":2015,"station_id":"JUA","time":4,"line":2,"is_transit":false,"station_name":"Juanda","transit":false,"i_lat":-6.166716,"i_long":106.828284},{"i_lat":-6.160725,"time":2,"is_transit":false,"distance":1149,"line":2,"transit":false,"station_id":"SW","i_long":106.827103,"station_name":"Sawah Besar"},{"transit":false,"station_id":"MGB","distance":906,"line":2,"station_name":"Manggabesar","i_lat":-6.149769,"is_transit":false,"i_long":106.82482,"time":2},{"time":2,"i_lat":-6.141205,"distance":1080,"i_long":106.820901,"line":2,"is_transit":false,"transit":false,"station_name":"Jayakarta","station_id":"JAY"},{"time":4,"distance":1264,"station_name":"Jakarta Kota","i_lat":-6.137569,"line":2,"station_id":"JAKK","i_long":106.812439,"transit":true,"is_transit":true},{"i_long":106.826365,"station_id":"KPB","i_lat":-6.132549,"station_name":"Kampung Bandan","line":4,"time":3,"is_transit":true,"transit":true,"distance":1364},{"line":1,"i_lat":-6.144674,"is_transit":false,"time":9,"distance":4102,"transit":false,"i_long":106.79867,"station_name":"Angke","station_id":"AK"},{"distance":1230,"station_name":"Duri","station_id":"DU","is_transit":true,"i_lat":-6.155215,"i_long":106.800832,"transit":true,"time":4,"line":1},{"is_transit":false,"transit":false,"time":3,"distance":1700,"station_name":"Grogol","i_lat":-6.162021,"line":5,"i_long":106.788277,"station_id":"GGL"},{"is_transit":false,"i_lat":-6.161433,"time":2,"station_id":"PSG","distance":2036,"station_name":"Pesing","line":5,"transit":false,"i_long":106.771379},{"i_long":106.756522,"line":5,"is_transit":false,"distance":1614,"station_name":"Taman Kota","transit":false,"i_lat":-6.1587309999999995,"time":2,"station_id":"TKO"},{"station_name":"Bojongindah","station_id":"BOI","distance":2334,"i_lat":-6.159876,"is_transit":false,"time":2,"line":5,"transit":false,"i_long":106.737035},{"station_id":"RW","is_transit":false,"i_lat":-6.162758,"station_name":"Rawa Buaya","distance":1152,"i_long":106.723064,"line":5,"time":4,"transit":false},{"is_transit":false,"station_name":"Kalideres","i_lat":-6.166068,"transit":false,"distance":2504,"station_id":"KDS","time":3,"i_long":106.701612,"line":5},{"station_id":"PI","time":3,"i_long":106.679458,"transit":false,"is_transit":false,"distance":2548,"line":5,"station_name":"Poris","i_lat":-6.169933},{"distance":1834,"is_transit":false,"i_lat":-6.171811,"station_name":"Batuceper","i_long":106.665036,"transit":false,"time":3,"line":5,"station_id":"BPR"},{"transit":false,"time":3,"is_transit":false,"station_name":"Tanah Tinggi","distance":2028,"i_long":106.64657,"line":5,"i_lat":-6.17331,"station_id":"TTI"}],[{"time":0,"station_name":"Pondok Rajeg","is_transit":false,"i_long":106.824374,"i_lat":-6.460735,"distance":0,"line":21,"transit":false,"station_id":"PDRG"},{"station_id":"CTA","distance":0,"i_long":106.800298,"line":2,"is_transit":true,"time":0,"transit":true,"station_name":"Citayam","i_lat":-6.448811},{"station_name":"Depok","distance":5084,"is_transit":false,"i_lat":-6.405256,"i_long":106.816926,"line":2,"station_id":"DP","transit":false,"time":6},{"is_transit":false,"time":3,"station_name":"Depokbaru","i_long":106.819451,"line":2,"transit":false,"station_id":"DPB","distance":1584,"i_lat":-6.391065},{"i_lat":-6.369073,"station_name":"Pondok Cina","transit":false,"is_transit":false,"line":2,"time":4,"station_id":"POC","distance":2727,"i_long":106.831114},{"i_long":106.831474,"line":2,"station_name":"Univ. Indonesia","time":2,"is_transit":false,"station_id":"UI","transit":false,"i_lat":-6.360749,"distance":1109},{"transit":false,"is_transit":false,"station_id":"UP","distance":2264,"station_name":"Univ. Pancasila","i_lat":-6.339291,"time":3,"i_long":106.834175,"line":2},{"distance":1029,"i_long":106.832616,"transit":false,"time":2,"station_name":"Lenteng Agung","station_id":"LNA","i_lat":-6.330363,"line":2,"is_transit":false},{"line":2,"distance":2671,"is_transit":false,"time":3,"station_name":"Tanjung Barat","i_lat":-6.3080680000000005,"i_long":106.838896,"transit":false,"station_id":"TNT"},{"station_name":"Pasar Minggu","line":2,"time":4,"distance":2820,"transit":false,"is_transit":false,"i_lat":-6.2842400000000005,"i_long":106.843999,"station_id":"PSM"},{"i_lat":-6.263214,"transit":false,"station_name":"Pasar Minggu Baru","distance":2380,"is_transit":false,"time":2,"station_id":"PSMB","line":2,"i_long":106.851577},{"station_name":"Duren Kalibata","i_long":106.85449,"transit":false,"line":2,"i_lat":-6.255332,"time":2,"distance":824,"station_id":"DRN","is_transit":false},{"station_id":"CW","time":3,"transit":false,"distance":1546,"i_long":106.856607,"station_name":"Cawang","line":2,"i_lat":-6.242512,"is_transit":false},{"transit":false,"station_name":"Tebet","station_id":"TEB","is_transit":false,"time":2,"distance":1230,"i_long":106.857948,"i_lat":-6.226659,"line":2},{"distance":2610,"i_long":106.84912,"station_id":"MRI","time":4,"is_transit":true,"transit":true,"i_lat":-6.209883,"line":2,"station_name":"Manggarai"},{"distance":1275,"station_name":"Matraman","i_lat":-6.212485,"station_id":"MTR","i_long":106.858896,"line":1,"is_transit":false,"transit":false,"time":2},{"i_long":106.86807400000001,"distance":1377,"station_id":"JNG","time":8,"line":1,"transit":true,"is_transit":true,"i_lat":-6.215091,"station_name":"Jatinegara"},{"is_transit":false,"time":2,"station_id":"POK","i_lat":-6.209188,"station_name":"Pondok Jati","i_long":106.861737,"distance":1236,"line":11,"transit":false},{"transit":false,"distance":1829,"i_lat":-6.193792,"time":2,"i_long":106.855437,"is_transit":false,"station_name":"Kramat","station_id":"KMT","line":11},{"distance":973,"station_id":"GST","i_long":106.850107,"station_name":"Gang Sentiong","i_lat":-6.185975,"is_transit":false,"time":1,"line":11,"transit":false},{"transit":false,"i_lat":-6.174784,"time":8,"line":11,"distance":1567,"station_name":"Pasar Senen","i_long":106.84368,"station_id":"PSE","is_transit":false},{"transit":false,"distance":1436,"time":4,"i_lat":-6.161728,"station_name":"Kemayoran","line":11,"is_transit":false,"i_long":106.839204,"station_id":"KMO"},{"i_long":106.836569,"is_transit":false,"time":5,"station_name":"Rajawali","line":11,"transit":false,"station_id":"RJW","i_lat":-6.14505,"distance":1901},{"line":4,"transit":true,"time":3,"station_name":"Kampung Bandan","is_transit":true,"station_id":"KPB","distance":1444,"i_long":106.826365,"i_lat":-6.132549},{"time":9,"station_id":"AK","distance":4102,"station_name":"Angke","i_long":106.79867,"is_transit":false,"line":1,"transit":false,"i_lat":-6.144674},{"station_id":"DU","transit":true,"time":4,"is_transit":true,"i_lat":-6.155215,"station_name":"Duri","line":1,"i_long":106.800832,"distance":1230},{"is_transit":false,"transit":false,"station_name":"Grogol","i_long":106.788277,"i_lat":-6.162021,"station_id":"GGL","distance":1700,"time":3,"line":5},{"transit":false,"is_transit":false,"time":2,"station_name":"Pesing","i_long":106.771379,"line":5,"i_lat":-6.161433,"station_id":"PSG","distance":2036},{"distance":1614,"line":5,"is_transit":false,"i_lat":-6.1587309999999995,"transit":false,"station_id":"TKO","i_long":106.756522,"station_name":"Taman Kota","time":2},{"station_id":"BOI","is_transit":false,"time":2,"i_lat":-6.159876,"line":5,"distance":2334,"i_long":106.737035,"station_name":"Bojongindah","transit":false},{"distance":1152,"is_transit":false,"station_id":"RW","i_lat":-6.162758,"transit":false,"time":4,"line":5,"station_name":"Rawa Buaya","i_long":106.723064},{"line":5,"time":3,"i_long":106.701612,"station_id":"KDS","is_transit":false,"station_name":"Kalideres","transit":false,"distance":2504,"i_lat":-6.166068},{"distance":2548,"station_id":"PI","line":5,"station_name":"Poris","i_long":106.679458,"transit":false,"i_lat":-6.169933,"is_transit":false,"time":3},{"i_lat":-6.171811,"distance":1834,"i_long":106.665036,"station_name":"Batuceper","transit":false,"station_id":"BPR","is_transit":false,"line":5,"time":3},{"time":3,"is_transit":false,"distance":2028,"line":5,"transit":false,"i_lat":-6.17331,"i_long":106.64657,"station_name":"Tanah Tinggi","station_id":"TTI"}]]}