{"data":[[{"transit":false,"station_id":"PDRG","is_transit":false,"i_long":106.824374,"i_lat":-6.460735,"time":0,"station_name":"Pondok Rajeg","line":21,"distance":0},{"distance":0,"is_transit":true,"i_lat":-6.448811,"i_long":106.800298,"station_id":"CTA","station_name":"Citayam","time":0,"transit":true,"line":2},{"station_name":"Depok","distance":5084,"line":2,"transit":false,"station_id":"DP","i_lat":-6.405256,"time":6,"is_transit":false,"i_long":106.816926},{"line":2,"i_long":106.819451,"transit":false,"is_transit":false,"time":3,"distance":1584,"station_id":"DPB","i_lat":-6.391065,"station_name":"Depokbaru"},{"is_transit":false,"time":4,"distance":2727,"line":2,"transit":false,"station_id":"POC","i_lat":-6.369073,"station_name":"Pondok Cina","i_long":106.831114},{"line":2,"is_transit":false,"station_id":"UI","time":2,"distance":1109,"i_long":106.831474,"station_name":"Univ. Indonesia","i_lat":-6.360749,"transit":false},{"line":2,"is_transit":false,"transit":false,"station_id":"UP","distance":2264,"i_lat":-6.339291,"time":3,"i_long":106.834175,"station_name":"Univ. Pancasila"},{"is_transit":false,"distance":1029,"i_lat":-6.330363,"station_id":"LNA","station_name":"Lenteng Agung","time":2,"i_long":106.832616,"line":2,"transit":false},{"station_name":"Tanjung Barat","transit":false,"line":2,"distance":2671,"i_lat":-6.3080680000000005,"time":3,"i_long":106.838896,"station_id":"TNT","is_transit":false},{"station_name":"Pasar Minggu","distance":2820,"i_lat":-6.2842400000000005,"i_long":106.843999,"station_id":"PSM","transit":false,"line":2,"is_transit":false,"time":4},{"distance":2380,"is_transit":false,"i_long":106.851577,"time":2,"transit":false,"station_id":"PSMB","i_lat":-6.263214,"station_name":"Pasar Minggu Baru","line":2},{"is_transit":false,"line":2,"station_id":"DRN","time":2,"station_name":"Duren Kalibata","distance":824,"transit":false,"i_long":106.85449,"i_lat":-6.255332},{"station_id":"CW","is_transit":false,"time":3,"distance":1546,"i_long":106.856607,"station_name":"Cawang","i_lat":-6.242512,"transit":false,"line":2},{"is_transit":false,"line":2,"distance":1230,"transit":false,"station_name":"Tebet","time":2,"i_lat":-6.226659,"station_id":"TEB","i_long":106.857948},{"is_transit":true,"station_id":"MRI","i_lat":-6.209883,"transit":true,"time":4,"line":2,"distance":2610,"i_long":106.84912,"station_name":"Manggarai"},{"station_id":"MTR","station_name":"Matraman","i_long":106.858896,"transit":false,"line":1,"i_lat":-6.212485,"is_transit":false,"time":2,"distance":1275}],[{"station_name":"Pondok Rajeg","distance":0,"is_transit":false,"time":0,"i_lat":-6.460735,"i_long":106.824374,"transit":false,"station_id":"PDRG","line":21},{"transit":true,"is_transit":true,"i_lat":-6.448811,"i_long":106.800298,"distance":0,"time":0,"line":2,"station_id":"CTA","station_name":"Citayam"},{"station_name":"Depok","station_id":"DP","time":6,"line":2,"distance":5084,"i_lat":-6.405256,"is_transit":false,"transit":false,"i_long":106.816926},{"line":2,"station_id":"DPB","station_name":"Depokbaru","distance":1584,"i_long":106.819451,"transit":false,"is_transit":false,"i_lat":-6.391065,"time":3},{"station_id":"POC","station_name":"Pondok Cina","is_transit":false,"i_lat":-6.369073,"i_long":106.831114,"time":4,"line":2,"distance":2727,"transit":false},{"station_name":"Univ. Indonesia","line":2,"time":2,"transit":false,"is_transit":false,"station_id":"UI","i_lat":-6.360749,"distance":1109,"i_long":106.831474},{"distance":2264,"i_long":106.834175,"i_lat":-6.339291,"station_id":"UP","time":3,"is_transit":false,"transit":false,"line":2,"station_name":"Univ. Pancasila"},{"transit":false,"time":2,"i_long":106.832616,"line":2,"station_id":"LNA","is_transit":false,"distance":1029,"station_name":"Lenteng Agung","i_lat":-6.330363},{"station_id":"TNT","transit":false,"station_name":"Tanjung Barat","i_lat":-6.3080680000000005,"is_transit":false,"distance":2671,"line":2,"i_long":106.838896,"time":3},{"line":2,"station_name":"Pasar Minggu","transit":false,"is_transit":false,"i_long":106.843999,"time":4,"station_id":"PSM","distance":2820,"i_lat":-6.2842400000000005},{"i_long":106.851577,"line":2,"station_name":"Pasar Minggu Baru","time":2,"station_id":"PSMB","i_lat":-6.263214,"distance":2380,"is_transit":false,"transit":false},{"station_name":"Duren Kalibata","time":2,"distance":824,"i_long":106.85449,"line":2,"transit":false,"station_id":"DRN","is_transit":false,"i_lat":-6.255332},{"time":3,"station_name":"Cawang","is_transit":false,"line":2,"transit":false,"distance":1546,"i_lat":-6.242512,"station_id":"CW","i_long":106.856607},{"station_id":"TEB","is_transit":false,"transit":false,"time":2,"line":2,"distance":1230,"i_long":106.857948,"station_name":"Tebet","i_lat":-6.226659},{"station_id":"MRI","i_lat":-6.209883,"line":2,"i_long":106.84912,"station_name":"Manggarai","distance":2610,"time":4,"is_transit":true,"transit":true},{"line":1,"is_transit":false,"time":4,"station_id":"SUD","transit":false,"distance":3186,"i_lat":-6.202263,"station_name":"Sudirman","i_long":106.822649},{"station_id":"SUDB","distance":280,"i_lat":-6.201433,"time":1,"i_long":106.819881,"is_transit":false,"station_name":"Sudirman Baru","line":1,"transit":false},{"station_name":"Karet","station_id":"KAT","transit":false,"is_transit":false,"distance":471,"line":1,"i_lat":-6.20132,"time":1,"i_long":106.816351},{"line":1,"distance":2029,"transit":false,"i_long":106.811091,"i_lat":-6.185545,"station_id":"THB","station_name":"Tanah Abang","is_transit":false,"time":5},{"i_long":106.800832,"line":1,"i_lat":-6.155215,"distance":3632,"transit":false,"station_name":"Duri","station_id":"DU","time":8,"is_transit":false},{"i_lat":-6.144674,"is_transit":false,"distance":1230,"line":1,"i_long":106.79867,"time":4,"transit":false,"station_name":"Angke","station_id":"AK"},{"station_id":"KPB","time":9,"is_transit":true,"i_long":106.826365,"station_name":"Kampung Bandan","distance":4102,"line":4,"transit":true,"i_lat":-6.132549},{"transit":false,"i_long":106.836569,"station_id":"RJW","station_name":"Rajawali","time":3,"distance":1444,"is_transit":false,"i_lat":-6.14505,"line":11},{"i_lat":-6.161728,"i_long":106.839204,"line":11,"is_transit":false,"station_name":"Kemayoran","transit":false,"station_id":"KMO","distance":1901,"time":5},{"i_lat":-6.174784,"time":4,"station_id":"PSE","is_transit":false,"i_long":106.84368,"transit":false,"line":11,"station_name":"Pasar Senen","distance":1436},{"i_long":106.850107,"line":11,"station_id":"GST","station_name":"Gang Sentiong","distance":1567,"transit":false,"time":8,"i_lat":-6.185975,"is_transit":false},{"is_transit":false,"line":11,"station_id":"KMT","time":1,"distance":973,"i_long":106.855437,"i_lat":-6.193792,"transit":false,"station_name":"Kramat"},{"station_id":"POK","transit":false,"time":2,"distance":1829,"is_transit":false,"i_lat":-6.209188,"i_long":106.861737,"line":11,"station_name":"Pondok Jati"},{"i_long":106.86807400000001,"line":1,"time":9,"station_id":"JNG","distance":1236,"transit":true,"i_lat":-6.215091,"is_transit":true,"station_name":"Jatinegara"},{"time":2,"station_name":"Matraman","i_long":106.858896,"is_transit":false,"distance":1377,"i_lat":-6.212485,"line":1,"station_id":"MTR","transit":false}],[{"is_transit":false,"i_lat":-6.460735,"i_long":106.824374,"line":21,"station_id":"PDRG","time":0,"distance":0,"transit":false,"station_name":"Pondok Rajeg"},{"station_name":"Citayam","station_id":"CTA","i_long":106.800298,"distance":0,"transit":true,"i_lat":-6.448811,"time":0,"is_transit":true,"line":2},{"i_lat":-6.405256,"distance":5084,"is_transit":false,"line":2,"station_name":"Depok","station_id":"DP","transit":false,"i_long":106.816926,"time":6},{"is_transit":false,"station_id":"DPB","time":3,"i_lat":-6.391065,"line":2,"distance":1584,"transit":false,"i_long":106.819451,"station_name":"Depokbaru"},{"station_id":"POC","line":2,"transit":false,"i_lat":-6.369073,"distance":2727,"station_name":"Pondok Cina","time":4,"is_transit":false,"i_long":106.831114},{"i_lat":-6.360749,"is_transit":false,"station_id":"UI","station_name":"Univ. Indonesia","distance":1109,"time":2,"transit":false,"line":2,"i_long":106.831474},{"i_long":106.834175,"distance":2264,"time":3,"station_name":"Univ. Pancasila","station_id":"UP","is_transit":false,"line":2,"i_lat":-6.339291,"transit":false},{"station_name":"Lenteng Agung","is_transit":false,"i_lat":-6.330363,"i_long":106.832616,"station_id":"LNA","transit":false,"time":2,"line":2,"distance":1029},{"i_long":106.838896,"is_transit":false,"transit":false,"time":3,"station_name":"Tanjung Barat","distance":2671,"i_lat":-6.3080680000000005,"station_id":"TNT","line":2},{"time":4,"transit":false,"i_long":106.843999,"is_transit":false,"station_name":"Pasar Minggu","station_id":"PSM","line":2,"distance":2820,"i_lat":-6.2842400000000005},{"i_lat":-6.263214,"is_transit":false,"station_name":"Pasar Minggu Baru","station_id":"PSMB","i_long":106.851577,"distance":2380,"line":2,"time":2,"transit":false},{"is_transit":false,"transit":false,"time":2,"station_name":"Duren Kalibata","station_id":"DRN","i_lat":-6.255332,"distance":824,"i_long":106.85449,"line":2},{"i_long":106.856607,"distance":1546,"i_lat":-6.242512,"station_name":"Cawang","time":3,"station_id":"CW","transit":false,"line":2,"is_transit":false},{"transit":false,"i_lat":-6.226659,"line":2,"i_long":106.857948,"is_transit":false,"station_id":"TEB","time":2,"distance":1230,"station_name":"Tebet"},{"distance":2610,"transit":false,"i_lat":-6.209883,"line":2,"station_id":"MRI","i_long":106.84912,"time":4,"is_transit":false,"station_name":"Manggarai"},{"transit":false,"distance":1590,"is_transit":false,"i_long":106.840169,"station_name":"Cikini","station_id":"CKI","line":2,"time":4,"i_lat":-6.198556},{"time":3,"distance":1750,"transit":false,"i_long":106.832183,"i_lat":-6.186295,"station_id":"GDD","line":2,"is_transit":false,"station_name":"Gondangdia"},{"station_name":"Juanda","time":4,"is_transit":false,"i_lat":-6.166716,"line":2,"station_id":"JUA","transit":false,"i_long":106.828284,"distance":2015},{"i_long":106.827103,"time":2,"transit":false,"i_lat":-6.160725,"distance":1149,"is_transit":false,"station_id":"SW","line":2,"station_name":"Sawah Besar"},{"time":2,"is_transit":false,"line":2,"distance":906,"i_long":106.82482,"station_id":"MGB","i_lat":-6.149769,"station_name":"Manggabesar","transit":false},{"station_name":"Jayakarta","time":2,"transit":false,"distance":1080,"is_transit":false,"i_lat":-6.141205,"line":2,"station_id":"JAY","i_long":106.820901},{"time":4,"i_lat":-6.137569,"line":2,"distance":1264,"station_id":"JAKK","station_name":"Jakarta Kota","is_transit":true,"i_long":106.812439,"transit":true},{"transit":true,"distance":1364,"time":3,"i_lat":-6.132549,"line":4,"station_name":"Kampung Bandan","station_id":"KPB","i_long":106.826365,"is_transit":true},{"distance":1444,"station_name":"Rajawali","transit":false,"i_lat":-6.14505,"i_long":106.836569,"line":11,"station_id":"RJW","time":3,"is_transit":false},{"line":11,"station_id":"KMO","transit":false,"i_lat":-6.161728,"is_transit":false,"station_name":"Kemayoran","distance":1901,"time":5,"i_long":106.839204},{"station_name":"Pasar Senen","i_lat":-6.174784,"station_id":"PSE","distance":1436,"time":4,"is_transit":false,"transit":false,"line":11,"i_long":106.84368},{"is_transit":false,"i_lat":-6.185975,"line":11,"distance":1567,"transit":false,"i_long":106.850107,"station_name":"Gang Sentiong","station_id":"GST","time":8},{"i_long":106.855437,"distance":973,"transit":false,"station_name":"Kramat","is_transit":false,"time":1,"i_lat":-6.193792,"station_id":"KMT","line":11},{"distance":1829,"is_transit":false,"transit":false,"station_id":"POK","i_lat":-6.209188,"line":11,"i_long":106.861737,"time":2,"station_name":"Pondok Jati"},{"station_name":"Jatinegara","i_lat":-6.215091,"station_id":"JNG","distance":1236,"time":9,"transit":true,"is_transit":true,"i_long":106.86807400000001,"line":1},{"time":2,"i_lat":-6.212485,"transit":false,"is_transit":false,"distance":1377,"station_id":"MTR","line":1,"i_long":106.858896,"station_name":"Matraman"}]]}