{"data":[[{"is_transit":false,"time":0,"station_name":"Pondok Rajeg","transit":false,"distance":0,"i_lat":-6.460735,"i_long":106.824374,"line":21,"station_id":"PDRG"},{"transit":true,"i_long":106.800298,"is_transit":true,"station_id":"CTA","distance":0,"i_lat":-6.448811,"line":2,"time":0,"station_name":"Citayam"},{"transit":false,"time":6,"i_lat":-6.405256,"is_transit":false,"i_long":106.816926,"line":2,"station_name":"Depok","station_id":"DP","distance":5084},{"time":3,"i_lat":-6.391065,"is_transit":false,"line":2,"station_id":"DPB","transit":false,"distance":1584,"station_name":"Depokbaru","i_long":106.819451},{"is_transit":false,"station_id":"POC","time":4,"distance":2727,"i_lat":-6.369073,"line":2,"transit":false,"i_long":106.831114,"station_name":"Pondok Cina"},{"i_long":106.831474,"distance":1109,"is_transit":false,"station_name":"Univ. Indonesia","transit":false,"i_lat":-6.360749,"time":2,"line":2,"station_id":"UI"},{"distance":2264,"station_id":"UP","i_lat":-6.339291,"transit":false,"is_transit":false,"i_long":106.834175,"line":2,"station_name":"Univ. Pancasila","time":3},{"time":2,"transit":false,"is_transit":false,"line":2,"i_long":106.832616,"distance":1029,"i_lat":-6.330363,"station_id":"LNA","station_name":"Lenteng Agung"},{"line":2,"is_transit":false,"station_id":"TNT","time":3,"i_long":106.838896,"station_name":"Tanjung Barat","i_lat":-6.3080680000000005,"distance":2671,"transit":false},{"station_id":"PSM","distance":2820,"transit":false,"i_lat":-6.2842400000000005,"line":2,"time":4,"station_name":"Pasar Minggu","is_transit":false,"i_long":106.843999},{"distance":2380,"i_long":106.851577,"line":2,"time":2,"is_transit":false,"i_lat":-6.263214,"station_id":"PSMB","station_name":"Pasar Minggu Baru","transit":false},{"time":2,"distance":824,"i_long":106.85449,"line":2,"is_transit":false,"station_id":"DRN","station_name":"Duren Kalibata","i_lat":-6.255332,"transit":false},{"time":3,"line":2,"transit":false,"distance":1546,"station_name":"Cawang","is_transit":false,"station_id":"CW","i_long":106.856607,"i_lat":-6.242512},{"i_long":106.857948,"station_name":"Tebet","station_id":"TEB","is_transit":false,"i_lat":-6.226659,"transit":false,"distance":1230,"line":2,"time":2},{"station_id":"MRI","distance":2610,"station_name":"Manggarai","is_transit":true,"i_lat":-6.209883,"i_long":106.84912,"transit":true,"line":2,"time":4},{"time":4,"i_long":106.822649,"line":1,"is_transit":false,"station_name":"Sudirman","distance":3186,"i_lat":-6.202263,"station_id":"SUD","transit":false},{"time":1,"i_long":106.819881,"transit":false,"line":1,"station_id":"SUDB","i_lat":-6.201433,"station_name":"Sudirman Baru","distance":280,"is_transit":false},{"i_long":106.816351,"station_id":"KAT","line":1,"i_lat":-6.20132,"station_name":"Karet","is_transit":false,"transit":false,"time":1,"distance":471},{"distance":2029,"transit":true,"time":5,"station_id":"THB","station_name":"Tanah Abang","i_long":106.811091,"i_lat":-6.185545,"is_transit":true,"line":1},{"i_lat":-6.207404,"transit":false,"time":6,"station_name":"Palmerah","distance":3191,"i_long":106.79689,"line":6,"station_id":"PLM","is_transit":false},{"transit":false,"time":7,"i_lat":-6.237242,"distance":3737,"is_transit":false,"station_name":"Kebayoran","station_id":"KBY","i_long":106.780334,"line":6},{"i_lat":-6.276362,"station_name":"Pondokranji","distance":6218,"is_transit":false,"station_id":"PDJ","time":8,"transit":false,"i_long":106.74273,"line":6},{"time":3,"i_long":106.728916,"i_lat":-6.288927,"station_name":"Jurangmangu","transit":false,"is_transit":false,"station_id":"JMU","line":6,"distance":2179},{"i_lat":-6.296963,"distance":1994,"station_id":"SDM","line":6,"time":4,"i_long":106.712277,"station_name":"Sudimara","transit":false,"is_transit":false},{"line":6,"time":6,"station_name":"Rawa Buntu","transit":false,"i_lat":-6.314823,"station_id":"RU","is_transit":false,"distance":4566,"i_long":106.675475},{"transit":false,"distance":2413,"station_id":"SRP","i_lat":-6.319871,"i_long":106.66566,"is_transit":false,"line":6,"station_name":"Serpong","time":4},{"distance":1784,"i_lat":-6.32484,"is_transit":false,"time":4,"i_long":106.640411,"station_id":"CSK","line":3,"station_name":"Cisauk","transit":false},{"station_id":"CC","i_lat":-6.329547,"i_long":106.617853,"station_name":"Cicayur","is_transit":false,"line":3,"time":4,"transit":false,"distance":2519},{"is_transit":false,"i_lat":-6.3441410000000005,"transit":false,"time":8,"distance":5968,"station_id":"PRP","station_name":"Parung Panjang","i_long":106.568863,"line":6},{"distance":7025,"i_lat":-6.354349,"is_transit":false,"transit":false,"i_long":106.508482,"station_name":"Cilejit","station_id":"CJT","time":9,"line":3},{"i_long":106.491338,"station_id":"DAR","i_lat":-6.338021,"time":6,"distance":2675,"line":0,"is_transit":false,"station_name":"Daru","transit":false},{"transit":false,"station_name":"Tenjo","distance":3902,"i_lat":-6.327251,"is_transit":false,"time":5,"station_id":"TEJ","i_long":106.460812,"line":6}],[{"time":0,"i_long":106.824374,"station_id":"PDRG","distance":0,"line":21,"i_lat":-6.460735,"station_name":"Pondok Rajeg","transit":false,"is_transit":false},{"transit":true,"i_lat":-6.448811,"distance":0,"i_long":106.800298,"time":0,"station_id":"CTA","is_transit":true,"line":2,"station_name":"Citayam"},{"i_long":106.816926,"transit":false,"station_name":"Depok","i_lat":-6.405256,"is_transit":false,"time":6,"line":2,"distance":5084,"station_id":"DP"},{"distance":1584,"i_long":106.819451,"station_id":"DPB","is_transit":false,"time":3,"i_lat":-6.391065,"station_name":"Depokbaru","line":2,"transit":false},{"i_lat":-6.369073,"i_long":106.831114,"transit":false,"time":4,"distance":2727,"is_transit":false,"station_id":"POC","line":2,"station_name":"Pondok Cina"},{"is_transit":false,"line":2,"time":2,"transit":false,"distance":1109,"station_id":"UI","i_lat":-6.360749,"station_name":"Univ. Indonesia","i_long":106.831474},{"distance":2264,"time":3,"is_transit":false,"station_name":"Univ. Pancasila","transit":false,"i_long":106.834175,"station_id":"UP","i_lat":-6.339291,"line":2},{"time":2,"transit":false,"line":2,"station_name":"Lenteng Agung","is_transit":false,"i_long":106.832616,"station_id":"LNA","distance":1029,"i_lat":-6.330363},{"time":3,"distance":2671,"i_long":106.838896,"station_name":"Tanjung Barat","transit":false,"line":2,"is_transit":false,"i_lat":-6.3080680000000005,"station_id":"TNT"},{"time":4,"distance":2820,"station_name":"Pasar Minggu","i_lat":-6.2842400000000005,"i_long":106.843999,"is_transit":false,"transit":false,"station_id":"PSM","line":2},{"time":2,"station_id":"PSMB","transit":false,"is_transit":false,"station_name":"Pasar Minggu Baru","line":2,"i_lat":-6.263214,"distance":2380,"i_long":106.851577},{"line":2,"i_lat":-6.255332,"time":2,"distance":824,"transit":false,"is_transit":false,"station_name":"Duren Kalibata","station_id":"DRN","i_long":106.85449},{"station_name":"Cawang","transit":false,"distance":1546,"station_id":"CW","line":2,"is_transit":false,"i_lat":-6.242512,"time":3,"i_long":106.856607},{"station_name":"Tebet","distance":1230,"transit":false,"station_id":"TEB","is_transit":false,"line":2,"time":2,"i_lat":-6.226659,"i_long":106.857948},{"station_id":"MRI","station_name":"Manggarai","time":4,"distance":2610,"i_long":106.84912,"line":2,"transit":false,"is_transit":false,"i_lat":-6.209883},{"station_id":"CKI","station_name":"Cikini","distance":1590,"transit":false,"i_long":106.840169,"i_lat":-6.198556,"time":4,"is_transit":false,"line":2},{"time":3,"distance":1750,"station_id":"GDD","i_long":106.832183,"i_lat":-6.186295,"transit":false,"line":2,"station_name":"Gondangdia","is_transit":false},{"station_name":"Juanda","i_long":106.828284,"line":2,"i_lat":-6.166716,"is_transit":false,"station_id":"JUA","time":4,"transit":false,"distance":2015},{"station_name":"Sawah Besar","line":2,"i_long":106.827103,"is_transit":false,"distance":1149,"station_id":"SW","time":2,"transit":false,"i_lat":-6.160725},{"is_transit":false,"station_id":"MGB","i_long":106.82482,"distance":906,"time":2,"station_name":"Manggabesar","i_lat":-6.149769,"transit":false,"line":2},{"transit":false,"distance":1080,"line":2,"i_long":106.820901,"time":2,"i_lat":-6.141205,"station_name":"Jayakarta","is_transit":false,"station_id":"JAY"},{"distance":1264,"station_id":"JAKK","is_transit":true,"line":2,"i_lat":-6.137569,"station_name":"Jakarta Kota","i_long":106.812439,"time":4,"transit":true},{"distance":1364,"i_lat":-6.132549,"i_long":106.826365,"time":3,"station_id":"KPB","line":4,"is_transit":true,"station_name":"Kampung Bandan","transit":true},{"i_long":106.79867,"line":1,"station_name":"Angke","station_id":"AK","distance":4102,"time":9,"is_transit":false,"i_lat":-6.144674,"transit":false},{"line":1,"is_transit":false,"i_lat":-6.155215,"transit":false,"station_id":"DU","station_name":"Duri","time":4,"i_long":106.800832,"distance":1230},{"is_transit":true,"station_id":"THB","i_lat":-6.185545,"distance":3632,"transit":true,"station_name":"Tanah Abang","time":8,"i_long":106.811091,"line":1},{"station_id":"PLM","time":6,"line":6,"i_long":106.79689,"i_lat":-6.207404,"is_transit":false,"station_name":"Palmerah","transit":false,"distance":3191},{"station_id":"KBY","station_name":"Kebayoran","i_lat":-6.237242,"time":7,"distance":3737,"line":6,"i_long":106.780334,"transit":false,"is_transit":false},{"time":8,"station_id":"PDJ","station_name":"Pondokranji","distance":6218,"i_lat":-6.276362,"i_long":106.74273,"transit":false,"line":6,"is_transit":false},{"line":6,"distance":2179,"station_id":"JMU","i_lat":-6.288927,"station_name":"Jurangmangu","time":3,"transit":false,"is_transit":false,"i_long":106.728916},{"transit":false,"station_name":"Sudimara","distance":1994,"station_id":"SDM","i_lat":-6.296963,"time":4,"i_long":106.712277,"is_transit":false,"line":6},{"station_name":"Rawa Buntu","line":6,"transit":false,"time":6,"i_long":106.675475,"is_transit":false,"distance":4566,"i_lat":-6.314823,"station_id":"RU"},{"line":6,"is_transit":false,"distance":2413,"time":4,"station_name":"Serpong","transit":false,"i_lat":-6.319871,"i_long":106.66566,"station_id":"SRP"},{"distance":1784,"is_transit":false,"transit":false,"i_lat":-6.32484,"station_id":"CSK","time":4,"i_long":106.640411,"line":3,"station_name":"Cisauk"},{"is_transit":false,"i_long":106.617853,"line":3,"i_lat":-6.329547,"distance":2519,"station_name":"Cicayur","station_id":"CC","time":4,"transit":false},{"line":6,"time":8,"station_name":"Parung Panjang","transit":false,"is_transit":false,"i_long":106.568863,"distance":5968,"station_id":"PRP","i_lat":-6.3441410000000005},{"station_id":"CJT","i_long":106.508482,"transit":false,"is_transit":false,"time":9,"distance":7025,"line":3,"station_name":"Cilejit","i_lat":-6.354349},{"station_id":"DAR","i_lat":-6.338021,"transit":false,"time":6,"is_transit":false,"line":0,"distance":2675,"i_long":106.491338,"station_name":"Daru"},{"i_lat":-6.327251,"station_id":"TEJ","distance":3902,"is_transit":false,"station_name":"Tenjo","i_long":106.460812,"time":5,"transit":false,"line":6}],[{"distance":0,"i_lat":-6.460735,"i_long":106.824374,"station_name":"Pondok Rajeg","transit":false,"line":21,"time":0,"is_transit":false,"station_id":"PDRG"},{"i_lat":-6.448811,"time":0,"station_id":"CTA","station_name":"Citayam","transit":true,"i_long":106.800298,"line":2,"is_transit":true,"distance":0},{"station_name":"Depok","station_id":"DP","transit":false,"time":6,"i_lat":-6.405256,"line":2,"is_transit":false,"distance":5084,"i_long":106.816926},{"time":3,"station_name":"Depokbaru","line":2,"station_id":"DPB","transit":false,"i_lat":-6.391065,"i_long":106.819451,"is_transit":false,"distance":1584},{"i_long":106.831114,"transit":false,"time":4,"is_transit":false,"distance":2727,"line":2,"station_id":"POC","station_name":"Pondok Cina","i_lat":-6.369073},{"distance":1109,"i_lat":-6.360749,"is_transit":false,"time":2,"station_id":"UI","station_name":"Univ. Indonesia","transit":false,"line":2,"i_long":106.831474},{"transit":false,"station_id":"UP","station_name":"Univ. Pancasila","is_transit":false,"time":3,"i_long":106.834175,"i_lat":-6.339291,"line":2,"distance":2264},{"distance":1029,"station_name":"Lenteng Agung","is_transit":false,"i_long":106.832616,"transit":false,"i_lat":-6.330363,"time":2,"line":2,"station_id":"LNA"},{"distance":2671,"time":3,"transit":false,"i_long":106.838896,"line":2,"station_id":"TNT","station_name":"Tanjung Barat","is_transit":false,"i_lat":-6.3080680000000005},{"distance":2820,"is_transit":false,"station_id":"PSM","i_lat":-6.2842400000000005,"station_name":"Pasar Minggu","transit":false,"line":2,"i_long":106.843999,"time":4},{"i_long":106.851577,"distance":2380,"station_id":"PSMB","time":2,"is_transit":false,"station_name":"Pasar Minggu Baru","transit":false,"i_lat":-6.263214,"line":2},{"station_name":"Duren Kalibata","line":2,"transit":false,"distance":824,"time":2,"is_transit":false,"station_id":"DRN","i_long":106.85449,"i_lat":-6.255332},{"distance":1546,"is_transit":false,"time":3,"transit":false,"i_lat":-6.242512,"i_long":106.856607,"line":2,"station_id":"CW","station_name":"Cawang"},{"i_lat":-6.226659,"i_long":106.857948,"is_transit":false,"distance":1230,"transit":false,"time":2,"station_id":"TEB","line":2,"station_name":"Tebet"},{"i_long":106.84912,"station_name":"Manggarai","time":4,"transit":true,"distance":2610,"line":2,"station_id":"MRI","is_transit":true,"i_lat":-6.209883},{"time":2,"station_id":"MTR","station_name":"Matraman","is_transit":false,"line":1,"transit":false,"distance":1275,"i_lat":-6.212485,"i_long":106.858896},{"distance":1377,"station_name":"Jatinegara","transit":true,"station_id":"JNG","is_transit":true,"line":1,"i_lat":-6.215091,"i_long":106.86807400000001,"time":8},{"station_name":"Pondok Jati","is_transit":false,"i_lat":-6.209188,"time":2,"distance":1236,"i_long":106.861737,"line":11,"transit":false,"station_id":"POK"},{"is_transit":false,"distance":1829,"station_id":"KMT","i_long":106.855437,"time":2,"i_lat":-6.193792,"station_name":"Kramat","line":11,"transit":false},{"is_transit":false,"station_name":"Gang Sentiong","i_lat":-6.185975,"transit":false,"distance":973,"station_id":"GST","i_long":106.850107,"time":1,"line":11},{"station_name":"Pasar Senen","is_transit":false,"station_id":"PSE","time":8,"i_lat":-6.174784,"line":11,"distance":1567,"transit":false,"i_long":106.84368},{"line":11,"is_transit":false,"transit":false,"i_long":106.839204,"time":4,"station_name":"Kemayoran","station_id":"KMO","i_lat":-6.161728,"distance":1436},{"transit":false,"station_name":"Rajawali","station_id":"RJW","i_lat":-6.14505,"line":11,"is_transit":false,"time":5,"distance":1901,"i_long":106.836569},{"transit":true,"i_long":106.826365,"station_id":"KPB","distance":1444,"time":3,"is_transit":true,"station_name":"Kampung Bandan","i_lat":-6.132549,"line":4},{"i_lat":-6.144674,"time":9,"i_long":106.79867,"station_name":"Angke","transit":false,"station_id":"AK","is_transit":false,"distance":4102,"line":1},{"distance":1230,"i_long":106.800832,"line":1,"i_lat":-6.155215,"station_name":"Duri","is_transit":false,"transit":false,"station_id":"DU","time":4},{"time":8,"station_name":"Tanah Abang","is_transit":true,"i_long":106.811091,"line":1,"distance":3632,"transit":true,"station_id":"THB","i_lat":-6.185545},{"time":6,"transit":false,"station_id":"PLM","i_lat":-6.207404,"is_transit":false,"distance":3191,"i_long":106.79689,"line":6,"station_name":"Palmerah"},{"is_transit":false,"station_id":"KBY","i_lat":-6.237242,"time":7,"i_long":106.780334,"transit":false,"distance":3737,"line":6,"station_name":"Kebayoran"},{"i_lat":-6.276362,"distance":6218,"time":8,"line":6,"is_transit":false,"station_name":"Pondokranji","station_id":"PDJ","transit":false,"i_long":106.74273},{"i_lat":-6.288927,"i_long":106.728916,"time":3,"line":6,"station_name":"Jurangmangu","is_transit":false,"transit":false,"distance":2179,"station_id":"JMU"},{"station_name":"Sudimara","transit":false,"distance":1994,"line":6,"station_id":"SDM","i_long":106.712277,"time":4,"is_transit":false,"i_lat":-6.296963},{"i_long":106.675475,"station_name":"Rawa Buntu","distance":4566,"transit":false,"is_transit":false,"station_id":"RU","i_lat":-6.314823,"line":6,"time":6},{"line":6,"time":4,"transit":false,"station_name":"Serpong","station_id":"SRP","i_long":106.66566,"distance":2413,"i_lat":-6.319871,"is_transit":false},{"distance":1784,"is_transit":false,"station_name":"Cisauk","station_id":"CSK","time":4,"line":3,"i_long":106.640411,"transit":false,"i_lat":-6.32484},{"transit":false,"i_lat":-6.329547,"i_long":106.617853,"line":3,"distance":2519,"station_name":"Cicayur","time":4,"station_id":"CC","is_transit":false},{"line":6,"transit":false,"is_transit":false,"i_lat":-6.3441410000000005,"station_name":"Parung Panjang","distance":5968,"i_long":106.568863,"time":8,"station_id":"PRP"},{"i_lat":-6.354349,"line":3,"station_name":"Cilejit","distance":7025,"station_id":"CJT","i_long":106.508482,"transit":false,"time":9,"is_transit":false},{"time":6,"distance":2675,"is_transit":false,"station_name":"Daru","i_lat":-6.338021,"i_long":106.491338,"line":0,"station_id":"DAR","transit":false},{"is_transit":false,"time":5,"i_lat":-6.327251,"transit":false,"station_name":"Tenjo","distance":3902,"i_long":106.460812,"line":6,"station_id":"TEJ"}]]}