{"data":[[{"i_long":106.824374,"station_name":"Pondok Rajeg","station_id":"PDRG","distance":0,"line":21,"time":0,"is_transit":false,"i_lat":-6.460735,"transit":false},{"line":2,"i_long":106.800298,"is_transit":true,"station_name":"Citayam","time":0,"transit":true,"i_lat":-6.448811,"distance":0,"station_id":"CTA"},{"i_long":106.816926,"distance":5084,"station_name":"Depok","line":2,"time":6,"is_transit":false,"station_id":"DP","transit":false,"i_lat":-6.405256},{"line":2,"is_transit":false,"station_id":"DPB","time":3,"station_name":"Depokbaru","i_lat":-6.391065,"transit":false,"i_long":106.819451,"distance":1584},{"i_long":106.831114,"transit":false,"is_transit":false,"line":2,"i_lat":-6.369073,"station_id":"POC","time":4,"station_name":"Pondok Cina","distance":2727},{"is_transit":false,"i_lat":-6.360749,"station_name":"Univ. Indonesia","time":2,"line":2,"distance":1109,"i_long":106.831474,"station_id":"UI","transit":false},{"i_lat":-6.339291,"station_id":"UP","distance":2264,"line":2,"is_transit":false,"transit":false,"time":3,"station_name":"Univ. Pancasila","i_long":106.834175},{"line":2,"i_long":106.832616,"is_transit":false,"transit":false,"station_id":"LNA","distance":1029,"i_lat":-6.330363,"station_name":"Lenteng Agung","time":2},{"line":2,"i_long":106.838896,"time":3,"transit":false,"station_name":"Tanjung Barat","station_id":"TNT","is_transit":false,"distance":2671,"i_lat":-6.3080680000000005},{"i_long":106.843999,"line":2,"distance":2820,"time":4,"transit":false,"is_transit":false,"i_lat":-6.2842400000000005,"station_id":"PSM","station_name":"Pasar Minggu"},{"time":2,"station_id":"PSMB","station_name":"Pasar Minggu Baru","i_lat":-6.263214,"is_transit":false,"distance":2380,"i_long":106.851577,"line":2,"transit":false},{"station_name":"Duren Kalibata","transit":false,"is_transit":false,"distance":824,"station_id":"DRN","time":2,"i_lat":-6.255332,"line":2,"i_long":106.85449},{"time":3,"station_name":"Cawang","transit":false,"i_long":106.856607,"line":2,"distance":1546,"i_lat":-6.242512,"is_transit":false,"station_id":"CW"},{"distance":1230,"i_lat":-6.226659,"transit":false,"station_name":"Tebet","line":2,"time":2,"is_transit":false,"i_long":106.857948,"station_id":"TEB"},{"time":4,"line":2,"i_lat":-6.209883,"station_name":"Manggarai","i_long":106.84912,"transit":true,"station_id":"MRI","is_transit":true,"distance":2610},{"time":4,"station_id":"SUD","i_lat":-6.202263,"distance":3186,"station_name":"Sudirman","transit":false,"i_long":106.822649,"line":1,"is_transit":false},{"station_id":"SUDB","i_lat":-6.201433,"time":1,"transit":false,"is_transit":false,"station_name":"Sudirman Baru","distance":280,"line":1,"i_long":106.819881},{"distance":471,"line":1,"is_transit":false,"station_name":"Karet","time":1,"transit":false,"i_lat":-6.20132,"i_long":106.816351,"station_id":"KAT"},{"station_name":"Tanah Abang","line":1,"transit":true,"is_transit":true,"i_lat":-6.185545,"i_long":106.811091,"station_id":"THB","time":5,"distance":2029},{"time":6,"line":6,"transit":false,"distance":3191,"i_lat":-6.207404,"is_transit":false,"station_name":"Palmerah","i_long":106.79689,"station_id":"PLM"},{"is_transit":false,"line":6,"i_lat":-6.237242,"i_long":106.780334,"time":7,"station_id":"KBY","distance":3737,"transit":false,"station_name":"Kebayoran"},{"transit":false,"time":8,"line":6,"is_transit":false,"station_id":"PDJ","i_long":106.74273,"station_name":"Pondokranji","distance":6218,"i_lat":-6.276362},{"i_long":106.728916,"transit":false,"station_name":"Jurangmangu","time":3,"distance":2179,"line":6,"i_lat":-6.288927,"station_id":"JMU","is_transit":false},{"transit":false,"distance":1994,"line":6,"station_name":"Sudimara","station_id":"SDM","is_transit":false,"i_lat":-6.296963,"time":4,"i_long":106.712277},{"line":6,"transit":false,"i_lat":-6.314823,"station_name":"Rawa Buntu","distance":4566,"is_transit":false,"station_id":"RU","time":6,"i_long":106.675475},{"i_lat":-6.319871,"i_long":106.66566,"time":4,"line":6,"transit":false,"station_name":"Serpong","distance":2413,"station_id":"SRP","is_transit":false},{"i_long":106.640411,"distance":1784,"station_id":"CSK","station_name":"Cisauk","transit":false,"time":4,"is_transit":false,"i_lat":-6.32484,"line":3},{"is_transit":false,"i_lat":-6.329547,"distance":2519,"time":4,"transit":false,"line":3,"station_id":"CC","i_long":106.617853,"station_name":"Cicayur"},{"station_name":"Parung Panjang","time":8,"line":6,"station_id":"PRP","distance":5968,"is_transit":false,"i_lat":-6.3441410000000005,"transit":false,"i_long":106.568863},{"distance":7025,"time":9,"line":3,"i_long":106.508482,"transit":false,"station_name":"Cilejit","is_transit":false,"i_lat":-6.354349,"station_id":"CJT"},{"time":6,"line":0,"i_lat":-6.338021,"i_long":106.491338,"distance":2675,"station_name":"Daru","transit":false,"station_id":"DAR","is_transit":false},{"distance":3902,"time":5,"i_lat":-6.327251,"line":6,"transit":false,"station_id":"TEJ","i_long":106.460812,"station_name":"Tenjo","is_transit":false}],[{"station_id":"PDRG","distance":0,"i_lat":-6.460735,"line":21,"station_name":"Pondok Rajeg","transit":false,"is_transit":false,"i_long":106.824374,"time":0},{"station_id":"CTA","is_transit":true,"time":0,"transit":true,"i_long":106.800298,"line":2,"station_name":"Citayam","distance":0,"i_lat":-6.448811},{"i_lat":-6.405256,"time":6,"distance":5084,"i_long":106.816926,"transit":false,"station_name":"Depok","station_id":"DP","is_transit":false,"line":2},{"i_long":106.819451,"line":2,"station_name":"Depokbaru","transit":false,"time":3,"station_id":"DPB","is_transit":false,"i_lat":-6.391065,"distance":1584},{"transit":false,"line":2,"station_name":"Pondok Cina","distance":2727,"is_transit":false,"i_long":106.831114,"station_id":"POC","time":4,"i_lat":-6.369073},{"time":2,"distance":1109,"station_name":"Univ. Indonesia","i_lat":-6.360749,"transit":false,"is_transit":false,"i_long":106.831474,"station_id":"UI","line":2},{"time":3,"station_id":"UP","i_lat":-6.339291,"line":2,"transit":false,"station_name":"Univ. Pancasila","distance":2264,"i_long":106.834175,"is_transit":false},{"station_name":"Lenteng Agung","line":2,"time":2,"i_lat":-6.330363,"distance":1029,"station_id":"LNA","is_transit":false,"i_long":106.832616,"transit":false},{"i_lat":-6.3080680000000005,"station_id":"TNT","station_name":"Tanjung Barat","i_long":106.838896,"is_transit":false,"distance":2671,"line":2,"transit":false,"time":3},{"station_name":"Pasar Minggu","i_lat":-6.2842400000000005,"station_id":"PSM","distance":2820,"transit":false,"time":4,"line":2,"i_long":106.843999,"is_transit":false},{"is_transit":false,"transit":false,"station_name":"Pasar Minggu Baru","station_id":"PSMB","distance":2380,"i_lat":-6.263214,"line":2,"i_long":106.851577,"time":2},{"time":2,"station_id":"DRN","transit":false,"line":2,"i_long":106.85449,"is_transit":false,"distance":824,"i_lat":-6.255332,"station_name":"Duren Kalibata"},{"time":3,"is_transit":false,"line":2,"i_long":106.856607,"station_id":"CW","i_lat":-6.242512,"station_name":"Cawang","distance":1546,"transit":false},{"time":2,"i_lat":-6.226659,"distance":1230,"i_long":106.857948,"station_name":"Tebet","line":2,"station_id":"TEB","is_transit":false,"transit":false},{"is_transit":false,"station_id":"MRI","station_name":"Manggarai","i_lat":-6.209883,"time":4,"line":2,"transit":false,"i_long":106.84912,"distance":2610},{"time":4,"is_transit":false,"transit":false,"i_lat":-6.198556,"distance":1590,"station_id":"CKI","i_long":106.840169,"line":2,"station_name":"Cikini"},{"station_name":"Gondangdia","station_id":"GDD","time":3,"transit":false,"line":2,"is_transit":false,"i_lat":-6.186295,"i_long":106.832183,"distance":1750},{"station_id":"JUA","i_lat":-6.166716,"distance":2015,"time":4,"line":2,"transit":false,"is_transit":false,"station_name":"Juanda","i_long":106.828284},{"station_id":"SW","i_long":106.827103,"station_name":"Sawah Besar","i_lat":-6.160725,"distance":1149,"transit":false,"time":2,"line":2,"is_transit":false},{"i_lat":-6.149769,"station_id":"MGB","transit":false,"line":2,"station_name":"Manggabesar","time":2,"distance":906,"i_long":106.82482,"is_transit":false},{"is_transit":false,"time":2,"i_lat":-6.141205,"distance":1080,"transit":false,"i_long":106.820901,"line":2,"station_name":"Jayakarta","station_id":"JAY"},{"is_transit":true,"transit":true,"time":4,"station_name":"Jakarta Kota","station_id":"JAKK","i_lat":-6.137569,"distance":1264,"i_long":106.812439,"line":2},{"i_long":106.826365,"distance":1364,"station_id":"KPB","transit":true,"is_transit":true,"station_name":"Kampung Bandan","time":3,"line":4,"i_lat":-6.132549},{"transit":false,"time":9,"station_name":"Angke","station_id":"AK","distance":4102,"i_lat":-6.144674,"i_long":106.79867,"line":1,"is_transit":false},{"station_id":"DU","i_lat":-6.155215,"transit":false,"station_name":"Duri","is_transit":false,"i_long":106.800832,"time":4,"distance":1230,"line":1},{"station_name":"Tanah Abang","is_transit":true,"i_lat":-6.185545,"distance":3632,"i_long":106.811091,"station_id":"THB","transit":true,"line":1,"time":8},{"is_transit":false,"distance":3191,"station_id":"PLM","transit":false,"i_lat":-6.207404,"station_name":"Palmerah","i_long":106.79689,"line":6,"time":6},{"time":7,"is_transit":false,"distance":3737,"transit":false,"station_id":"KBY","i_lat":-6.237242,"station_name":"Kebayoran","i_long":106.780334,"line":6},{"time":8,"station_name":"Pondokranji","station_id":"PDJ","is_transit":false,"i_long":106.74273,"i_lat":-6.276362,"transit":false,"distance":6218,"line":6},{"station_id":"JMU","time":3,"i_lat":-6.288927,"line":6,"station_name":"Jurangmangu","transit":false,"is_transit":false,"distance":2179,"i_long":106.728916},{"distance":1994,"i_lat":-6.296963,"transit":false,"time":4,"line":6,"station_id":"SDM","station_name":"Sudimara","is_transit":false,"i_long":106.712277},{"station_id":"RU","station_name":"Rawa Buntu","is_transit":false,"i_long":106.675475,"transit":false,"distance":4566,"time":6,"i_lat":-6.314823,"line":6},{"time":4,"distance":2413,"line":6,"i_lat":-6.319871,"station_name":"Serpong","station_id":"SRP","is_transit":false,"transit":false,"i_long":106.66566},{"i_lat":-6.32484,"line":3,"i_long":106.640411,"time":4,"station_name":"Cisauk","transit":false,"is_transit":false,"distance":1784,"station_id":"CSK"},{"distance":2519,"i_long":106.617853,"time":4,"i_lat":-6.329547,"is_transit":false,"station_id":"CC","transit":false,"line":3,"station_name":"Cicayur"},{"station_id":"PRP","i_long":106.568863,"line":6,"station_name":"Parung Panjang","is_transit":false,"transit":false,"time":8,"distance":5968,"i_lat":-6.3441410000000005},{"line":3,"transit":false,"distance":7025,"station_id":"CJT","station_name":"Cilejit","is_transit":false,"time":9,"i_long":106.508482,"i_lat":-6.354349},{"is_transit":false,"time":6,"station_name":"Daru","station_id":"DAR","line":0,"distance":2675,"transit":false,"i_lat":-6.338021,"i_long":106.491338},{"line":6,"station_id":"TEJ","time":5,"station_name":"Tenjo","transit":false,"is_transit":false,"distance":3902,"i_lat":-6.327251,"i_long":106.460812}],[{"line":21,"is_transit":false,"time":0,"i_long":106.824374,"station_id":"PDRG","transit":false,"distance":0,"i_lat":-6.460735,"station_name":"Pondok Rajeg"},{"line":2,"i_lat":-6.448811,"station_id":"CTA","is_transit":true,"distance":0,"time":0,"station_name":"Citayam","i_long":106.800298,"transit":true},{"transit":false,"time":6,"i_lat":-6.405256,"i_long":106.816926,"station_id":"DP","station_name":"Depok","is_transit":false,"line":2,"distance":5084},{"station_name":"Depokbaru","i_long":106.819451,"i_lat":-6.391065,"station_id":"DPB","time":3,"line":2,"is_transit":false,"transit":false,"distance":1584},{"line":2,"i_long":106.831114,"is_transit":false,"transit":false,"station_name":"Pondok Cina","time":4,"distance":2727,"station_id":"POC","i_lat":-6.369073},{"i_lat":-6.360749,"station_name":"Univ. Indonesia","line":2,"station_id":"UI","is_transit":false,"distance":1109,"i_long":106.831474,"time":2,"transit":false},{"is_transit":false,"transit":false,"line":2,"i_long":106.834175,"time":3,"i_lat":-6.339291,"station_name":"Univ. Pancasila","distance":2264,"station_id":"UP"},{"is_transit":false,"transit":false,"i_long":106.832616,"station_id":"LNA","distance":1029,"line":2,"i_lat":-6.330363,"station_name":"Lenteng Agung","time":2},{"station_id":"TNT","line":2,"distance":2671,"i_lat":-6.3080680000000005,"is_transit":false,"time":3,"i_long":106.838896,"station_name":"Tanjung Barat","transit":false},{"station_id":"PSM","is_transit":false,"i_lat":-6.2842400000000005,"transit":false,"station_name":"Pasar Minggu","distance":2820,"i_long":106.843999,"time":4,"line":2},{"is_transit":false,"station_id":"PSMB","i_long":106.851577,"time":2,"transit":false,"distance":2380,"i_lat":-6.263214,"station_name":"Pasar Minggu Baru","line":2},{"i_long":106.85449,"station_name":"Duren Kalibata","distance":824,"line":2,"transit":false,"is_transit":false,"time":2,"i_lat":-6.255332,"station_id":"DRN"},{"transit":false,"station_id":"CW","i_long":106.856607,"i_lat":-6.242512,"station_name":"Cawang","time":3,"line":2,"distance":1546,"is_transit":false},{"distance":1230,"time":2,"i_lat":-6.226659,"i_long":106.857948,"station_id":"TEB","transit":false,"is_transit":false,"line":2,"station_name":"Tebet"},{"station_name":"Manggarai","transit":true,"time":4,"i_lat":-6.209883,"i_long":106.84912,"line":2,"distance":2610,"is_transit":true,"station_id":"MRI"},{"line":1,"station_name":"Matraman","station_id":"MTR","is_transit":false,"time":2,"transit":false,"distance":1275,"i_lat":-6.212485,"i_long":106.858896},{"line":1,"station_name":"Jatinegara","station_id":"JNG","is_transit":true,"transit":true,"distance":1377,"time":8,"i_lat":-6.215091,"i_long":106.86807400000001},{"is_transit":false,"distance":1236,"station_id":"POK","i_lat":-6.209188,"transit":false,"time":2,"i_long":106.861737,"line":11,"station_name":"Pondok Jati"},{"is_transit":false,"i_long":106.855437,"line":11,"i_lat":-6.193792,"transit":false,"station_name":"Kramat","distance":1829,"time":2,"station_id":"KMT"},{"station_id":"GST","line":11,"transit":false,"is_transit":false,"station_name":"Gang Sentiong","i_long":106.850107,"time":1,"i_lat":-6.185975,"distance":973},{"station_name":"Pasar Senen","time":8,"line":11,"i_long":106.84368,"transit":false,"is_transit":false,"distance":1567,"station_id":"PSE","i_lat":-6.174784},{"time":4,"i_lat":-6.161728,"station_id":"KMO","transit":false,"i_long":106.839204,"station_name":"Kemayoran","distance":1436,"line":11,"is_transit":false},{"time":5,"station_id":"RJW","is_transit":false,"station_name":"Rajawali","line":11,"i_long":106.836569,"distance":1901,"i_lat":-6.14505,"transit":false},{"is_transit":true,"line":4,"transit":true,"station_name":"Kampung Bandan","station_id":"KPB","time":3,"i_lat":-6.132549,"i_long":106.826365,"distance":1444},{"i_long":106.79867,"station_id":"AK","distance":4102,"i_lat":-6.144674,"time":9,"station_name":"Angke","transit":false,"is_transit":false,"line":1},{"station_id":"DU","distance":1230,"i_long":106.800832,"line":1,"station_name":"Duri","is_transit":false,"i_lat":-6.155215,"time":4,"transit":false},{"transit":true,"i_long":106.811091,"i_lat":-6.185545,"distance":3632,"station_name":"Tanah Abang","station_id":"THB","line":1,"is_transit":true,"time":8},{"i_lat":-6.207404,"station_id":"PLM","station_name":"Palmerah","line":6,"is_transit":false,"transit":false,"distance":3191,"i_long":106.79689,"time":6},{"is_transit":false,"station_name":"Kebayoran","line":6,"i_long":106.780334,"transit":false,"time":7,"distance":3737,"station_id":"KBY","i_lat":-6.237242},{"i_lat":-6.276362,"line":6,"i_long":106.74273,"station_name":"Pondokranji","transit":false,"station_id":"PDJ","is_transit":false,"time":8,"distance":6218},{"transit":false,"station_name":"Jurangmangu","time":3,"distance":2179,"i_lat":-6.288927,"line":6,"station_id":"JMU","i_long":106.728916,"is_transit":false},{"distance":1994,"station_id":"SDM","transit":false,"i_long":106.712277,"line":6,"is_transit":false,"station_name":"Sudimara","time":4,"i_lat":-6.296963},{"station_id":"RU","i_long":106.675475,"time":6,"transit":false,"line":6,"is_transit":false,"distance":4566,"i_lat":-6.314823,"station_name":"Rawa Buntu"},{"station_id":"SRP","station_name":"Serpong","is_transit":false,"time":4,"i_lat":-6.319871,"line":6,"i_long":106.66566,"transit":false,"distance":2413},{"time":4,"line":3,"is_transit":false,"i_long":106.640411,"transit":false,"i_lat":-6.32484,"distance":1784,"station_name":"Cisauk","station_id":"CSK"},{"station_name":"Cicayur","station_id":"CC","time":4,"transit":false,"line":3,"distance":2519,"i_long":106.617853,"i_lat":-6.329547,"is_transit":false},{"transit":false,"i_lat":-6.3441410000000005,"is_transit":false,"i_long":106.568863,"line":6,"station_name":"Parung Panjang","station_id":"PRP","distance":5968,"time":8},{"distance":7025,"i_lat":-6.354349,"line":3,"time":9,"i_long":106.508482,"transit":false,"is_transit":false,"station_id":"CJT","station_name":"Cilejit"},{"is_transit":false,"time":6,"transit":false,"i_long":106.491338,"line":0,"station_id":"DAR","distance":2675,"i_lat":-6.338021,"station_name":"Daru"},{"line":6,"transit":false,"station_name":"Tenjo","is_transit":false,"distance":3902,"i_lat":-6.327251,"station_id":"TEJ","time":5,"i_long":106.460812}]]}