{"data":[[{"is_transit":false,"station_id":"PDRG","station_name":"Pondok Rajeg","i_lat":-6.460735,"distance":0,"i_long":106.824374,"line":21,"transit":false,"time":0},{"transit":true,"station_id":"CTA","distance":0,"is_transit":true,"station_name":"Citayam","i_lat":-6.448811,"time":0,"line":2,"i_long":106.800298},{"time":6,"station_id":"DP","is_transit":false,"i_lat":-6.405256,"line":2,"station_name":"Depok","transit":false,"i_long":106.816926,"distance":5084},{"station_id":"DPB","i_lat":-6.391065,"is_transit":false,"transit":false,"station_name":"Depokbaru","time":3,"distance":1584,"i_long":106.819451,"line":2},{"transit":false,"station_name":"Pondok Cina","is_transit":false,"time":4,"i_long":106.831114,"line":2,"distance":2727,"station_id":"POC","i_lat":-6.369073},{"i_lat":-6.360749,"transit":false,"time":2,"station_id":"UI","i_long":106.831474,"distance":1109,"line":2,"station_name":"Univ. Indonesia","is_transit":false},{"time":3,"i_lat":-6.339291,"station_name":"Univ. Pancasila","station_id":"UP","line":2,"i_long":106.834175,"is_transit":false,"distance":2264,"transit":false},{"station_name":"Lenteng Agung","i_long":106.832616,"is_transit":false,"station_id":"LNA","transit":false,"time":2,"distance":1029,"i_lat":-6.330363,"line":2},{"time":3,"line":2,"station_name":"Tanjung Barat","is_transit":false,"distance":2671,"i_lat":-6.3080680000000005,"i_long":106.838896,"station_id":"TNT","transit":false},{"station_name":"Pasar Minggu","line":2,"is_transit":false,"transit":false,"station_id":"PSM","time":4,"i_lat":-6.2842400000000005,"distance":2820,"i_long":106.843999},{"transit":false,"is_transit":false,"station_id":"PSMB","i_lat":-6.263214,"distance":2380,"station_name":"Pasar Minggu Baru","line":2,"time":2,"i_long":106.851577},{"time":2,"station_id":"DRN","is_transit":false,"i_lat":-6.255332,"station_name":"Duren Kalibata","distance":824,"line":2,"i_long":106.85449,"transit":false},{"i_lat":-6.242512,"distance":1546,"i_long":106.856607,"line":2,"transit":false,"station_id":"CW","station_name":"Cawang","is_transit":false,"time":3},{"distance":1230,"station_name":"Tebet","transit":false,"time":2,"i_lat":-6.226659,"i_long":106.857948,"is_transit":false,"line":2,"station_id":"TEB"},{"transit":true,"i_lat":-6.209883,"is_transit":true,"station_id":"MRI","station_name":"Manggarai","i_long":106.84912,"line":2,"distance":2610,"time":4},{"transit":false,"is_transit":false,"time":4,"i_lat":-6.202263,"distance":3186,"line":1,"i_long":106.822649,"station_name":"Sudirman","station_id":"SUD"}],[{"station_id":"PDRG","distance":0,"transit":false,"i_lat":-6.460735,"line":21,"is_transit":false,"i_long":106.824374,"station_name":"Pondok Rajeg","time":0},{"station_id":"CTA","station_name":"Citayam","i_lat":-6.448811,"transit":true,"is_transit":true,"time":0,"distance":0,"line":2,"i_long":106.800298},{"line":2,"is_transit":false,"transit":false,"station_id":"DP","i_long":106.816926,"station_name":"Depok","time":6,"distance":5084,"i_lat":-6.405256},{"transit":false,"i_lat":-6.391065,"station_id":"DPB","station_name":"Depokbaru","time":3,"distance":1584,"line":2,"is_transit":false,"i_long":106.819451},{"i_lat":-6.369073,"line":2,"station_name":"Pondok Cina","transit":false,"i_long":106.831114,"station_id":"POC","time":4,"is_transit":false,"distance":2727},{"distance":1109,"i_lat":-6.360749,"station_name":"Univ. Indonesia","transit":false,"is_transit":false,"line":2,"i_long":106.831474,"station_id":"UI","time":2},{"i_lat":-6.339291,"distance":2264,"i_long":106.834175,"station_name":"Univ. Pancasila","transit":false,"is_transit":false,"time":3,"line":2,"station_id":"UP"},{"is_transit":false,"transit":false,"station_id":"LNA","station_name":"Lenteng Agung","i_lat":-6.330363,"line":2,"i_long":106.832616,"distance":1029,"time":2},{"i_long":106.838896,"line":2,"station_id":"TNT","is_transit":false,"time":3,"distance":2671,"station_name":"Tanjung Barat","i_lat":-6.3080680000000005,"transit":false},{"transit":false,"station_id":"PSM","i_lat":-6.2842400000000005,"distance":2820,"is_transit":false,"time":4,"i_long":106.843999,"station_name":"Pasar Minggu","line":2},{"distance":2380,"i_long":106.851577,"i_lat":-6.263214,"time":2,"station_id":"PSMB","station_name":"Pasar Minggu Baru","transit":false,"is_transit":false,"line":2},{"station_name":"Duren Kalibata","is_transit":false,"time":2,"i_lat":-6.255332,"station_id":"DRN","transit":false,"distance":824,"i_long":106.85449,"line":2},{"station_id":"CW","i_long":106.856607,"transit":false,"time":3,"station_name":"Cawang","line":2,"is_transit":false,"distance":1546,"i_lat":-6.242512},{"line":2,"station_id":"TEB","distance":1230,"i_lat":-6.226659,"i_long":106.857948,"transit":false,"is_transit":false,"station_name":"Tebet","time":2},{"i_lat":-6.209883,"distance":2610,"transit":false,"station_id":"MRI","is_transit":false,"time":4,"line":2,"station_name":"Manggarai","i_long":106.84912},{"transit":false,"i_long":106.840169,"station_id":"CKI","is_transit":false,"station_name":"Cikini","i_lat":-6.198556,"line":2,"distance":1590,"time":4},{"time":3,"is_transit":false,"i_lat":-6.186295,"station_id":"GDD","distance":1750,"line":2,"transit":false,"i_long":106.832183,"station_name":"Gondangdia"},{"distance":2015,"line":2,"station_name":"Juanda","i_long":106.828284,"time":4,"station_id":"JUA","is_transit":false,"i_lat":-6.166716,"transit":false},{"transit":false,"distance":1149,"i_long":106.827103,"line":2,"is_transit":false,"i_lat":-6.160725,"station_id":"SW","time":2,"station_name":"Sawah Besar"},{"i_lat":-6.149769,"i_long":106.82482,"distance":906,"line":2,"station_name":"Manggabesar","transit":false,"station_id":"MGB","is_transit":false,"time":2},{"station_id":"JAY","i_long":106.820901,"line":2,"station_name":"Jayakarta","is_transit":false,"i_lat":-6.141205,"time":2,"transit":false,"distance":1080},{"station_name":"Jakarta Kota","line":2,"i_long":106.812439,"station_id":"JAKK","is_transit":true,"distance":1264,"transit":true,"time":4,"i_lat":-6.137569},{"station_id":"KPB","time":3,"i_lat":-6.132549,"i_long":106.826365,"transit":true,"distance":1364,"station_name":"Kampung Bandan","is_transit":true,"line":4},{"is_transit":false,"time":9,"transit":false,"distance":4102,"i_lat":-6.144674,"station_name":"Angke","i_long":106.79867,"station_id":"AK","line":1},{"line":1,"distance":1230,"i_long":106.800832,"station_id":"DU","time":4,"station_name":"Duri","transit":false,"is_transit":false,"i_lat":-6.155215},{"time":8,"distance":3632,"is_transit":false,"transit":false,"i_long":106.811091,"station_name":"Tanah Abang","i_lat":-6.185545,"line":1,"station_id":"THB"},{"i_long":106.816351,"i_lat":-6.20132,"is_transit":false,"transit":false,"station_id":"KAT","distance":2029,"time":5,"station_name":"Karet","line":1},{"transit":false,"time":1,"line":1,"is_transit":false,"station_name":"Sudirman Baru","i_lat":-6.201433,"station_id":"SUDB","i_long":106.819881,"distance":471},{"line":1,"station_id":"SUD","distance":280,"is_transit":false,"time":1,"station_name":"Sudirman","transit":false,"i_lat":-6.202263,"i_long":106.822649}],[{"distance":0,"line":21,"time":0,"transit":false,"i_lat":-6.460735,"is_transit":false,"station_name":"Pondok Rajeg","station_id":"PDRG","i_long":106.824374},{"station_name":"Citayam","line":2,"station_id":"CTA","is_transit":true,"time":0,"i_lat":-6.448811,"i_long":106.800298,"distance":0,"transit":true},{"station_name":"Depok","line":2,"i_long":106.816926,"station_id":"DP","transit":false,"distance":5084,"i_lat":-6.405256,"is_transit":false,"time":6},{"line":2,"distance":1584,"station_name":"Depokbaru","is_transit":false,"i_lat":-6.391065,"transit":false,"station_id":"DPB","time":3,"i_long":106.819451},{"distance":2727,"station_name":"Pondok Cina","is_transit":false,"i_lat":-6.369073,"transit":false,"line":2,"station_id":"POC","time":4,"i_long":106.831114},{"i_long":106.831474,"transit":false,"station_name":"Univ. Indonesia","time":2,"i_lat":-6.360749,"distance":1109,"is_transit":false,"line":2,"station_id":"UI"},{"time":3,"i_lat":-6.339291,"station_name":"Univ. Pancasila","transit":false,"station_id":"UP","line":2,"i_long":106.834175,"distance":2264,"is_transit":false},{"time":2,"station_name":"Lenteng Agung","i_long":106.832616,"i_lat":-6.330363,"distance":1029,"station_id":"LNA","line":2,"transit":false,"is_transit":false},{"i_lat":-6.3080680000000005,"distance":2671,"is_transit":false,"i_long":106.838896,"station_id":"TNT","time":3,"station_name":"Tanjung Barat","line":2,"transit":false},{"station_id":"PSM","line":2,"time":4,"distance":2820,"is_transit":false,"transit":false,"station_name":"Pasar Minggu","i_long":106.843999,"i_lat":-6.2842400000000005},{"distance":2380,"time":2,"transit":false,"line":2,"i_lat":-6.263214,"station_id":"PSMB","station_name":"Pasar Minggu Baru","i_long":106.851577,"is_transit":false},{"transit":false,"i_long":106.85449,"distance":824,"station_id":"DRN","i_lat":-6.255332,"time":2,"station_name":"Duren Kalibata","is_transit":false,"line":2},{"station_id":"CW","transit":false,"distance":1546,"station_name":"Cawang","i_lat":-6.242512,"i_long":106.856607,"time":3,"is_transit":false,"line":2},{"transit":false,"i_lat":-6.226659,"i_long":106.857948,"time":2,"station_id":"TEB","is_transit":false,"distance":1230,"station_name":"Tebet","line":2},{"time":4,"i_lat":-6.209883,"i_long":106.84912,"distance":2610,"transit":true,"is_transit":true,"station_name":"Manggarai","line":2,"station_id":"MRI"},{"distance":1275,"station_id":"MTR","transit":false,"i_lat":-6.212485,"line":1,"is_transit":false,"time":2,"i_long":106.858896,"station_name":"Matraman"},{"time":8,"line":1,"station_name":"Jatinegara","i_long":106.86807400000001,"i_lat":-6.215091,"station_id":"JNG","transit":true,"distance":1377,"is_transit":true},{"station_id":"POK","i_long":106.861737,"transit":false,"station_name":"Pondok Jati","line":11,"distance":1236,"i_lat":-6.209188,"is_transit":false,"time":2},{"i_lat":-6.193792,"time":2,"i_long":106.855437,"is_transit":false,"station_name":"Kramat","distance":1829,"line":11,"station_id":"KMT","transit":false},{"i_lat":-6.185975,"is_transit":false,"i_long":106.850107,"line":11,"distance":973,"transit":false,"station_id":"GST","time":1,"station_name":"Gang Sentiong"},{"is_transit":false,"station_name":"Pasar Senen","station_id":"PSE","i_lat":-6.174784,"transit":false,"time":8,"i_long":106.84368,"distance":1567,"line":11},{"is_transit":false,"time":4,"line":11,"station_id":"KMO","station_name":"Kemayoran","transit":false,"distance":1436,"i_long":106.839204,"i_lat":-6.161728},{"is_transit":false,"station_id":"RJW","time":5,"distance":1901,"line":11,"i_lat":-6.14505,"transit":false,"station_name":"Rajawali","i_long":106.836569},{"i_lat":-6.132549,"time":3,"line":4,"is_transit":true,"i_long":106.826365,"transit":true,"station_id":"KPB","distance":1444,"station_name":"Kampung Bandan"},{"line":1,"distance":4102,"i_long":106.79867,"transit":false,"time":9,"station_id":"AK","is_transit":false,"station_name":"Angke","i_lat":-6.144674},{"transit":false,"distance":1230,"is_transit":false,"i_long":106.800832,"i_lat":-6.155215,"station_name":"Duri","station_id":"DU","time":4,"line":1},{"station_id":"THB","distance":3632,"transit":false,"time":8,"station_name":"Tanah Abang","is_transit":false,"i_long":106.811091,"line":1,"i_lat":-6.185545},{"station_id":"KAT","i_long":106.816351,"line":1,"station_name":"Karet","distance":2029,"i_lat":-6.20132,"is_transit":false,"transit":false,"time":5},{"line":1,"transit":false,"station_id":"SUDB","i_lat":-6.201433,"i_long":106.819881,"distance":471,"is_transit":false,"station_name":"Sudirman Baru","time":1},{"i_long":106.822649,"i_lat":-6.202263,"distance":280,"line":1,"station_id":"SUD","station_name":"Sudirman","transit":false,"is_transit":false,"time":1}]]}