{"data":[[{"line":21,"i_long":106.824374,"station_id":"PDRG","is_transit":false,"i_lat":-6.460735,"station_name":"Pondok Rajeg","transit":false,"distance":0,"time":0},{"line":2,"distance":0,"is_transit":true,"time":0,"i_long":106.800298,"station_id":"CTA","transit":true,"station_name":"Citayam","i_lat":-6.448811},{"time":6,"station_id":"DP","is_transit":false,"line":2,"station_name":"Depok","distance":5084,"i_long":106.816926,"transit":false,"i_lat":-6.405256},{"station_name":"Depokbaru","station_id":"DPB","i_lat":-6.391065,"is_transit":false,"line":2,"distance":1584,"time":3,"i_long":106.819451,"transit":false},{"transit":false,"is_transit":false,"time":4,"line":2,"station_id":"POC","distance":2727,"i_long":106.831114,"station_name":"Pondok Cina","i_lat":-6.369073},{"time":2,"i_lat":-6.360749,"station_id":"UI","distance":1109,"is_transit":false,"station_name":"Univ. Indonesia","transit":false,"i_long":106.831474,"line":2},{"distance":2264,"station_name":"Univ. Pancasila","line":2,"i_lat":-6.339291,"time":3,"station_id":"UP","i_long":106.834175,"transit":false,"is_transit":false},{"line":2,"time":2,"distance":1029,"i_lat":-6.330363,"is_transit":false,"station_id":"LNA","i_long":106.832616,"transit":false,"station_name":"Lenteng Agung"},{"distance":2671,"station_id":"TNT","transit":false,"is_transit":false,"line":2,"i_long":106.838896,"station_name":"Tanjung Barat","time":3,"i_lat":-6.3080680000000005},{"transit":false,"station_id":"PSM","distance":2820,"i_long":106.843999,"station_name":"Pasar Minggu","is_transit":false,"time":4,"i_lat":-6.2842400000000005,"line":2},{"station_name":"Pasar Minggu Baru","time":2,"distance":2380,"line":2,"station_id":"PSMB","is_transit":false,"i_lat":-6.263214,"transit":false,"i_long":106.851577},{"distance":824,"station_name":"Duren Kalibata","station_id":"DRN","is_transit":false,"transit":false,"time":2,"i_long":106.85449,"line":2,"i_lat":-6.255332},{"i_lat":-6.242512,"transit":false,"time":3,"i_long":106.856607,"station_id":"CW","station_name":"Cawang","distance":1546,"is_transit":false,"line":2},{"is_transit":false,"i_lat":-6.226659,"distance":1230,"transit":false,"i_long":106.857948,"line":2,"station_id":"TEB","time":2,"station_name":"Tebet"},{"station_id":"MRI","distance":2610,"station_name":"Manggarai","time":4,"transit":true,"is_transit":true,"i_long":106.84912,"line":2,"i_lat":-6.209883},{"station_name":"Sudirman","i_long":106.822649,"is_transit":false,"time":4,"line":1,"station_id":"SUD","distance":3186,"transit":false,"i_lat":-6.202263},{"station_name":"Sudirman Baru","distance":280,"is_transit":false,"station_id":"SUDB","transit":false,"i_lat":-6.201433,"i_long":106.819881,"time":1,"line":1},{"station_name":"Karet","time":1,"transit":false,"i_lat":-6.20132,"distance":471,"i_long":106.816351,"line":1,"is_transit":false,"station_id":"KAT"},{"is_transit":true,"i_lat":-6.185545,"station_id":"THB","station_name":"Tanah Abang","i_long":106.811091,"distance":2029,"time":5,"transit":true,"line":1},{"transit":false,"line":6,"station_id":"PLM","i_lat":-6.207404,"distance":3191,"station_name":"Palmerah","time":6,"i_long":106.79689,"is_transit":false},{"station_id":"KBY","station_name":"Kebayoran","i_lat":-6.237242,"i_long":106.780334,"distance":3737,"is_transit":false,"transit":false,"time":7,"line":6},{"i_long":106.74273,"station_name":"Pondokranji","transit":false,"line":6,"time":8,"i_lat":-6.276362,"distance":6218,"is_transit":false,"station_id":"PDJ"},{"station_id":"JMU","transit":false,"station_name":"Jurangmangu","is_transit":false,"line":6,"time":3,"i_long":106.728916,"distance":2179,"i_lat":-6.288927},{"station_name":"Sudimara","transit":false,"station_id":"SDM","distance":1994,"i_long":106.712277,"i_lat":-6.296963,"is_transit":false,"line":6,"time":4},{"station_id":"RU","line":6,"station_name":"Rawa Buntu","is_transit":false,"distance":4566,"i_lat":-6.314823,"time":6,"transit":false,"i_long":106.675475},{"station_id":"SRP","distance":2413,"i_long":106.66566,"transit":false,"is_transit":false,"line":6,"time":4,"i_lat":-6.319871,"station_name":"Serpong"},{"is_transit":false,"time":4,"line":3,"i_long":106.640411,"station_id":"CSK","distance":1784,"station_name":"Cisauk","transit":false,"i_lat":-6.32484},{"distance":2519,"station_id":"CC","time":4,"line":3,"i_long":106.617853,"is_transit":false,"i_lat":-6.329547,"station_name":"Cicayur","transit":false},{"i_long":106.568863,"transit":false,"is_transit":false,"time":8,"line":6,"station_name":"Parung Panjang","i_lat":-6.3441410000000005,"station_id":"PRP","distance":5968},{"distance":7025,"line":3,"transit":false,"is_transit":false,"time":9,"station_name":"Cilejit","i_long":106.508482,"station_id":"CJT","i_lat":-6.354349},{"i_long":106.491338,"station_id":"DAR","transit":false,"distance":2675,"line":0,"station_name":"Daru","time":6,"is_transit":false,"i_lat":-6.338021},{"station_id":"TEJ","station_name":"Tenjo","i_lat":-6.327251,"i_long":106.460812,"distance":3902,"transit":false,"line":6,"is_transit":false,"time":5}],[{"transit":false,"i_long":106.824374,"station_id":"PDRG","line":21,"is_transit":false,"i_lat":-6.460735,"distance":0,"station_name":"Pondok Rajeg","time":0},{"i_lat":-6.448811,"line":2,"i_long":106.800298,"time":0,"station_id":"CTA","distance":0,"station_name":"Citayam","is_transit":true,"transit":true},{"i_lat":-6.405256,"is_transit":false,"time":6,"line":2,"station_id":"DP","transit":false,"i_long":106.816926,"station_name":"Depok","distance":5084},{"is_transit":false,"station_name":"Depokbaru","i_long":106.819451,"i_lat":-6.391065,"time":3,"station_id":"DPB","transit":false,"distance":1584,"line":2},{"station_name":"Pondok Cina","is_transit":false,"line":2,"transit":false,"distance":2727,"time":4,"i_long":106.831114,"station_id":"POC","i_lat":-6.369073},{"transit":false,"i_lat":-6.360749,"time":2,"station_id":"UI","distance":1109,"station_name":"Univ. Indonesia","is_transit":false,"line":2,"i_long":106.831474},{"station_id":"UP","is_transit":false,"time":3,"transit":false,"distance":2264,"station_name":"Univ. Pancasila","i_long":106.834175,"i_lat":-6.339291,"line":2},{"i_lat":-6.330363,"station_name":"Lenteng Agung","distance":1029,"transit":false,"is_transit":false,"i_long":106.832616,"station_id":"LNA","time":2,"line":2},{"time":3,"transit":false,"i_long":106.838896,"line":2,"is_transit":false,"distance":2671,"i_lat":-6.3080680000000005,"station_id":"TNT","station_name":"Tanjung Barat"},{"i_lat":-6.2842400000000005,"station_name":"Pasar Minggu","station_id":"PSM","transit":false,"time":4,"line":2,"distance":2820,"is_transit":false,"i_long":106.843999},{"time":2,"is_transit":false,"i_long":106.851577,"station_id":"PSMB","i_lat":-6.263214,"line":2,"distance":2380,"station_name":"Pasar Minggu Baru","transit":false},{"station_id":"DRN","station_name":"Duren Kalibata","transit":false,"is_transit":false,"time":2,"distance":824,"i_long":106.85449,"i_lat":-6.255332,"line":2},{"station_name":"Cawang","time":3,"transit":false,"i_lat":-6.242512,"i_long":106.856607,"line":2,"station_id":"CW","distance":1546,"is_transit":false},{"i_long":106.857948,"line":2,"station_name":"Tebet","is_transit":false,"distance":1230,"time":2,"station_id":"TEB","transit":false,"i_lat":-6.226659},{"transit":false,"line":2,"i_lat":-6.209883,"distance":2610,"is_transit":false,"station_name":"Manggarai","i_long":106.84912,"time":4,"station_id":"MRI"},{"time":4,"transit":false,"station_id":"CKI","i_long":106.840169,"distance":1590,"station_name":"Cikini","is_transit":false,"line":2,"i_lat":-6.198556},{"i_lat":-6.186295,"station_id":"GDD","time":3,"station_name":"Gondangdia","is_transit":false,"i_long":106.832183,"line":2,"distance":1750,"transit":false},{"i_long":106.828284,"station_id":"JUA","station_name":"Juanda","distance":2015,"time":4,"is_transit":false,"i_lat":-6.166716,"line":2,"transit":false},{"is_transit":false,"distance":1149,"transit":false,"line":2,"i_lat":-6.160725,"time":2,"i_long":106.827103,"station_id":"SW","station_name":"Sawah Besar"},{"station_id":"MGB","transit":false,"i_lat":-6.149769,"i_long":106.82482,"line":2,"time":2,"station_name":"Manggabesar","is_transit":false,"distance":906},{"i_long":106.820901,"station_name":"Jayakarta","distance":1080,"is_transit":false,"station_id":"JAY","time":2,"transit":false,"i_lat":-6.141205,"line":2},{"transit":true,"time":4,"i_lat":-6.137569,"i_long":106.812439,"station_name":"Jakarta Kota","line":2,"station_id":"JAKK","is_transit":true,"distance":1264},{"distance":1364,"time":3,"i_long":106.826365,"is_transit":true,"line":4,"i_lat":-6.132549,"station_id":"KPB","transit":true,"station_name":"Kampung Bandan"},{"station_id":"AK","i_lat":-6.144674,"distance":4102,"line":1,"is_transit":false,"i_long":106.79867,"transit":false,"station_name":"Angke","time":9},{"station_id":"DU","is_transit":false,"station_name":"Duri","i_lat":-6.155215,"time":4,"distance":1230,"transit":false,"line":1,"i_long":106.800832},{"station_name":"Tanah Abang","station_id":"THB","i_lat":-6.185545,"is_transit":true,"line":1,"distance":3632,"i_long":106.811091,"transit":true,"time":8},{"distance":3191,"i_long":106.79689,"transit":false,"station_id":"PLM","time":6,"station_name":"Palmerah","i_lat":-6.207404,"is_transit":false,"line":6},{"station_id":"KBY","transit":false,"line":6,"time":7,"i_long":106.780334,"station_name":"Kebayoran","distance":3737,"is_transit":false,"i_lat":-6.237242},{"distance":6218,"is_transit":false,"station_name":"Pondokranji","i_lat":-6.276362,"line":6,"transit":false,"i_long":106.74273,"station_id":"PDJ","time":8},{"distance":2179,"is_transit":false,"transit":false,"station_name":"Jurangmangu","i_lat":-6.288927,"i_long":106.728916,"line":6,"station_id":"JMU","time":3},{"is_transit":false,"time":4,"station_id":"SDM","i_lat":-6.296963,"station_name":"Sudimara","distance":1994,"transit":false,"i_long":106.712277,"line":6},{"i_long":106.675475,"is_transit":false,"i_lat":-6.314823,"station_id":"RU","line":6,"time":6,"distance":4566,"transit":false,"station_name":"Rawa Buntu"},{"transit":false,"distance":2413,"station_id":"SRP","i_lat":-6.319871,"time":4,"i_long":106.66566,"line":6,"station_name":"Serpong","is_transit":false},{"station_id":"CSK","i_long":106.640411,"time":4,"station_name":"Cisauk","line":3,"i_lat":-6.32484,"distance":1784,"is_transit":false,"transit":false},{"i_long":106.617853,"transit":false,"distance":2519,"station_id":"CC","station_name":"Cicayur","time":4,"line":3,"is_transit":false,"i_lat":-6.329547},{"i_lat":-6.3441410000000005,"is_transit":false,"station_name":"Parung Panjang","distance":5968,"line":6,"time":8,"i_long":106.568863,"transit":false,"station_id":"PRP"},{"station_id":"CJT","station_name":"Cilejit","time":9,"distance":7025,"is_transit":false,"i_long":106.508482,"transit":false,"line":3,"i_lat":-6.354349},{"station_name":"Daru","line":0,"i_long":106.491338,"distance":2675,"is_transit":false,"transit":false,"time":6,"station_id":"DAR","i_lat":-6.338021},{"i_lat":-6.327251,"is_transit":false,"i_long":106.460812,"transit":false,"station_id":"TEJ","line":6,"station_name":"Tenjo","time":5,"distance":3902}],[{"transit":false,"is_transit":false,"time":0,"station_name":"Pondok Rajeg","i_long":106.824374,"line":21,"i_lat":-6.460735,"station_id":"PDRG","distance":0},{"line":2,"is_transit":true,"i_long":106.800298,"station_id":"CTA","transit":true,"time":0,"i_lat":-6.448811,"station_name":"Citayam","distance":0},{"transit":false,"is_transit":false,"distance":5084,"station_id":"DP","station_name":"Depok","i_lat":-6.405256,"line":2,"i_long":106.816926,"time":6},{"time":3,"station_name":"Depokbaru","transit":false,"line":2,"station_id":"DPB","distance":1584,"i_lat":-6.391065,"i_long":106.819451,"is_transit":false},{"station_name":"Pondok Cina","i_lat":-6.369073,"station_id":"POC","i_long":106.831114,"distance":2727,"transit":false,"is_transit":false,"line":2,"time":4},{"station_name":"Univ. Indonesia","time":2,"transit":false,"i_lat":-6.360749,"line":2,"station_id":"UI","distance":1109,"is_transit":false,"i_long":106.831474},{"station_id":"UP","i_long":106.834175,"time":3,"transit":false,"line":2,"distance":2264,"is_transit":false,"station_name":"Univ. Pancasila","i_lat":-6.339291},{"station_id":"LNA","time":2,"i_long":106.832616,"line":2,"is_transit":false,"transit":false,"distance":1029,"i_lat":-6.330363,"station_name":"Lenteng Agung"},{"station_name":"Tanjung Barat","i_long":106.838896,"time":3,"is_transit":false,"line":2,"i_lat":-6.3080680000000005,"transit":false,"distance":2671,"station_id":"TNT"},{"transit":false,"station_id":"PSM","distance":2820,"line":2,"time":4,"is_transit":false,"i_lat":-6.2842400000000005,"station_name":"Pasar Minggu","i_long":106.843999},{"station_name":"Pasar Minggu Baru","i_lat":-6.263214,"distance":2380,"transit":false,"station_id":"PSMB","is_transit":false,"time":2,"line":2,"i_long":106.851577},{"is_transit":false,"transit":false,"i_lat":-6.255332,"distance":824,"time":2,"station_id":"DRN","station_name":"Duren Kalibata","i_long":106.85449,"line":2},{"is_transit":false,"i_lat":-6.242512,"station_name":"Cawang","transit":false,"time":3,"line":2,"distance":1546,"station_id":"CW","i_long":106.856607},{"station_name":"Tebet","i_lat":-6.226659,"time":2,"i_long":106.857948,"distance":1230,"transit":false,"line":2,"station_id":"TEB","is_transit":false},{"transit":true,"station_name":"Manggarai","station_id":"MRI","i_lat":-6.209883,"is_transit":true,"distance":2610,"line":2,"i_long":106.84912,"time":4},{"is_transit":false,"transit":false,"line":1,"station_id":"MTR","station_name":"Matraman","i_lat":-6.212485,"distance":1275,"i_long":106.858896,"time":2},{"time":8,"is_transit":true,"i_lat":-6.215091,"line":1,"distance":1377,"i_long":106.86807400000001,"transit":true,"station_id":"JNG","station_name":"Jatinegara"},{"distance":1236,"is_transit":false,"transit":false,"i_lat":-6.209188,"i_long":106.861737,"station_id":"POK","line":11,"time":2,"station_name":"Pondok Jati"},{"is_transit":false,"distance":1829,"station_name":"Kramat","i_lat":-6.193792,"i_long":106.855437,"transit":false,"time":2,"line":11,"station_id":"KMT"},{"station_name":"Gang Sentiong","i_long":106.850107,"transit":false,"time":1,"line":11,"i_lat":-6.185975,"is_transit":false,"station_id":"GST","distance":973},{"station_id":"PSE","time":8,"is_transit":false,"i_lat":-6.174784,"i_long":106.84368,"line":11,"transit":false,"distance":1567,"station_name":"Pasar Senen"},{"station_name":"Kemayoran","distance":1436,"time":4,"i_long":106.839204,"is_transit":false,"transit":false,"station_id":"KMO","line":11,"i_lat":-6.161728},{"time":5,"station_name":"Rajawali","line":11,"is_transit":false,"distance":1901,"i_long":106.836569,"i_lat":-6.14505,"transit":false,"station_id":"RJW"},{"time":3,"i_long":106.826365,"station_name":"Kampung Bandan","line":4,"distance":1444,"i_lat":-6.132549,"station_id":"KPB","transit":true,"is_transit":true},{"transit":false,"i_long":106.79867,"station_name":"Angke","line":1,"time":9,"distance":4102,"is_transit":false,"i_lat":-6.144674,"station_id":"AK"},{"i_lat":-6.155215,"station_id":"DU","distance":1230,"transit":false,"station_name":"Duri","time":4,"line":1,"is_transit":false,"i_long":106.800832},{"i_long":106.811091,"transit":true,"distance":3632,"station_name":"Tanah Abang","station_id":"THB","time":8,"is_transit":true,"line":1,"i_lat":-6.185545},{"i_long":106.79689,"line":6,"station_name":"Palmerah","time":6,"distance":3191,"is_transit":false,"transit":false,"station_id":"PLM","i_lat":-6.207404},{"transit":false,"station_id":"KBY","station_name":"Kebayoran","time":7,"i_long":106.780334,"distance":3737,"is_transit":false,"i_lat":-6.237242,"line":6},{"distance":6218,"line":6,"is_transit":false,"transit":false,"i_long":106.74273,"i_lat":-6.276362,"station_id":"PDJ","station_name":"Pondokranji","time":8},{"station_id":"JMU","is_transit":false,"i_lat":-6.288927,"transit":false,"time":3,"i_long":106.728916,"station_name":"Jurangmangu","line":6,"distance":2179},{"i_lat":-6.296963,"i_long":106.712277,"time":4,"station_id":"SDM","station_name":"Sudimara","transit":false,"is_transit":false,"line":6,"distance":1994},{"station_id":"RU","i_lat":-6.314823,"distance":4566,"station_name":"Rawa Buntu","is_transit":false,"time":6,"transit":false,"i_long":106.675475,"line":6},{"station_name":"Serpong","line":6,"station_id":"SRP","time":4,"distance":2413,"is_transit":false,"transit":false,"i_long":106.66566,"i_lat":-6.319871},{"station_id":"CSK","station_name":"Cisauk","distance":1784,"i_lat":-6.32484,"i_long":106.640411,"line":3,"time":4,"is_transit":false,"transit":false},{"distance":2519,"is_transit":false,"i_long":106.617853,"time":4,"i_lat":-6.329547,"line":3,"station_name":"Cicayur","transit":false,"station_id":"CC"},{"is_transit":false,"station_id":"PRP","i_long":106.568863,"line":6,"transit":false,"time":8,"station_name":"Parung Panjang","distance":5968,"i_lat":-6.3441410000000005},{"i_lat":-6.354349,"transit":false,"distance":7025,"station_id":"CJT","is_transit":false,"time":9,"i_long":106.508482,"line":3,"station_name":"Cilejit"},{"i_long":106.491338,"station_name":"Daru","time":6,"transit":false,"is_transit":false,"line":0,"i_lat":-6.338021,"station_id":"DAR","distance":2675},{"transit":false,"time":5,"i_long":106.460812,"line":6,"station_id":"TEJ","station_name":"Tenjo","distance":3902,"is_transit":false,"i_lat":-6.327251}]]}