{"data":[[{"station_id":"PDRG","time":0,"transit":false,"i_lat":-6.460735,"i_long":106.824374,"is_transit":false,"line":21,"station_name":"Pondok Rajeg","distance":0},{"i_long":106.800298,"station_id":"CTA","distance":0,"i_lat":-6.448811,"transit":true,"is_transit":true,"time":0,"station_name":"Citayam","line":2},{"station_name":"Depok","i_lat":-6.405256,"is_transit":false,"transit":false,"distance":5084,"i_long":106.816926,"station_id":"DP","line":2,"time":6},{"i_long":106.819451,"line":2,"station_name":"Depokbaru","station_id":"DPB","is_transit":false,"time":3,"distance":1584,"transit":false,"i_lat":-6.391065},{"time":4,"distance":2727,"transit":false,"is_transit":false,"i_long":106.831114,"station_id":"POC","line":2,"station_name":"Pondok Cina","i_lat":-6.369073},{"is_transit":false,"transit":false,"station_name":"Univ. Indonesia","station_id":"UI","i_long":106.831474,"line":2,"distance":1109,"time":2,"i_lat":-6.360749},{"is_transit":false,"transit":false,"time":3,"i_long":106.834175,"station_id":"UP","line":2,"i_lat":-6.339291,"distance":2264,"station_name":"Univ. Pancasila"},{"station_id":"LNA","transit":false,"distance":1029,"line":2,"time":2,"is_transit":false,"station_name":"Lenteng Agung","i_lat":-6.330363,"i_long":106.832616},{"time":3,"station_id":"TNT","i_long":106.838896,"is_transit":false,"transit":false,"line":2,"station_name":"Tanjung Barat","i_lat":-6.3080680000000005,"distance":2671},{"i_long":106.843999,"station_name":"Pasar Minggu","station_id":"PSM","distance":2820,"is_transit":false,"transit":false,"line":2,"time":4,"i_lat":-6.2842400000000005},{"time":2,"station_id":"PSMB","transit":false,"distance":2380,"i_lat":-6.263214,"station_name":"Pasar Minggu Baru","is_transit":false,"line":2,"i_long":106.851577},{"time":2,"is_transit":false,"transit":false,"i_long":106.85449,"i_lat":-6.255332,"station_id":"DRN","station_name":"Duren Kalibata","distance":824,"line":2},{"time":3,"i_long":106.856607,"i_lat":-6.242512,"line":2,"is_transit":false,"station_name":"Cawang","distance":1546,"station_id":"CW","transit":false},{"time":2,"is_transit":false,"transit":false,"i_long":106.857948,"station_name":"Tebet","distance":1230,"station_id":"TEB","i_lat":-6.226659,"line":2},{"station_name":"Manggarai","i_long":106.84912,"is_transit":true,"transit":true,"station_id":"MRI","distance":2610,"time":4,"i_lat":-6.209883,"line":2},{"distance":3186,"time":4,"is_transit":false,"transit":false,"line":1,"i_long":106.822649,"station_id":"SUD","station_name":"Sudirman","i_lat":-6.202263},{"i_long":106.819881,"distance":280,"transit":false,"station_id":"SUDB","line":1,"i_lat":-6.201433,"station_name":"Sudirman Baru","time":1,"is_transit":false},{"time":1,"line":1,"i_long":106.816351,"i_lat":-6.20132,"station_id":"KAT","transit":false,"distance":471,"is_transit":false,"station_name":"Karet"},{"is_transit":true,"station_id":"THB","i_lat":-6.185545,"i_long":106.811091,"distance":2029,"station_name":"Tanah Abang","transit":true,"line":1,"time":5},{"station_id":"PLM","is_transit":false,"time":6,"distance":3191,"station_name":"Palmerah","i_lat":-6.207404,"transit":false,"i_long":106.79689,"line":6},{"transit":false,"station_id":"KBY","time":7,"station_name":"Kebayoran","i_lat":-6.237242,"is_transit":false,"i_long":106.780334,"distance":3737,"line":6},{"station_name":"Pondokranji","station_id":"PDJ","is_transit":false,"i_long":106.74273,"distance":6218,"transit":false,"i_lat":-6.276362,"line":6,"time":8},{"distance":2179,"i_lat":-6.288927,"is_transit":false,"i_long":106.728916,"line":6,"station_name":"Jurangmangu","station_id":"JMU","time":3,"transit":false}],[{"station_id":"PDRG","station_name":"Pondok Rajeg","i_lat":-6.460735,"line":21,"distance":0,"transit":false,"i_long":106.824374,"is_transit":false,"time":0},{"distance":0,"is_transit":true,"line":2,"station_name":"Citayam","i_long":106.800298,"time":0,"transit":true,"station_id":"CTA","i_lat":-6.448811},{"transit":false,"station_name":"Depok","station_id":"DP","time":6,"i_lat":-6.405256,"line":2,"distance":5084,"is_transit":false,"i_long":106.816926},{"is_transit":false,"time":3,"station_name":"Depokbaru","distance":1584,"transit":false,"i_lat":-6.391065,"line":2,"i_long":106.819451,"station_id":"DPB"},{"i_lat":-6.369073,"is_transit":false,"time":4,"station_id":"POC","i_long":106.831114,"line":2,"transit":false,"station_name":"Pondok Cina","distance":2727},{"station_name":"Univ. Indonesia","transit":false,"distance":1109,"is_transit":false,"station_id":"UI","i_lat":-6.360749,"i_long":106.831474,"line":2,"time":2},{"is_transit":false,"distance":2264,"station_name":"Univ. Pancasila","i_lat":-6.339291,"i_long":106.834175,"time":3,"station_id":"UP","transit":false,"line":2},{"line":2,"i_lat":-6.330363,"is_transit":false,"station_id":"LNA","i_long":106.832616,"station_name":"Lenteng Agung","transit":false,"distance":1029,"time":2},{"transit":false,"line":2,"distance":2671,"station_name":"Tanjung Barat","i_long":106.838896,"i_lat":-6.3080680000000005,"station_id":"TNT","time":3,"is_transit":false},{"is_transit":false,"station_id":"PSM","time":4,"transit":false,"distance":2820,"station_name":"Pasar Minggu","i_lat":-6.2842400000000005,"line":2,"i_long":106.843999},{"transit":false,"is_transit":false,"i_long":106.851577,"station_name":"Pasar Minggu Baru","line":2,"time":2,"i_lat":-6.263214,"distance":2380,"station_id":"PSMB"},{"station_name":"Duren Kalibata","is_transit":false,"distance":824,"i_lat":-6.255332,"line":2,"time":2,"transit":false,"station_id":"DRN","i_long":106.85449},{"i_lat":-6.242512,"distance":1546,"is_transit":false,"station_name":"Cawang","line":2,"transit":false,"time":3,"station_id":"CW","i_long":106.856607},{"line":2,"transit":false,"station_name":"Tebet","time":2,"distance":1230,"i_long":106.857948,"i_lat":-6.226659,"station_id":"TEB","is_transit":false},{"i_long":106.84912,"station_name":"Manggarai","is_transit":false,"station_id":"MRI","distance":2610,"line":2,"transit":false,"i_lat":-6.209883,"time":4},{"distance":1590,"i_lat":-6.198556,"station_id":"CKI","i_long":106.840169,"time":4,"line":2,"transit":false,"station_name":"Cikini","is_transit":false},{"station_name":"Gondangdia","is_transit":false,"station_id":"GDD","line":2,"time":3,"i_lat":-6.186295,"distance":1750,"transit":false,"i_long":106.832183},{"i_long":106.828284,"is_transit":false,"distance":2015,"i_lat":-6.166716,"time":4,"station_name":"Juanda","transit":false,"station_id":"JUA","line":2},{"station_id":"SW","i_lat":-6.160725,"line":2,"station_name":"Sawah Besar","i_long":106.827103,"transit":false,"is_transit":false,"time":2,"distance":1149},{"transit":false,"station_name":"Manggabesar","i_long":106.82482,"i_lat":-6.149769,"time":2,"distance":906,"line":2,"station_id":"MGB","is_transit":false},{"time":2,"station_name":"Jayakarta","distance":1080,"station_id":"JAY","i_lat":-6.141205,"line":2,"transit":false,"is_transit":false,"i_long":106.820901},{"station_id":"JAKK","time":4,"line":2,"transit":true,"distance":1264,"i_long":106.812439,"is_transit":true,"station_name":"Jakarta Kota","i_lat":-6.137569},{"i_long":106.826365,"line":4,"station_id":"KPB","station_name":"Kampung Bandan","distance":1364,"transit":true,"is_transit":true,"i_lat":-6.132549,"time":3},{"i_lat":-6.144674,"transit":false,"distance":4102,"station_id":"AK","i_long":106.79867,"line":1,"time":9,"is_transit":false,"station_name":"Angke"},{"station_id":"DU","time":4,"is_transit":false,"transit":false,"distance":1230,"i_long":106.800832,"station_name":"Duri","i_lat":-6.155215,"line":1},{"transit":true,"line":1,"is_transit":true,"time":8,"station_name":"Tanah Abang","station_id":"THB","i_long":106.811091,"i_lat":-6.185545,"distance":3632},{"line":6,"station_name":"Palmerah","is_transit":false,"i_lat":-6.207404,"distance":3191,"time":6,"transit":false,"station_id":"PLM","i_long":106.79689},{"station_id":"KBY","distance":3737,"i_lat":-6.237242,"station_name":"Kebayoran","i_long":106.780334,"transit":false,"line":6,"time":7,"is_transit":false},{"i_lat":-6.276362,"transit":false,"is_transit":false,"i_long":106.74273,"line":6,"distance":6218,"station_id":"PDJ","station_name":"Pondokranji","time":8},{"i_long":106.728916,"distance":2179,"transit":false,"station_name":"Jurangmangu","line":6,"time":3,"is_transit":false,"i_lat":-6.288927,"station_id":"JMU"}],[{"transit":false,"distance":0,"time":0,"station_name":"Pondok Rajeg","i_long":106.824374,"is_transit":false,"line":21,"station_id":"PDRG","i_lat":-6.460735},{"i_long":106.800298,"station_id":"CTA","is_transit":true,"i_lat":-6.448811,"station_name":"Citayam","time":0,"transit":true,"line":2,"distance":0},{"i_lat":-6.405256,"is_transit":false,"station_id":"DP","i_long":106.816926,"station_name":"Depok","time":6,"transit":false,"line":2,"distance":5084},{"is_transit":false,"distance":1584,"station_id":"DPB","station_name":"Depokbaru","transit":false,"i_lat":-6.391065,"i_long":106.819451,"line":2,"time":3},{"transit":false,"i_lat":-6.369073,"line":2,"is_transit":false,"distance":2727,"station_name":"Pondok Cina","time":4,"i_long":106.831114,"station_id":"POC"},{"transit":false,"line":2,"station_id":"UI","is_transit":false,"i_lat":-6.360749,"i_long":106.831474,"station_name":"Univ. Indonesia","distance":1109,"time":2},{"transit":false,"i_long":106.834175,"distance":2264,"line":2,"time":3,"station_name":"Univ. Pancasila","is_transit":false,"station_id":"UP","i_lat":-6.339291},{"distance":1029,"station_name":"Lenteng Agung","transit":false,"is_transit":false,"i_long":106.832616,"i_lat":-6.330363,"line":2,"station_id":"LNA","time":2},{"transit":false,"i_long":106.838896,"is_transit":false,"distance":2671,"time":3,"line":2,"station_id":"TNT","i_lat":-6.3080680000000005,"station_name":"Tanjung Barat"},{"i_long":106.843999,"time":4,"is_transit":false,"station_name":"Pasar Minggu","distance":2820,"i_lat":-6.2842400000000005,"line":2,"transit":false,"station_id":"PSM"},{"transit":false,"station_name":"Pasar Minggu Baru","distance":2380,"is_transit":false,"time":2,"i_long":106.851577,"i_lat":-6.263214,"station_id":"PSMB","line":2},{"transit":false,"time":2,"distance":824,"is_transit":false,"station_name":"Duren Kalibata","i_long":106.85449,"i_lat":-6.255332,"station_id":"DRN","line":2},{"i_lat":-6.242512,"time":3,"station_id":"CW","i_long":106.856607,"line":2,"station_name":"Cawang","transit":false,"is_transit":false,"distance":1546},{"is_transit":false,"i_long":106.857948,"distance":1230,"time":2,"i_lat":-6.226659,"transit":false,"line":2,"station_name":"Tebet","station_id":"TEB"},{"is_transit":true,"station_id":"MRI","line":2,"station_name":"Manggarai","transit":true,"i_lat":-6.209883,"i_long":106.84912,"time":4,"distance":2610},{"station_id":"MTR","transit":false,"station_name":"Matraman","i_lat":-6.212485,"i_long":106.858896,"time":2,"is_transit":false,"line":1,"distance":1275},{"distance":1377,"transit":true,"i_long":106.86807400000001,"time":8,"i_lat":-6.215091,"line":1,"station_name":"Jatinegara","is_transit":true,"station_id":"JNG"},{"station_id":"POK","i_long":106.861737,"is_transit":false,"line":11,"transit":false,"distance":1236,"i_lat":-6.209188,"station_name":"Pondok Jati","time":2},{"time":2,"station_name":"Kramat","station_id":"KMT","distance":1829,"i_lat":-6.193792,"i_long":106.855437,"line":11,"transit":false,"is_transit":false},{"i_long":106.850107,"i_lat":-6.185975,"transit":false,"is_transit":false,"line":11,"time":1,"station_name":"Gang Sentiong","distance":973,"station_id":"GST"},{"station_id":"PSE","i_lat":-6.174784,"i_long":106.84368,"distance":1567,"line":11,"time":8,"transit":false,"is_transit":false,"station_name":"Pasar Senen"},{"station_name":"Kemayoran","line":11,"i_lat":-6.161728,"distance":1436,"time":4,"i_long":106.839204,"is_transit":false,"station_id":"KMO","transit":false},{"is_transit":false,"transit":false,"station_id":"RJW","i_long":106.836569,"line":11,"i_lat":-6.14505,"station_name":"Rajawali","distance":1901,"time":5},{"i_long":106.826365,"line":4,"transit":true,"is_transit":true,"distance":1444,"station_id":"KPB","time":3,"station_name":"Kampung Bandan","i_lat":-6.132549},{"distance":4102,"i_long":106.79867,"time":9,"is_transit":false,"line":1,"transit":false,"station_id":"AK","i_lat":-6.144674,"station_name":"Angke"},{"is_transit":false,"distance":1230,"i_long":106.800832,"station_id":"DU","line":1,"i_lat":-6.155215,"transit":false,"time":4,"station_name":"Duri"},{"line":1,"transit":true,"station_id":"THB","i_long":106.811091,"is_transit":true,"i_lat":-6.185545,"distance":3632,"station_name":"Tanah Abang","time":8},{"distance":3191,"time":6,"station_id":"PLM","transit":false,"is_transit":false,"i_long":106.79689,"line":6,"i_lat":-6.207404,"station_name":"Palmerah"},{"station_name":"Kebayoran","station_id":"KBY","is_transit":false,"distance":3737,"i_lat":-6.237242,"line":6,"i_long":106.780334,"time":7,"transit":false},{"distance":6218,"i_long":106.74273,"station_id":"PDJ","line":6,"is_transit":false,"time":8,"transit":false,"station_name":"Pondokranji","i_lat":-6.276362},{"time":3,"station_id":"JMU","i_lat":-6.288927,"i_long":106.728916,"station_name":"Jurangmangu","is_transit":false,"distance":2179,"transit":false,"line":6}]]}