{"data":[[{"i_long":106.824374,"station_name":"Pondok Rajeg","distance":0,"station_id":"PDRG","time":0,"line":21,"is_transit":false,"transit":false,"i_lat":-6.460735},{"station_id":"CTA","distance":0,"station_name":"Citayam","i_lat":-6.448811,"i_long":106.800298,"time":0,"is_transit":true,"transit":true,"line":2},{"transit":false,"i_lat":-6.405256,"time":6,"is_transit":false,"line":2,"station_id":"DP","station_name":"Depok","distance":5084,"i_long":106.816926},{"line":2,"transit":false,"station_id":"DPB","distance":1584,"time":3,"station_name":"Depokbaru","i_long":106.819451,"is_transit":false,"i_lat":-6.391065},{"i_long":106.831114,"station_id":"POC","line":2,"time":4,"distance":2727,"is_transit":false,"station_name":"Pondok Cina","transit":false,"i_lat":-6.369073},{"time":2,"i_long":106.831474,"line":2,"distance":1109,"station_id":"UI","transit":false,"i_lat":-6.360749,"station_name":"Univ. Indonesia","is_transit":false},{"time":3,"station_id":"UP","station_name":"Univ. Pancasila","distance":2264,"i_long":106.834175,"transit":false,"i_lat":-6.339291,"line":2,"is_transit":false},{"station_name":"Lenteng Agung","i_lat":-6.330363,"distance":1029,"is_transit":false,"line":2,"station_id":"LNA","transit":false,"time":2,"i_long":106.832616},{"transit":false,"station_name":"Tanjung Barat","distance":2671,"station_id":"TNT","line":2,"time":3,"i_lat":-6.3080680000000005,"is_transit":false,"i_long":106.838896},{"station_name":"Pasar Minggu","i_long":106.843999,"line":2,"time":4,"is_transit":false,"i_lat":-6.2842400000000005,"distance":2820,"station_id":"PSM","transit":false},{"distance":2380,"time":2,"station_id":"PSMB","i_long":106.851577,"transit":false,"is_transit":false,"station_name":"Pasar Minggu Baru","i_lat":-6.263214,"line":2},{"i_lat":-6.255332,"station_id":"DRN","transit":false,"i_long":106.85449,"is_transit":false,"line":2,"distance":824,"station_name":"Duren Kalibata","time":2},{"line":2,"time":3,"is_transit":false,"station_id":"CW","i_lat":-6.242512,"station_name":"Cawang","transit":false,"distance":1546,"i_long":106.856607},{"station_name":"Tebet","time":2,"i_lat":-6.226659,"is_transit":false,"station_id":"TEB","transit":false,"line":2,"distance":1230,"i_long":106.857948},{"is_transit":true,"line":2,"i_long":106.84912,"i_lat":-6.209883,"distance":2610,"station_id":"MRI","station_name":"Manggarai","time":4,"transit":true},{"is_transit":false,"station_name":"Matraman","transit":false,"line":1,"distance":1275,"i_lat":-6.212485,"station_id":"MTR","i_long":106.858896,"time":2},{"time":8,"i_long":106.86807400000001,"transit":false,"distance":1377,"i_lat":-6.215091,"line":1,"station_name":"Jatinegara","station_id":"JNG","is_transit":false},{"transit":false,"i_long":106.899548,"line":1,"time":3,"i_lat":-6.2135,"distance":3395,"is_transit":false,"station_id":"KLD","station_name":"Klender"},{"time":2,"is_transit":false,"distance":3100,"station_id":"BUA","transit":false,"station_name":"Buaran","i_lat":-6.215568,"i_long":106.922662,"line":1},{"line":1,"is_transit":false,"station_name":"Klenderbaru","station_id":"KLDB","i_long":106.939679,"time":1,"distance":1305,"transit":false,"i_lat":-6.217455},{"station_id":"CUK","station_name":"Cakung","time":8,"is_transit":false,"line":1,"i_lat":-6.219053,"i_long":106.951283,"transit":false,"distance":1385},{"station_id":"KRI","is_transit":false,"station_name":"Kranji","transit":false,"distance":3097,"i_lat":-6.224515,"line":1,"time":3,"i_long":106.977657}],[{"is_transit":false,"station_name":"Pondok Rajeg","station_id":"PDRG","transit":false,"i_long":106.824374,"time":0,"distance":0,"i_lat":-6.460735,"line":21},{"station_id":"CTA","is_transit":true,"i_long":106.800298,"line":2,"time":0,"station_name":"Citayam","distance":0,"i_lat":-6.448811,"transit":true},{"is_transit":false,"i_long":106.816926,"i_lat":-6.405256,"line":2,"time":6,"station_name":"Depok","station_id":"DP","distance":5084,"transit":false},{"station_id":"DPB","i_lat":-6.391065,"station_name":"Depokbaru","is_transit":false,"i_long":106.819451,"distance":1584,"time":3,"transit":false,"line":2},{"i_lat":-6.369073,"i_long":106.831114,"station_name":"Pondok Cina","is_transit":false,"line":2,"time":4,"distance":2727,"transit":false,"station_id":"POC"},{"is_transit":false,"distance":1109,"transit":false,"line":2,"i_lat":-6.360749,"station_id":"UI","time":2,"i_long":106.831474,"station_name":"Univ. Indonesia"},{"station_id":"UP","distance":2264,"i_lat":-6.339291,"station_name":"Univ. Pancasila","is_transit":false,"i_long":106.834175,"line":2,"transit":false,"time":3},{"is_transit":false,"station_id":"LNA","transit":false,"i_long":106.832616,"distance":1029,"station_name":"Lenteng Agung","i_lat":-6.330363,"line":2,"time":2},{"time":3,"i_long":106.838896,"station_name":"Tanjung Barat","line":2,"transit":false,"is_transit":false,"distance":2671,"station_id":"TNT","i_lat":-6.3080680000000005},{"transit":false,"i_long":106.843999,"station_name":"Pasar Minggu","station_id":"PSM","line":2,"is_transit":false,"distance":2820,"i_lat":-6.2842400000000005,"time":4},{"station_id":"PSMB","line":2,"station_name":"Pasar Minggu Baru","distance":2380,"time":2,"is_transit":false,"transit":false,"i_lat":-6.263214,"i_long":106.851577},{"line":2,"i_long":106.85449,"transit":false,"is_transit":false,"station_id":"DRN","distance":824,"station_name":"Duren Kalibata","i_lat":-6.255332,"time":2},{"line":2,"is_transit":false,"distance":1546,"station_id":"CW","transit":false,"time":3,"station_name":"Cawang","i_lat":-6.242512,"i_long":106.856607},{"time":2,"station_name":"Tebet","transit":false,"i_lat":-6.226659,"is_transit":false,"station_id":"TEB","distance":1230,"line":2,"i_long":106.857948},{"station_name":"Manggarai","station_id":"MRI","transit":true,"time":4,"i_long":106.84912,"line":2,"distance":2610,"is_transit":true,"i_lat":-6.209883},{"is_transit":false,"i_lat":-6.202263,"transit":false,"line":1,"distance":3186,"i_long":106.822649,"time":4,"station_id":"SUD","station_name":"Sudirman"},{"i_lat":-6.201433,"distance":280,"i_long":106.819881,"station_name":"Sudirman Baru","time":1,"line":1,"transit":false,"station_id":"SUDB","is_transit":false},{"time":1,"transit":false,"station_name":"Karet","line":1,"distance":471,"is_transit":false,"i_lat":-6.20132,"i_long":106.816351,"station_id":"KAT"},{"transit":false,"station_name":"Tanah Abang","is_transit":false,"station_id":"THB","distance":2029,"i_lat":-6.185545,"line":1,"time":5,"i_long":106.811091},{"i_lat":-6.155215,"distance":3632,"time":8,"station_id":"DU","i_long":106.800832,"line":1,"station_name":"Duri","is_transit":false,"transit":false},{"station_id":"AK","i_long":106.79867,"time":4,"is_transit":false,"transit":false,"distance":1230,"line":1,"i_lat":-6.144674,"station_name":"Angke"},{"transit":true,"line":4,"distance":4102,"station_id":"KPB","i_long":106.826365,"is_transit":true,"station_name":"Kampung Bandan","i_lat":-6.132549,"time":9},{"line":11,"is_transit":false,"i_lat":-6.14505,"station_name":"Rajawali","transit":false,"i_long":106.836569,"station_id":"RJW","distance":1444,"time":3},{"time":5,"is_transit":false,"transit":false,"station_id":"KMO","station_name":"Kemayoran","i_lat":-6.161728,"line":11,"i_long":106.839204,"distance":1901},{"time":4,"i_long":106.84368,"is_transit":false,"station_name":"Pasar Senen","station_id":"PSE","distance":1436,"line":11,"transit":false,"i_lat":-6.174784},{"time":8,"station_name":"Gang Sentiong","i_lat":-6.185975,"station_id":"GST","is_transit":false,"transit":false,"distance":1567,"i_long":106.850107,"line":11},{"i_lat":-6.193792,"i_long":106.855437,"line":11,"distance":973,"time":1,"station_name":"Kramat","transit":false,"is_transit":false,"station_id":"KMT"},{"i_long":106.861737,"line":11,"time":2,"station_name":"Pondok Jati","distance":1829,"i_lat":-6.209188,"station_id":"POK","transit":false,"is_transit":false},{"i_long":106.86807400000001,"is_transit":true,"station_name":"Jatinegara","station_id":"JNG","i_lat":-6.215091,"line":1,"time":9,"distance":1236,"transit":true},{"distance":3395,"time":3,"is_transit":false,"line":1,"station_name":"Klender","i_lat":-6.2135,"transit":false,"i_long":106.899548,"station_id":"KLD"},{"is_transit":false,"i_lat":-6.215568,"transit":false,"station_id":"BUA","i_long":106.922662,"time":2,"distance":3100,"station_name":"Buaran","line":1},{"station_id":"KLDB","time":1,"transit":false,"is_transit":false,"i_lat":-6.217455,"line":1,"station_name":"Klenderbaru","distance":1305,"i_long":106.939679},{"station_id":"CUK","i_long":106.951283,"distance":1385,"i_lat":-6.219053,"line":1,"time":8,"transit":false,"is_transit":false,"station_name":"Cakung"},{"time":3,"station_name":"Kranji","transit":false,"i_long":106.977657,"line":1,"is_transit":false,"station_id":"KRI","i_lat":-6.224515,"distance":3097}],[{"transit":false,"i_long":106.824374,"line":21,"i_lat":-6.460735,"time":0,"station_name":"Pondok Rajeg","is_transit":false,"station_id":"PDRG","distance":0},{"i_long":106.800298,"i_lat":-6.448811,"is_transit":true,"station_name":"Citayam","distance":0,"station_id":"CTA","transit":true,"line":2,"time":0},{"line":2,"station_name":"Depok","distance":5084,"station_id":"DP","transit":false,"time":6,"is_transit":false,"i_long":106.816926,"i_lat":-6.405256},{"i_lat":-6.391065,"is_transit":false,"transit":false,"station_id":"DPB","station_name":"Depokbaru","time":3,"line":2,"i_long":106.819451,"distance":1584},{"distance":2727,"is_transit":false,"station_id":"POC","transit":false,"i_lat":-6.369073,"line":2,"station_name":"Pondok Cina","i_long":106.831114,"time":4},{"station_name":"Univ. Indonesia","i_lat":-6.360749,"transit":false,"station_id":"UI","is_transit":false,"i_long":106.831474,"time":2,"distance":1109,"line":2},{"station_name":"Univ. Pancasila","distance":2264,"transit":false,"line":2,"i_long":106.834175,"time":3,"is_transit":false,"station_id":"UP","i_lat":-6.339291},{"transit":false,"is_transit":false,"distance":1029,"station_name":"Lenteng Agung","station_id":"LNA","i_long":106.832616,"time":2,"line":2,"i_lat":-6.330363},{"i_lat":-6.3080680000000005,"is_transit":false,"distance":2671,"station_name":"Tanjung Barat","i_long":106.838896,"station_id":"TNT","transit":false,"line":2,"time":3},{"i_lat":-6.2842400000000005,"line":2,"station_id":"PSM","time":4,"i_long":106.843999,"station_name":"Pasar Minggu","distance":2820,"is_transit":false,"transit":false},{"transit":false,"station_id":"PSMB","i_long":106.851577,"line":2,"time":2,"station_name":"Pasar Minggu Baru","distance":2380,"i_lat":-6.263214,"is_transit":false},{"transit":false,"line":2,"station_name":"Duren Kalibata","i_long":106.85449,"station_id":"DRN","is_transit":false,"distance":824,"i_lat":-6.255332,"time":2},{"distance":1546,"i_long":106.856607,"i_lat":-6.242512,"is_transit":false,"line":2,"station_name":"Cawang","transit":false,"time":3,"station_id":"CW"},{"i_lat":-6.226659,"line":2,"i_long":106.857948,"time":2,"station_name":"Tebet","transit":false,"is_transit":false,"station_id":"TEB","distance":1230},{"line":2,"i_long":106.84912,"station_id":"MRI","is_transit":false,"station_name":"Manggarai","distance":2610,"transit":false,"time":4,"i_lat":-6.209883},{"i_long":106.840169,"station_name":"Cikini","station_id":"CKI","time":4,"distance":1590,"transit":false,"is_transit":false,"i_lat":-6.198556,"line":2},{"station_name":"Gondangdia","is_transit":false,"time":3,"transit":false,"i_long":106.832183,"station_id":"GDD","distance":1750,"i_lat":-6.186295,"line":2},{"is_transit":false,"time":4,"station_name":"Juanda","distance":2015,"i_lat":-6.166716,"transit":false,"i_long":106.828284,"line":2,"station_id":"JUA"},{"time":2,"transit":false,"distance":1149,"station_id":"SW","i_lat":-6.160725,"line":2,"station_name":"Sawah Besar","is_transit":false,"i_long":106.827103},{"time":2,"i_lat":-6.149769,"line":2,"i_long":106.82482,"is_transit":false,"distance":906,"transit":false,"station_id":"MGB","station_name":"Manggabesar"},{"i_long":106.820901,"transit":false,"is_transit":false,"line":2,"time":2,"station_id":"JAY","i_lat":-6.141205,"station_name":"Jayakarta","distance":1080},{"distance":1264,"is_transit":true,"station_id":"JAKK","i_lat":-6.137569,"i_long":106.812439,"transit":true,"time":4,"station_name":"Jakarta Kota","line":2},{"station_id":"KPB","distance":1364,"time":3,"station_name":"Kampung Bandan","transit":true,"i_long":106.826365,"line":4,"is_transit":true,"i_lat":-6.132549},{"i_lat":-6.14505,"station_id":"RJW","line":11,"is_transit":false,"i_long":106.836569,"station_name":"Rajawali","distance":1444,"time":3,"transit":false},{"line":11,"i_long":106.839204,"time":5,"transit":false,"distance":1901,"station_name":"Kemayoran","is_transit":false,"i_lat":-6.161728,"station_id":"KMO"},{"distance":1436,"line":11,"is_transit":false,"i_long":106.84368,"transit":false,"time":4,"station_id":"PSE","i_lat":-6.174784,"station_name":"Pasar Senen"},{"distance":1567,"i_lat":-6.185975,"transit":false,"time":8,"station_id":"GST","line":11,"is_transit":false,"station_name":"Gang Sentiong","i_long":106.850107},{"distance":973,"i_long":106.855437,"line":11,"time":1,"station_name":"Kramat","is_transit":false,"station_id":"KMT","i_lat":-6.193792,"transit":false},{"i_lat":-6.209188,"time":2,"transit":false,"station_id":"POK","distance":1829,"is_transit":false,"line":11,"station_name":"Pondok Jati","i_long":106.861737},{"station_name":"Jatinegara","distance":1236,"i_long":106.86807400000001,"is_transit":true,"line":1,"station_id":"JNG","time":9,"i_lat":-6.215091,"transit":true},{"is_transit":false,"distance":3395,"transit":false,"line":1,"i_lat":-6.2135,"i_long":106.899548,"station_id":"KLD","time":3,"station_name":"Klender"},{"is_transit":false,"station_name":"Buaran","i_lat":-6.215568,"line":1,"station_id":"BUA","i_long":106.922662,"distance":3100,"transit":false,"time":2},{"time":1,"i_lat":-6.217455,"i_long":106.939679,"distance":1305,"station_id":"KLDB","station_name":"Klenderbaru","is_transit":false,"transit":false,"line":1},{"i_long":106.951283,"station_name":"Cakung","transit":false,"i_lat":-6.219053,"distance":1385,"is_transit":false,"line":1,"station_id":"CUK","time":8},{"distance":3097,"station_name":"Kranji","i_long":106.977657,"station_id":"KRI","line":1,"time":3,"is_transit":false,"transit":false,"i_lat":-6.224515}]]}