{"data":[[{"is_transit":false,"i_long":106.824374,"station_id":"PDRG","i_lat":-6.460735,"station_name":"Pondok Rajeg","line":21,"distance":0,"time":0,"transit":false},{"is_transit":true,"distance":0,"time":0,"transit":true,"i_lat":-6.448811,"i_long":106.800298,"station_id":"CTA","station_name":"Citayam","line":2},{"time":6,"transit":false,"station_name":"Depok","is_transit":false,"i_lat":-6.405256,"line":2,"i_long":106.816926,"distance":5084,"station_id":"DP"},{"is_transit":false,"time":3,"i_long":106.819451,"distance":1584,"station_id":"DPB","station_name":"Depokbaru","transit":false,"i_lat":-6.391065,"line":2},{"distance":2727,"station_id":"POC","transit":false,"i_long":106.831114,"i_lat":-6.369073,"time":4,"line":2,"station_name":"Pondok Cina","is_transit":false},{"is_transit":false,"i_long":106.831474,"line":2,"distance":1109,"time":2,"station_id":"UI","transit":false,"i_lat":-6.360749,"station_name":"Univ. Indonesia"},{"i_lat":-6.339291,"i_long":106.834175,"is_transit":false,"transit":false,"station_name":"Univ. Pancasila","line":2,"time":3,"distance":2264,"station_id":"UP"},{"distance":1029,"is_transit":false,"i_long":106.832616,"station_name":"Lenteng Agung","line":2,"station_id":"LNA","transit":false,"i_lat":-6.330363,"time":2},{"time":3,"station_id":"TNT","is_transit":false,"transit":false,"station_name":"Tanjung Barat","distance":2671,"i_long":106.838896,"line":2,"i_lat":-6.3080680000000005},{"line":2,"distance":2820,"time":4,"station_name":"Pasar Minggu","i_lat":-6.2842400000000005,"station_id":"PSM","transit":false,"i_long":106.843999,"is_transit":false},{"is_transit":false,"transit":false,"distance":2380,"i_long":106.851577,"i_lat":-6.263214,"time":2,"line":2,"station_id":"PSMB","station_name":"Pasar Minggu Baru"}]]}