{"data":[[{"i_lat":-6.460735,"transit":false,"station_name":"Pondok Rajeg","distance":0,"i_long":106.824374,"station_id":"PDRG","line":21,"time":0,"is_transit":false},{"distance":0,"i_long":106.800298,"transit":true,"station_name":"Citayam","station_id":"CTA","i_lat":-6.448811,"time":0,"is_transit":true,"line":2},{"is_transit":false,"i_lat":-6.493243,"distance":5197,"i_long":106.792719,"line":2,"time":5,"transit":false,"station_name":"Bojonggede","station_id":"BJD"},{"is_transit":false,"transit":false,"line":2,"station_id":"CLT","station_name":"Cilebut","time":5,"i_lat":-6.530544,"i_long":106.800016,"distance":4331},{"i_lat":-6.594596,"is_transit":false,"transit":false,"station_id":"BOO","time":9,"i_long":106.790574,"station_name":"Bogor","line":2,"distance":7514}]]}