{"data":[[{"distance":0,"line":21,"time":0,"station_name":"Pondok Rajeg","station_id":"PDRG","i_long":106.824374,"transit":false,"is_transit":false,"i_lat":-6.460735},{"is_transit":true,"station_id":"CTA","distance":0,"station_name":"Citayam","time":0,"i_lat":-6.448811,"line":2,"i_long":106.800298,"transit":true},{"line":2,"station_id":"DP","is_transit":false,"station_name":"Depok","i_lat":-6.405256,"distance":5084,"time":6,"i_long":106.816926,"transit":false},{"station_id":"DPB","time":3,"distance":1584,"transit":false,"i_lat":-6.391065,"i_long":106.819451,"line":2,"station_name":"Depokbaru","is_transit":false},{"transit":false,"station_name":"Pondok Cina","is_transit":false,"i_lat":-6.369073,"station_id":"POC","distance":2727,"line":2,"i_long":106.831114,"time":4},{"time":2,"station_name":"Univ. Indonesia","line":2,"is_transit":false,"i_long":106.831474,"i_lat":-6.360749,"distance":1109,"transit":false,"station_id":"UI"}]]}