{"data":[[{"transit":false,"is_transit":false,"i_lat":-6.460735,"station_id":"PDRG","i_long":106.824374,"line":21,"distance":0,"time":0,"station_name":"Pondok Rajeg"},{"i_lat":-6.448811,"station_id":"CTA","time":0,"station_name":"Citayam","distance":0,"line":2,"transit":true,"is_transit":true,"i_long":106.800298},{"time":6,"distance":5084,"station_name":"Depok","transit":false,"line":2,"is_transit":false,"station_id":"DP","i_long":106.816926,"i_lat":-6.405256},{"is_transit":false,"i_long":106.819451,"station_id":"DPB","station_name":"Depokbaru","time":3,"distance":1584,"transit":false,"i_lat":-6.391065,"line":2},{"station_id":"POC","i_lat":-6.369073,"station_name":"Pondok Cina","is_transit":false,"i_long":106.831114,"line":2,"distance":2727,"transit":false,"time":4},{"is_transit":false,"line":2,"station_id":"UI","transit":false,"i_lat":-6.360749,"distance":1109,"i_long":106.831474,"station_name":"Univ. Indonesia","time":2},{"line":2,"distance":2264,"station_id":"UP","station_name":"Univ. Pancasila","transit":false,"is_transit":false,"time":3,"i_lat":-6.339291,"i_long":106.834175},{"time":2,"i_lat":-6.330363,"station_name":"Lenteng Agung","i_long":106.832616,"is_transit":false,"distance":1029,"station_id":"LNA","line":2,"transit":false},{"i_lat":-6.3080680000000005,"distance":2671,"transit":false,"i_long":106.838896,"station_name":"Tanjung Barat","station_id":"TNT","line":2,"time":3,"is_transit":false},{"distance":2820,"is_transit":false,"time":4,"station_id":"PSM","station_name":"Pasar Minggu","i_lat":-6.2842400000000005,"line":2,"i_long":106.843999,"transit":false},{"station_name":"Pasar Minggu Baru","i_long":106.851577,"line":2,"is_transit":false,"distance":2380,"time":2,"station_id":"PSMB","i_lat":-6.263214,"transit":false},{"i_long":106.85449,"i_lat":-6.255332,"is_transit":false,"line":2,"distance":824,"station_name":"Duren Kalibata","time":2,"transit":false,"station_id":"DRN"},{"time":3,"station_id":"CW","distance":1546,"transit":false,"i_lat":-6.242512,"line":2,"station_name":"Cawang","is_transit":false,"i_long":106.856607},{"is_transit":false,"station_name":"Tebet","transit":false,"line":2,"time":2,"i_long":106.857948,"i_lat":-6.226659,"distance":1230,"station_id":"TEB"},{"transit":true,"i_long":106.84912,"line":2,"distance":2610,"i_lat":-6.209883,"station_id":"MRI","station_name":"Manggarai","is_transit":true,"time":4},{"is_transit":false,"i_lat":-6.202263,"transit":false,"line":1,"station_name":"Sudirman","time":4,"i_long":106.822649,"distance":3186,"station_id":"SUD"},{"transit":false,"time":1,"station_id":"SUDB","distance":280,"station_name":"Sudirman Baru","is_transit":false,"i_long":106.819881,"line":1,"i_lat":-6.201433},{"distance":471,"i_lat":-6.20132,"transit":false,"line":1,"time":1,"i_long":106.816351,"station_name":"Karet","is_transit":false,"station_id":"KAT"},{"line":1,"station_name":"Tanah Abang","transit":true,"distance":2029,"time":5,"station_id":"THB","i_lat":-6.185545,"i_long":106.811091,"is_transit":true},{"line":6,"distance":3191,"transit":false,"station_name":"Palmerah","station_id":"PLM","time":6,"i_lat":-6.207404,"is_transit":false,"i_long":106.79689},{"station_id":"KBY","line":6,"time":7,"i_long":106.780334,"is_transit":false,"station_name":"Kebayoran","i_lat":-6.237242,"distance":3737,"transit":false},{"i_lat":-6.276362,"transit":false,"time":8,"station_name":"Pondokranji","i_long":106.74273,"distance":6218,"is_transit":false,"line":6,"station_id":"PDJ"},{"transit":false,"i_long":106.728916,"station_name":"Jurangmangu","distance":2179,"station_id":"JMU","time":3,"is_transit":false,"i_lat":-6.288927,"line":6},{"time":4,"i_long":106.712277,"station_id":"SDM","i_lat":-6.296963,"station_name":"Sudimara","line":6,"is_transit":false,"distance":1994,"transit":false},{"time":6,"distance":4566,"is_transit":false,"transit":false,"station_name":"Rawa Buntu","i_long":106.675475,"line":6,"station_id":"RU","i_lat":-6.314823},{"station_name":"Serpong","time":4,"distance":2413,"transit":false,"i_lat":-6.319871,"i_long":106.66566,"is_transit":false,"station_id":"SRP","line":6},{"distance":1784,"station_id":"CSK","i_long":106.640411,"line":3,"transit":false,"station_name":"Cisauk","is_transit":false,"i_lat":-6.32484,"time":4},{"i_long":106.617853,"line":3,"station_name":"Cicayur","time":4,"station_id":"CC","is_transit":false,"i_lat":-6.329547,"transit":false,"distance":2519},{"distance":5968,"line":6,"i_long":106.568863,"i_lat":-6.3441410000000005,"time":8,"is_transit":false,"station_name":"Parung Panjang","transit":false,"station_id":"PRP"},{"time":9,"distance":7025,"i_lat":-6.354349,"transit":false,"station_name":"Cilejit","i_long":106.508482,"is_transit":false,"station_id":"CJT","line":3},{"distance":2675,"i_long":106.491338,"transit":false,"station_id":"DAR","time":6,"is_transit":false,"line":0,"station_name":"Daru","i_lat":-6.338021}],[{"time":0,"is_transit":false,"distance":0,"station_id":"PDRG","transit":false,"line":21,"i_long":106.824374,"station_name":"Pondok Rajeg","i_lat":-6.460735},{"station_name":"Citayam","time":0,"is_transit":true,"i_long":106.800298,"distance":0,"transit":true,"line":2,"i_lat":-6.448811,"station_id":"CTA"},{"is_transit":false,"station_id":"DP","i_lat":-6.405256,"transit":false,"line":2,"time":6,"i_long":106.816926,"distance":5084,"station_name":"Depok"},{"line":2,"is_transit":false,"time":3,"station_name":"Depokbaru","i_lat":-6.391065,"station_id":"DPB","transit":false,"distance":1584,"i_long":106.819451},{"i_lat":-6.369073,"station_id":"POC","station_name":"Pondok Cina","time":4,"distance":2727,"i_long":106.831114,"transit":false,"line":2,"is_transit":false},{"i_long":106.831474,"transit":false,"station_name":"Univ. Indonesia","distance":1109,"time":2,"is_transit":false,"i_lat":-6.360749,"station_id":"UI","line":2},{"distance":2264,"line":2,"transit":false,"is_transit":false,"i_long":106.834175,"station_id":"UP","station_name":"Univ. Pancasila","i_lat":-6.339291,"time":3},{"distance":1029,"transit":false,"time":2,"i_long":106.832616,"is_transit":false,"station_name":"Lenteng Agung","i_lat":-6.330363,"station_id":"LNA","line":2},{"i_lat":-6.3080680000000005,"time":3,"station_name":"Tanjung Barat","distance":2671,"station_id":"TNT","i_long":106.838896,"line":2,"transit":false,"is_transit":false},{"station_id":"PSM","time":4,"is_transit":false,"transit":false,"station_name":"Pasar Minggu","line":2,"i_long":106.843999,"distance":2820,"i_lat":-6.2842400000000005},{"time":2,"distance":2380,"station_name":"Pasar Minggu Baru","i_long":106.851577,"line":2,"station_id":"PSMB","transit":false,"is_transit":false,"i_lat":-6.263214},{"is_transit":false,"station_id":"DRN","line":2,"station_name":"Duren Kalibata","i_lat":-6.255332,"distance":824,"time":2,"transit":false,"i_long":106.85449},{"i_long":106.856607,"time":3,"transit":false,"distance":1546,"station_name":"Cawang","i_lat":-6.242512,"line":2,"station_id":"CW","is_transit":false},{"distance":1230,"transit":false,"station_name":"Tebet","station_id":"TEB","is_transit":false,"i_lat":-6.226659,"time":2,"line":2,"i_long":106.857948},{"is_transit":false,"i_long":106.84912,"time":4,"line":2,"i_lat":-6.209883,"station_name":"Manggarai","station_id":"MRI","transit":false,"distance":2610},{"i_long":106.840169,"distance":1590,"station_id":"CKI","station_name":"Cikini","i_lat":-6.198556,"is_transit":false,"time":4,"transit":false,"line":2},{"station_id":"GDD","transit":false,"time":3,"distance":1750,"station_name":"Gondangdia","line":2,"i_long":106.832183,"is_transit":false,"i_lat":-6.186295},{"i_long":106.828284,"station_name":"Juanda","is_transit":false,"distance":2015,"station_id":"JUA","line":2,"transit":false,"i_lat":-6.166716,"time":4},{"station_name":"Sawah Besar","transit":false,"is_transit":false,"i_long":106.827103,"distance":1149,"i_lat":-6.160725,"station_id":"SW","line":2,"time":2},{"line":2,"station_name":"Manggabesar","distance":906,"transit":false,"i_lat":-6.149769,"is_transit":false,"i_long":106.82482,"time":2,"station_id":"MGB"},{"distance":1080,"i_lat":-6.141205,"station_id":"JAY","transit":false,"time":2,"i_long":106.820901,"line":2,"station_name":"Jayakarta","is_transit":false},{"station_name":"Jakarta Kota","time":4,"station_id":"JAKK","distance":1264,"i_lat":-6.137569,"line":2,"transit":true,"is_transit":true,"i_long":106.812439},{"station_name":"Kampung Bandan","i_long":106.826365,"is_transit":true,"time":3,"station_id":"KPB","transit":true,"i_lat":-6.132549,"distance":1364,"line":4},{"is_transit":false,"transit":false,"station_id":"AK","time":9,"i_lat":-6.144674,"i_long":106.79867,"station_name":"Angke","distance":4102,"line":1},{"line":1,"is_transit":false,"i_lat":-6.155215,"i_long":106.800832,"time":4,"transit":false,"station_id":"DU","station_name":"Duri","distance":1230},{"line":1,"time":8,"i_long":106.811091,"transit":true,"station_id":"THB","is_transit":true,"distance":3632,"station_name":"Tanah Abang","i_lat":-6.185545},{"distance":3191,"line":6,"i_lat":-6.207404,"is_transit":false,"time":6,"i_long":106.79689,"transit":false,"station_name":"Palmerah","station_id":"PLM"},{"time":7,"is_transit":false,"i_long":106.780334,"i_lat":-6.237242,"distance":3737,"transit":false,"station_name":"Kebayoran","station_id":"KBY","line":6},{"distance":6218,"station_name":"Pondokranji","time":8,"i_long":106.74273,"station_id":"PDJ","transit":false,"is_transit":false,"i_lat":-6.276362,"line":6},{"transit":false,"i_long":106.728916,"i_lat":-6.288927,"station_id":"JMU","line":6,"station_name":"Jurangmangu","is_transit":false,"time":3,"distance":2179},{"is_transit":false,"station_id":"SDM","i_lat":-6.296963,"i_long":106.712277,"line":6,"time":4,"distance":1994,"transit":false,"station_name":"Sudimara"},{"time":6,"station_name":"Rawa Buntu","i_lat":-6.314823,"distance":4566,"transit":false,"line":6,"i_long":106.675475,"is_transit":false,"station_id":"RU"},{"is_transit":false,"station_name":"Serpong","time":4,"transit":false,"distance":2413,"i_long":106.66566,"line":6,"i_lat":-6.319871,"station_id":"SRP"},{"time":4,"station_name":"Cisauk","i_lat":-6.32484,"is_transit":false,"distance":1784,"i_long":106.640411,"transit":false,"line":3,"station_id":"CSK"},{"transit":false,"station_id":"CC","station_name":"Cicayur","distance":2519,"i_long":106.617853,"is_transit":false,"line":3,"i_lat":-6.329547,"time":4},{"transit":false,"time":8,"line":6,"distance":5968,"station_id":"PRP","station_name":"Parung Panjang","is_transit":false,"i_lat":-6.3441410000000005,"i_long":106.568863},{"station_id":"CJT","i_lat":-6.354349,"time":9,"transit":false,"station_name":"Cilejit","is_transit":false,"line":3,"i_long":106.508482,"distance":7025},{"station_name":"Daru","is_transit":false,"time":6,"line":0,"station_id":"DAR","i_lat":-6.338021,"i_long":106.491338,"transit":false,"distance":2675}],[{"time":0,"i_long":106.824374,"is_transit":false,"line":21,"station_name":"Pondok Rajeg","station_id":"PDRG","i_lat":-6.460735,"transit":false,"distance":0},{"station_id":"CTA","i_long":106.800298,"station_name":"Citayam","i_lat":-6.448811,"is_transit":true,"line":2,"time":0,"distance":0,"transit":true},{"distance":5084,"is_transit":false,"transit":false,"time":6,"station_name":"Depok","station_id":"DP","i_lat":-6.405256,"line":2,"i_long":106.816926},{"i_lat":-6.391065,"transit":false,"distance":1584,"station_name":"Depokbaru","is_transit":false,"line":2,"station_id":"DPB","time":3,"i_long":106.819451},{"station_id":"POC","i_long":106.831114,"station_name":"Pondok Cina","transit":false,"i_lat":-6.369073,"line":2,"time":4,"is_transit":false,"distance":2727},{"line":2,"i_lat":-6.360749,"station_id":"UI","is_transit":false,"station_name":"Univ. Indonesia","transit":false,"distance":1109,"i_long":106.831474,"time":2},{"line":2,"i_lat":-6.339291,"station_id":"UP","transit":false,"is_transit":false,"i_long":106.834175,"distance":2264,"time":3,"station_name":"Univ. Pancasila"},{"is_transit":false,"time":2,"i_long":106.832616,"line":2,"distance":1029,"station_name":"Lenteng Agung","station_id":"LNA","i_lat":-6.330363,"transit":false},{"i_lat":-6.3080680000000005,"is_transit":false,"station_id":"TNT","i_long":106.838896,"station_name":"Tanjung Barat","distance":2671,"line":2,"transit":false,"time":3},{"transit":false,"distance":2820,"station_name":"Pasar Minggu","i_long":106.843999,"time":4,"i_lat":-6.2842400000000005,"line":2,"station_id":"PSM","is_transit":false},{"i_long":106.851577,"distance":2380,"time":2,"station_name":"Pasar Minggu Baru","station_id":"PSMB","line":2,"transit":false,"is_transit":false,"i_lat":-6.263214},{"station_name":"Duren Kalibata","is_transit":false,"distance":824,"transit":false,"time":2,"i_long":106.85449,"i_lat":-6.255332,"station_id":"DRN","line":2},{"station_name":"Cawang","time":3,"is_transit":false,"distance":1546,"line":2,"transit":false,"station_id":"CW","i_lat":-6.242512,"i_long":106.856607},{"station_id":"TEB","distance":1230,"station_name":"Tebet","i_lat":-6.226659,"time":2,"i_long":106.857948,"transit":false,"line":2,"is_transit":false},{"i_lat":-6.209883,"time":4,"transit":true,"station_name":"Manggarai","is_transit":true,"i_long":106.84912,"distance":2610,"line":2,"station_id":"MRI"},{"time":2,"i_lat":-6.212485,"transit":false,"station_id":"MTR","distance":1275,"line":1,"station_name":"Matraman","is_transit":false,"i_long":106.858896},{"station_id":"JNG","time":8,"station_name":"Jatinegara","distance":1377,"i_lat":-6.215091,"is_transit":true,"i_long":106.86807400000001,"line":1,"transit":true},{"is_transit":false,"i_long":106.861737,"line":11,"transit":false,"station_id":"POK","time":2,"i_lat":-6.209188,"station_name":"Pondok Jati","distance":1236},{"transit":false,"is_transit":false,"time":2,"station_name":"Kramat","station_id":"KMT","i_long":106.855437,"i_lat":-6.193792,"distance":1829,"line":11},{"line":11,"distance":973,"i_lat":-6.185975,"i_long":106.850107,"station_id":"GST","transit":false,"station_name":"Gang Sentiong","is_transit":false,"time":1},{"time":8,"transit":false,"distance":1567,"station_name":"Pasar Senen","i_lat":-6.174784,"station_id":"PSE","i_long":106.84368,"line":11,"is_transit":false},{"transit":false,"is_transit":false,"distance":1436,"i_lat":-6.161728,"i_long":106.839204,"station_name":"Kemayoran","line":11,"time":4,"station_id":"KMO"},{"time":5,"station_id":"RJW","is_transit":false,"distance":1901,"transit":false,"i_long":106.836569,"i_lat":-6.14505,"station_name":"Rajawali","line":11},{"i_lat":-6.132549,"line":4,"i_long":106.826365,"is_transit":true,"transit":true,"station_name":"Kampung Bandan","distance":1444,"station_id":"KPB","time":3},{"station_id":"AK","i_lat":-6.144674,"i_long":106.79867,"transit":false,"station_name":"Angke","line":1,"is_transit":false,"time":9,"distance":4102},{"station_name":"Duri","is_transit":false,"time":4,"i_lat":-6.155215,"i_long":106.800832,"station_id":"DU","line":1,"distance":1230,"transit":false},{"transit":true,"line":1,"station_name":"Tanah Abang","station_id":"THB","is_transit":true,"i_lat":-6.185545,"distance":3632,"time":8,"i_long":106.811091},{"distance":3191,"station_name":"Palmerah","i_long":106.79689,"line":6,"transit":false,"is_transit":false,"station_id":"PLM","time":6,"i_lat":-6.207404},{"line":6,"is_transit":false,"distance":3737,"i_lat":-6.237242,"i_long":106.780334,"station_name":"Kebayoran","time":7,"station_id":"KBY","transit":false},{"is_transit":false,"station_id":"PDJ","station_name":"Pondokranji","transit":false,"distance":6218,"i_lat":-6.276362,"line":6,"time":8,"i_long":106.74273},{"station_id":"JMU","transit":false,"i_lat":-6.288927,"i_long":106.728916,"station_name":"Jurangmangu","distance":2179,"is_transit":false,"line":6,"time":3},{"time":4,"i_lat":-6.296963,"transit":false,"i_long":106.712277,"line":6,"station_id":"SDM","distance":1994,"is_transit":false,"station_name":"Sudimara"},{"i_long":106.675475,"line":6,"is_transit":false,"distance":4566,"time":6,"station_id":"RU","i_lat":-6.314823,"transit":false,"station_name":"Rawa Buntu"},{"station_name":"Serpong","transit":false,"distance":2413,"i_lat":-6.319871,"i_long":106.66566,"time":4,"line":6,"is_transit":false,"station_id":"SRP"},{"line":3,"transit":false,"is_transit":false,"distance":1784,"i_long":106.640411,"station_name":"Cisauk","station_id":"CSK","i_lat":-6.32484,"time":4},{"distance":2519,"time":4,"transit":false,"station_name":"Cicayur","line":3,"is_transit":false,"station_id":"CC","i_lat":-6.329547,"i_long":106.617853},{"time":8,"i_long":106.568863,"is_transit":false,"station_name":"Parung Panjang","station_id":"PRP","line":6,"transit":false,"distance":5968,"i_lat":-6.3441410000000005},{"station_id":"CJT","distance":7025,"i_long":106.508482,"is_transit":false,"time":9,"line":3,"station_name":"Cilejit","i_lat":-6.354349,"transit":false},{"time":6,"is_transit":false,"line":0,"i_lat":-6.338021,"station_name":"Daru","distance":2675,"station_id":"DAR","i_long":106.491338,"transit":false}]]}