{"data":[[{"line":21,"station_id":"PDRG","time":0,"i_long":106.824374,"is_transit":false,"distance":0,"station_name":"Pondok Rajeg","i_lat":-6.460735,"transit":false},{"station_id":"CTA","is_transit":true,"line":2,"distance":0,"transit":true,"i_lat":-6.448811,"time":0,"station_name":"Citayam","i_long":106.800298},{"line":2,"time":6,"is_transit":false,"distance":5084,"station_id":"DP","transit":false,"station_name":"Depok","i_lat":-6.405256,"i_long":106.816926},{"station_name":"Depokbaru","distance":1584,"line":2,"transit":false,"i_lat":-6.391065,"i_long":106.819451,"station_id":"DPB","time":3,"is_transit":false},{"time":4,"station_id":"POC","is_transit":false,"transit":false,"i_lat":-6.369073,"i_long":106.831114,"distance":2727,"station_name":"Pondok Cina","line":2},{"station_id":"UI","transit":false,"i_long":106.831474,"line":2,"station_name":"Univ. Indonesia","distance":1109,"i_lat":-6.360749,"time":2,"is_transit":false},{"time":3,"i_lat":-6.339291,"line":2,"station_name":"Univ. Pancasila","transit":false,"is_transit":false,"i_long":106.834175,"station_id":"UP","distance":2264},{"is_transit":false,"distance":1029,"time":2,"station_id":"LNA","transit":false,"station_name":"Lenteng Agung","i_lat":-6.330363,"line":2,"i_long":106.832616},{"i_long":106.838896,"station_name":"Tanjung Barat","time":3,"distance":2671,"transit":false,"station_id":"TNT","is_transit":false,"line":2,"i_lat":-6.3080680000000005},{"is_transit":false,"distance":2820,"transit":false,"station_id":"PSM","i_lat":-6.2842400000000005,"i_long":106.843999,"line":2,"time":4,"station_name":"Pasar Minggu"},{"station_name":"Pasar Minggu Baru","i_long":106.851577,"time":2,"station_id":"PSMB","is_transit":false,"transit":false,"i_lat":-6.263214,"line":2,"distance":2380},{"station_id":"DRN","i_long":106.85449,"transit":false,"is_transit":false,"station_name":"Duren Kalibata","line":2,"distance":824,"time":2,"i_lat":-6.255332},{"is_transit":false,"line":2,"i_long":106.856607,"transit":false,"time":3,"distance":1546,"station_id":"CW","station_name":"Cawang","i_lat":-6.242512},{"is_transit":false,"line":2,"transit":false,"i_long":106.857948,"station_id":"TEB","station_name":"Tebet","distance":1230,"i_lat":-6.226659,"time":2},{"station_name":"Manggarai","i_long":106.84912,"line":2,"transit":true,"i_lat":-6.209883,"distance":2610,"is_transit":true,"time":4,"station_id":"MRI"},{"station_id":"MTR","i_long":106.858896,"transit":false,"time":2,"distance":1275,"is_transit":false,"station_name":"Matraman","i_lat":-6.212485,"line":1},{"time":8,"transit":false,"station_name":"Jatinegara","line":1,"distance":1377,"is_transit":false,"i_lat":-6.215091,"i_long":106.86807400000001,"station_id":"JNG"},{"i_lat":-6.2135,"transit":false,"distance":3395,"i_long":106.899548,"time":3,"line":1,"station_name":"Klender","is_transit":false,"station_id":"KLD"},{"transit":false,"time":2,"is_transit":false,"distance":3100,"station_name":"Buaran","i_long":106.922662,"line":1,"i_lat":-6.215568,"station_id":"BUA"},{"station_id":"KLDB","i_long":106.939679,"line":1,"i_lat":-6.217455,"transit":false,"distance":1305,"station_name":"Klenderbaru","is_transit":false,"time":1},{"i_long":106.951283,"time":8,"station_id":"CUK","station_name":"Cakung","transit":false,"distance":1385,"i_lat":-6.219053,"is_transit":false,"line":1},{"i_long":106.977657,"station_name":"Kranji","station_id":"KRI","distance":3097,"transit":false,"i_lat":-6.224515,"time":3,"is_transit":false,"line":1},{"is_transit":false,"i_long":106.997013,"station_id":"BKS","transit":false,"time":4,"line":1,"station_name":"Bekasi","distance":2520,"i_lat":-6.236616},{"station_name":"Bekasi Timur","i_lat":-6.248029,"station_id":"BKST","transit":false,"time":2,"is_transit":false,"i_long":107.016735,"line":1,"distance":2368},{"i_long":107.055722,"is_transit":false,"line":1,"transit":false,"station_name":"Tambun","distance":4460,"time":7,"i_lat":-6.258864,"station_id":"TB"}],[{"distance":0,"i_long":106.824374,"time":0,"transit":false,"i_lat":-6.460735,"line":21,"station_name":"Pondok Rajeg","is_transit":false,"station_id":"PDRG"},{"station_name":"Citayam","transit":true,"time":0,"is_transit":true,"station_id":"CTA","distance":0,"i_long":106.800298,"i_lat":-6.448811,"line":2},{"line":2,"station_id":"DP","transit":false,"is_transit":false,"i_lat":-6.405256,"time":6,"distance":5084,"station_name":"Depok","i_long":106.816926},{"is_transit":false,"station_id":"DPB","station_name":"Depokbaru","transit":false,"line":2,"i_lat":-6.391065,"i_long":106.819451,"time":3,"distance":1584},{"i_lat":-6.369073,"i_long":106.831114,"station_name":"Pondok Cina","transit":false,"station_id":"POC","is_transit":false,"distance":2727,"line":2,"time":4},{"i_long":106.831474,"line":2,"distance":1109,"is_transit":false,"station_id":"UI","transit":false,"time":2,"station_name":"Univ. Indonesia","i_lat":-6.360749},{"transit":false,"is_transit":false,"i_lat":-6.339291,"i_long":106.834175,"station_id":"UP","time":3,"line":2,"station_name":"Univ. Pancasila","distance":2264},{"i_lat":-6.330363,"i_long":106.832616,"is_transit":false,"distance":1029,"transit":false,"time":2,"station_id":"LNA","line":2,"station_name":"Lenteng Agung"},{"line":2,"station_id":"TNT","transit":false,"is_transit":false,"time":3,"distance":2671,"i_lat":-6.3080680000000005,"station_name":"Tanjung Barat","i_long":106.838896},{"i_lat":-6.2842400000000005,"i_long":106.843999,"station_name":"Pasar Minggu","station_id":"PSM","line":2,"transit":false,"time":4,"is_transit":false,"distance":2820},{"transit":false,"i_lat":-6.263214,"time":2,"line":2,"is_transit":false,"distance":2380,"station_name":"Pasar Minggu Baru","station_id":"PSMB","i_long":106.851577},{"station_name":"Duren Kalibata","transit":false,"station_id":"DRN","distance":824,"i_long":106.85449,"line":2,"time":2,"is_transit":false,"i_lat":-6.255332},{"i_long":106.856607,"line":2,"station_id":"CW","distance":1546,"time":3,"i_lat":-6.242512,"transit":false,"is_transit":false,"station_name":"Cawang"},{"line":2,"transit":false,"is_transit":false,"station_name":"Tebet","i_lat":-6.226659,"station_id":"TEB","time":2,"distance":1230,"i_long":106.857948},{"distance":2610,"station_name":"Manggarai","i_lat":-6.209883,"transit":true,"is_transit":true,"time":4,"i_long":106.84912,"line":2,"station_id":"MRI"},{"distance":3186,"is_transit":false,"station_id":"SUD","line":1,"i_lat":-6.202263,"transit":false,"station_name":"Sudirman","i_long":106.822649,"time":4},{"line":1,"station_name":"Sudirman Baru","is_transit":false,"distance":280,"time":1,"i_lat":-6.201433,"station_id":"SUDB","i_long":106.819881,"transit":false},{"transit":false,"line":1,"station_id":"KAT","i_lat":-6.20132,"time":1,"i_long":106.816351,"station_name":"Karet","distance":471,"is_transit":false},{"is_transit":false,"station_id":"THB","i_lat":-6.185545,"i_long":106.811091,"station_name":"Tanah Abang","transit":false,"distance":2029,"time":5,"line":1},{"is_transit":false,"time":8,"station_id":"DU","i_lat":-6.155215,"i_long":106.800832,"station_name":"Duri","line":1,"transit":false,"distance":3632},{"station_name":"Angke","distance":1230,"transit":false,"i_lat":-6.144674,"i_long":106.79867,"line":1,"is_transit":false,"time":4,"station_id":"AK"},{"station_name":"Kampung Bandan","time":9,"transit":true,"station_id":"KPB","i_long":106.826365,"line":4,"is_transit":true,"distance":4102,"i_lat":-6.132549},{"station_name":"Rajawali","distance":1444,"i_lat":-6.14505,"i_long":106.836569,"time":3,"is_transit":false,"line":11,"transit":false,"station_id":"RJW"},{"station_id":"KMO","line":11,"i_long":106.839204,"time":5,"is_transit":false,"distance":1901,"i_lat":-6.161728,"transit":false,"station_name":"Kemayoran"},{"station_id":"PSE","i_long":106.84368,"distance":1436,"line":11,"is_transit":false,"transit":false,"time":4,"i_lat":-6.174784,"station_name":"Pasar Senen"},{"station_name":"Gang Sentiong","i_lat":-6.185975,"time":8,"transit":false,"is_transit":false,"distance":1567,"line":11,"station_id":"GST","i_long":106.850107},{"transit":false,"station_id":"KMT","distance":973,"time":1,"line":11,"i_lat":-6.193792,"station_name":"Kramat","i_long":106.855437,"is_transit":false},{"is_transit":false,"distance":1829,"time":2,"station_id":"POK","transit":false,"line":11,"i_lat":-6.209188,"i_long":106.861737,"station_name":"Pondok Jati"},{"i_lat":-6.215091,"line":1,"station_name":"Jatinegara","station_id":"JNG","transit":true,"distance":1236,"i_long":106.86807400000001,"is_transit":true,"time":9},{"i_long":106.899548,"i_lat":-6.2135,"distance":3395,"time":3,"station_name":"Klender","station_id":"KLD","is_transit":false,"line":1,"transit":false},{"i_lat":-6.215568,"is_transit":false,"time":2,"i_long":106.922662,"line":1,"station_name":"Buaran","transit":false,"distance":3100,"station_id":"BUA"},{"is_transit":false,"distance":1305,"time":1,"line":1,"i_long":106.939679,"station_name":"Klenderbaru","transit":false,"station_id":"KLDB","i_lat":-6.217455},{"time":8,"station_id":"CUK","i_long":106.951283,"i_lat":-6.219053,"is_transit":false,"distance":1385,"line":1,"transit":false,"station_name":"Cakung"},{"is_transit":false,"time":3,"i_lat":-6.224515,"station_name":"Kranji","distance":3097,"line":1,"i_long":106.977657,"transit":false,"station_id":"KRI"},{"line":1,"distance":2520,"time":4,"station_id":"BKS","i_lat":-6.236616,"is_transit":false,"transit":false,"station_name":"Bekasi","i_long":106.997013},{"station_name":"Bekasi Timur","line":1,"station_id":"BKST","i_long":107.016735,"transit":false,"i_lat":-6.248029,"is_transit":false,"distance":2368,"time":2},{"i_long":107.055722,"transit":false,"distance":4460,"line":1,"time":7,"station_name":"Tambun","is_transit":false,"station_id":"TB","i_lat":-6.258864}],[{"station_id":"PDRG","i_long":106.824374,"distance":0,"line":21,"is_transit":false,"i_lat":-6.460735,"time":0,"transit":false,"station_name":"Pondok Rajeg"},{"station_name":"Citayam","time":0,"distance":0,"station_id":"CTA","transit":true,"is_transit":true,"i_lat":-6.448811,"i_long":106.800298,"line":2},{"time":6,"line":2,"transit":false,"distance":5084,"i_lat":-6.405256,"i_long":106.816926,"is_transit":false,"station_id":"DP","station_name":"Depok"},{"line":2,"time":3,"is_transit":false,"i_lat":-6.391065,"station_id":"DPB","station_name":"Depokbaru","transit":false,"distance":1584,"i_long":106.819451},{"station_id":"POC","i_lat":-6.369073,"time":4,"distance":2727,"station_name":"Pondok Cina","transit":false,"line":2,"is_transit":false,"i_long":106.831114},{"i_long":106.831474,"station_id":"UI","time":2,"is_transit":false,"i_lat":-6.360749,"line":2,"transit":false,"distance":1109,"station_name":"Univ. Indonesia"},{"time":3,"station_id":"UP","distance":2264,"station_name":"Univ. Pancasila","transit":false,"i_lat":-6.339291,"is_transit":false,"i_long":106.834175,"line":2},{"distance":1029,"transit":false,"time":2,"station_id":"LNA","i_lat":-6.330363,"station_name":"Lenteng Agung","i_long":106.832616,"is_transit":false,"line":2},{"station_id":"TNT","is_transit":false,"transit":false,"station_name":"Tanjung Barat","i_lat":-6.3080680000000005,"i_long":106.838896,"distance":2671,"time":3,"line":2},{"station_name":"Pasar Minggu","station_id":"PSM","transit":false,"i_long":106.843999,"is_transit":false,"i_lat":-6.2842400000000005,"distance":2820,"time":4,"line":2},{"distance":2380,"station_name":"Pasar Minggu Baru","time":2,"line":2,"i_lat":-6.263214,"station_id":"PSMB","i_long":106.851577,"transit":false,"is_transit":false},{"line":2,"station_id":"DRN","transit":false,"is_transit":false,"station_name":"Duren Kalibata","i_lat":-6.255332,"time":2,"i_long":106.85449,"distance":824},{"distance":1546,"is_transit":false,"i_long":106.856607,"line":2,"time":3,"station_name":"Cawang","station_id":"CW","i_lat":-6.242512,"transit":false},{"station_id":"TEB","station_name":"Tebet","is_transit":false,"i_long":106.857948,"time":2,"line":2,"transit":false,"distance":1230,"i_lat":-6.226659},{"station_name":"Manggarai","station_id":"MRI","i_lat":-6.209883,"i_long":106.84912,"line":2,"distance":2610,"transit":false,"time":4,"is_transit":false},{"transit":false,"distance":1590,"station_id":"CKI","station_name":"Cikini","time":4,"is_transit":false,"i_lat":-6.198556,"line":2,"i_long":106.840169},{"time":3,"i_lat":-6.186295,"i_long":106.832183,"distance":1750,"line":2,"is_transit":false,"station_name":"Gondangdia","transit":false,"station_id":"GDD"},{"i_lat":-6.166716,"transit":false,"distance":2015,"time":4,"station_name":"Juanda","is_transit":false,"i_long":106.828284,"station_id":"JUA","line":2},{"is_transit":false,"distance":1149,"i_lat":-6.160725,"line":2,"station_name":"Sawah Besar","i_long":106.827103,"station_id":"SW","time":2,"transit":false},{"is_transit":false,"transit":false,"i_lat":-6.149769,"i_long":106.82482,"time":2,"distance":906,"station_name":"Manggabesar","station_id":"MGB","line":2},{"station_name":"Jayakarta","time":2,"i_lat":-6.141205,"i_long":106.820901,"distance":1080,"line":2,"station_id":"JAY","transit":false,"is_transit":false},{"is_transit":true,"station_name":"Jakarta Kota","i_long":106.812439,"distance":1264,"line":2,"station_id":"JAKK","transit":true,"time":4,"i_lat":-6.137569},{"time":3,"i_long":106.826365,"station_id":"KPB","distance":1364,"line":4,"i_lat":-6.132549,"transit":true,"station_name":"Kampung Bandan","is_transit":true},{"is_transit":false,"distance":1444,"i_lat":-6.14505,"line":11,"transit":false,"station_id":"RJW","i_long":106.836569,"station_name":"Rajawali","time":3},{"time":5,"i_lat":-6.161728,"line":11,"station_name":"Kemayoran","is_transit":false,"i_long":106.839204,"distance":1901,"transit":false,"station_id":"KMO"},{"is_transit":false,"station_id":"PSE","distance":1436,"i_lat":-6.174784,"i_long":106.84368,"line":11,"station_name":"Pasar Senen","time":4,"transit":false},{"time":8,"line":11,"transit":false,"i_lat":-6.185975,"i_long":106.850107,"is_transit":false,"station_name":"Gang Sentiong","station_id":"GST","distance":1567},{"station_name":"Kramat","line":11,"transit":false,"is_transit":false,"station_id":"KMT","distance":973,"time":1,"i_lat":-6.193792,"i_long":106.855437},{"i_long":106.861737,"station_name":"Pondok Jati","transit":false,"time":2,"is_transit":false,"line":11,"distance":1829,"station_id":"POK","i_lat":-6.209188},{"station_name":"Jatinegara","station_id":"JNG","i_lat":-6.215091,"time":9,"distance":1236,"is_transit":true,"i_long":106.86807400000001,"line":1,"transit":true},{"i_lat":-6.2135,"station_name":"Klender","is_transit":false,"transit":false,"station_id":"KLD","i_long":106.899548,"time":3,"distance":3395,"line":1},{"i_lat":-6.215568,"is_transit":false,"time":2,"transit":false,"station_id":"BUA","distance":3100,"station_name":"Buaran","line":1,"i_long":106.922662},{"transit":false,"is_transit":false,"distance":1305,"i_long":106.939679,"line":1,"station_id":"KLDB","station_name":"Klenderbaru","i_lat":-6.217455,"time":1},{"station_name":"Cakung","time":8,"distance":1385,"line":1,"i_lat":-6.219053,"station_id":"CUK","i_long":106.951283,"transit":false,"is_transit":false},{"station_id":"KRI","distance":3097,"i_lat":-6.224515,"station_name":"Kranji","is_transit":false,"transit":false,"i_long":106.977657,"line":1,"time":3},{"station_name":"Bekasi","distance":2520,"i_long":106.997013,"i_lat":-6.236616,"is_transit":false,"station_id":"BKS","transit":false,"time":4,"line":1},{"time":2,"i_long":107.016735,"station_id":"BKST","station_name":"Bekasi Timur","distance":2368,"line":1,"is_transit":false,"i_lat":-6.248029,"transit":false},{"transit":false,"station_name":"Tambun","is_transit":false,"i_long":107.055722,"i_lat":-6.258864,"distance":4460,"time":7,"line":1,"station_id":"TB"}]]}