{"data":[[{"i_lat":-6.460735,"time":0,"i_long":106.824374,"station_name":"Pondok Rajeg","station_id":"PDRG","is_transit":false,"line":21,"distance":0,"transit":false},{"transit":true,"distance":0,"i_lat":-6.448811,"line":2,"station_id":"CTA","is_transit":true,"time":0,"station_name":"Citayam","i_long":106.800298},{"station_name":"Depok","distance":5084,"i_long":106.816926,"is_transit":false,"line":2,"i_lat":-6.405256,"transit":false,"station_id":"DP","time":6},{"station_name":"Depokbaru","time":3,"is_transit":false,"line":2,"i_long":106.819451,"transit":false,"i_lat":-6.391065,"distance":1584,"station_id":"DPB"},{"station_name":"Pondok Cina","i_lat":-6.369073,"line":2,"station_id":"POC","transit":false,"is_transit":false,"time":4,"i_long":106.831114,"distance":2727},{"transit":false,"line":2,"i_long":106.831474,"time":2,"distance":1109,"station_id":"UI","station_name":"Univ. Indonesia","is_transit":false,"i_lat":-6.360749},{"time":3,"line":2,"transit":false,"station_id":"UP","station_name":"Univ. Pancasila","is_transit":false,"i_lat":-6.339291,"i_long":106.834175,"distance":2264},{"i_lat":-6.330363,"transit":false,"i_long":106.832616,"is_transit":false,"time":2,"station_id":"LNA","line":2,"distance":1029,"station_name":"Lenteng Agung"},{"line":2,"is_transit":false,"time":3,"transit":false,"station_name":"Tanjung Barat","i_lat":-6.3080680000000005,"station_id":"TNT","distance":2671,"i_long":106.838896},{"is_transit":false,"i_long":106.843999,"station_id":"PSM","i_lat":-6.2842400000000005,"line":2,"time":4,"distance":2820,"transit":false,"station_name":"Pasar Minggu"},{"transit":false,"time":2,"distance":2380,"is_transit":false,"station_id":"PSMB","station_name":"Pasar Minggu Baru","line":2,"i_lat":-6.263214,"i_long":106.851577},{"transit":false,"i_lat":-6.255332,"is_transit":false,"line":2,"station_name":"Duren Kalibata","station_id":"DRN","distance":824,"i_long":106.85449,"time":2},{"station_id":"CW","transit":false,"i_long":106.856607,"line":2,"distance":1546,"station_name":"Cawang","time":3,"i_lat":-6.242512,"is_transit":false},{"i_lat":-6.226659,"i_long":106.857948,"station_id":"TEB","station_name":"Tebet","is_transit":false,"time":2,"line":2,"transit":false,"distance":1230},{"station_id":"MRI","transit":true,"time":4,"distance":2610,"i_long":106.84912,"is_transit":true,"station_name":"Manggarai","line":2,"i_lat":-6.209883},{"station_name":"Sudirman","distance":3186,"i_lat":-6.202263,"transit":false,"line":1,"is_transit":false,"time":4,"station_id":"SUD","i_long":106.822649},{"station_id":"SUDB","station_name":"Sudirman Baru","i_lat":-6.201433,"transit":false,"i_long":106.819881,"line":1,"time":1,"is_transit":false,"distance":280}],[{"is_transit":false,"station_id":"PDRG","station_name":"Pondok Rajeg","i_long":106.824374,"line":21,"time":0,"transit":false,"i_lat":-6.460735,"distance":0},{"station_id":"CTA","transit":true,"time":0,"is_transit":true,"station_name":"Citayam","distance":0,"i_long":106.800298,"i_lat":-6.448811,"line":2},{"line":2,"transit":false,"i_lat":-6.405256,"is_transit":false,"distance":5084,"time":6,"station_id":"DP","i_long":106.816926,"station_name":"Depok"},{"distance":1584,"i_lat":-6.391065,"line":2,"station_name":"Depokbaru","transit":false,"i_long":106.819451,"station_id":"DPB","is_transit":false,"time":3},{"i_long":106.831114,"is_transit":false,"transit":false,"time":4,"i_lat":-6.369073,"station_id":"POC","station_name":"Pondok Cina","distance":2727,"line":2},{"transit":false,"station_name":"Univ. Indonesia","i_long":106.831474,"time":2,"station_id":"UI","i_lat":-6.360749,"is_transit":false,"line":2,"distance":1109},{"is_transit":false,"line":2,"time":3,"distance":2264,"transit":false,"station_id":"UP","station_name":"Univ. Pancasila","i_long":106.834175,"i_lat":-6.339291},{"station_name":"Lenteng Agung","distance":1029,"i_lat":-6.330363,"is_transit":false,"time":2,"i_long":106.832616,"station_id":"LNA","line":2,"transit":false},{"transit":false,"i_long":106.838896,"station_id":"TNT","station_name":"Tanjung Barat","distance":2671,"line":2,"i_lat":-6.3080680000000005,"time":3,"is_transit":false},{"i_lat":-6.2842400000000005,"time":4,"transit":false,"station_id":"PSM","is_transit":false,"distance":2820,"i_long":106.843999,"line":2,"station_name":"Pasar Minggu"},{"i_lat":-6.263214,"line":2,"station_id":"PSMB","is_transit":false,"time":2,"station_name":"Pasar Minggu Baru","transit":false,"i_long":106.851577,"distance":2380},{"i_lat":-6.255332,"i_long":106.85449,"station_id":"DRN","is_transit":false,"distance":824,"line":2,"transit":false,"time":2,"station_name":"Duren Kalibata"},{"i_lat":-6.242512,"line":2,"transit":false,"distance":1546,"station_name":"Cawang","is_transit":false,"time":3,"i_long":106.856607,"station_id":"CW"},{"distance":1230,"time":2,"i_lat":-6.226659,"is_transit":false,"line":2,"transit":false,"station_id":"TEB","station_name":"Tebet","i_long":106.857948},{"line":2,"i_lat":-6.209883,"distance":2610,"station_name":"Manggarai","transit":false,"is_transit":false,"i_long":106.84912,"station_id":"MRI","time":4},{"time":4,"station_name":"Cikini","distance":1590,"i_lat":-6.198556,"line":2,"transit":false,"station_id":"CKI","is_transit":false,"i_long":106.840169},{"is_transit":false,"transit":false,"i_long":106.832183,"i_lat":-6.186295,"line":2,"station_name":"Gondangdia","time":3,"station_id":"GDD","distance":1750},{"distance":2015,"station_name":"Juanda","station_id":"JUA","time":4,"is_transit":false,"transit":false,"line":2,"i_lat":-6.166716,"i_long":106.828284},{"i_long":106.827103,"transit":false,"is_transit":false,"time":2,"i_lat":-6.160725,"distance":1149,"line":2,"station_name":"Sawah Besar","station_id":"SW"},{"i_long":106.82482,"line":2,"time":2,"is_transit":false,"station_id":"MGB","transit":false,"station_name":"Manggabesar","distance":906,"i_lat":-6.149769},{"station_id":"JAY","is_transit":false,"i_long":106.820901,"i_lat":-6.141205,"transit":false,"line":2,"distance":1080,"time":2,"station_name":"Jayakarta"},{"i_lat":-6.137569,"time":4,"distance":1264,"is_transit":true,"station_id":"JAKK","transit":true,"i_long":106.812439,"line":2,"station_name":"Jakarta Kota"},{"transit":true,"station_name":"Kampung Bandan","line":4,"distance":1364,"i_lat":-6.132549,"time":3,"i_long":106.826365,"station_id":"KPB","is_transit":true},{"i_long":106.79867,"line":1,"transit":false,"distance":4102,"i_lat":-6.144674,"is_transit":false,"station_name":"Angke","station_id":"AK","time":9},{"time":4,"i_lat":-6.155215,"distance":1230,"line":1,"transit":false,"station_id":"DU","is_transit":false,"i_long":106.800832,"station_name":"Duri"},{"is_transit":false,"i_lat":-6.185545,"distance":3632,"line":1,"time":8,"transit":false,"i_long":106.811091,"station_name":"Tanah Abang","station_id":"THB"},{"i_long":106.816351,"station_name":"Karet","is_transit":false,"transit":false,"time":5,"distance":2029,"station_id":"KAT","i_lat":-6.20132,"line":1},{"time":1,"i_lat":-6.201433,"station_name":"Sudirman Baru","i_long":106.819881,"is_transit":false,"line":1,"station_id":"SUDB","distance":471,"transit":false}],[{"is_transit":false,"station_name":"Pondok Rajeg","transit":false,"distance":0,"time":0,"i_lat":-6.460735,"i_long":106.824374,"line":21,"station_id":"PDRG"},{"i_long":106.800298,"time":0,"station_id":"CTA","transit":true,"distance":0,"is_transit":true,"i_lat":-6.448811,"line":2,"station_name":"Citayam"},{"i_lat":-6.405256,"station_name":"Depok","is_transit":false,"station_id":"DP","distance":5084,"time":6,"transit":false,"i_long":106.816926,"line":2},{"distance":1584,"time":3,"i_lat":-6.391065,"station_id":"DPB","station_name":"Depokbaru","line":2,"is_transit":false,"transit":false,"i_long":106.819451},{"station_id":"POC","time":4,"is_transit":false,"distance":2727,"i_lat":-6.369073,"i_long":106.831114,"transit":false,"station_name":"Pondok Cina","line":2},{"time":2,"transit":false,"distance":1109,"i_lat":-6.360749,"station_id":"UI","line":2,"i_long":106.831474,"station_name":"Univ. Indonesia","is_transit":false},{"transit":false,"is_transit":false,"time":3,"i_lat":-6.339291,"station_id":"UP","i_long":106.834175,"line":2,"station_name":"Univ. Pancasila","distance":2264},{"transit":false,"i_lat":-6.330363,"is_transit":false,"station_name":"Lenteng Agung","distance":1029,"line":2,"i_long":106.832616,"time":2,"station_id":"LNA"},{"line":2,"distance":2671,"i_lat":-6.3080680000000005,"is_transit":false,"station_id":"TNT","transit":false,"i_long":106.838896,"time":3,"station_name":"Tanjung Barat"},{"station_name":"Pasar Minggu","is_transit":false,"time":4,"transit":false,"i_lat":-6.2842400000000005,"i_long":106.843999,"distance":2820,"line":2,"station_id":"PSM"},{"i_long":106.851577,"station_id":"PSMB","line":2,"transit":false,"station_name":"Pasar Minggu Baru","distance":2380,"time":2,"is_transit":false,"i_lat":-6.263214},{"i_lat":-6.255332,"station_name":"Duren Kalibata","is_transit":false,"line":2,"i_long":106.85449,"distance":824,"time":2,"station_id":"DRN","transit":false},{"line":2,"is_transit":false,"station_id":"CW","i_lat":-6.242512,"transit":false,"station_name":"Cawang","i_long":106.856607,"distance":1546,"time":3},{"line":2,"time":2,"distance":1230,"is_transit":false,"i_long":106.857948,"station_name":"Tebet","station_id":"TEB","transit":false,"i_lat":-6.226659},{"i_long":106.84912,"distance":2610,"is_transit":true,"line":2,"station_name":"Manggarai","station_id":"MRI","transit":true,"time":4,"i_lat":-6.209883},{"is_transit":false,"i_lat":-6.212485,"line":1,"station_name":"Matraman","station_id":"MTR","time":2,"i_long":106.858896,"distance":1275,"transit":false},{"transit":true,"distance":1377,"i_lat":-6.215091,"i_long":106.86807400000001,"is_transit":true,"time":8,"line":1,"station_id":"JNG","station_name":"Jatinegara"},{"time":2,"is_transit":false,"i_long":106.861737,"line":11,"transit":false,"station_id":"POK","station_name":"Pondok Jati","distance":1236,"i_lat":-6.209188},{"station_name":"Kramat","station_id":"KMT","time":2,"i_lat":-6.193792,"line":11,"transit":false,"distance":1829,"i_long":106.855437,"is_transit":false},{"station_id":"GST","i_lat":-6.185975,"station_name":"Gang Sentiong","line":11,"distance":973,"i_long":106.850107,"time":1,"is_transit":false,"transit":false},{"i_lat":-6.174784,"transit":false,"station_id":"PSE","time":8,"line":11,"is_transit":false,"station_name":"Pasar Senen","distance":1567,"i_long":106.84368},{"is_transit":false,"transit":false,"time":4,"station_name":"Kemayoran","station_id":"KMO","distance":1436,"i_lat":-6.161728,"i_long":106.839204,"line":11},{"transit":false,"distance":1901,"i_lat":-6.14505,"is_transit":false,"station_id":"RJW","station_name":"Rajawali","time":5,"line":11,"i_long":106.836569},{"time":3,"transit":true,"station_id":"KPB","station_name":"Kampung Bandan","distance":1444,"i_lat":-6.132549,"i_long":106.826365,"is_transit":true,"line":4},{"is_transit":false,"line":1,"station_id":"AK","station_name":"Angke","distance":4102,"transit":false,"time":9,"i_long":106.79867,"i_lat":-6.144674},{"station_name":"Duri","time":4,"i_long":106.800832,"is_transit":false,"line":1,"i_lat":-6.155215,"distance":1230,"transit":false,"station_id":"DU"},{"line":1,"station_id":"THB","is_transit":false,"time":8,"transit":false,"i_lat":-6.185545,"distance":3632,"i_long":106.811091,"station_name":"Tanah Abang"},{"i_long":106.816351,"line":1,"is_transit":false,"time":5,"station_id":"KAT","transit":false,"distance":2029,"station_name":"Karet","i_lat":-6.20132},{"i_lat":-6.201433,"station_id":"SUDB","transit":false,"line":1,"station_name":"Sudirman Baru","is_transit":false,"i_long":106.819881,"distance":471,"time":1}]]}