{"data":[[{"station_id":"PDRG","time":0,"distance":0,"i_lat":-6.460735,"is_transit":false,"line":21,"i_long":106.824374,"station_name":"Pondok Rajeg","transit":false},{"time":0,"i_lat":-6.448811,"is_transit":true,"distance":0,"station_id":"CTA","i_long":106.800298,"transit":true,"station_name":"Citayam","line":2},{"i_lat":-6.405256,"time":6,"transit":false,"station_id":"DP","is_transit":false,"i_long":106.816926,"distance":5084,"line":2,"station_name":"Depok"},{"station_id":"DPB","station_name":"Depokbaru","i_lat":-6.391065,"i_long":106.819451,"is_transit":false,"time":3,"transit":false,"distance":1584,"line":2},{"transit":false,"i_lat":-6.369073,"is_transit":false,"time":4,"station_name":"Pondok Cina","station_id":"POC","distance":2727,"line":2,"i_long":106.831114},{"time":2,"station_name":"Univ. Indonesia","is_transit":false,"distance":1109,"i_long":106.831474,"transit":false,"line":2,"i_lat":-6.360749,"station_id":"UI"},{"i_lat":-6.339291,"i_long":106.834175,"station_name":"Univ. Pancasila","transit":false,"station_id":"UP","is_transit":false,"distance":2264,"line":2,"time":3},{"station_id":"LNA","distance":1029,"transit":false,"time":2,"station_name":"Lenteng Agung","i_lat":-6.330363,"is_transit":false,"i_long":106.832616,"line":2},{"i_long":106.838896,"line":2,"transit":false,"is_transit":false,"station_name":"Tanjung Barat","time":3,"distance":2671,"station_id":"TNT","i_lat":-6.3080680000000005},{"line":2,"time":4,"station_id":"PSM","distance":2820,"is_transit":false,"i_long":106.843999,"transit":false,"i_lat":-6.2842400000000005,"station_name":"Pasar Minggu"},{"is_transit":false,"transit":false,"time":2,"station_name":"Pasar Minggu Baru","station_id":"PSMB","distance":2380,"i_lat":-6.263214,"i_long":106.851577,"line":2},{"i_long":106.85449,"station_name":"Duren Kalibata","line":2,"time":2,"is_transit":false,"transit":false,"distance":824,"station_id":"DRN","i_lat":-6.255332},{"i_long":106.856607,"distance":1546,"i_lat":-6.242512,"line":2,"is_transit":false,"transit":false,"station_id":"CW","time":3,"station_name":"Cawang"},{"i_long":106.857948,"is_transit":false,"i_lat":-6.226659,"distance":1230,"transit":false,"station_id":"TEB","time":2,"station_name":"Tebet","line":2},{"transit":true,"distance":2610,"i_long":106.84912,"time":4,"line":2,"station_id":"MRI","is_transit":true,"i_lat":-6.209883,"station_name":"Manggarai"},{"is_transit":false,"station_id":"MTR","transit":false,"i_lat":-6.212485,"i_long":106.858896,"time":2,"station_name":"Matraman","distance":1275,"line":1},{"distance":1377,"is_transit":false,"i_long":106.86807400000001,"i_lat":-6.215091,"time":8,"line":1,"station_id":"JNG","transit":false,"station_name":"Jatinegara"},{"station_id":"KLD","is_transit":false,"distance":3395,"i_lat":-6.2135,"i_long":106.899548,"time":3,"station_name":"Klender","line":1,"transit":false},{"station_name":"Buaran","is_transit":false,"distance":3100,"i_lat":-6.215568,"time":2,"station_id":"BUA","transit":false,"i_long":106.922662,"line":1},{"distance":1305,"station_name":"Klenderbaru","transit":false,"i_long":106.939679,"station_id":"KLDB","line":1,"is_transit":false,"time":1,"i_lat":-6.217455},{"station_name":"Cakung","i_long":106.951283,"is_transit":false,"transit":false,"time":8,"line":1,"distance":1385,"i_lat":-6.219053,"station_id":"CUK"},{"i_lat":-6.224515,"station_name":"Kranji","is_transit":false,"time":3,"station_id":"KRI","distance":3097,"transit":false,"line":1,"i_long":106.977657},{"i_lat":-6.236616,"i_long":106.997013,"time":4,"station_name":"Bekasi","transit":false,"distance":2520,"line":1,"is_transit":false,"station_id":"BKS"},{"station_name":"Bekasi Timur","station_id":"BKST","i_lat":-6.248029,"i_long":107.016735,"line":1,"distance":2368,"time":2,"is_transit":false,"transit":false},{"transit":false,"time":7,"line":1,"distance":4460,"station_id":"TB","i_long":107.055722,"is_transit":false,"station_name":"Tambun","i_lat":-6.258864}],[{"station_id":"PDRG","i_lat":-6.460735,"time":0,"transit":false,"i_long":106.824374,"line":21,"station_name":"Pondok Rajeg","is_transit":false,"distance":0},{"distance":0,"i_lat":-6.448811,"time":0,"transit":true,"station_name":"Citayam","is_transit":true,"station_id":"CTA","line":2,"i_long":106.800298},{"i_lat":-6.405256,"time":6,"station_name":"Depok","transit":false,"line":2,"distance":5084,"station_id":"DP","i_long":106.816926,"is_transit":false},{"transit":false,"distance":1584,"time":3,"station_name":"Depokbaru","station_id":"DPB","i_long":106.819451,"line":2,"i_lat":-6.391065,"is_transit":false},{"i_lat":-6.369073,"line":2,"transit":false,"is_transit":false,"distance":2727,"station_name":"Pondok Cina","station_id":"POC","time":4,"i_long":106.831114},{"i_lat":-6.360749,"i_long":106.831474,"transit":false,"station_name":"Univ. Indonesia","line":2,"time":2,"station_id":"UI","distance":1109,"is_transit":false},{"distance":2264,"time":3,"line":2,"station_id":"UP","i_lat":-6.339291,"station_name":"Univ. Pancasila","is_transit":false,"transit":false,"i_long":106.834175},{"transit":false,"line":2,"station_name":"Lenteng Agung","station_id":"LNA","is_transit":false,"distance":1029,"i_long":106.832616,"i_lat":-6.330363,"time":2},{"station_name":"Tanjung Barat","i_lat":-6.3080680000000005,"time":3,"distance":2671,"line":2,"station_id":"TNT","transit":false,"is_transit":false,"i_long":106.838896},{"transit":false,"is_transit":false,"time":4,"i_lat":-6.2842400000000005,"station_name":"Pasar Minggu","line":2,"distance":2820,"i_long":106.843999,"station_id":"PSM"},{"station_name":"Pasar Minggu Baru","line":2,"i_lat":-6.263214,"distance":2380,"station_id":"PSMB","time":2,"i_long":106.851577,"transit":false,"is_transit":false},{"distance":824,"i_lat":-6.255332,"time":2,"is_transit":false,"line":2,"station_id":"DRN","transit":false,"i_long":106.85449,"station_name":"Duren Kalibata"},{"station_name":"Cawang","transit":false,"i_long":106.856607,"station_id":"CW","distance":1546,"line":2,"is_transit":false,"time":3,"i_lat":-6.242512},{"station_id":"TEB","is_transit":false,"time":2,"distance":1230,"i_long":106.857948,"line":2,"transit":false,"station_name":"Tebet","i_lat":-6.226659},{"station_id":"MRI","transit":true,"station_name":"Manggarai","i_long":106.84912,"i_lat":-6.209883,"is_transit":true,"time":4,"line":2,"distance":2610},{"station_id":"SUD","i_long":106.822649,"transit":false,"station_name":"Sudirman","time":4,"distance":3186,"line":1,"i_lat":-6.202263,"is_transit":false},{"line":1,"station_name":"Sudirman Baru","is_transit":false,"time":1,"i_lat":-6.201433,"transit":false,"distance":280,"station_id":"SUDB","i_long":106.819881},{"time":1,"transit":false,"i_lat":-6.20132,"is_transit":false,"distance":471,"i_long":106.816351,"station_name":"Karet","line":1,"station_id":"KAT"},{"station_id":"THB","line":1,"transit":false,"i_lat":-6.185545,"station_name":"Tanah Abang","distance":2029,"i_long":106.811091,"is_transit":false,"time":5},{"station_name":"Duri","time":8,"transit":false,"station_id":"DU","i_lat":-6.155215,"distance":3632,"i_long":106.800832,"line":1,"is_transit":false},{"i_lat":-6.144674,"line":1,"transit":false,"station_id":"AK","is_transit":false,"distance":1230,"station_name":"Angke","i_long":106.79867,"time":4},{"is_transit":true,"line":4,"i_long":106.826365,"distance":4102,"i_lat":-6.132549,"station_name":"Kampung Bandan","transit":true,"station_id":"KPB","time":9},{"is_transit":false,"transit":false,"station_name":"Rajawali","time":3,"i_long":106.836569,"station_id":"RJW","i_lat":-6.14505,"line":11,"distance":1444},{"distance":1901,"is_transit":false,"i_long":106.839204,"i_lat":-6.161728,"station_name":"Kemayoran","transit":false,"time":5,"station_id":"KMO","line":11},{"i_long":106.84368,"station_name":"Pasar Senen","distance":1436,"is_transit":false,"time":4,"line":11,"transit":false,"station_id":"PSE","i_lat":-6.174784},{"distance":1567,"transit":false,"i_lat":-6.185975,"is_transit":false,"i_long":106.850107,"station_name":"Gang Sentiong","station_id":"GST","time":8,"line":11},{"station_id":"KMT","is_transit":false,"i_long":106.855437,"i_lat":-6.193792,"time":1,"distance":973,"line":11,"transit":false,"station_name":"Kramat"},{"is_transit":false,"time":2,"i_lat":-6.209188,"station_name":"Pondok Jati","distance":1829,"station_id":"POK","i_long":106.861737,"line":11,"transit":false},{"station_name":"Jatinegara","is_transit":true,"i_long":106.86807400000001,"distance":1236,"time":9,"i_lat":-6.215091,"transit":true,"station_id":"JNG","line":1},{"distance":3395,"transit":false,"station_name":"Klender","time":3,"is_transit":false,"i_lat":-6.2135,"i_long":106.899548,"line":1,"station_id":"KLD"},{"time":2,"line":1,"i_long":106.922662,"distance":3100,"i_lat":-6.215568,"is_transit":false,"transit":false,"station_id":"BUA","station_name":"Buaran"},{"distance":1305,"i_lat":-6.217455,"station_name":"Klenderbaru","transit":false,"i_long":106.939679,"line":1,"time":1,"is_transit":false,"station_id":"KLDB"},{"station_id":"CUK","time":8,"i_lat":-6.219053,"line":1,"is_transit":false,"transit":false,"distance":1385,"i_long":106.951283,"station_name":"Cakung"},{"distance":3097,"line":1,"transit":false,"station_name":"Kranji","station_id":"KRI","i_long":106.977657,"i_lat":-6.224515,"is_transit":false,"time":3},{"station_id":"BKS","line":1,"time":4,"transit":false,"station_name":"Bekasi","i_lat":-6.236616,"distance":2520,"is_transit":false,"i_long":106.997013},{"station_id":"BKST","i_long":107.016735,"i_lat":-6.248029,"is_transit":false,"line":1,"time":2,"transit":false,"distance":2368,"station_name":"Bekasi Timur"},{"station_id":"TB","i_lat":-6.258864,"i_long":107.055722,"line":1,"time":7,"transit":false,"distance":4460,"is_transit":false,"station_name":"Tambun"}],[{"distance":0,"is_transit":false,"station_name":"Pondok Rajeg","station_id":"PDRG","i_lat":-6.460735,"time":0,"i_long":106.824374,"line":21,"transit":false},{"station_id":"CTA","station_name":"Citayam","time":0,"i_lat":-6.448811,"i_long":106.800298,"distance":0,"line":2,"is_transit":true,"transit":true},{"i_lat":-6.405256,"transit":false,"distance":5084,"i_long":106.816926,"station_name":"Depok","time":6,"is_transit":false,"line":2,"station_id":"DP"},{"line":2,"is_transit":false,"i_long":106.819451,"distance":1584,"station_id":"DPB","station_name":"Depokbaru","transit":false,"time":3,"i_lat":-6.391065},{"transit":false,"station_name":"Pondok Cina","station_id":"POC","is_transit":false,"time":4,"i_lat":-6.369073,"distance":2727,"i_long":106.831114,"line":2},{"i_lat":-6.360749,"i_long":106.831474,"distance":1109,"station_name":"Univ. Indonesia","time":2,"line":2,"station_id":"UI","transit":false,"is_transit":false},{"is_transit":false,"time":3,"line":2,"station_id":"UP","i_long":106.834175,"distance":2264,"i_lat":-6.339291,"station_name":"Univ. Pancasila","transit":false},{"line":2,"station_name":"Lenteng Agung","i_long":106.832616,"is_transit":false,"station_id":"LNA","distance":1029,"i_lat":-6.330363,"transit":false,"time":2},{"station_name":"Tanjung Barat","is_transit":false,"distance":2671,"i_lat":-6.3080680000000005,"time":3,"transit":false,"i_long":106.838896,"station_id":"TNT","line":2},{"station_id":"PSM","time":4,"distance":2820,"i_long":106.843999,"line":2,"station_name":"Pasar Minggu","transit":false,"is_transit":false,"i_lat":-6.2842400000000005},{"distance":2380,"line":2,"station_name":"Pasar Minggu Baru","is_transit":false,"transit":false,"station_id":"PSMB","i_long":106.851577,"i_lat":-6.263214,"time":2},{"station_id":"DRN","i_lat":-6.255332,"transit":false,"is_transit":false,"station_name":"Duren Kalibata","i_long":106.85449,"distance":824,"time":2,"line":2},{"i_lat":-6.242512,"distance":1546,"transit":false,"station_id":"CW","station_name":"Cawang","line":2,"is_transit":false,"time":3,"i_long":106.856607},{"transit":false,"distance":1230,"i_lat":-6.226659,"station_name":"Tebet","line":2,"station_id":"TEB","is_transit":false,"i_long":106.857948,"time":2},{"is_transit":false,"line":2,"time":4,"distance":2610,"i_long":106.84912,"station_id":"MRI","station_name":"Manggarai","i_lat":-6.209883,"transit":false},{"line":2,"time":4,"i_lat":-6.198556,"station_id":"CKI","transit":false,"distance":1590,"station_name":"Cikini","is_transit":false,"i_long":106.840169},{"i_lat":-6.186295,"i_long":106.832183,"line":2,"station_id":"GDD","is_transit":false,"transit":false,"station_name":"Gondangdia","time":3,"distance":1750},{"i_long":106.828284,"line":2,"distance":2015,"transit":false,"station_id":"JUA","station_name":"Juanda","time":4,"i_lat":-6.166716,"is_transit":false},{"transit":false,"is_transit":false,"i_lat":-6.160725,"i_long":106.827103,"line":2,"station_name":"Sawah Besar","time":2,"station_id":"SW","distance":1149},{"transit":false,"is_transit":false,"station_name":"Manggabesar","i_lat":-6.149769,"time":2,"line":2,"i_long":106.82482,"distance":906,"station_id":"MGB"},{"station_name":"Jayakarta","transit":false,"i_lat":-6.141205,"line":2,"station_id":"JAY","is_transit":false,"time":2,"distance":1080,"i_long":106.820901},{"line":2,"station_name":"Jakarta Kota","station_id":"JAKK","i_long":106.812439,"time":4,"distance":1264,"transit":true,"is_transit":true,"i_lat":-6.137569},{"is_transit":true,"i_long":106.826365,"distance":1364,"transit":true,"time":3,"station_name":"Kampung Bandan","i_lat":-6.132549,"station_id":"KPB","line":4},{"i_lat":-6.14505,"station_id":"RJW","i_long":106.836569,"time":3,"transit":false,"station_name":"Rajawali","line":11,"distance":1444,"is_transit":false},{"station_name":"Kemayoran","time":5,"i_lat":-6.161728,"is_transit":false,"i_long":106.839204,"line":11,"station_id":"KMO","distance":1901,"transit":false},{"transit":false,"i_long":106.84368,"station_name":"Pasar Senen","distance":1436,"line":11,"station_id":"PSE","time":4,"is_transit":false,"i_lat":-6.174784},{"i_lat":-6.185975,"distance":1567,"is_transit":false,"time":8,"i_long":106.850107,"station_name":"Gang Sentiong","station_id":"GST","transit":false,"line":11},{"i_long":106.855437,"is_transit":false,"distance":973,"transit":false,"station_name":"Kramat","i_lat":-6.193792,"station_id":"KMT","time":1,"line":11},{"i_lat":-6.209188,"distance":1829,"i_long":106.861737,"line":11,"is_transit":false,"transit":false,"station_id":"POK","time":2,"station_name":"Pondok Jati"},{"time":9,"i_lat":-6.215091,"i_long":106.86807400000001,"line":1,"station_name":"Jatinegara","is_transit":true,"distance":1236,"station_id":"JNG","transit":true},{"time":3,"distance":3395,"i_long":106.899548,"line":1,"station_name":"Klender","i_lat":-6.2135,"transit":false,"station_id":"KLD","is_transit":false},{"time":2,"line":1,"i_long":106.922662,"transit":false,"station_name":"Buaran","station_id":"BUA","is_transit":false,"i_lat":-6.215568,"distance":3100},{"is_transit":false,"transit":false,"i_lat":-6.217455,"station_id":"KLDB","distance":1305,"line":1,"station_name":"Klenderbaru","time":1,"i_long":106.939679},{"i_long":106.951283,"distance":1385,"station_name":"Cakung","is_transit":false,"time":8,"line":1,"i_lat":-6.219053,"transit":false,"station_id":"CUK"},{"transit":false,"line":1,"station_id":"KRI","station_name":"Kranji","i_lat":-6.224515,"is_transit":false,"time":3,"i_long":106.977657,"distance":3097},{"time":4,"i_long":106.997013,"station_name":"Bekasi","transit":false,"distance":2520,"is_transit":false,"line":1,"station_id":"BKS","i_lat":-6.236616},{"distance":2368,"i_lat":-6.248029,"time":2,"station_name":"Bekasi Timur","is_transit":false,"line":1,"i_long":107.016735,"transit":false,"station_id":"BKST"},{"station_id":"TB","i_long":107.055722,"is_transit":false,"distance":4460,"transit":false,"time":7,"line":1,"station_name":"Tambun","i_lat":-6.258864}]]}