{"data":[[{"time":0,"station_id":"PDRG","transit":false,"i_lat":-6.460735,"i_long":106.824374,"line":21,"is_transit":false,"distance":0,"station_name":"Pondok Rajeg"},{"i_long":106.800298,"transit":true,"station_name":"Citayam","station_id":"CTA","line":2,"i_lat":-6.448811,"distance":0,"is_transit":true,"time":0},{"i_long":106.816926,"transit":false,"distance":5084,"time":6,"i_lat":-6.405256,"station_name":"Depok","station_id":"DP","is_transit":false,"line":2},{"i_long":106.819451,"station_name":"Depokbaru","i_lat":-6.391065,"line":2,"is_transit":false,"time":3,"station_id":"DPB","transit":false,"distance":1584},{"i_long":106.831114,"station_name":"Pondok Cina","transit":false,"distance":2727,"is_transit":false,"line":2,"time":4,"station_id":"POC","i_lat":-6.369073}]]}