{"data":[[{"line":21,"station_name":"Pondok Rajeg","station_id":"PDRG","time":0,"is_transit":false,"distance":0,"transit":false,"i_lat":-6.460735,"i_long":106.824374},{"station_name":"Citayam","line":2,"transit":true,"is_transit":true,"distance":0,"i_long":106.800298,"station_id":"CTA","i_lat":-6.448811,"time":0},{"is_transit":false,"i_long":106.816926,"transit":false,"line":2,"station_name":"Depok","distance":5084,"station_id":"DP","time":6,"i_lat":-6.405256},{"distance":1584,"i_lat":-6.391065,"transit":false,"station_name":"Depokbaru","i_long":106.819451,"line":2,"is_transit":false,"station_id":"DPB","time":3},{"distance":2727,"time":4,"i_lat":-6.369073,"transit":false,"i_long":106.831114,"station_id":"POC","station_name":"Pondok Cina","is_transit":false,"line":2},{"is_transit":false,"i_lat":-6.360749,"line":2,"transit":false,"i_long":106.831474,"station_id":"UI","time":2,"station_name":"Univ. Indonesia","distance":1109},{"station_id":"UP","distance":2264,"i_long":106.834175,"station_name":"Univ. Pancasila","line":2,"is_transit":false,"transit":false,"time":3,"i_lat":-6.339291},{"line":2,"time":2,"i_lat":-6.330363,"is_transit":false,"station_name":"Lenteng Agung","i_long":106.832616,"station_id":"LNA","distance":1029,"transit":false},{"station_id":"TNT","time":3,"i_lat":-6.3080680000000005,"line":2,"i_long":106.838896,"station_name":"Tanjung Barat","is_transit":false,"distance":2671,"transit":false},{"i_lat":-6.2842400000000005,"i_long":106.843999,"line":2,"transit":false,"station_id":"PSM","distance":2820,"time":4,"is_transit":false,"station_name":"Pasar Minggu"},{"line":2,"i_lat":-6.263214,"transit":false,"station_id":"PSMB","station_name":"Pasar Minggu Baru","time":2,"distance":2380,"is_transit":false,"i_long":106.851577},{"transit":false,"distance":824,"station_name":"Duren Kalibata","is_transit":false,"time":2,"i_lat":-6.255332,"i_long":106.85449,"line":2,"station_id":"DRN"},{"i_lat":-6.242512,"line":2,"time":3,"i_long":106.856607,"station_id":"CW","station_name":"Cawang","transit":false,"is_transit":false,"distance":1546},{"distance":1230,"is_transit":false,"i_long":106.857948,"line":2,"transit":false,"station_name":"Tebet","time":2,"i_lat":-6.226659,"station_id":"TEB"},{"line":2,"station_id":"MRI","distance":2610,"i_long":106.84912,"station_name":"Manggarai","i_lat":-6.209883,"transit":true,"is_transit":true,"time":4},{"i_lat":-6.212485,"is_transit":false,"time":2,"station_name":"Matraman","station_id":"MTR","i_long":106.858896,"line":1,"transit":false,"distance":1275},{"transit":false,"line":1,"station_name":"Jatinegara","is_transit":false,"time":8,"i_long":106.86807400000001,"station_id":"JNG","i_lat":-6.215091,"distance":1377},{"station_name":"Klender","station_id":"KLD","i_lat":-6.2135,"is_transit":false,"i_long":106.899548,"time":3,"distance":3395,"transit":false,"line":1},{"i_long":106.922662,"is_transit":false,"i_lat":-6.215568,"station_id":"BUA","transit":false,"line":1,"time":2,"distance":3100,"station_name":"Buaran"},{"transit":false,"time":1,"station_id":"KLDB","is_transit":false,"i_lat":-6.217455,"station_name":"Klenderbaru","distance":1305,"line":1,"i_long":106.939679},{"i_long":106.951283,"transit":false,"time":8,"station_name":"Cakung","line":1,"distance":1385,"is_transit":false,"station_id":"CUK","i_lat":-6.219053},{"is_transit":false,"transit":false,"station_name":"Kranji","station_id":"KRI","i_lat":-6.224515,"time":3,"distance":3097,"i_long":106.977657,"line":1},{"time":4,"is_transit":false,"station_id":"BKS","i_lat":-6.236616,"transit":false,"i_long":106.997013,"line":1,"station_name":"Bekasi","distance":2520},{"i_lat":-6.248029,"line":1,"station_name":"Bekasi Timur","time":2,"station_id":"BKST","is_transit":false,"i_long":107.016735,"transit":false,"distance":2368},{"station_id":"TB","distance":4460,"time":7,"transit":false,"is_transit":false,"i_lat":-6.258864,"station_name":"Tambun","line":1,"i_long":107.055722}],[{"i_lat":-6.460735,"station_name":"Pondok Rajeg","distance":0,"is_transit":false,"i_long":106.824374,"transit":false,"line":21,"station_id":"PDRG","time":0},{"station_id":"CTA","line":2,"transit":true,"station_name":"Citayam","time":0,"i_long":106.800298,"distance":0,"is_transit":true,"i_lat":-6.448811},{"distance":5084,"station_id":"DP","time":6,"i_lat":-6.405256,"transit":false,"i_long":106.816926,"is_transit":false,"line":2,"station_name":"Depok"},{"i_long":106.819451,"station_id":"DPB","is_transit":false,"distance":1584,"station_name":"Depokbaru","transit":false,"line":2,"time":3,"i_lat":-6.391065},{"station_name":"Pondok Cina","distance":2727,"transit":false,"i_long":106.831114,"time":4,"i_lat":-6.369073,"is_transit":false,"line":2,"station_id":"POC"},{"i_lat":-6.360749,"time":2,"line":2,"distance":1109,"station_name":"Univ. Indonesia","is_transit":false,"station_id":"UI","i_long":106.831474,"transit":false},{"station_name":"Univ. Pancasila","is_transit":false,"time":3,"station_id":"UP","line":2,"i_long":106.834175,"i_lat":-6.339291,"distance":2264,"transit":false},{"distance":1029,"is_transit":false,"station_name":"Lenteng Agung","time":2,"i_long":106.832616,"line":2,"i_lat":-6.330363,"transit":false,"station_id":"LNA"},{"i_long":106.838896,"station_name":"Tanjung Barat","line":2,"station_id":"TNT","time":3,"distance":2671,"transit":false,"is_transit":false,"i_lat":-6.3080680000000005},{"time":4,"line":2,"is_transit":false,"distance":2820,"i_lat":-6.2842400000000005,"i_long":106.843999,"transit":false,"station_id":"PSM","station_name":"Pasar Minggu"},{"i_lat":-6.263214,"time":2,"is_transit":false,"i_long":106.851577,"station_name":"Pasar Minggu Baru","transit":false,"line":2,"distance":2380,"station_id":"PSMB"},{"time":2,"distance":824,"i_long":106.85449,"transit":false,"line":2,"station_name":"Duren Kalibata","i_lat":-6.255332,"station_id":"DRN","is_transit":false},{"station_name":"Cawang","line":2,"time":3,"station_id":"CW","i_long":106.856607,"distance":1546,"is_transit":false,"transit":false,"i_lat":-6.242512},{"i_lat":-6.226659,"time":2,"i_long":106.857948,"line":2,"transit":false,"station_id":"TEB","station_name":"Tebet","distance":1230,"is_transit":false},{"transit":true,"station_name":"Manggarai","time":4,"distance":2610,"station_id":"MRI","i_lat":-6.209883,"is_transit":true,"line":2,"i_long":106.84912},{"is_transit":false,"i_long":106.822649,"transit":false,"station_id":"SUD","station_name":"Sudirman","distance":3186,"line":1,"time":4,"i_lat":-6.202263},{"is_transit":false,"time":1,"station_id":"SUDB","distance":280,"i_long":106.819881,"i_lat":-6.201433,"line":1,"station_name":"Sudirman Baru","transit":false},{"i_long":106.816351,"station_name":"Karet","distance":471,"line":1,"time":1,"transit":false,"is_transit":false,"station_id":"KAT","i_lat":-6.20132},{"i_long":106.811091,"distance":2029,"time":5,"station_id":"THB","station_name":"Tanah Abang","line":1,"is_transit":false,"transit":false,"i_lat":-6.185545},{"time":8,"i_long":106.800832,"line":1,"station_id":"DU","is_transit":false,"distance":3632,"i_lat":-6.155215,"transit":false,"station_name":"Duri"},{"line":1,"time":4,"station_id":"AK","distance":1230,"i_long":106.79867,"transit":false,"station_name":"Angke","is_transit":false,"i_lat":-6.144674},{"transit":true,"i_long":106.826365,"i_lat":-6.132549,"distance":4102,"station_name":"Kampung Bandan","time":9,"is_transit":true,"station_id":"KPB","line":4},{"station_id":"RJW","distance":1444,"i_lat":-6.14505,"line":11,"time":3,"is_transit":false,"i_long":106.836569,"transit":false,"station_name":"Rajawali"},{"time":5,"is_transit":false,"distance":1901,"i_lat":-6.161728,"station_id":"KMO","line":11,"station_name":"Kemayoran","i_long":106.839204,"transit":false},{"transit":false,"station_id":"PSE","i_lat":-6.174784,"distance":1436,"time":4,"station_name":"Pasar Senen","line":11,"is_transit":false,"i_long":106.84368},{"transit":false,"station_id":"GST","line":11,"distance":1567,"i_long":106.850107,"i_lat":-6.185975,"is_transit":false,"time":8,"station_name":"Gang Sentiong"},{"transit":false,"station_name":"Kramat","station_id":"KMT","is_transit":false,"distance":973,"line":11,"i_lat":-6.193792,"time":1,"i_long":106.855437},{"line":11,"distance":1829,"transit":false,"i_long":106.861737,"i_lat":-6.209188,"station_id":"POK","station_name":"Pondok Jati","is_transit":false,"time":2},{"i_long":106.86807400000001,"line":1,"i_lat":-6.215091,"transit":true,"distance":1236,"station_name":"Jatinegara","time":9,"station_id":"JNG","is_transit":true},{"i_lat":-6.2135,"is_transit":false,"distance":3395,"line":1,"i_long":106.899548,"transit":false,"time":3,"station_name":"Klender","station_id":"KLD"},{"station_id":"BUA","time":2,"is_transit":false,"i_long":106.922662,"station_name":"Buaran","distance":3100,"line":1,"transit":false,"i_lat":-6.215568},{"transit":false,"i_long":106.939679,"time":1,"station_name":"Klenderbaru","station_id":"KLDB","distance":1305,"is_transit":false,"i_lat":-6.217455,"line":1},{"i_lat":-6.219053,"i_long":106.951283,"line":1,"is_transit":false,"station_name":"Cakung","transit":false,"station_id":"CUK","distance":1385,"time":8},{"is_transit":false,"station_name":"Kranji","line":1,"distance":3097,"i_lat":-6.224515,"time":3,"i_long":106.977657,"transit":false,"station_id":"KRI"},{"i_long":106.997013,"line":1,"transit":false,"distance":2520,"i_lat":-6.236616,"is_transit":false,"station_name":"Bekasi","station_id":"BKS","time":4},{"time":2,"i_lat":-6.248029,"distance":2368,"line":1,"transit":false,"station_id":"BKST","is_transit":false,"i_long":107.016735,"station_name":"Bekasi Timur"},{"is_transit":false,"i_lat":-6.258864,"distance":4460,"line":1,"time":7,"transit":false,"i_long":107.055722,"station_name":"Tambun","station_id":"TB"}],[{"i_long":106.824374,"station_name":"Pondok Rajeg","is_transit":false,"transit":false,"time":0,"distance":0,"station_id":"PDRG","i_lat":-6.460735,"line":21},{"time":0,"i_lat":-6.448811,"station_name":"Citayam","i_long":106.800298,"is_transit":true,"line":2,"station_id":"CTA","distance":0,"transit":true},{"station_name":"Depok","time":6,"transit":false,"distance":5084,"is_transit":false,"i_lat":-6.405256,"i_long":106.816926,"line":2,"station_id":"DP"},{"i_long":106.819451,"time":3,"station_id":"DPB","transit":false,"distance":1584,"is_transit":false,"i_lat":-6.391065,"line":2,"station_name":"Depokbaru"},{"i_lat":-6.369073,"station_name":"Pondok Cina","is_transit":false,"station_id":"POC","time":4,"distance":2727,"transit":false,"i_long":106.831114,"line":2},{"time":2,"distance":1109,"i_lat":-6.360749,"station_name":"Univ. Indonesia","station_id":"UI","line":2,"is_transit":false,"transit":false,"i_long":106.831474},{"station_id":"UP","time":3,"is_transit":false,"distance":2264,"i_lat":-6.339291,"i_long":106.834175,"transit":false,"station_name":"Univ. Pancasila","line":2},{"time":2,"transit":false,"distance":1029,"i_lat":-6.330363,"station_id":"LNA","line":2,"i_long":106.832616,"station_name":"Lenteng Agung","is_transit":false},{"transit":false,"is_transit":false,"time":3,"i_lat":-6.3080680000000005,"station_id":"TNT","i_long":106.838896,"line":2,"station_name":"Tanjung Barat","distance":2671},{"transit":false,"i_lat":-6.2842400000000005,"station_name":"Pasar Minggu","distance":2820,"is_transit":false,"line":2,"i_long":106.843999,"time":4,"station_id":"PSM"},{"line":2,"distance":2380,"i_lat":-6.263214,"transit":false,"station_id":"PSMB","is_transit":false,"i_long":106.851577,"time":2,"station_name":"Pasar Minggu Baru"},{"station_name":"Duren Kalibata","is_transit":false,"time":2,"transit":false,"i_lat":-6.255332,"i_long":106.85449,"distance":824,"line":2,"station_id":"DRN"},{"i_long":106.856607,"station_id":"CW","line":2,"transit":false,"station_name":"Cawang","time":3,"distance":1546,"is_transit":false,"i_lat":-6.242512},{"i_lat":-6.226659,"station_name":"Tebet","is_transit":false,"line":2,"i_long":106.857948,"time":2,"distance":1230,"transit":false,"station_id":"TEB"},{"line":2,"is_transit":false,"station_id":"MRI","i_lat":-6.209883,"transit":false,"station_name":"Manggarai","i_long":106.84912,"distance":2610,"time":4},{"line":2,"time":4,"distance":1590,"is_transit":false,"i_long":106.840169,"station_name":"Cikini","station_id":"CKI","transit":false,"i_lat":-6.198556},{"i_long":106.832183,"distance":1750,"is_transit":false,"line":2,"station_name":"Gondangdia","station_id":"GDD","transit":false,"time":3,"i_lat":-6.186295},{"is_transit":false,"i_lat":-6.166716,"line":2,"station_name":"Juanda","station_id":"JUA","time":4,"i_long":106.828284,"distance":2015,"transit":false},{"transit":false,"distance":1149,"i_lat":-6.160725,"i_long":106.827103,"is_transit":false,"time":2,"line":2,"station_id":"SW","station_name":"Sawah Besar"},{"is_transit":false,"distance":906,"i_long":106.82482,"time":2,"line":2,"transit":false,"station_id":"MGB","i_lat":-6.149769,"station_name":"Manggabesar"},{"station_id":"JAY","line":2,"distance":1080,"station_name":"Jayakarta","i_long":106.820901,"time":2,"i_lat":-6.141205,"transit":false,"is_transit":false},{"time":4,"station_id":"JAKK","station_name":"Jakarta Kota","line":2,"i_long":106.812439,"i_lat":-6.137569,"is_transit":true,"transit":true,"distance":1264},{"time":3,"station_name":"Kampung Bandan","is_transit":true,"transit":true,"distance":1364,"i_long":106.826365,"station_id":"KPB","i_lat":-6.132549,"line":4},{"i_lat":-6.14505,"station_id":"RJW","transit":false,"time":3,"line":11,"is_transit":false,"station_name":"Rajawali","distance":1444,"i_long":106.836569},{"time":5,"station_id":"KMO","station_name":"Kemayoran","i_lat":-6.161728,"distance":1901,"is_transit":false,"i_long":106.839204,"transit":false,"line":11},{"distance":1436,"i_long":106.84368,"station_name":"Pasar Senen","time":4,"station_id":"PSE","line":11,"transit":false,"is_transit":false,"i_lat":-6.174784},{"i_long":106.850107,"transit":false,"station_name":"Gang Sentiong","time":8,"distance":1567,"line":11,"station_id":"GST","is_transit":false,"i_lat":-6.185975},{"time":1,"is_transit":false,"i_long":106.855437,"station_name":"Kramat","line":11,"i_lat":-6.193792,"transit":false,"distance":973,"station_id":"KMT"},{"transit":false,"is_transit":false,"distance":1829,"i_long":106.861737,"station_id":"POK","line":11,"i_lat":-6.209188,"time":2,"station_name":"Pondok Jati"},{"i_long":106.86807400000001,"station_name":"Jatinegara","is_transit":true,"transit":true,"distance":1236,"time":9,"line":1,"i_lat":-6.215091,"station_id":"JNG"},{"i_lat":-6.2135,"station_name":"Klender","time":3,"i_long":106.899548,"station_id":"KLD","distance":3395,"transit":false,"line":1,"is_transit":false},{"distance":3100,"i_long":106.922662,"station_id":"BUA","i_lat":-6.215568,"station_name":"Buaran","time":2,"line":1,"transit":false,"is_transit":false},{"is_transit":false,"time":1,"distance":1305,"i_lat":-6.217455,"i_long":106.939679,"line":1,"transit":false,"station_name":"Klenderbaru","station_id":"KLDB"},{"i_lat":-6.219053,"station_id":"CUK","station_name":"Cakung","is_transit":false,"distance":1385,"line":1,"transit":false,"i_long":106.951283,"time":8},{"transit":false,"station_id":"KRI","line":1,"i_lat":-6.224515,"distance":3097,"i_long":106.977657,"station_name":"Kranji","time":3,"is_transit":false},{"i_long":106.997013,"i_lat":-6.236616,"station_id":"BKS","transit":false,"station_name":"Bekasi","distance":2520,"is_transit":false,"time":4,"line":1},{"time":2,"station_name":"Bekasi Timur","distance":2368,"i_lat":-6.248029,"station_id":"BKST","i_long":107.016735,"is_transit":false,"line":1,"transit":false},{"station_name":"Tambun","transit":false,"station_id":"TB","distance":4460,"is_transit":false,"i_lat":-6.258864,"line":1,"i_long":107.055722,"time":7}]]}