{"data":[[{"line":21,"is_transit":false,"station_name":"Pondok Rajeg","time":0,"transit":false,"i_lat":-6.460735,"station_id":"PDRG","distance":0,"i_long":106.824374},{"station_name":"Citayam","is_transit":true,"line":2,"time":0,"i_lat":-6.448811,"transit":true,"station_id":"CTA","i_long":106.800298,"distance":0},{"time":6,"station_name":"Depok","i_lat":-6.405256,"i_long":106.816926,"distance":5084,"station_id":"DP","line":2,"is_transit":false,"transit":false},{"i_long":106.819451,"transit":false,"distance":1584,"station_name":"Depokbaru","i_lat":-6.391065,"is_transit":false,"time":3,"station_id":"DPB","line":2},{"i_long":106.831114,"time":4,"transit":false,"station_name":"Pondok Cina","station_id":"POC","i_lat":-6.369073,"distance":2727,"line":2,"is_transit":false},{"distance":1109,"i_lat":-6.360749,"transit":false,"is_transit":false,"i_long":106.831474,"line":2,"time":2,"station_name":"Univ. Indonesia","station_id":"UI"},{"station_id":"UP","station_name":"Univ. Pancasila","is_transit":false,"distance":2264,"line":2,"i_lat":-6.339291,"time":3,"transit":false,"i_long":106.834175},{"station_name":"Lenteng Agung","time":2,"transit":false,"station_id":"LNA","is_transit":false,"i_long":106.832616,"line":2,"distance":1029,"i_lat":-6.330363},{"distance":2671,"transit":false,"i_lat":-6.3080680000000005,"station_name":"Tanjung Barat","i_long":106.838896,"line":2,"is_transit":false,"station_id":"TNT","time":3},{"time":4,"transit":false,"station_id":"PSM","station_name":"Pasar Minggu","is_transit":false,"distance":2820,"i_lat":-6.2842400000000005,"i_long":106.843999,"line":2},{"i_lat":-6.263214,"transit":false,"i_long":106.851577,"station_name":"Pasar Minggu Baru","is_transit":false,"line":2,"distance":2380,"time":2,"station_id":"PSMB"},{"i_long":106.85449,"time":2,"station_name":"Duren Kalibata","distance":824,"transit":false,"station_id":"DRN","is_transit":false,"line":2,"i_lat":-6.255332},{"time":3,"i_lat":-6.242512,"is_transit":false,"line":2,"transit":false,"station_name":"Cawang","i_long":106.856607,"station_id":"CW","distance":1546},{"line":2,"distance":1230,"i_lat":-6.226659,"i_long":106.857948,"station_name":"Tebet","is_transit":false,"transit":false,"station_id":"TEB","time":2},{"is_transit":false,"i_lat":-6.209883,"time":4,"i_long":106.84912,"station_name":"Manggarai","line":2,"transit":false,"distance":2610,"station_id":"MRI"},{"transit":false,"time":4,"i_long":106.840169,"distance":1590,"is_transit":false,"station_id":"CKI","i_lat":-6.198556,"line":2,"station_name":"Cikini"},{"i_lat":-6.186295,"time":3,"distance":1750,"i_long":106.832183,"line":2,"transit":false,"station_name":"Gondangdia","is_transit":false,"station_id":"GDD"},{"station_id":"JUA","transit":false,"line":2,"is_transit":false,"time":4,"i_lat":-6.166716,"i_long":106.828284,"distance":2015,"station_name":"Juanda"},{"station_id":"SW","time":2,"is_transit":false,"i_lat":-6.160725,"i_long":106.827103,"line":2,"transit":false,"distance":1149,"station_name":"Sawah Besar"},{"transit":false,"is_transit":false,"distance":906,"i_long":106.82482,"time":2,"line":2,"station_id":"MGB","station_name":"Manggabesar","i_lat":-6.149769}],[{"distance":0,"line":21,"station_id":"PDRG","time":0,"i_long":106.824374,"is_transit":false,"station_name":"Pondok Rajeg","i_lat":-6.460735,"transit":false},{"time":0,"station_name":"Citayam","is_transit":true,"i_lat":-6.448811,"i_long":106.800298,"line":2,"station_id":"CTA","distance":0,"transit":true},{"station_id":"DP","transit":false,"line":2,"distance":5084,"i_long":106.816926,"is_transit":false,"station_name":"Depok","time":6,"i_lat":-6.405256},{"is_transit":false,"i_long":106.819451,"line":2,"transit":false,"station_name":"Depokbaru","time":3,"i_lat":-6.391065,"station_id":"DPB","distance":1584},{"station_name":"Pondok Cina","transit":false,"time":4,"line":2,"is_transit":false,"i_long":106.831114,"i_lat":-6.369073,"distance":2727,"station_id":"POC"},{"station_id":"UI","i_lat":-6.360749,"line":2,"i_long":106.831474,"transit":false,"time":2,"station_name":"Univ. Indonesia","is_transit":false,"distance":1109},{"station_name":"Univ. Pancasila","transit":false,"distance":2264,"is_transit":false,"i_lat":-6.339291,"i_long":106.834175,"line":2,"station_id":"UP","time":3},{"station_id":"LNA","line":2,"i_long":106.832616,"i_lat":-6.330363,"transit":false,"distance":1029,"station_name":"Lenteng Agung","is_transit":false,"time":2},{"is_transit":false,"distance":2671,"i_lat":-6.3080680000000005,"i_long":106.838896,"line":2,"station_id":"TNT","station_name":"Tanjung Barat","time":3,"transit":false},{"i_long":106.843999,"is_transit":false,"line":2,"station_name":"Pasar Minggu","station_id":"PSM","distance":2820,"i_lat":-6.2842400000000005,"transit":false,"time":4},{"is_transit":false,"i_lat":-6.263214,"i_long":106.851577,"transit":false,"station_id":"PSMB","line":2,"distance":2380,"time":2,"station_name":"Pasar Minggu Baru"},{"is_transit":false,"i_lat":-6.255332,"line":2,"transit":false,"station_name":"Duren Kalibata","station_id":"DRN","time":2,"distance":824,"i_long":106.85449},{"distance":1546,"i_lat":-6.242512,"is_transit":false,"i_long":106.856607,"line":2,"time":3,"transit":false,"station_name":"Cawang","station_id":"CW"},{"is_transit":false,"i_lat":-6.226659,"line":2,"station_name":"Tebet","distance":1230,"transit":false,"time":2,"i_long":106.857948,"station_id":"TEB"},{"transit":true,"station_id":"MRI","i_long":106.84912,"distance":2610,"line":2,"is_transit":true,"station_name":"Manggarai","i_lat":-6.209883,"time":4},{"transit":false,"station_id":"SUD","time":4,"distance":3186,"station_name":"Sudirman","line":1,"is_transit":false,"i_long":106.822649,"i_lat":-6.202263},{"transit":false,"i_lat":-6.201433,"i_long":106.819881,"line":1,"station_name":"Sudirman Baru","station_id":"SUDB","time":1,"is_transit":false,"distance":280},{"time":1,"i_lat":-6.20132,"is_transit":false,"transit":false,"distance":471,"i_long":106.816351,"line":1,"station_id":"KAT","station_name":"Karet"},{"is_transit":false,"time":5,"line":1,"station_name":"Tanah Abang","distance":2029,"transit":false,"i_long":106.811091,"i_lat":-6.185545,"station_id":"THB"},{"station_name":"Duri","transit":false,"i_lat":-6.155215,"is_transit":false,"station_id":"DU","i_long":106.800832,"line":1,"distance":3632,"time":8},{"i_long":106.79867,"station_name":"Angke","is_transit":false,"transit":false,"distance":1230,"time":4,"line":1,"station_id":"AK","i_lat":-6.144674},{"i_long":106.826365,"transit":true,"station_id":"KPB","station_name":"Kampung Bandan","time":9,"distance":4102,"is_transit":true,"line":4,"i_lat":-6.132549},{"station_name":"Jakarta Kota","distance":1364,"transit":true,"line":2,"station_id":"JAKK","i_lat":-6.137569,"is_transit":true,"time":3,"i_long":106.812439},{"station_name":"Jayakarta","i_long":106.820901,"transit":false,"distance":1264,"i_lat":-6.141205,"station_id":"JAY","line":2,"is_transit":false,"time":4},{"is_transit":false,"time":2,"distance":1080,"i_long":106.82482,"line":2,"station_name":"Manggabesar","i_lat":-6.149769,"transit":false,"station_id":"MGB"}],[{"distance":0,"line":21,"is_transit":false,"i_lat":-6.460735,"time":0,"station_id":"PDRG","i_long":106.824374,"station_name":"Pondok Rajeg","transit":false},{"transit":true,"i_long":106.800298,"i_lat":-6.448811,"station_name":"Citayam","is_transit":true,"distance":0,"line":2,"station_id":"CTA","time":0},{"is_transit":false,"transit":false,"station_id":"DP","station_name":"Depok","distance":5084,"time":6,"i_lat":-6.405256,"line":2,"i_long":106.816926},{"transit":false,"time":3,"distance":1584,"line":2,"i_lat":-6.391065,"i_long":106.819451,"is_transit":false,"station_name":"Depokbaru","station_id":"DPB"},{"station_id":"POC","time":4,"is_transit":false,"transit":false,"station_name":"Pondok Cina","line":2,"distance":2727,"i_lat":-6.369073,"i_long":106.831114},{"line":2,"station_id":"UI","i_lat":-6.360749,"distance":1109,"i_long":106.831474,"is_transit":false,"transit":false,"station_name":"Univ. Indonesia","time":2},{"i_long":106.834175,"line":2,"transit":false,"is_transit":false,"time":3,"station_id":"UP","station_name":"Univ. Pancasila","distance":2264,"i_lat":-6.339291},{"transit":false,"time":2,"station_id":"LNA","i_lat":-6.330363,"line":2,"is_transit":false,"station_name":"Lenteng Agung","i_long":106.832616,"distance":1029},{"line":2,"i_long":106.838896,"is_transit":false,"station_name":"Tanjung Barat","i_lat":-6.3080680000000005,"station_id":"TNT","time":3,"distance":2671,"transit":false},{"line":2,"distance":2820,"i_long":106.843999,"time":4,"i_lat":-6.2842400000000005,"station_name":"Pasar Minggu","station_id":"PSM","is_transit":false,"transit":false},{"is_transit":false,"time":2,"i_lat":-6.263214,"line":2,"distance":2380,"i_long":106.851577,"transit":false,"station_name":"Pasar Minggu Baru","station_id":"PSMB"},{"is_transit":false,"station_id":"DRN","line":2,"transit":false,"station_name":"Duren Kalibata","i_long":106.85449,"i_lat":-6.255332,"time":2,"distance":824},{"time":3,"station_name":"Cawang","transit":false,"i_long":106.856607,"i_lat":-6.242512,"station_id":"CW","line":2,"is_transit":false,"distance":1546},{"distance":1230,"station_id":"TEB","is_transit":false,"time":2,"line":2,"i_long":106.857948,"station_name":"Tebet","i_lat":-6.226659,"transit":false},{"time":4,"transit":true,"station_name":"Manggarai","i_long":106.84912,"station_id":"MRI","line":2,"i_lat":-6.209883,"distance":2610,"is_transit":true},{"station_name":"Matraman","time":2,"transit":false,"i_lat":-6.212485,"i_long":106.858896,"station_id":"MTR","is_transit":false,"line":1,"distance":1275},{"transit":true,"station_id":"JNG","i_long":106.86807400000001,"time":8,"i_lat":-6.215091,"is_transit":true,"line":1,"station_name":"Jatinegara","distance":1377},{"transit":false,"station_name":"Pondok Jati","time":2,"i_long":106.861737,"is_transit":false,"i_lat":-6.209188,"distance":1236,"station_id":"POK","line":11},{"is_transit":false,"station_name":"Kramat","time":2,"i_long":106.855437,"distance":1829,"transit":false,"i_lat":-6.193792,"station_id":"KMT","line":11},{"transit":false,"i_lat":-6.185975,"line":11,"i_long":106.850107,"is_transit":false,"station_name":"Gang Sentiong","station_id":"GST","time":1,"distance":973},{"distance":1567,"station_id":"PSE","i_lat":-6.174784,"time":8,"i_long":106.84368,"station_name":"Pasar Senen","transit":false,"is_transit":false,"line":11},{"line":11,"is_transit":false,"i_long":106.839204,"station_id":"KMO","distance":1436,"transit":false,"time":4,"station_name":"Kemayoran","i_lat":-6.161728},{"i_lat":-6.14505,"station_id":"RJW","transit":false,"station_name":"Rajawali","distance":1901,"i_long":106.836569,"line":11,"is_transit":false,"time":5},{"station_name":"Kampung Bandan","station_id":"KPB","i_long":106.826365,"distance":1444,"is_transit":true,"time":3,"i_lat":-6.132549,"transit":true,"line":4},{"distance":1364,"is_transit":true,"i_lat":-6.137569,"transit":true,"station_name":"Jakarta Kota","station_id":"JAKK","line":2,"i_long":106.812439,"time":3},{"line":2,"station_name":"Jayakarta","transit":false,"time":4,"i_lat":-6.141205,"station_id":"JAY","distance":1264,"i_long":106.820901,"is_transit":false},{"station_name":"Manggabesar","station_id":"MGB","i_lat":-6.149769,"is_transit":false,"time":2,"distance":1080,"i_long":106.82482,"line":2,"transit":false}]]}