{"data":[[{"time":0,"is_transit":false,"distance":0,"transit":false,"station_name":"Pondok Rajeg","station_id":"PDRG","i_lat":-6.460735,"i_long":106.824374,"line":21},{"i_long":106.800298,"line":2,"time":0,"is_transit":true,"transit":true,"distance":0,"i_lat":-6.448811,"station_name":"Citayam","station_id":"CTA"},{"station_id":"DP","i_long":106.816926,"distance":5084,"is_transit":false,"time":6,"line":2,"transit":false,"i_lat":-6.405256,"station_name":"Depok"},{"station_name":"Depokbaru","i_lat":-6.391065,"transit":false,"distance":1584,"line":2,"station_id":"DPB","time":3,"i_long":106.819451,"is_transit":false},{"distance":2727,"i_lat":-6.369073,"is_transit":false,"transit":false,"i_long":106.831114,"station_name":"Pondok Cina","station_id":"POC","time":4,"line":2},{"transit":false,"i_long":106.831474,"time":2,"station_name":"Univ. Indonesia","is_transit":false,"line":2,"i_lat":-6.360749,"distance":1109,"station_id":"UI"},{"i_lat":-6.339291,"line":2,"distance":2264,"station_id":"UP","i_long":106.834175,"time":3,"transit":false,"station_name":"Univ. Pancasila","is_transit":false},{"transit":false,"line":2,"i_long":106.832616,"station_id":"LNA","is_transit":false,"distance":1029,"i_lat":-6.330363,"station_name":"Lenteng Agung","time":2},{"station_id":"TNT","time":3,"i_lat":-6.3080680000000005,"transit":false,"is_transit":false,"line":2,"station_name":"Tanjung Barat","distance":2671,"i_long":106.838896},{"i_long":106.843999,"time":4,"distance":2820,"transit":false,"i_lat":-6.2842400000000005,"is_transit":false,"line":2,"station_name":"Pasar Minggu","station_id":"PSM"},{"station_name":"Pasar Minggu Baru","time":2,"distance":2380,"is_transit":false,"i_lat":-6.263214,"i_long":106.851577,"line":2,"station_id":"PSMB","transit":false}]]}