{"data":[[{"station_id":"PDRG","time":0,"line":21,"station_name":"Pondok Rajeg","distance":0,"i_lat":-6.460735,"transit":false,"is_transit":false,"i_long":106.824374},{"is_transit":true,"station_name":"Citayam","i_long":106.800298,"station_id":"CTA","time":0,"line":2,"distance":0,"transit":true,"i_lat":-6.448811},{"i_lat":-6.493243,"line":2,"time":5,"transit":false,"station_name":"Bojonggede","distance":5197,"i_long":106.792719,"station_id":"BJD","is_transit":false},{"i_long":106.800016,"transit":false,"distance":4331,"time":5,"is_transit":false,"i_lat":-6.530544,"station_id":"CLT","line":2,"station_name":"Cilebut"},{"line":2,"is_transit":false,"transit":false,"station_id":"BOO","i_long":106.790574,"distance":7514,"station_name":"Bogor","time":9,"i_lat":-6.594596}]]}