{"data":[[{"i_long":106.824374,"time":0,"station_name":"Pondok Rajeg","is_transit":false,"distance":0,"station_id":"PDRG","line":21,"transit":false,"i_lat":-6.460735},{"distance":0,"i_lat":-6.448811,"i_long":106.800298,"line":2,"transit":true,"station_name":"Citayam","time":0,"station_id":"CTA","is_transit":true},{"station_id":"DP","i_lat":-6.405256,"i_long":106.816926,"transit":false,"time":6,"distance":5084,"line":2,"station_name":"Depok","is_transit":false},{"distance":1584,"time":3,"station_id":"DPB","is_transit":false,"transit":false,"line":2,"station_name":"Depokbaru","i_long":106.819451,"i_lat":-6.391065},{"is_transit":false,"line":2,"transit":false,"i_lat":-6.369073,"time":4,"i_long":106.831114,"station_id":"POC","station_name":"Pondok Cina","distance":2727},{"line":2,"i_lat":-6.360749,"distance":1109,"time":2,"is_transit":false,"transit":false,"station_id":"UI","station_name":"Univ. Indonesia","i_long":106.831474},{"station_name":"Univ. Pancasila","distance":2264,"i_long":106.834175,"line":2,"transit":false,"is_transit":false,"time":3,"i_lat":-6.339291,"station_id":"UP"},{"i_lat":-6.330363,"distance":1029,"station_id":"LNA","time":2,"i_long":106.832616,"line":2,"is_transit":false,"transit":false,"station_name":"Lenteng Agung"},{"i_long":106.838896,"time":3,"distance":2671,"line":2,"transit":false,"station_name":"Tanjung Barat","station_id":"TNT","is_transit":false,"i_lat":-6.3080680000000005},{"transit":false,"station_name":"Pasar Minggu","i_long":106.843999,"is_transit":false,"distance":2820,"time":4,"i_lat":-6.2842400000000005,"station_id":"PSM","line":2},{"time":2,"i_lat":-6.263214,"line":2,"station_name":"Pasar Minggu Baru","station_id":"PSMB","i_long":106.851577,"is_transit":false,"distance":2380,"transit":false},{"transit":false,"station_id":"DRN","station_name":"Duren Kalibata","distance":824,"is_transit":false,"line":2,"i_long":106.85449,"i_lat":-6.255332,"time":2},{"transit":false,"is_transit":false,"station_id":"CW","time":3,"distance":1546,"station_name":"Cawang","i_long":106.856607,"line":2,"i_lat":-6.242512},{"distance":1230,"station_name":"Tebet","is_transit":false,"station_id":"TEB","time":2,"i_lat":-6.226659,"i_long":106.857948,"line":2,"transit":false},{"station_name":"Manggarai","i_lat":-6.209883,"line":2,"i_long":106.84912,"distance":2610,"is_transit":true,"transit":true,"station_id":"MRI","time":4},{"i_long":106.822649,"is_transit":false,"line":1,"i_lat":-6.202263,"station_name":"Sudirman","station_id":"SUD","transit":false,"time":4,"distance":3186},{"i_lat":-6.201433,"time":1,"line":1,"i_long":106.819881,"transit":false,"is_transit":false,"station_name":"Sudirman Baru","distance":280,"station_id":"SUDB"},{"i_lat":-6.20132,"transit":false,"is_transit":false,"distance":471,"time":1,"station_id":"KAT","i_long":106.816351,"station_name":"Karet","line":1},{"i_long":106.811091,"transit":true,"station_name":"Tanah Abang","time":5,"station_id":"THB","distance":2029,"is_transit":true,"i_lat":-6.185545,"line":1},{"i_lat":-6.207404,"time":6,"distance":3191,"station_name":"Palmerah","is_transit":false,"line":6,"transit":false,"i_long":106.79689,"station_id":"PLM"},{"distance":3737,"line":6,"i_lat":-6.237242,"station_id":"KBY","i_long":106.780334,"time":7,"transit":false,"station_name":"Kebayoran","is_transit":false},{"station_id":"PDJ","is_transit":false,"transit":false,"i_lat":-6.276362,"station_name":"Pondokranji","i_long":106.74273,"distance":6218,"time":8,"line":6},{"distance":2179,"station_id":"JMU","line":6,"time":3,"transit":false,"station_name":"Jurangmangu","i_long":106.728916,"i_lat":-6.288927,"is_transit":false},{"line":6,"is_transit":false,"station_name":"Sudimara","transit":false,"station_id":"SDM","distance":1994,"i_lat":-6.296963,"i_long":106.712277,"time":4},{"i_lat":-6.314823,"transit":false,"is_transit":false,"station_id":"RU","distance":4566,"station_name":"Rawa Buntu","time":6,"line":6,"i_long":106.675475},{"time":4,"station_name":"Serpong","transit":false,"line":6,"i_long":106.66566,"i_lat":-6.319871,"station_id":"SRP","is_transit":false,"distance":2413}],[{"time":0,"station_id":"PDRG","i_long":106.824374,"is_transit":false,"distance":0,"i_lat":-6.460735,"station_name":"Pondok Rajeg","transit":false,"line":21},{"station_name":"Citayam","line":2,"is_transit":true,"distance":0,"time":0,"station_id":"CTA","transit":true,"i_lat":-6.448811,"i_long":106.800298},{"time":6,"i_lat":-6.405256,"line":2,"station_id":"DP","transit":false,"station_name":"Depok","distance":5084,"i_long":106.816926,"is_transit":false},{"transit":false,"time":3,"distance":1584,"i_lat":-6.391065,"line":2,"i_long":106.819451,"station_name":"Depokbaru","is_transit":false,"station_id":"DPB"},{"is_transit":false,"station_id":"POC","i_lat":-6.369073,"line":2,"time":4,"station_name":"Pondok Cina","transit":false,"distance":2727,"i_long":106.831114},{"station_id":"UI","is_transit":false,"i_lat":-6.360749,"i_long":106.831474,"distance":1109,"station_name":"Univ. Indonesia","line":2,"time":2,"transit":false},{"i_lat":-6.339291,"distance":2264,"is_transit":false,"transit":false,"i_long":106.834175,"line":2,"station_name":"Univ. Pancasila","station_id":"UP","time":3},{"station_id":"LNA","i_long":106.832616,"distance":1029,"i_lat":-6.330363,"transit":false,"line":2,"is_transit":false,"station_name":"Lenteng Agung","time":2},{"i_lat":-6.3080680000000005,"line":2,"station_name":"Tanjung Barat","i_long":106.838896,"transit":false,"is_transit":false,"distance":2671,"time":3,"station_id":"TNT"},{"i_lat":-6.2842400000000005,"time":4,"line":2,"distance":2820,"station_name":"Pasar Minggu","i_long":106.843999,"transit":false,"station_id":"PSM","is_transit":false},{"line":2,"time":2,"station_name":"Pasar Minggu Baru","station_id":"PSMB","distance":2380,"is_transit":false,"transit":false,"i_lat":-6.263214,"i_long":106.851577},{"is_transit":false,"time":2,"line":2,"station_id":"DRN","i_long":106.85449,"distance":824,"station_name":"Duren Kalibata","transit":false,"i_lat":-6.255332},{"i_long":106.856607,"station_id":"CW","i_lat":-6.242512,"is_transit":false,"distance":1546,"time":3,"line":2,"transit":false,"station_name":"Cawang"},{"distance":1230,"transit":false,"line":2,"is_transit":false,"i_long":106.857948,"i_lat":-6.226659,"station_name":"Tebet","station_id":"TEB","time":2},{"i_long":106.84912,"station_name":"Manggarai","station_id":"MRI","i_lat":-6.209883,"line":2,"distance":2610,"time":4,"transit":false,"is_transit":false},{"station_id":"CKI","is_transit":false,"time":4,"i_lat":-6.198556,"i_long":106.840169,"transit":false,"line":2,"station_name":"Cikini","distance":1590},{"station_name":"Gondangdia","line":2,"distance":1750,"is_transit":false,"i_long":106.832183,"transit":false,"i_lat":-6.186295,"station_id":"GDD","time":3},{"i_long":106.828284,"line":2,"transit":false,"station_id":"JUA","is_transit":false,"distance":2015,"time":4,"station_name":"Juanda","i_lat":-6.166716},{"i_long":106.827103,"is_transit":false,"station_name":"Sawah Besar","transit":false,"station_id":"SW","distance":1149,"i_lat":-6.160725,"time":2,"line":2},{"transit":false,"i_lat":-6.149769,"station_id":"MGB","line":2,"is_transit":false,"i_long":106.82482,"distance":906,"station_name":"Manggabesar","time":2},{"distance":1080,"is_transit":false,"time":2,"line":2,"transit":false,"station_id":"JAY","i_lat":-6.141205,"i_long":106.820901,"station_name":"Jayakarta"},{"time":4,"distance":1264,"station_name":"Jakarta Kota","line":2,"transit":true,"station_id":"JAKK","is_transit":true,"i_lat":-6.137569,"i_long":106.812439},{"i_lat":-6.132549,"line":4,"transit":true,"distance":1364,"i_long":106.826365,"station_name":"Kampung Bandan","station_id":"KPB","is_transit":true,"time":3},{"is_transit":false,"distance":4102,"i_long":106.79867,"transit":false,"station_name":"Angke","line":1,"station_id":"AK","time":9,"i_lat":-6.144674},{"is_transit":false,"station_name":"Duri","time":4,"distance":1230,"i_lat":-6.155215,"i_long":106.800832,"line":1,"transit":false,"station_id":"DU"},{"station_name":"Tanah Abang","is_transit":true,"i_lat":-6.185545,"line":1,"station_id":"THB","transit":true,"time":8,"distance":3632,"i_long":106.811091},{"i_lat":-6.207404,"transit":false,"time":6,"station_id":"PLM","i_long":106.79689,"distance":3191,"station_name":"Palmerah","is_transit":false,"line":6},{"time":7,"transit":false,"distance":3737,"station_id":"KBY","i_lat":-6.237242,"station_name":"Kebayoran","is_transit":false,"i_long":106.780334,"line":6},{"is_transit":false,"distance":6218,"i_lat":-6.276362,"line":6,"station_id":"PDJ","station_name":"Pondokranji","i_long":106.74273,"time":8,"transit":false},{"time":3,"line":6,"is_transit":false,"transit":false,"station_name":"Jurangmangu","station_id":"JMU","i_long":106.728916,"i_lat":-6.288927,"distance":2179},{"station_name":"Sudimara","distance":1994,"is_transit":false,"time":4,"station_id":"SDM","transit":false,"i_long":106.712277,"line":6,"i_lat":-6.296963},{"i_lat":-6.314823,"transit":false,"station_id":"RU","time":6,"i_long":106.675475,"station_name":"Rawa Buntu","distance":4566,"line":6,"is_transit":false},{"time":4,"transit":false,"station_name":"Serpong","i_long":106.66566,"station_id":"SRP","distance":2413,"i_lat":-6.319871,"line":6,"is_transit":false}],[{"is_transit":false,"station_id":"PDRG","time":0,"i_long":106.824374,"station_name":"Pondok Rajeg","line":21,"transit":false,"i_lat":-6.460735,"distance":0},{"line":2,"i_long":106.800298,"station_name":"Citayam","station_id":"CTA","distance":0,"i_lat":-6.448811,"transit":true,"time":0,"is_transit":true},{"distance":5084,"time":6,"transit":false,"station_name":"Depok","i_lat":-6.405256,"i_long":106.816926,"is_transit":false,"line":2,"station_id":"DP"},{"transit":false,"station_name":"Depokbaru","time":3,"distance":1584,"line":2,"i_lat":-6.391065,"i_long":106.819451,"station_id":"DPB","is_transit":false},{"time":4,"i_long":106.831114,"station_id":"POC","is_transit":false,"line":2,"station_name":"Pondok Cina","i_lat":-6.369073,"distance":2727,"transit":false},{"station_name":"Univ. Indonesia","station_id":"UI","time":2,"is_transit":false,"distance":1109,"i_lat":-6.360749,"transit":false,"i_long":106.831474,"line":2},{"is_transit":false,"line":2,"i_lat":-6.339291,"i_long":106.834175,"time":3,"transit":false,"station_name":"Univ. Pancasila","station_id":"UP","distance":2264},{"i_long":106.832616,"transit":false,"time":2,"distance":1029,"is_transit":false,"line":2,"i_lat":-6.330363,"station_name":"Lenteng Agung","station_id":"LNA"},{"station_id":"TNT","i_lat":-6.3080680000000005,"line":2,"time":3,"is_transit":false,"transit":false,"station_name":"Tanjung Barat","distance":2671,"i_long":106.838896},{"i_long":106.843999,"station_id":"PSM","i_lat":-6.2842400000000005,"line":2,"distance":2820,"station_name":"Pasar Minggu","time":4,"transit":false,"is_transit":false},{"line":2,"is_transit":false,"time":2,"distance":2380,"i_long":106.851577,"station_id":"PSMB","transit":false,"station_name":"Pasar Minggu Baru","i_lat":-6.263214},{"line":2,"station_id":"DRN","i_long":106.85449,"distance":824,"i_lat":-6.255332,"time":2,"transit":false,"is_transit":false,"station_name":"Duren Kalibata"},{"station_name":"Cawang","distance":1546,"time":3,"transit":false,"i_long":106.856607,"i_lat":-6.242512,"station_id":"CW","line":2,"is_transit":false},{"station_name":"Tebet","station_id":"TEB","time":2,"transit":false,"distance":1230,"i_long":106.857948,"line":2,"i_lat":-6.226659,"is_transit":false},{"distance":2610,"station_id":"MRI","is_transit":true,"station_name":"Manggarai","i_long":106.84912,"i_lat":-6.209883,"transit":true,"line":2,"time":4},{"station_id":"MTR","is_transit":false,"station_name":"Matraman","line":1,"transit":false,"distance":1275,"i_long":106.858896,"i_lat":-6.212485,"time":2},{"transit":true,"i_lat":-6.215091,"station_name":"Jatinegara","station_id":"JNG","is_transit":true,"time":8,"line":1,"distance":1377,"i_long":106.86807400000001},{"is_transit":false,"time":2,"transit":false,"i_long":106.861737,"station_name":"Pondok Jati","distance":1236,"i_lat":-6.209188,"line":11,"station_id":"POK"},{"station_id":"KMT","distance":1829,"is_transit":false,"i_lat":-6.193792,"i_long":106.855437,"transit":false,"line":11,"time":2,"station_name":"Kramat"},{"station_name":"Gang Sentiong","i_long":106.850107,"transit":false,"station_id":"GST","i_lat":-6.185975,"distance":973,"is_transit":false,"line":11,"time":1},{"time":8,"transit":false,"station_id":"PSE","i_long":106.84368,"station_name":"Pasar Senen","is_transit":false,"distance":1567,"line":11,"i_lat":-6.174784},{"station_id":"KMO","time":4,"station_name":"Kemayoran","i_lat":-6.161728,"i_long":106.839204,"distance":1436,"line":11,"transit":false,"is_transit":false},{"i_lat":-6.14505,"distance":1901,"i_long":106.836569,"station_id":"RJW","time":5,"transit":false,"is_transit":false,"line":11,"station_name":"Rajawali"},{"station_name":"Kampung Bandan","distance":1444,"i_lat":-6.132549,"i_long":106.826365,"line":4,"station_id":"KPB","is_transit":true,"time":3,"transit":true},{"time":9,"line":1,"station_id":"AK","transit":false,"i_long":106.79867,"i_lat":-6.144674,"is_transit":false,"station_name":"Angke","distance":4102},{"station_name":"Duri","i_long":106.800832,"transit":false,"time":4,"station_id":"DU","distance":1230,"i_lat":-6.155215,"is_transit":false,"line":1},{"distance":3632,"transit":true,"is_transit":true,"i_lat":-6.185545,"station_name":"Tanah Abang","i_long":106.811091,"line":1,"time":8,"station_id":"THB"},{"station_name":"Palmerah","i_lat":-6.207404,"line":6,"is_transit":false,"transit":false,"station_id":"PLM","time":6,"distance":3191,"i_long":106.79689},{"line":6,"transit":false,"time":7,"station_name":"Kebayoran","i_lat":-6.237242,"station_id":"KBY","i_long":106.780334,"is_transit":false,"distance":3737},{"i_lat":-6.276362,"line":6,"station_name":"Pondokranji","station_id":"PDJ","transit":false,"i_long":106.74273,"distance":6218,"time":8,"is_transit":false},{"i_long":106.728916,"station_id":"JMU","is_transit":false,"time":3,"distance":2179,"i_lat":-6.288927,"line":6,"station_name":"Jurangmangu","transit":false},{"distance":1994,"station_name":"Sudimara","is_transit":false,"line":6,"transit":false,"i_lat":-6.296963,"time":4,"station_id":"SDM","i_long":106.712277},{"i_long":106.675475,"line":6,"station_name":"Rawa Buntu","distance":4566,"time":6,"is_transit":false,"station_id":"RU","i_lat":-6.314823,"transit":false},{"transit":false,"line":6,"station_id":"SRP","distance":2413,"is_transit":false,"station_name":"Serpong","time":4,"i_long":106.66566,"i_lat":-6.319871}]]}