{"data":[[{"time":0,"distance":0,"transit":false,"station_name":"Pondok Rajeg","is_transit":false,"i_lat":-6.460735,"line":21,"station_id":"PDRG","i_long":106.824374},{"station_id":"CTA","is_transit":true,"station_name":"Citayam","line":2,"distance":0,"i_lat":-6.448811,"transit":true,"time":0,"i_long":106.800298},{"distance":5084,"is_transit":false,"time":6,"station_id":"DP","i_lat":-6.405256,"transit":false,"i_long":106.816926,"station_name":"Depok","line":2},{"station_id":"DPB","is_transit":false,"distance":1584,"station_name":"Depokbaru","i_lat":-6.391065,"transit":false,"i_long":106.819451,"line":2,"time":3},{"transit":false,"is_transit":false,"distance":2727,"i_lat":-6.369073,"station_id":"POC","time":4,"station_name":"Pondok Cina","i_long":106.831114,"line":2},{"is_transit":false,"transit":false,"i_long":106.831474,"line":2,"station_id":"UI","time":2,"i_lat":-6.360749,"distance":1109,"station_name":"Univ. Indonesia"},{"distance":2264,"is_transit":false,"station_id":"UP","line":2,"time":3,"i_lat":-6.339291,"i_long":106.834175,"transit":false,"station_name":"Univ. Pancasila"},{"time":2,"transit":false,"station_id":"LNA","i_long":106.832616,"distance":1029,"i_lat":-6.330363,"station_name":"Lenteng Agung","is_transit":false,"line":2},{"transit":false,"station_name":"Tanjung Barat","time":3,"i_lat":-6.3080680000000005,"line":2,"station_id":"TNT","is_transit":false,"distance":2671,"i_long":106.838896},{"time":4,"is_transit":false,"station_name":"Pasar Minggu","transit":false,"i_long":106.843999,"line":2,"i_lat":-6.2842400000000005,"station_id":"PSM","distance":2820},{"distance":2380,"i_lat":-6.263214,"i_long":106.851577,"time":2,"station_name":"Pasar Minggu Baru","transit":false,"line":2,"is_transit":false,"station_id":"PSMB"},{"i_lat":-6.255332,"station_id":"DRN","transit":false,"time":2,"is_transit":false,"line":2,"station_name":"Duren Kalibata","distance":824,"i_long":106.85449},{"i_long":106.856607,"i_lat":-6.242512,"distance":1546,"station_id":"CW","is_transit":false,"station_name":"Cawang","line":2,"transit":false,"time":3},{"distance":1230,"line":2,"transit":false,"is_transit":false,"station_name":"Tebet","station_id":"TEB","i_long":106.857948,"i_lat":-6.226659,"time":2},{"line":2,"distance":2610,"i_long":106.84912,"station_id":"MRI","time":4,"station_name":"Manggarai","i_lat":-6.209883,"is_transit":true,"transit":true},{"distance":3186,"i_lat":-6.202263,"i_long":106.822649,"station_name":"Sudirman","line":1,"is_transit":false,"time":4,"station_id":"SUD","transit":false},{"line":1,"distance":280,"transit":false,"i_lat":-6.201433,"station_name":"Sudirman Baru","time":1,"i_long":106.819881,"station_id":"SUDB","is_transit":false},{"i_lat":-6.20132,"distance":471,"i_long":106.816351,"station_name":"Karet","station_id":"KAT","line":1,"is_transit":false,"time":1,"transit":false},{"distance":2029,"line":1,"i_lat":-6.185545,"station_name":"Tanah Abang","is_transit":true,"transit":true,"time":5,"i_long":106.811091,"station_id":"THB"},{"transit":false,"time":6,"station_id":"PLM","distance":3191,"station_name":"Palmerah","i_lat":-6.207404,"i_long":106.79689,"line":6,"is_transit":false},{"i_lat":-6.237242,"i_long":106.780334,"station_id":"KBY","transit":false,"line":6,"is_transit":false,"distance":3737,"station_name":"Kebayoran","time":7},{"station_name":"Pondokranji","is_transit":false,"line":6,"time":8,"i_lat":-6.276362,"transit":false,"station_id":"PDJ","i_long":106.74273,"distance":6218},{"transit":false,"station_id":"JMU","time":3,"distance":2179,"i_lat":-6.288927,"line":6,"is_transit":false,"i_long":106.728916,"station_name":"Jurangmangu"}],[{"i_long":106.824374,"station_name":"Pondok Rajeg","line":21,"is_transit":false,"i_lat":-6.460735,"time":0,"station_id":"PDRG","transit":false,"distance":0},{"i_long":106.800298,"is_transit":true,"i_lat":-6.448811,"transit":true,"station_id":"CTA","station_name":"Citayam","time":0,"line":2,"distance":0},{"i_lat":-6.405256,"station_name":"Depok","line":2,"transit":false,"is_transit":false,"i_long":106.816926,"station_id":"DP","distance":5084,"time":6},{"time":3,"i_long":106.819451,"distance":1584,"line":2,"station_id":"DPB","i_lat":-6.391065,"station_name":"Depokbaru","is_transit":false,"transit":false},{"line":2,"is_transit":false,"time":4,"transit":false,"station_name":"Pondok Cina","station_id":"POC","i_long":106.831114,"i_lat":-6.369073,"distance":2727},{"is_transit":false,"time":2,"i_long":106.831474,"distance":1109,"i_lat":-6.360749,"station_id":"UI","station_name":"Univ. Indonesia","line":2,"transit":false},{"time":3,"station_id":"UP","line":2,"i_long":106.834175,"distance":2264,"station_name":"Univ. Pancasila","transit":false,"is_transit":false,"i_lat":-6.339291},{"transit":false,"station_id":"LNA","i_long":106.832616,"time":2,"line":2,"distance":1029,"i_lat":-6.330363,"station_name":"Lenteng Agung","is_transit":false},{"transit":false,"distance":2671,"i_long":106.838896,"line":2,"is_transit":false,"station_id":"TNT","i_lat":-6.3080680000000005,"time":3,"station_name":"Tanjung Barat"},{"line":2,"i_lat":-6.2842400000000005,"time":4,"i_long":106.843999,"distance":2820,"transit":false,"station_name":"Pasar Minggu","station_id":"PSM","is_transit":false},{"station_name":"Pasar Minggu Baru","time":2,"station_id":"PSMB","i_lat":-6.263214,"is_transit":false,"line":2,"distance":2380,"i_long":106.851577,"transit":false},{"line":2,"is_transit":false,"time":2,"station_name":"Duren Kalibata","station_id":"DRN","i_lat":-6.255332,"distance":824,"i_long":106.85449,"transit":false},{"distance":1546,"line":2,"i_lat":-6.242512,"station_name":"Cawang","station_id":"CW","transit":false,"time":3,"i_long":106.856607,"is_transit":false},{"station_id":"TEB","is_transit":false,"line":2,"transit":false,"i_long":106.857948,"distance":1230,"station_name":"Tebet","time":2,"i_lat":-6.226659},{"station_id":"MRI","line":2,"is_transit":false,"distance":2610,"transit":false,"time":4,"i_long":106.84912,"station_name":"Manggarai","i_lat":-6.209883},{"station_id":"CKI","is_transit":false,"station_name":"Cikini","transit":false,"distance":1590,"i_lat":-6.198556,"i_long":106.840169,"time":4,"line":2},{"station_name":"Gondangdia","i_long":106.832183,"station_id":"GDD","time":3,"transit":false,"distance":1750,"is_transit":false,"line":2,"i_lat":-6.186295},{"transit":false,"station_id":"JUA","distance":2015,"i_lat":-6.166716,"time":4,"i_long":106.828284,"is_transit":false,"line":2,"station_name":"Juanda"},{"i_lat":-6.160725,"line":2,"station_id":"SW","transit":false,"time":2,"distance":1149,"i_long":106.827103,"is_transit":false,"station_name":"Sawah Besar"},{"station_name":"Manggabesar","is_transit":false,"time":2,"transit":false,"distance":906,"line":2,"i_lat":-6.149769,"station_id":"MGB","i_long":106.82482},{"i_long":106.820901,"i_lat":-6.141205,"transit":false,"time":2,"distance":1080,"is_transit":false,"station_id":"JAY","line":2,"station_name":"Jayakarta"},{"station_id":"JAKK","time":4,"distance":1264,"line":2,"i_long":106.812439,"transit":true,"station_name":"Jakarta Kota","is_transit":true,"i_lat":-6.137569},{"line":4,"transit":true,"is_transit":true,"time":3,"distance":1364,"station_id":"KPB","i_lat":-6.132549,"station_name":"Kampung Bandan","i_long":106.826365},{"distance":4102,"station_name":"Angke","is_transit":false,"station_id":"AK","i_long":106.79867,"i_lat":-6.144674,"transit":false,"line":1,"time":9},{"i_long":106.800832,"line":1,"transit":false,"station_id":"DU","i_lat":-6.155215,"station_name":"Duri","time":4,"is_transit":false,"distance":1230},{"distance":3632,"line":1,"i_lat":-6.185545,"time":8,"transit":true,"i_long":106.811091,"station_id":"THB","station_name":"Tanah Abang","is_transit":true},{"time":6,"transit":false,"is_transit":false,"i_lat":-6.207404,"i_long":106.79689,"line":6,"station_name":"Palmerah","station_id":"PLM","distance":3191},{"line":6,"is_transit":false,"i_lat":-6.237242,"distance":3737,"station_name":"Kebayoran","transit":false,"time":7,"station_id":"KBY","i_long":106.780334},{"is_transit":false,"distance":6218,"line":6,"time":8,"i_lat":-6.276362,"station_name":"Pondokranji","i_long":106.74273,"station_id":"PDJ","transit":false},{"transit":false,"station_name":"Jurangmangu","time":3,"distance":2179,"i_long":106.728916,"line":6,"station_id":"JMU","i_lat":-6.288927,"is_transit":false}],[{"i_long":106.824374,"distance":0,"station_id":"PDRG","station_name":"Pondok Rajeg","time":0,"line":21,"transit":false,"i_lat":-6.460735,"is_transit":false},{"station_id":"CTA","distance":0,"is_transit":true,"i_long":106.800298,"i_lat":-6.448811,"line":2,"station_name":"Citayam","transit":true,"time":0},{"i_long":106.816926,"transit":false,"i_lat":-6.405256,"station_id":"DP","is_transit":false,"line":2,"station_name":"Depok","distance":5084,"time":6},{"station_id":"DPB","line":2,"i_long":106.819451,"distance":1584,"time":3,"transit":false,"is_transit":false,"i_lat":-6.391065,"station_name":"Depokbaru"},{"distance":2727,"is_transit":false,"station_name":"Pondok Cina","station_id":"POC","line":2,"i_lat":-6.369073,"i_long":106.831114,"time":4,"transit":false},{"station_name":"Univ. Indonesia","i_lat":-6.360749,"station_id":"UI","transit":false,"time":2,"distance":1109,"is_transit":false,"line":2,"i_long":106.831474},{"is_transit":false,"line":2,"time":3,"transit":false,"station_id":"UP","i_long":106.834175,"i_lat":-6.339291,"station_name":"Univ. Pancasila","distance":2264},{"is_transit":false,"distance":1029,"transit":false,"i_lat":-6.330363,"i_long":106.832616,"station_name":"Lenteng Agung","line":2,"time":2,"station_id":"LNA"},{"is_transit":false,"i_lat":-6.3080680000000005,"transit":false,"station_id":"TNT","time":3,"distance":2671,"i_long":106.838896,"line":2,"station_name":"Tanjung Barat"},{"i_lat":-6.2842400000000005,"is_transit":false,"time":4,"i_long":106.843999,"station_name":"Pasar Minggu","station_id":"PSM","transit":false,"distance":2820,"line":2},{"transit":false,"station_name":"Pasar Minggu Baru","distance":2380,"station_id":"PSMB","line":2,"is_transit":false,"i_long":106.851577,"time":2,"i_lat":-6.263214},{"station_id":"DRN","time":2,"distance":824,"i_lat":-6.255332,"i_long":106.85449,"line":2,"transit":false,"station_name":"Duren Kalibata","is_transit":false},{"station_id":"CW","is_transit":false,"transit":false,"time":3,"distance":1546,"i_lat":-6.242512,"line":2,"station_name":"Cawang","i_long":106.856607},{"i_long":106.857948,"distance":1230,"line":2,"station_name":"Tebet","is_transit":false,"station_id":"TEB","i_lat":-6.226659,"transit":false,"time":2},{"i_lat":-6.209883,"transit":true,"station_id":"MRI","line":2,"time":4,"station_name":"Manggarai","is_transit":true,"i_long":106.84912,"distance":2610},{"i_lat":-6.212485,"station_name":"Matraman","i_long":106.858896,"line":1,"is_transit":false,"transit":false,"distance":1275,"station_id":"MTR","time":2},{"station_name":"Jatinegara","i_long":106.86807400000001,"station_id":"JNG","time":8,"line":1,"is_transit":true,"distance":1377,"i_lat":-6.215091,"transit":true},{"distance":1236,"is_transit":false,"i_long":106.861737,"i_lat":-6.209188,"time":2,"line":11,"station_id":"POK","transit":false,"station_name":"Pondok Jati"},{"station_id":"KMT","is_transit":false,"time":2,"i_long":106.855437,"distance":1829,"station_name":"Kramat","i_lat":-6.193792,"transit":false,"line":11},{"i_long":106.850107,"transit":false,"station_id":"GST","time":1,"i_lat":-6.185975,"is_transit":false,"distance":973,"station_name":"Gang Sentiong","line":11},{"is_transit":false,"i_long":106.84368,"line":11,"station_id":"PSE","transit":false,"station_name":"Pasar Senen","time":8,"distance":1567,"i_lat":-6.174784},{"i_long":106.839204,"distance":1436,"i_lat":-6.161728,"transit":false,"station_name":"Kemayoran","time":4,"line":11,"is_transit":false,"station_id":"KMO"},{"time":5,"i_long":106.836569,"is_transit":false,"distance":1901,"i_lat":-6.14505,"station_name":"Rajawali","transit":false,"line":11,"station_id":"RJW"},{"i_long":106.826365,"is_transit":true,"line":4,"station_id":"KPB","i_lat":-6.132549,"time":3,"station_name":"Kampung Bandan","transit":true,"distance":1444},{"station_id":"AK","time":9,"distance":4102,"line":1,"transit":false,"i_long":106.79867,"i_lat":-6.144674,"is_transit":false,"station_name":"Angke"},{"station_id":"DU","i_lat":-6.155215,"transit":false,"i_long":106.800832,"time":4,"station_name":"Duri","distance":1230,"line":1,"is_transit":false},{"station_name":"Tanah Abang","distance":3632,"transit":true,"line":1,"i_long":106.811091,"i_lat":-6.185545,"is_transit":true,"station_id":"THB","time":8},{"i_lat":-6.207404,"distance":3191,"i_long":106.79689,"transit":false,"time":6,"station_id":"PLM","line":6,"is_transit":false,"station_name":"Palmerah"},{"time":7,"line":6,"station_id":"KBY","distance":3737,"i_lat":-6.237242,"station_name":"Kebayoran","transit":false,"i_long":106.780334,"is_transit":false},{"line":6,"transit":false,"time":8,"station_id":"PDJ","distance":6218,"i_long":106.74273,"station_name":"Pondokranji","i_lat":-6.276362,"is_transit":false},{"is_transit":false,"time":3,"i_lat":-6.288927,"transit":false,"line":6,"distance":2179,"station_name":"Jurangmangu","i_long":106.728916,"station_id":"JMU"}]]}