{"data":[[{"time":0,"distance":0,"line":21,"i_lat":-6.460735,"transit":false,"station_name":"Pondok Rajeg","station_id":"PDRG","is_transit":false,"i_long":106.824374},{"station_name":"Citayam","i_lat":-6.448811,"is_transit":true,"transit":true,"distance":0,"i_long":106.800298,"station_id":"CTA","time":0,"line":2},{"i_lat":-6.405256,"line":2,"transit":false,"i_long":106.816926,"station_id":"DP","time":6,"is_transit":false,"station_name":"Depok","distance":5084},{"station_name":"Depokbaru","time":3,"is_transit":false,"station_id":"DPB","i_lat":-6.391065,"i_long":106.819451,"distance":1584,"transit":false,"line":2},{"station_name":"Pondok Cina","station_id":"POC","is_transit":false,"line":2,"i_long":106.831114,"i_lat":-6.369073,"time":4,"transit":false,"distance":2727},{"transit":false,"i_long":106.831474,"is_transit":false,"station_name":"Univ. Indonesia","i_lat":-6.360749,"line":2,"time":2,"station_id":"UI","distance":1109}]]}