{"data":[[{"distance":0,"station_id":"PDRG","i_lat":-6.460735,"line":21,"time":0,"station_name":"Pondok Rajeg","i_long":106.824374,"transit":false,"is_transit":false},{"i_long":106.800298,"station_name":"Citayam","distance":0,"i_lat":-6.448811,"station_id":"CTA","time":0,"transit":true,"is_transit":true,"line":2},{"station_id":"DP","station_name":"Depok","i_long":106.816926,"line":2,"distance":5084,"is_transit":false,"transit":false,"time":6,"i_lat":-6.405256},{"transit":false,"i_long":106.819451,"line":2,"station_name":"Depokbaru","is_transit":false,"time":3,"distance":1584,"station_id":"DPB","i_lat":-6.391065},{"is_transit":false,"i_lat":-6.369073,"station_id":"POC","line":2,"transit":false,"station_name":"Pondok Cina","time":4,"distance":2727,"i_long":106.831114},{"station_name":"Univ. Indonesia","i_long":106.831474,"line":2,"transit":false,"i_lat":-6.360749,"is_transit":false,"station_id":"UI","time":2,"distance":1109},{"distance":2264,"line":2,"station_name":"Univ. Pancasila","is_transit":false,"i_lat":-6.339291,"transit":false,"station_id":"UP","i_long":106.834175,"time":3},{"line":2,"transit":false,"station_name":"Lenteng Agung","time":2,"distance":1029,"station_id":"LNA","i_lat":-6.330363,"is_transit":false,"i_long":106.832616},{"station_id":"TNT","time":3,"i_lat":-6.3080680000000005,"i_long":106.838896,"line":2,"distance":2671,"transit":false,"station_name":"Tanjung Barat","is_transit":false},{"transit":false,"is_transit":false,"i_lat":-6.2842400000000005,"time":4,"station_id":"PSM","line":2,"distance":2820,"station_name":"Pasar Minggu","i_long":106.843999},{"distance":2380,"line":2,"i_long":106.851577,"time":2,"is_transit":false,"station_id":"PSMB","station_name":"Pasar Minggu Baru","transit":false,"i_lat":-6.263214},{"i_long":106.85449,"line":2,"station_name":"Duren Kalibata","is_transit":false,"distance":824,"station_id":"DRN","time":2,"i_lat":-6.255332,"transit":false},{"station_name":"Cawang","i_lat":-6.242512,"line":2,"time":3,"is_transit":false,"i_long":106.856607,"transit":false,"station_id":"CW","distance":1546},{"transit":false,"is_transit":false,"station_name":"Tebet","time":2,"i_lat":-6.226659,"i_long":106.857948,"station_id":"TEB","line":2,"distance":1230},{"transit":true,"station_id":"MRI","i_lat":-6.209883,"i_long":106.84912,"distance":2610,"line":2,"station_name":"Manggarai","time":4,"is_transit":true},{"station_name":"Sudirman","is_transit":false,"transit":false,"time":4,"distance":3186,"i_lat":-6.202263,"station_id":"SUD","i_long":106.822649,"line":1},{"station_name":"Sudirman Baru","distance":280,"line":1,"transit":false,"is_transit":false,"station_id":"SUDB","time":1,"i_lat":-6.201433,"i_long":106.819881},{"i_long":106.816351,"time":1,"distance":471,"station_id":"KAT","is_transit":false,"station_name":"Karet","i_lat":-6.20132,"line":1,"transit":false},{"i_lat":-6.185545,"station_id":"THB","transit":true,"i_long":106.811091,"time":5,"station_name":"Tanah Abang","is_transit":true,"distance":2029,"line":1},{"station_id":"PLM","distance":3191,"is_transit":false,"time":6,"transit":false,"i_lat":-6.207404,"line":6,"station_name":"Palmerah","i_long":106.79689},{"i_long":106.780334,"line":6,"i_lat":-6.237242,"station_name":"Kebayoran","time":7,"is_transit":false,"station_id":"KBY","distance":3737,"transit":false},{"is_transit":false,"i_lat":-6.276362,"station_id":"PDJ","line":6,"transit":false,"station_name":"Pondokranji","time":8,"i_long":106.74273,"distance":6218},{"distance":2179,"time":3,"i_lat":-6.288927,"line":6,"i_long":106.728916,"is_transit":false,"transit":false,"station_name":"Jurangmangu","station_id":"JMU"},{"line":6,"is_transit":false,"distance":1994,"station_id":"SDM","station_name":"Sudimara","i_lat":-6.296963,"transit":false,"time":4,"i_long":106.712277},{"is_transit":false,"i_long":106.675475,"station_name":"Rawa Buntu","time":6,"station_id":"RU","transit":false,"i_lat":-6.314823,"distance":4566,"line":6},{"station_id":"SRP","i_long":106.66566,"distance":2413,"is_transit":false,"time":4,"transit":false,"line":6,"station_name":"Serpong","i_lat":-6.319871}],[{"transit":false,"time":0,"i_long":106.824374,"distance":0,"station_name":"Pondok Rajeg","i_lat":-6.460735,"station_id":"PDRG","is_transit":false,"line":21},{"line":2,"station_id":"CTA","station_name":"Citayam","distance":0,"transit":true,"is_transit":true,"i_lat":-6.448811,"time":0,"i_long":106.800298},{"is_transit":false,"distance":5084,"station_name":"Depok","time":6,"i_lat":-6.405256,"transit":false,"line":2,"i_long":106.816926,"station_id":"DP"},{"station_name":"Depokbaru","distance":1584,"is_transit":false,"time":3,"transit":false,"i_lat":-6.391065,"i_long":106.819451,"station_id":"DPB","line":2},{"distance":2727,"transit":false,"station_name":"Pondok Cina","line":2,"i_lat":-6.369073,"station_id":"POC","time":4,"i_long":106.831114,"is_transit":false},{"transit":false,"station_name":"Univ. Indonesia","time":2,"i_lat":-6.360749,"distance":1109,"is_transit":false,"line":2,"station_id":"UI","i_long":106.831474},{"is_transit":false,"transit":false,"station_name":"Univ. Pancasila","line":2,"i_lat":-6.339291,"time":3,"station_id":"UP","i_long":106.834175,"distance":2264},{"station_name":"Lenteng Agung","station_id":"LNA","is_transit":false,"i_lat":-6.330363,"i_long":106.832616,"time":2,"distance":1029,"transit":false,"line":2},{"i_lat":-6.3080680000000005,"station_name":"Tanjung Barat","distance":2671,"station_id":"TNT","is_transit":false,"i_long":106.838896,"transit":false,"time":3,"line":2},{"i_long":106.843999,"line":2,"station_id":"PSM","is_transit":false,"distance":2820,"i_lat":-6.2842400000000005,"transit":false,"station_name":"Pasar Minggu","time":4},{"transit":false,"distance":2380,"station_name":"Pasar Minggu Baru","i_long":106.851577,"i_lat":-6.263214,"line":2,"station_id":"PSMB","is_transit":false,"time":2},{"distance":824,"line":2,"i_long":106.85449,"transit":false,"station_name":"Duren Kalibata","station_id":"DRN","is_transit":false,"i_lat":-6.255332,"time":2},{"station_id":"CW","distance":1546,"i_long":106.856607,"station_name":"Cawang","line":2,"time":3,"is_transit":false,"i_lat":-6.242512,"transit":false},{"distance":1230,"station_name":"Tebet","time":2,"i_long":106.857948,"is_transit":false,"i_lat":-6.226659,"line":2,"transit":false,"station_id":"TEB"},{"station_name":"Manggarai","i_long":106.84912,"time":4,"i_lat":-6.209883,"line":2,"distance":2610,"transit":false,"station_id":"MRI","is_transit":false},{"distance":1590,"station_id":"CKI","station_name":"Cikini","i_long":106.840169,"time":4,"line":2,"transit":false,"is_transit":false,"i_lat":-6.198556},{"station_id":"GDD","line":2,"distance":1750,"station_name":"Gondangdia","is_transit":false,"transit":false,"i_lat":-6.186295,"time":3,"i_long":106.832183},{"transit":false,"i_lat":-6.166716,"distance":2015,"time":4,"i_long":106.828284,"station_name":"Juanda","station_id":"JUA","is_transit":false,"line":2},{"i_lat":-6.160725,"distance":1149,"transit":false,"station_id":"SW","line":2,"i_long":106.827103,"time":2,"is_transit":false,"station_name":"Sawah Besar"},{"i_long":106.82482,"line":2,"station_id":"MGB","time":2,"distance":906,"station_name":"Manggabesar","is_transit":false,"transit":false,"i_lat":-6.149769},{"i_long":106.820901,"line":2,"i_lat":-6.141205,"station_id":"JAY","is_transit":false,"station_name":"Jayakarta","distance":1080,"transit":false,"time":2},{"transit":true,"i_lat":-6.137569,"station_name":"Jakarta Kota","i_long":106.812439,"line":2,"is_transit":true,"time":4,"station_id":"JAKK","distance":1264},{"line":4,"distance":1364,"station_name":"Kampung Bandan","station_id":"KPB","i_lat":-6.132549,"time":3,"is_transit":true,"i_long":106.826365,"transit":true},{"distance":4102,"i_lat":-6.144674,"station_id":"AK","line":1,"time":9,"transit":false,"is_transit":false,"i_long":106.79867,"station_name":"Angke"},{"transit":false,"distance":1230,"i_lat":-6.155215,"line":1,"i_long":106.800832,"station_id":"DU","station_name":"Duri","is_transit":false,"time":4},{"station_name":"Tanah Abang","is_transit":true,"time":8,"i_long":106.811091,"line":1,"station_id":"THB","i_lat":-6.185545,"transit":true,"distance":3632},{"distance":3191,"line":6,"station_name":"Palmerah","is_transit":false,"transit":false,"station_id":"PLM","time":6,"i_long":106.79689,"i_lat":-6.207404},{"transit":false,"distance":3737,"i_lat":-6.237242,"station_name":"Kebayoran","i_long":106.780334,"is_transit":false,"time":7,"line":6,"station_id":"KBY"},{"i_long":106.74273,"line":6,"is_transit":false,"station_name":"Pondokranji","transit":false,"i_lat":-6.276362,"station_id":"PDJ","distance":6218,"time":8},{"is_transit":false,"transit":false,"i_lat":-6.288927,"time":3,"station_id":"JMU","station_name":"Jurangmangu","i_long":106.728916,"distance":2179,"line":6},{"time":4,"distance":1994,"transit":false,"station_name":"Sudimara","station_id":"SDM","i_long":106.712277,"is_transit":false,"i_lat":-6.296963,"line":6},{"station_id":"RU","transit":false,"time":6,"distance":4566,"i_lat":-6.314823,"line":6,"station_name":"Rawa Buntu","is_transit":false,"i_long":106.675475},{"distance":2413,"i_long":106.66566,"station_name":"Serpong","transit":false,"station_id":"SRP","line":6,"time":4,"is_transit":false,"i_lat":-6.319871}],[{"time":0,"i_lat":-6.460735,"distance":0,"transit":false,"is_transit":false,"station_name":"Pondok Rajeg","station_id":"PDRG","i_long":106.824374,"line":21},{"i_long":106.800298,"distance":0,"time":0,"line":2,"i_lat":-6.448811,"is_transit":true,"station_name":"Citayam","station_id":"CTA","transit":true},{"is_transit":false,"distance":5084,"time":6,"i_lat":-6.405256,"line":2,"i_long":106.816926,"transit":false,"station_name":"Depok","station_id":"DP"},{"is_transit":false,"i_lat":-6.391065,"time":3,"distance":1584,"station_id":"DPB","i_long":106.819451,"line":2,"transit":false,"station_name":"Depokbaru"},{"station_name":"Pondok Cina","transit":false,"station_id":"POC","time":4,"i_long":106.831114,"is_transit":false,"i_lat":-6.369073,"line":2,"distance":2727},{"distance":1109,"station_id":"UI","i_long":106.831474,"time":2,"is_transit":false,"i_lat":-6.360749,"station_name":"Univ. Indonesia","transit":false,"line":2},{"i_lat":-6.339291,"is_transit":false,"distance":2264,"station_id":"UP","station_name":"Univ. Pancasila","transit":false,"time":3,"line":2,"i_long":106.834175},{"station_name":"Lenteng Agung","distance":1029,"time":2,"i_lat":-6.330363,"line":2,"i_long":106.832616,"transit":false,"is_transit":false,"station_id":"LNA"},{"station_name":"Tanjung Barat","i_lat":-6.3080680000000005,"station_id":"TNT","line":2,"time":3,"i_long":106.838896,"is_transit":false,"distance":2671,"transit":false},{"station_name":"Pasar Minggu","time":4,"i_lat":-6.2842400000000005,"line":2,"distance":2820,"transit":false,"i_long":106.843999,"station_id":"PSM","is_transit":false},{"station_name":"Pasar Minggu Baru","time":2,"distance":2380,"i_lat":-6.263214,"transit":false,"i_long":106.851577,"is_transit":false,"line":2,"station_id":"PSMB"},{"is_transit":false,"time":2,"station_id":"DRN","station_name":"Duren Kalibata","distance":824,"i_lat":-6.255332,"i_long":106.85449,"line":2,"transit":false},{"station_name":"Cawang","transit":false,"i_lat":-6.242512,"station_id":"CW","i_long":106.856607,"line":2,"time":3,"distance":1546,"is_transit":false},{"line":2,"i_long":106.857948,"station_name":"Tebet","i_lat":-6.226659,"transit":false,"is_transit":false,"station_id":"TEB","distance":1230,"time":2},{"time":4,"line":2,"distance":2610,"is_transit":true,"transit":true,"station_id":"MRI","i_lat":-6.209883,"i_long":106.84912,"station_name":"Manggarai"},{"is_transit":false,"station_name":"Matraman","i_long":106.858896,"time":2,"line":1,"distance":1275,"station_id":"MTR","transit":false,"i_lat":-6.212485},{"is_transit":true,"station_id":"JNG","station_name":"Jatinegara","i_long":106.86807400000001,"line":1,"i_lat":-6.215091,"transit":true,"time":8,"distance":1377},{"i_lat":-6.209188,"transit":false,"i_long":106.861737,"distance":1236,"is_transit":false,"time":2,"station_id":"POK","station_name":"Pondok Jati","line":11},{"distance":1829,"transit":false,"i_lat":-6.193792,"station_id":"KMT","line":11,"is_transit":false,"time":2,"i_long":106.855437,"station_name":"Kramat"},{"distance":973,"time":1,"station_name":"Gang Sentiong","transit":false,"station_id":"GST","i_long":106.850107,"is_transit":false,"line":11,"i_lat":-6.185975},{"distance":1567,"is_transit":false,"time":8,"i_lat":-6.174784,"station_name":"Pasar Senen","line":11,"transit":false,"station_id":"PSE","i_long":106.84368},{"distance":1436,"station_id":"KMO","is_transit":false,"i_long":106.839204,"station_name":"Kemayoran","line":11,"i_lat":-6.161728,"time":4,"transit":false},{"distance":1901,"time":5,"transit":false,"station_id":"RJW","station_name":"Rajawali","is_transit":false,"i_lat":-6.14505,"i_long":106.836569,"line":11},{"station_id":"KPB","station_name":"Kampung Bandan","transit":true,"time":3,"distance":1444,"i_long":106.826365,"is_transit":true,"i_lat":-6.132549,"line":4},{"i_long":106.79867,"is_transit":false,"station_id":"AK","station_name":"Angke","distance":4102,"transit":false,"time":9,"i_lat":-6.144674,"line":1},{"line":1,"is_transit":false,"station_name":"Duri","time":4,"i_long":106.800832,"i_lat":-6.155215,"transit":false,"distance":1230,"station_id":"DU"},{"distance":3632,"time":8,"station_id":"THB","is_transit":true,"i_lat":-6.185545,"station_name":"Tanah Abang","i_long":106.811091,"line":1,"transit":true},{"i_lat":-6.207404,"station_name":"Palmerah","distance":3191,"is_transit":false,"line":6,"transit":false,"time":6,"i_long":106.79689,"station_id":"PLM"},{"i_long":106.780334,"transit":false,"station_name":"Kebayoran","distance":3737,"is_transit":false,"station_id":"KBY","line":6,"time":7,"i_lat":-6.237242},{"distance":6218,"is_transit":false,"station_name":"Pondokranji","time":8,"i_lat":-6.276362,"transit":false,"line":6,"station_id":"PDJ","i_long":106.74273},{"i_lat":-6.288927,"transit":false,"is_transit":false,"station_id":"JMU","i_long":106.728916,"distance":2179,"line":6,"station_name":"Jurangmangu","time":3},{"line":6,"time":4,"station_id":"SDM","station_name":"Sudimara","i_lat":-6.296963,"distance":1994,"transit":false,"is_transit":false,"i_long":106.712277},{"time":6,"station_name":"Rawa Buntu","i_lat":-6.314823,"line":6,"distance":4566,"transit":false,"is_transit":false,"i_long":106.675475,"station_id":"RU"},{"distance":2413,"is_transit":false,"line":6,"station_id":"SRP","station_name":"Serpong","i_lat":-6.319871,"time":4,"transit":false,"i_long":106.66566}]]}