{"data":[[{"is_transit":false,"time":0,"i_lat":-6.460735,"distance":0,"station_id":"PDRG","i_long":106.824374,"transit":false,"station_name":"Pondok Rajeg","line":21},{"i_lat":-6.448811,"distance":0,"line":2,"i_long":106.800298,"station_name":"Citayam","station_id":"CTA","transit":true,"is_transit":true,"time":0},{"time":6,"is_transit":false,"i_long":106.816926,"station_name":"Depok","station_id":"DP","distance":5084,"i_lat":-6.405256,"line":2,"transit":false},{"distance":1584,"station_name":"Depokbaru","i_lat":-6.391065,"transit":false,"i_long":106.819451,"is_transit":false,"line":2,"time":3,"station_id":"DPB"},{"is_transit":false,"distance":2727,"station_id":"POC","i_long":106.831114,"line":2,"time":4,"station_name":"Pondok Cina","i_lat":-6.369073,"transit":false},{"transit":false,"station_name":"Univ. Indonesia","station_id":"UI","is_transit":false,"time":2,"distance":1109,"line":2,"i_lat":-6.360749,"i_long":106.831474},{"line":2,"station_id":"UP","station_name":"Univ. Pancasila","time":3,"is_transit":false,"i_lat":-6.339291,"transit":false,"distance":2264,"i_long":106.834175},{"distance":1029,"station_name":"Lenteng Agung","is_transit":false,"i_long":106.832616,"station_id":"LNA","time":2,"i_lat":-6.330363,"line":2,"transit":false},{"time":3,"station_name":"Tanjung Barat","transit":false,"line":2,"station_id":"TNT","distance":2671,"i_lat":-6.3080680000000005,"i_long":106.838896,"is_transit":false},{"transit":false,"is_transit":false,"station_id":"PSM","time":4,"i_long":106.843999,"distance":2820,"i_lat":-6.2842400000000005,"line":2,"station_name":"Pasar Minggu"},{"station_id":"PSMB","time":2,"distance":2380,"transit":false,"i_lat":-6.263214,"station_name":"Pasar Minggu Baru","line":2,"i_long":106.851577,"is_transit":false},{"station_name":"Duren Kalibata","time":2,"i_lat":-6.255332,"station_id":"DRN","transit":false,"is_transit":false,"i_long":106.85449,"distance":824,"line":2},{"i_lat":-6.242512,"transit":false,"distance":1546,"is_transit":false,"station_id":"CW","station_name":"Cawang","time":3,"i_long":106.856607,"line":2},{"i_lat":-6.226659,"is_transit":false,"transit":false,"station_id":"TEB","time":2,"i_long":106.857948,"line":2,"station_name":"Tebet","distance":1230},{"station_name":"Manggarai","line":2,"is_transit":true,"distance":2610,"time":4,"i_lat":-6.209883,"station_id":"MRI","transit":true,"i_long":106.84912},{"line":1,"distance":1275,"i_long":106.858896,"transit":false,"is_transit":false,"station_name":"Matraman","station_id":"MTR","time":2,"i_lat":-6.212485},{"i_lat":-6.215091,"station_id":"JNG","transit":false,"i_long":106.86807400000001,"distance":1377,"station_name":"Jatinegara","time":8,"line":1,"is_transit":false},{"i_lat":-6.2135,"transit":false,"time":3,"is_transit":false,"station_id":"KLD","distance":3395,"i_long":106.899548,"station_name":"Klender","line":1},{"time":2,"is_transit":false,"station_id":"BUA","distance":3100,"station_name":"Buaran","i_lat":-6.215568,"line":1,"transit":false,"i_long":106.922662},{"station_id":"KLDB","i_lat":-6.217455,"i_long":106.939679,"time":1,"line":1,"transit":false,"is_transit":false,"station_name":"Klenderbaru","distance":1305},{"distance":1385,"station_id":"CUK","i_lat":-6.219053,"line":1,"is_transit":false,"station_name":"Cakung","time":8,"i_long":106.951283,"transit":false},{"is_transit":false,"line":1,"station_id":"KRI","i_lat":-6.224515,"time":3,"i_long":106.977657,"distance":3097,"station_name":"Kranji","transit":false}],[{"is_transit":false,"transit":false,"time":0,"i_lat":-6.460735,"station_id":"PDRG","i_long":106.824374,"line":21,"distance":0,"station_name":"Pondok Rajeg"},{"time":0,"i_long":106.800298,"station_name":"Citayam","line":2,"station_id":"CTA","transit":true,"distance":0,"is_transit":true,"i_lat":-6.448811},{"distance":5084,"i_lat":-6.405256,"station_name":"Depok","line":2,"transit":false,"is_transit":false,"i_long":106.816926,"time":6,"station_id":"DP"},{"distance":1584,"station_id":"DPB","station_name":"Depokbaru","transit":false,"is_transit":false,"i_long":106.819451,"line":2,"i_lat":-6.391065,"time":3},{"i_long":106.831114,"transit":false,"is_transit":false,"time":4,"station_name":"Pondok Cina","line":2,"distance":2727,"station_id":"POC","i_lat":-6.369073},{"station_id":"UI","i_lat":-6.360749,"transit":false,"line":2,"is_transit":false,"distance":1109,"station_name":"Univ. Indonesia","i_long":106.831474,"time":2},{"station_id":"UP","distance":2264,"transit":false,"line":2,"i_lat":-6.339291,"time":3,"is_transit":false,"station_name":"Univ. Pancasila","i_long":106.834175},{"station_id":"LNA","line":2,"station_name":"Lenteng Agung","distance":1029,"transit":false,"is_transit":false,"i_lat":-6.330363,"time":2,"i_long":106.832616},{"time":3,"station_id":"TNT","station_name":"Tanjung Barat","i_long":106.838896,"transit":false,"distance":2671,"is_transit":false,"line":2,"i_lat":-6.3080680000000005},{"i_lat":-6.2842400000000005,"station_name":"Pasar Minggu","transit":false,"time":4,"line":2,"i_long":106.843999,"is_transit":false,"station_id":"PSM","distance":2820},{"transit":false,"is_transit":false,"i_lat":-6.263214,"station_name":"Pasar Minggu Baru","station_id":"PSMB","time":2,"distance":2380,"i_long":106.851577,"line":2},{"i_lat":-6.255332,"line":2,"station_name":"Duren Kalibata","time":2,"station_id":"DRN","distance":824,"transit":false,"is_transit":false,"i_long":106.85449},{"time":3,"station_name":"Cawang","distance":1546,"is_transit":false,"i_lat":-6.242512,"i_long":106.856607,"station_id":"CW","line":2,"transit":false},{"i_lat":-6.226659,"transit":false,"station_name":"Tebet","is_transit":false,"time":2,"station_id":"TEB","distance":1230,"i_long":106.857948,"line":2},{"time":4,"distance":2610,"station_name":"Manggarai","station_id":"MRI","is_transit":true,"i_lat":-6.209883,"i_long":106.84912,"transit":true,"line":2},{"time":4,"station_id":"SUD","i_lat":-6.202263,"i_long":106.822649,"is_transit":false,"distance":3186,"line":1,"station_name":"Sudirman","transit":false},{"distance":280,"station_id":"SUDB","i_long":106.819881,"i_lat":-6.201433,"station_name":"Sudirman Baru","transit":false,"line":1,"time":1,"is_transit":false},{"transit":false,"time":1,"i_long":106.816351,"i_lat":-6.20132,"line":1,"distance":471,"is_transit":false,"station_name":"Karet","station_id":"KAT"},{"station_id":"THB","is_transit":false,"time":5,"i_long":106.811091,"transit":false,"station_name":"Tanah Abang","i_lat":-6.185545,"distance":2029,"line":1},{"station_name":"Duri","time":8,"i_lat":-6.155215,"station_id":"DU","i_long":106.800832,"transit":false,"line":1,"is_transit":false,"distance":3632},{"i_long":106.79867,"station_name":"Angke","transit":false,"distance":1230,"line":1,"station_id":"AK","is_transit":false,"i_lat":-6.144674,"time":4},{"i_long":106.826365,"time":9,"line":4,"station_name":"Kampung Bandan","transit":true,"station_id":"KPB","is_transit":true,"distance":4102,"i_lat":-6.132549},{"distance":1444,"i_long":106.836569,"transit":false,"is_transit":false,"line":11,"time":3,"station_name":"Rajawali","station_id":"RJW","i_lat":-6.14505},{"is_transit":false,"time":5,"i_long":106.839204,"transit":false,"distance":1901,"station_id":"KMO","line":11,"i_lat":-6.161728,"station_name":"Kemayoran"},{"line":11,"station_name":"Pasar Senen","distance":1436,"transit":false,"station_id":"PSE","is_transit":false,"time":4,"i_lat":-6.174784,"i_long":106.84368},{"station_id":"GST","transit":false,"line":11,"i_long":106.850107,"time":8,"station_name":"Gang Sentiong","distance":1567,"is_transit":false,"i_lat":-6.185975},{"is_transit":false,"line":11,"station_name":"Kramat","time":1,"distance":973,"i_lat":-6.193792,"transit":false,"i_long":106.855437,"station_id":"KMT"},{"station_id":"POK","station_name":"Pondok Jati","time":2,"i_lat":-6.209188,"transit":false,"distance":1829,"i_long":106.861737,"is_transit":false,"line":11},{"i_long":106.86807400000001,"time":9,"transit":true,"i_lat":-6.215091,"is_transit":true,"distance":1236,"line":1,"station_id":"JNG","station_name":"Jatinegara"},{"distance":3395,"is_transit":false,"station_name":"Klender","station_id":"KLD","line":1,"transit":false,"i_lat":-6.2135,"time":3,"i_long":106.899548},{"station_name":"Buaran","station_id":"BUA","is_transit":false,"time":2,"distance":3100,"transit":false,"line":1,"i_lat":-6.215568,"i_long":106.922662},{"is_transit":false,"transit":false,"distance":1305,"i_long":106.939679,"time":1,"station_name":"Klenderbaru","station_id":"KLDB","line":1,"i_lat":-6.217455},{"transit":false,"distance":1385,"is_transit":false,"i_lat":-6.219053,"line":1,"station_id":"CUK","station_name":"Cakung","i_long":106.951283,"time":8},{"station_name":"Kranji","is_transit":false,"distance":3097,"i_lat":-6.224515,"time":3,"station_id":"KRI","transit":false,"i_long":106.977657,"line":1}],[{"distance":0,"station_name":"Pondok Rajeg","transit":false,"i_long":106.824374,"station_id":"PDRG","line":21,"is_transit":false,"time":0,"i_lat":-6.460735},{"station_name":"Citayam","i_long":106.800298,"is_transit":true,"transit":true,"time":0,"line":2,"distance":0,"i_lat":-6.448811,"station_id":"CTA"},{"i_lat":-6.405256,"station_name":"Depok","is_transit":false,"time":6,"station_id":"DP","distance":5084,"transit":false,"line":2,"i_long":106.816926},{"i_lat":-6.391065,"i_long":106.819451,"time":3,"station_name":"Depokbaru","transit":false,"distance":1584,"line":2,"is_transit":false,"station_id":"DPB"},{"station_name":"Pondok Cina","station_id":"POC","i_lat":-6.369073,"i_long":106.831114,"line":2,"distance":2727,"time":4,"is_transit":false,"transit":false},{"transit":false,"time":2,"line":2,"distance":1109,"station_id":"UI","i_long":106.831474,"is_transit":false,"station_name":"Univ. Indonesia","i_lat":-6.360749},{"station_id":"UP","i_lat":-6.339291,"time":3,"transit":false,"i_long":106.834175,"line":2,"station_name":"Univ. Pancasila","is_transit":false,"distance":2264},{"distance":1029,"i_lat":-6.330363,"time":2,"transit":false,"station_name":"Lenteng Agung","is_transit":false,"station_id":"LNA","line":2,"i_long":106.832616},{"i_lat":-6.3080680000000005,"time":3,"station_name":"Tanjung Barat","transit":false,"line":2,"distance":2671,"station_id":"TNT","i_long":106.838896,"is_transit":false},{"transit":false,"distance":2820,"time":4,"station_name":"Pasar Minggu","station_id":"PSM","i_long":106.843999,"line":2,"i_lat":-6.2842400000000005,"is_transit":false},{"i_lat":-6.263214,"line":2,"transit":false,"is_transit":false,"distance":2380,"station_name":"Pasar Minggu Baru","station_id":"PSMB","time":2,"i_long":106.851577},{"i_lat":-6.255332,"i_long":106.85449,"transit":false,"station_name":"Duren Kalibata","line":2,"time":2,"station_id":"DRN","distance":824,"is_transit":false},{"distance":1546,"time":3,"line":2,"station_id":"CW","i_lat":-6.242512,"station_name":"Cawang","is_transit":false,"transit":false,"i_long":106.856607},{"transit":false,"line":2,"station_name":"Tebet","station_id":"TEB","is_transit":false,"distance":1230,"i_long":106.857948,"i_lat":-6.226659,"time":2},{"station_name":"Manggarai","i_lat":-6.209883,"time":4,"distance":2610,"line":2,"station_id":"MRI","transit":false,"is_transit":false,"i_long":106.84912},{"transit":false,"is_transit":false,"time":4,"i_lat":-6.198556,"station_name":"Cikini","line":2,"distance":1590,"i_long":106.840169,"station_id":"CKI"},{"station_name":"Gondangdia","line":2,"i_lat":-6.186295,"distance":1750,"station_id":"GDD","time":3,"i_long":106.832183,"transit":false,"is_transit":false},{"distance":2015,"i_lat":-6.166716,"time":4,"is_transit":false,"line":2,"station_id":"JUA","transit":false,"i_long":106.828284,"station_name":"Juanda"},{"station_name":"Sawah Besar","transit":false,"i_long":106.827103,"station_id":"SW","distance":1149,"line":2,"is_transit":false,"time":2,"i_lat":-6.160725},{"station_id":"MGB","is_transit":false,"time":2,"distance":906,"i_long":106.82482,"line":2,"transit":false,"station_name":"Manggabesar","i_lat":-6.149769},{"station_id":"JAY","transit":false,"station_name":"Jayakarta","i_long":106.820901,"i_lat":-6.141205,"is_transit":false,"time":2,"line":2,"distance":1080},{"station_id":"JAKK","i_long":106.812439,"transit":true,"station_name":"Jakarta Kota","time":4,"distance":1264,"line":2,"i_lat":-6.137569,"is_transit":true},{"line":4,"station_name":"Kampung Bandan","is_transit":true,"time":3,"i_lat":-6.132549,"transit":true,"distance":1364,"station_id":"KPB","i_long":106.826365},{"i_long":106.836569,"station_name":"Rajawali","i_lat":-6.14505,"distance":1444,"transit":false,"line":11,"time":3,"station_id":"RJW","is_transit":false},{"station_name":"Kemayoran","time":5,"distance":1901,"line":11,"transit":false,"station_id":"KMO","i_lat":-6.161728,"is_transit":false,"i_long":106.839204},{"line":11,"station_name":"Pasar Senen","is_transit":false,"distance":1436,"i_long":106.84368,"time":4,"transit":false,"station_id":"PSE","i_lat":-6.174784},{"transit":false,"is_transit":false,"line":11,"station_name":"Gang Sentiong","station_id":"GST","distance":1567,"time":8,"i_lat":-6.185975,"i_long":106.850107},{"line":11,"time":1,"transit":false,"is_transit":false,"i_long":106.855437,"distance":973,"station_id":"KMT","i_lat":-6.193792,"station_name":"Kramat"},{"distance":1829,"i_long":106.861737,"i_lat":-6.209188,"station_name":"Pondok Jati","transit":false,"line":11,"is_transit":false,"time":2,"station_id":"POK"},{"i_lat":-6.215091,"station_id":"JNG","distance":1236,"is_transit":true,"i_long":106.86807400000001,"line":1,"station_name":"Jatinegara","transit":true,"time":9},{"i_lat":-6.2135,"i_long":106.899548,"transit":false,"distance":3395,"station_name":"Klender","time":3,"station_id":"KLD","is_transit":false,"line":1},{"station_id":"BUA","i_long":106.922662,"transit":false,"time":2,"station_name":"Buaran","is_transit":false,"i_lat":-6.215568,"line":1,"distance":3100},{"i_long":106.939679,"station_id":"KLDB","is_transit":false,"i_lat":-6.217455,"line":1,"transit":false,"station_name":"Klenderbaru","time":1,"distance":1305},{"station_id":"CUK","distance":1385,"is_transit":false,"line":1,"station_name":"Cakung","time":8,"i_long":106.951283,"transit":false,"i_lat":-6.219053},{"time":3,"station_name":"Kranji","distance":3097,"line":1,"is_transit":false,"i_lat":-6.224515,"station_id":"KRI","i_long":106.977657,"transit":false}]]}