{"data":[[{"distance":0,"station_name":"Pondok Rajeg","time":0,"i_long":106.824374,"line":21,"is_transit":false,"station_id":"PDRG","transit":false,"i_lat":-6.460735},{"station_id":"CTA","station_name":"Citayam","i_long":106.800298,"distance":0,"is_transit":true,"time":0,"transit":true,"line":2,"i_lat":-6.448811},{"i_lat":-6.405256,"i_long":106.816926,"station_id":"DP","time":6,"line":2,"transit":false,"is_transit":false,"station_name":"Depok","distance":5084},{"is_transit":false,"i_long":106.819451,"distance":1584,"station_name":"Depokbaru","time":3,"i_lat":-6.391065,"transit":false,"station_id":"DPB","line":2},{"i_long":106.831114,"station_name":"Pondok Cina","is_transit":false,"time":4,"transit":false,"line":2,"station_id":"POC","distance":2727,"i_lat":-6.369073},{"station_id":"UI","is_transit":false,"i_long":106.831474,"transit":false,"time":2,"distance":1109,"i_lat":-6.360749,"line":2,"station_name":"Univ. Indonesia"},{"is_transit":false,"station_name":"Univ. Pancasila","i_lat":-6.339291,"line":2,"time":3,"i_long":106.834175,"distance":2264,"station_id":"UP","transit":false},{"line":2,"i_long":106.832616,"distance":1029,"station_name":"Lenteng Agung","transit":false,"time":2,"station_id":"LNA","is_transit":false,"i_lat":-6.330363},{"line":2,"distance":2671,"station_name":"Tanjung Barat","i_long":106.838896,"i_lat":-6.3080680000000005,"is_transit":false,"time":3,"transit":false,"station_id":"TNT"},{"i_lat":-6.2842400000000005,"station_id":"PSM","line":2,"distance":2820,"i_long":106.843999,"time":4,"is_transit":false,"station_name":"Pasar Minggu","transit":false}]]}