{"data":[[{"station_id":"PDRG","distance":0,"i_long":106.824374,"station_name":"Pondok Rajeg","transit":false,"is_transit":false,"i_lat":-6.460735,"line":21,"time":0},{"station_name":"Citayam","station_id":"CTA","transit":true,"is_transit":true,"distance":0,"time":0,"i_lat":-6.448811,"line":2,"i_long":106.800298},{"station_id":"DP","time":6,"distance":5084,"station_name":"Depok","line":2,"is_transit":false,"i_long":106.816926,"i_lat":-6.405256,"transit":false},{"transit":false,"station_id":"DPB","distance":1584,"i_long":106.819451,"line":2,"is_transit":false,"time":3,"i_lat":-6.391065,"station_name":"Depokbaru"},{"station_name":"Pondok Cina","is_transit":false,"i_lat":-6.369073,"distance":2727,"time":4,"i_long":106.831114,"line":2,"transit":false,"station_id":"POC"},{"transit":false,"is_transit":false,"distance":1109,"station_id":"UI","i_long":106.831474,"line":2,"time":2,"i_lat":-6.360749,"station_name":"Univ. Indonesia"},{"distance":2264,"transit":false,"i_lat":-6.339291,"i_long":106.834175,"is_transit":false,"line":2,"station_name":"Univ. Pancasila","station_id":"UP","time":3},{"i_lat":-6.330363,"i_long":106.832616,"time":2,"distance":1029,"transit":false,"station_name":"Lenteng Agung","is_transit":false,"line":2,"station_id":"LNA"},{"transit":false,"station_name":"Tanjung Barat","time":3,"i_long":106.838896,"is_transit":false,"i_lat":-6.3080680000000005,"distance":2671,"station_id":"TNT","line":2},{"is_transit":false,"station_name":"Pasar Minggu","time":4,"i_long":106.843999,"distance":2820,"transit":false,"i_lat":-6.2842400000000005,"station_id":"PSM","line":2},{"transit":false,"i_lat":-6.263214,"line":2,"i_long":106.851577,"is_transit":false,"station_name":"Pasar Minggu Baru","station_id":"PSMB","time":2,"distance":2380},{"distance":824,"station_id":"DRN","i_lat":-6.255332,"time":2,"i_long":106.85449,"station_name":"Duren Kalibata","transit":false,"is_transit":false,"line":2},{"line":2,"is_transit":false,"i_long":106.856607,"station_id":"CW","distance":1546,"transit":false,"time":3,"station_name":"Cawang","i_lat":-6.242512},{"i_lat":-6.226659,"station_id":"TEB","transit":false,"station_name":"Tebet","distance":1230,"i_long":106.857948,"line":2,"is_transit":false,"time":2},{"station_name":"Manggarai","station_id":"MRI","i_long":106.84912,"distance":2610,"is_transit":true,"time":4,"i_lat":-6.209883,"transit":true,"line":2},{"distance":3186,"is_transit":false,"i_lat":-6.202263,"transit":false,"station_name":"Sudirman","station_id":"SUD","line":1,"i_long":106.822649,"time":4},{"line":1,"station_name":"Sudirman Baru","transit":false,"time":1,"i_lat":-6.201433,"station_id":"SUDB","distance":280,"i_long":106.819881,"is_transit":false}],[{"transit":false,"is_transit":false,"i_long":106.824374,"station_name":"Pondok Rajeg","station_id":"PDRG","time":0,"i_lat":-6.460735,"distance":0,"line":21},{"is_transit":true,"time":0,"station_name":"Citayam","distance":0,"i_lat":-6.448811,"station_id":"CTA","i_long":106.800298,"line":2,"transit":true},{"time":6,"station_name":"Depok","i_lat":-6.405256,"transit":false,"is_transit":false,"distance":5084,"line":2,"station_id":"DP","i_long":106.816926},{"time":3,"i_lat":-6.391065,"i_long":106.819451,"is_transit":false,"station_name":"Depokbaru","transit":false,"station_id":"DPB","distance":1584,"line":2},{"station_id":"POC","line":2,"is_transit":false,"station_name":"Pondok Cina","i_lat":-6.369073,"time":4,"i_long":106.831114,"transit":false,"distance":2727},{"station_id":"UI","distance":1109,"i_long":106.831474,"line":2,"is_transit":false,"station_name":"Univ. Indonesia","i_lat":-6.360749,"transit":false,"time":2},{"transit":false,"station_id":"UP","station_name":"Univ. Pancasila","distance":2264,"i_lat":-6.339291,"line":2,"time":3,"is_transit":false,"i_long":106.834175},{"i_long":106.832616,"line":2,"station_id":"LNA","station_name":"Lenteng Agung","distance":1029,"i_lat":-6.330363,"time":2,"transit":false,"is_transit":false},{"time":3,"distance":2671,"transit":false,"is_transit":false,"i_long":106.838896,"line":2,"station_id":"TNT","i_lat":-6.3080680000000005,"station_name":"Tanjung Barat"},{"station_name":"Pasar Minggu","distance":2820,"transit":false,"station_id":"PSM","is_transit":false,"i_long":106.843999,"line":2,"time":4,"i_lat":-6.2842400000000005},{"distance":2380,"transit":false,"i_long":106.851577,"time":2,"station_id":"PSMB","station_name":"Pasar Minggu Baru","is_transit":false,"i_lat":-6.263214,"line":2},{"distance":824,"i_lat":-6.255332,"i_long":106.85449,"time":2,"transit":false,"station_name":"Duren Kalibata","station_id":"DRN","is_transit":false,"line":2},{"station_id":"CW","distance":1546,"is_transit":false,"time":3,"station_name":"Cawang","transit":false,"i_lat":-6.242512,"i_long":106.856607,"line":2},{"line":2,"station_name":"Tebet","station_id":"TEB","distance":1230,"i_long":106.857948,"i_lat":-6.226659,"is_transit":false,"transit":false,"time":2},{"i_lat":-6.209883,"station_name":"Manggarai","is_transit":false,"transit":false,"time":4,"distance":2610,"line":2,"station_id":"MRI","i_long":106.84912},{"transit":false,"time":4,"line":2,"i_lat":-6.198556,"distance":1590,"station_id":"CKI","is_transit":false,"i_long":106.840169,"station_name":"Cikini"},{"is_transit":false,"i_lat":-6.186295,"distance":1750,"station_name":"Gondangdia","transit":false,"i_long":106.832183,"line":2,"station_id":"GDD","time":3},{"station_id":"JUA","station_name":"Juanda","line":2,"time":4,"transit":false,"i_long":106.828284,"distance":2015,"i_lat":-6.166716,"is_transit":false},{"time":2,"i_lat":-6.160725,"station_id":"SW","transit":false,"i_long":106.827103,"is_transit":false,"line":2,"station_name":"Sawah Besar","distance":1149},{"line":2,"station_id":"MGB","is_transit":false,"i_lat":-6.149769,"distance":906,"transit":false,"i_long":106.82482,"station_name":"Manggabesar","time":2},{"distance":1080,"time":2,"line":2,"station_id":"JAY","is_transit":false,"transit":false,"station_name":"Jayakarta","i_lat":-6.141205,"i_long":106.820901},{"distance":1264,"line":2,"transit":true,"i_lat":-6.137569,"i_long":106.812439,"time":4,"station_id":"JAKK","station_name":"Jakarta Kota","is_transit":true},{"distance":1364,"line":4,"transit":true,"station_name":"Kampung Bandan","station_id":"KPB","i_long":106.826365,"i_lat":-6.132549,"is_transit":true,"time":3},{"station_id":"AK","line":1,"time":9,"transit":false,"station_name":"Angke","i_lat":-6.144674,"distance":4102,"is_transit":false,"i_long":106.79867},{"station_id":"DU","i_long":106.800832,"i_lat":-6.155215,"is_transit":false,"line":1,"time":4,"transit":false,"distance":1230,"station_name":"Duri"},{"station_id":"THB","i_lat":-6.185545,"i_long":106.811091,"line":1,"time":8,"transit":false,"distance":3632,"is_transit":false,"station_name":"Tanah Abang"},{"distance":2029,"is_transit":false,"station_name":"Karet","station_id":"KAT","i_lat":-6.20132,"time":5,"i_long":106.816351,"line":1,"transit":false},{"station_id":"SUDB","station_name":"Sudirman Baru","time":1,"i_lat":-6.201433,"i_long":106.819881,"distance":471,"line":1,"is_transit":false,"transit":false}],[{"i_lat":-6.460735,"transit":false,"distance":0,"i_long":106.824374,"station_name":"Pondok Rajeg","time":0,"is_transit":false,"line":21,"station_id":"PDRG"},{"line":2,"is_transit":true,"i_long":106.800298,"distance":0,"station_id":"CTA","station_name":"Citayam","transit":true,"time":0,"i_lat":-6.448811},{"transit":false,"station_name":"Depok","station_id":"DP","is_transit":false,"time":6,"i_lat":-6.405256,"distance":5084,"i_long":106.816926,"line":2},{"i_lat":-6.391065,"i_long":106.819451,"distance":1584,"station_name":"Depokbaru","time":3,"line":2,"station_id":"DPB","transit":false,"is_transit":false},{"is_transit":false,"time":4,"line":2,"station_id":"POC","i_long":106.831114,"distance":2727,"i_lat":-6.369073,"station_name":"Pondok Cina","transit":false},{"line":2,"station_name":"Univ. Indonesia","i_long":106.831474,"is_transit":false,"station_id":"UI","distance":1109,"i_lat":-6.360749,"transit":false,"time":2},{"station_name":"Univ. Pancasila","is_transit":false,"distance":2264,"i_lat":-6.339291,"time":3,"transit":false,"i_long":106.834175,"station_id":"UP","line":2},{"station_id":"LNA","time":2,"distance":1029,"i_long":106.832616,"line":2,"station_name":"Lenteng Agung","transit":false,"is_transit":false,"i_lat":-6.330363},{"distance":2671,"line":2,"station_name":"Tanjung Barat","is_transit":false,"transit":false,"station_id":"TNT","i_long":106.838896,"i_lat":-6.3080680000000005,"time":3},{"station_id":"PSM","i_lat":-6.2842400000000005,"transit":false,"is_transit":false,"station_name":"Pasar Minggu","i_long":106.843999,"distance":2820,"time":4,"line":2},{"i_lat":-6.263214,"distance":2380,"transit":false,"station_id":"PSMB","station_name":"Pasar Minggu Baru","line":2,"is_transit":false,"time":2,"i_long":106.851577},{"transit":false,"distance":824,"i_lat":-6.255332,"station_name":"Duren Kalibata","line":2,"station_id":"DRN","is_transit":false,"i_long":106.85449,"time":2},{"is_transit":false,"line":2,"time":3,"distance":1546,"i_long":106.856607,"station_id":"CW","station_name":"Cawang","i_lat":-6.242512,"transit":false},{"line":2,"time":2,"i_lat":-6.226659,"station_id":"TEB","transit":false,"distance":1230,"station_name":"Tebet","is_transit":false,"i_long":106.857948},{"i_lat":-6.209883,"i_long":106.84912,"line":2,"station_id":"MRI","is_transit":true,"transit":true,"station_name":"Manggarai","time":4,"distance":2610},{"i_long":106.858896,"line":1,"distance":1275,"transit":false,"station_id":"MTR","station_name":"Matraman","time":2,"i_lat":-6.212485,"is_transit":false},{"transit":true,"is_transit":true,"i_lat":-6.215091,"i_long":106.86807400000001,"line":1,"station_name":"Jatinegara","time":8,"station_id":"JNG","distance":1377},{"station_id":"POK","time":2,"i_lat":-6.209188,"is_transit":false,"distance":1236,"station_name":"Pondok Jati","i_long":106.861737,"line":11,"transit":false},{"i_lat":-6.193792,"line":11,"transit":false,"is_transit":false,"distance":1829,"time":2,"station_name":"Kramat","station_id":"KMT","i_long":106.855437},{"i_lat":-6.185975,"i_long":106.850107,"time":1,"station_id":"GST","station_name":"Gang Sentiong","is_transit":false,"line":11,"transit":false,"distance":973},{"i_lat":-6.174784,"time":8,"is_transit":false,"station_id":"PSE","i_long":106.84368,"line":11,"transit":false,"distance":1567,"station_name":"Pasar Senen"},{"line":11,"transit":false,"station_name":"Kemayoran","is_transit":false,"time":4,"distance":1436,"i_lat":-6.161728,"i_long":106.839204,"station_id":"KMO"},{"transit":false,"is_transit":false,"distance":1901,"station_name":"Rajawali","station_id":"RJW","line":11,"time":5,"i_lat":-6.14505,"i_long":106.836569},{"time":3,"i_lat":-6.132549,"i_long":106.826365,"line":4,"station_name":"Kampung Bandan","transit":true,"station_id":"KPB","is_transit":true,"distance":1444},{"i_lat":-6.144674,"line":1,"transit":false,"is_transit":false,"i_long":106.79867,"station_id":"AK","time":9,"distance":4102,"station_name":"Angke"},{"station_id":"DU","time":4,"transit":false,"distance":1230,"i_lat":-6.155215,"station_name":"Duri","is_transit":false,"i_long":106.800832,"line":1},{"station_id":"THB","station_name":"Tanah Abang","transit":false,"is_transit":false,"i_long":106.811091,"time":8,"distance":3632,"i_lat":-6.185545,"line":1},{"station_name":"Karet","time":5,"distance":2029,"line":1,"is_transit":false,"i_lat":-6.20132,"station_id":"KAT","i_long":106.816351,"transit":false},{"time":1,"station_name":"Sudirman Baru","distance":471,"line":1,"transit":false,"station_id":"SUDB","i_lat":-6.201433,"i_long":106.819881,"is_transit":false}]]}