{"data":[[{"time":0,"transit":false,"i_lat":-6.460735,"is_transit":false,"i_long":106.824374,"station_name":"Pondok Rajeg","distance":0,"line":21,"station_id":"PDRG"},{"is_transit":true,"station_id":"CTA","distance":0,"line":2,"i_lat":-6.448811,"station_name":"Citayam","time":0,"i_long":106.800298,"transit":true},{"is_transit":false,"distance":5084,"station_id":"DP","i_lat":-6.405256,"i_long":106.816926,"line":2,"transit":false,"station_name":"Depok","time":6},{"i_long":106.819451,"is_transit":false,"station_id":"DPB","time":3,"distance":1584,"line":2,"station_name":"Depokbaru","transit":false,"i_lat":-6.391065},{"line":2,"station_name":"Pondok Cina","is_transit":false,"time":4,"i_lat":-6.369073,"distance":2727,"transit":false,"i_long":106.831114,"station_id":"POC"},{"transit":false,"is_transit":false,"time":2,"station_name":"Univ. Indonesia","distance":1109,"i_long":106.831474,"line":2,"station_id":"UI","i_lat":-6.360749}]]}