{"data":[[{"station_name":"Pondok Rajeg","line":21,"time":0,"distance":0,"transit":false,"i_long":106.824374,"is_transit":false,"i_lat":-6.460735,"station_id":"PDRG"},{"station_id":"CTA","station_name":"Citayam","time":0,"distance":0,"is_transit":true,"transit":true,"i_long":106.800298,"line":2,"i_lat":-6.448811},{"i_lat":-6.405256,"i_long":106.816926,"distance":5084,"line":2,"station_id":"DP","station_name":"Depok","time":6,"is_transit":false,"transit":false},{"line":2,"time":3,"distance":1584,"station_name":"Depokbaru","i_lat":-6.391065,"is_transit":false,"station_id":"DPB","transit":false,"i_long":106.819451},{"distance":2727,"transit":false,"i_long":106.831114,"time":4,"i_lat":-6.369073,"line":2,"station_name":"Pondok Cina","station_id":"POC","is_transit":false}]]}