{"data":[[{"i_lat":-6.460735,"transit":false,"line":21,"time":0,"station_id":"PDRG","is_transit":false,"i_long":106.824374,"station_name":"Pondok Rajeg","distance":0},{"is_transit":true,"station_id":"CTA","station_name":"Citayam","i_lat":-6.448811,"i_long":106.800298,"distance":0,"time":0,"line":2,"transit":true},{"station_name":"Depok","time":6,"line":2,"distance":5084,"i_lat":-6.405256,"transit":false,"i_long":106.816926,"station_id":"DP","is_transit":false},{"time":3,"station_name":"Depokbaru","i_lat":-6.391065,"distance":1584,"i_long":106.819451,"line":2,"is_transit":false,"transit":false,"station_id":"DPB"},{"is_transit":false,"distance":2727,"i_lat":-6.369073,"line":2,"station_name":"Pondok Cina","i_long":106.831114,"station_id":"POC","time":4,"transit":false},{"transit":false,"line":2,"distance":1109,"i_lat":-6.360749,"time":2,"i_long":106.831474,"station_name":"Univ. Indonesia","is_transit":false,"station_id":"UI"},{"station_name":"Univ. Pancasila","time":3,"i_long":106.834175,"station_id":"UP","line":2,"transit":false,"is_transit":false,"distance":2264,"i_lat":-6.339291},{"is_transit":false,"station_id":"LNA","transit":false,"i_lat":-6.330363,"i_long":106.832616,"line":2,"distance":1029,"station_name":"Lenteng Agung","time":2},{"transit":false,"station_id":"TNT","time":3,"distance":2671,"i_long":106.838896,"station_name":"Tanjung Barat","is_transit":false,"i_lat":-6.3080680000000005,"line":2},{"time":4,"station_name":"Pasar Minggu","i_lat":-6.2842400000000005,"distance":2820,"line":2,"is_transit":false,"station_id":"PSM","i_long":106.843999,"transit":false},{"line":2,"transit":false,"station_name":"Pasar Minggu Baru","distance":2380,"i_long":106.851577,"station_id":"PSMB","is_transit":false,"time":2,"i_lat":-6.263214},{"station_name":"Duren Kalibata","distance":824,"line":2,"is_transit":false,"i_long":106.85449,"i_lat":-6.255332,"transit":false,"station_id":"DRN","time":2},{"time":3,"transit":false,"i_lat":-6.242512,"line":2,"is_transit":false,"i_long":106.856607,"station_id":"CW","station_name":"Cawang","distance":1546},{"i_lat":-6.226659,"station_name":"Tebet","is_transit":false,"i_long":106.857948,"time":2,"station_id":"TEB","distance":1230,"transit":false,"line":2},{"i_lat":-6.209883,"line":2,"i_long":106.84912,"is_transit":false,"station_name":"Manggarai","time":4,"distance":2610,"transit":false,"station_id":"MRI"},{"is_transit":false,"distance":1590,"station_name":"Cikini","i_long":106.840169,"line":2,"i_lat":-6.198556,"time":4,"transit":false,"station_id":"CKI"},{"time":3,"station_name":"Gondangdia","is_transit":false,"line":2,"station_id":"GDD","i_lat":-6.186295,"transit":false,"i_long":106.832183,"distance":1750},{"station_name":"Juanda","i_long":106.828284,"station_id":"JUA","transit":false,"i_lat":-6.166716,"line":2,"time":4,"is_transit":false,"distance":2015},{"transit":false,"is_transit":false,"distance":1149,"time":2,"line":2,"station_name":"Sawah Besar","i_long":106.827103,"i_lat":-6.160725,"station_id":"SW"},{"station_name":"Manggabesar","station_id":"MGB","line":2,"is_transit":false,"i_lat":-6.149769,"i_long":106.82482,"time":2,"distance":906,"transit":false}],[{"i_long":106.824374,"station_id":"PDRG","i_lat":-6.460735,"distance":0,"station_name":"Pondok Rajeg","transit":false,"time":0,"is_transit":false,"line":21},{"station_id":"CTA","distance":0,"i_lat":-6.448811,"i_long":106.800298,"station_name":"Citayam","is_transit":true,"time":0,"transit":true,"line":2},{"i_lat":-6.405256,"station_name":"Depok","i_long":106.816926,"line":2,"transit":false,"time":6,"station_id":"DP","is_transit":false,"distance":5084},{"transit":false,"distance":1584,"line":2,"station_id":"DPB","i_lat":-6.391065,"station_name":"Depokbaru","i_long":106.819451,"time":3,"is_transit":false},{"station_id":"POC","i_lat":-6.369073,"time":4,"station_name":"Pondok Cina","distance":2727,"transit":false,"i_long":106.831114,"is_transit":false,"line":2},{"i_long":106.831474,"i_lat":-6.360749,"station_id":"UI","transit":false,"time":2,"is_transit":false,"distance":1109,"line":2,"station_name":"Univ. Indonesia"},{"line":2,"station_id":"UP","station_name":"Univ. Pancasila","is_transit":false,"i_lat":-6.339291,"transit":false,"distance":2264,"i_long":106.834175,"time":3},{"station_name":"Lenteng Agung","transit":false,"is_transit":false,"distance":1029,"time":2,"line":2,"station_id":"LNA","i_long":106.832616,"i_lat":-6.330363},{"station_name":"Tanjung Barat","i_lat":-6.3080680000000005,"time":3,"transit":false,"distance":2671,"station_id":"TNT","i_long":106.838896,"line":2,"is_transit":false},{"line":2,"i_lat":-6.2842400000000005,"transit":false,"time":4,"is_transit":false,"distance":2820,"i_long":106.843999,"station_name":"Pasar Minggu","station_id":"PSM"},{"is_transit":false,"station_id":"PSMB","i_lat":-6.263214,"transit":false,"time":2,"i_long":106.851577,"line":2,"station_name":"Pasar Minggu Baru","distance":2380},{"i_long":106.85449,"line":2,"station_name":"Duren Kalibata","time":2,"transit":false,"i_lat":-6.255332,"station_id":"DRN","is_transit":false,"distance":824},{"i_lat":-6.242512,"line":2,"time":3,"is_transit":false,"i_long":106.856607,"transit":false,"station_name":"Cawang","station_id":"CW","distance":1546},{"station_id":"TEB","i_lat":-6.226659,"transit":false,"i_long":106.857948,"is_transit":false,"line":2,"time":2,"distance":1230,"station_name":"Tebet"},{"is_transit":true,"line":2,"time":4,"i_long":106.84912,"transit":true,"station_id":"MRI","distance":2610,"i_lat":-6.209883,"station_name":"Manggarai"},{"transit":false,"i_long":106.822649,"time":4,"distance":3186,"station_name":"Sudirman","is_transit":false,"i_lat":-6.202263,"line":1,"station_id":"SUD"},{"transit":false,"time":1,"station_id":"SUDB","is_transit":false,"i_lat":-6.201433,"distance":280,"i_long":106.819881,"station_name":"Sudirman Baru","line":1},{"station_id":"KAT","station_name":"Karet","distance":471,"i_lat":-6.20132,"transit":false,"line":1,"i_long":106.816351,"time":1,"is_transit":false},{"is_transit":false,"station_name":"Tanah Abang","distance":2029,"line":1,"i_long":106.811091,"time":5,"transit":false,"station_id":"THB","i_lat":-6.185545},{"station_id":"DU","distance":3632,"i_lat":-6.155215,"time":8,"transit":false,"line":1,"i_long":106.800832,"is_transit":false,"station_name":"Duri"},{"line":1,"station_name":"Angke","station_id":"AK","is_transit":false,"i_lat":-6.144674,"distance":1230,"i_long":106.79867,"time":4,"transit":false},{"is_transit":true,"transit":true,"time":9,"distance":4102,"i_lat":-6.132549,"station_id":"KPB","line":4,"station_name":"Kampung Bandan","i_long":106.826365},{"transit":true,"is_transit":true,"i_lat":-6.137569,"line":2,"station_id":"JAKK","distance":1364,"i_long":106.812439,"time":3,"station_name":"Jakarta Kota"},{"station_id":"JAY","distance":1264,"i_long":106.820901,"i_lat":-6.141205,"is_transit":false,"transit":false,"station_name":"Jayakarta","line":2,"time":4},{"station_id":"MGB","line":2,"i_long":106.82482,"station_name":"Manggabesar","i_lat":-6.149769,"transit":false,"is_transit":false,"time":2,"distance":1080}],[{"is_transit":false,"i_long":106.824374,"station_name":"Pondok Rajeg","transit":false,"time":0,"station_id":"PDRG","i_lat":-6.460735,"line":21,"distance":0},{"i_long":106.800298,"time":0,"i_lat":-6.448811,"station_name":"Citayam","station_id":"CTA","is_transit":true,"line":2,"transit":true,"distance":0},{"station_id":"DP","time":6,"i_lat":-6.405256,"transit":false,"line":2,"distance":5084,"i_long":106.816926,"station_name":"Depok","is_transit":false},{"i_long":106.819451,"transit":false,"i_lat":-6.391065,"station_id":"DPB","is_transit":false,"station_name":"Depokbaru","distance":1584,"line":2,"time":3},{"line":2,"station_name":"Pondok Cina","distance":2727,"transit":false,"time":4,"station_id":"POC","is_transit":false,"i_lat":-6.369073,"i_long":106.831114},{"i_long":106.831474,"line":2,"is_transit":false,"station_id":"UI","distance":1109,"i_lat":-6.360749,"transit":false,"station_name":"Univ. Indonesia","time":2},{"station_name":"Univ. Pancasila","i_long":106.834175,"transit":false,"is_transit":false,"line":2,"i_lat":-6.339291,"station_id":"UP","distance":2264,"time":3},{"line":2,"time":2,"transit":false,"station_name":"Lenteng Agung","station_id":"LNA","is_transit":false,"i_lat":-6.330363,"i_long":106.832616,"distance":1029},{"station_name":"Tanjung Barat","i_long":106.838896,"line":2,"transit":false,"station_id":"TNT","i_lat":-6.3080680000000005,"is_transit":false,"distance":2671,"time":3},{"transit":false,"i_lat":-6.2842400000000005,"time":4,"station_name":"Pasar Minggu","distance":2820,"line":2,"i_long":106.843999,"is_transit":false,"station_id":"PSM"},{"i_long":106.851577,"station_id":"PSMB","line":2,"i_lat":-6.263214,"station_name":"Pasar Minggu Baru","is_transit":false,"transit":false,"time":2,"distance":2380},{"station_id":"DRN","transit":false,"time":2,"distance":824,"station_name":"Duren Kalibata","i_long":106.85449,"i_lat":-6.255332,"is_transit":false,"line":2},{"i_lat":-6.242512,"transit":false,"time":3,"station_name":"Cawang","distance":1546,"i_long":106.856607,"line":2,"station_id":"CW","is_transit":false},{"transit":false,"time":2,"i_lat":-6.226659,"distance":1230,"is_transit":false,"station_name":"Tebet","station_id":"TEB","i_long":106.857948,"line":2},{"i_lat":-6.209883,"station_name":"Manggarai","distance":2610,"is_transit":true,"station_id":"MRI","time":4,"transit":true,"i_long":106.84912,"line":2},{"time":2,"i_long":106.858896,"i_lat":-6.212485,"station_id":"MTR","transit":false,"station_name":"Matraman","is_transit":false,"line":1,"distance":1275},{"i_lat":-6.215091,"distance":1377,"station_id":"JNG","line":1,"time":8,"i_long":106.86807400000001,"station_name":"Jatinegara","transit":true,"is_transit":true},{"time":2,"i_long":106.861737,"i_lat":-6.209188,"line":11,"station_id":"POK","transit":false,"station_name":"Pondok Jati","is_transit":false,"distance":1236},{"station_name":"Kramat","i_long":106.855437,"line":11,"station_id":"KMT","i_lat":-6.193792,"transit":false,"distance":1829,"is_transit":false,"time":2},{"time":1,"station_name":"Gang Sentiong","is_transit":false,"i_long":106.850107,"station_id":"GST","i_lat":-6.185975,"line":11,"distance":973,"transit":false},{"distance":1567,"is_transit":false,"line":11,"transit":false,"station_name":"Pasar Senen","i_lat":-6.174784,"time":8,"station_id":"PSE","i_long":106.84368},{"time":4,"is_transit":false,"distance":1436,"i_long":106.839204,"station_id":"KMO","line":11,"i_lat":-6.161728,"station_name":"Kemayoran","transit":false},{"i_long":106.836569,"is_transit":false,"station_name":"Rajawali","station_id":"RJW","i_lat":-6.14505,"line":11,"time":5,"transit":false,"distance":1901},{"transit":true,"distance":1444,"is_transit":true,"i_lat":-6.132549,"line":4,"station_name":"Kampung Bandan","i_long":106.826365,"time":3,"station_id":"KPB"},{"line":2,"time":3,"station_id":"JAKK","transit":true,"distance":1364,"station_name":"Jakarta Kota","i_lat":-6.137569,"i_long":106.812439,"is_transit":true},{"time":4,"transit":false,"station_name":"Jayakarta","is_transit":false,"i_lat":-6.141205,"i_long":106.820901,"station_id":"JAY","line":2,"distance":1264},{"line":2,"distance":1080,"time":2,"transit":false,"i_lat":-6.149769,"i_long":106.82482,"station_id":"MGB","station_name":"Manggabesar","is_transit":false}]]}