{"data":[[{"transit":false,"time":0,"distance":0,"station_name":"Pondok Rajeg","i_lat":-6.460735,"station_id":"PDRG","is_transit":false,"line":21,"i_long":106.824374},{"is_transit":true,"station_name":"Citayam","transit":true,"i_long":106.800298,"distance":0,"station_id":"CTA","line":2,"time":0,"i_lat":-6.448811},{"i_lat":-6.405256,"line":2,"transit":false,"distance":5084,"station_id":"DP","station_name":"Depok","i_long":106.816926,"time":6,"is_transit":false},{"line":2,"station_name":"Depokbaru","is_transit":false,"transit":false,"station_id":"DPB","time":3,"i_long":106.819451,"distance":1584,"i_lat":-6.391065},{"line":2,"transit":false,"station_name":"Pondok Cina","is_transit":false,"time":4,"i_lat":-6.369073,"distance":2727,"i_long":106.831114,"station_id":"POC"},{"line":2,"time":2,"i_long":106.831474,"is_transit":false,"transit":false,"station_name":"Univ. Indonesia","station_id":"UI","distance":1109,"i_lat":-6.360749},{"station_id":"UP","is_transit":false,"time":3,"distance":2264,"i_lat":-6.339291,"i_long":106.834175,"station_name":"Univ. Pancasila","transit":false,"line":2},{"transit":false,"is_transit":false,"distance":1029,"station_id":"LNA","i_long":106.832616,"station_name":"Lenteng Agung","time":2,"line":2,"i_lat":-6.330363},{"line":2,"transit":false,"time":3,"distance":2671,"station_name":"Tanjung Barat","i_lat":-6.3080680000000005,"is_transit":false,"station_id":"TNT","i_long":106.838896},{"is_transit":false,"distance":2820,"i_lat":-6.2842400000000005,"time":4,"station_name":"Pasar Minggu","i_long":106.843999,"line":2,"transit":false,"station_id":"PSM"},{"i_lat":-6.263214,"line":2,"time":2,"distance":2380,"is_transit":false,"i_long":106.851577,"station_id":"PSMB","station_name":"Pasar Minggu Baru","transit":false},{"i_lat":-6.255332,"is_transit":false,"line":2,"station_name":"Duren Kalibata","distance":824,"i_long":106.85449,"transit":false,"time":2,"station_id":"DRN"},{"line":2,"time":3,"station_name":"Cawang","i_lat":-6.242512,"i_long":106.856607,"is_transit":false,"station_id":"CW","distance":1546,"transit":false},{"line":2,"i_long":106.857948,"station_name":"Tebet","transit":false,"i_lat":-6.226659,"distance":1230,"station_id":"TEB","is_transit":false,"time":2},{"line":2,"time":4,"transit":true,"station_name":"Manggarai","is_transit":true,"station_id":"MRI","i_lat":-6.209883,"i_long":106.84912,"distance":2610},{"i_lat":-6.202263,"time":4,"transit":false,"distance":3186,"station_id":"SUD","station_name":"Sudirman","is_transit":false,"i_long":106.822649,"line":1},{"is_transit":false,"station_name":"Sudirman Baru","station_id":"SUDB","time":1,"distance":280,"i_long":106.819881,"line":1,"transit":false,"i_lat":-6.201433},{"time":1,"i_long":106.816351,"station_name":"Karet","i_lat":-6.20132,"transit":false,"line":1,"distance":471,"is_transit":false,"station_id":"KAT"},{"station_id":"THB","time":5,"station_name":"Tanah Abang","distance":2029,"i_lat":-6.185545,"i_long":106.811091,"line":1,"is_transit":true,"transit":true},{"i_lat":-6.207404,"time":6,"line":6,"transit":false,"station_name":"Palmerah","station_id":"PLM","is_transit":false,"distance":3191,"i_long":106.79689},{"distance":3737,"transit":false,"time":7,"is_transit":false,"station_id":"KBY","i_long":106.780334,"station_name":"Kebayoran","i_lat":-6.237242,"line":6},{"i_lat":-6.276362,"is_transit":false,"transit":false,"distance":6218,"i_long":106.74273,"time":8,"line":6,"station_id":"PDJ","station_name":"Pondokranji"},{"distance":2179,"transit":false,"time":3,"line":6,"station_name":"Jurangmangu","i_long":106.728916,"station_id":"JMU","i_lat":-6.288927,"is_transit":false},{"station_id":"SDM","is_transit":false,"station_name":"Sudimara","transit":false,"time":4,"distance":1994,"i_lat":-6.296963,"i_long":106.712277,"line":6},{"is_transit":false,"time":6,"i_lat":-6.314823,"i_long":106.675475,"line":6,"distance":4566,"transit":false,"station_name":"Rawa Buntu","station_id":"RU"}],[{"i_long":106.824374,"distance":0,"time":0,"line":21,"i_lat":-6.460735,"is_transit":false,"transit":false,"station_name":"Pondok Rajeg","station_id":"PDRG"},{"i_long":106.800298,"station_name":"Citayam","i_lat":-6.448811,"transit":true,"line":2,"is_transit":true,"distance":0,"time":0,"station_id":"CTA"},{"station_id":"DP","time":6,"line":2,"i_long":106.816926,"is_transit":false,"station_name":"Depok","transit":false,"distance":5084,"i_lat":-6.405256},{"transit":false,"station_id":"DPB","line":2,"station_name":"Depokbaru","i_lat":-6.391065,"time":3,"i_long":106.819451,"is_transit":false,"distance":1584},{"i_lat":-6.369073,"station_id":"POC","is_transit":false,"station_name":"Pondok Cina","line":2,"i_long":106.831114,"transit":false,"time":4,"distance":2727},{"station_name":"Univ. Indonesia","distance":1109,"i_lat":-6.360749,"time":2,"i_long":106.831474,"line":2,"transit":false,"is_transit":false,"station_id":"UI"},{"line":2,"distance":2264,"transit":false,"time":3,"i_lat":-6.339291,"station_name":"Univ. Pancasila","station_id":"UP","is_transit":false,"i_long":106.834175},{"i_long":106.832616,"is_transit":false,"line":2,"station_id":"LNA","transit":false,"station_name":"Lenteng Agung","time":2,"distance":1029,"i_lat":-6.330363},{"transit":false,"station_name":"Tanjung Barat","time":3,"i_long":106.838896,"is_transit":false,"station_id":"TNT","line":2,"i_lat":-6.3080680000000005,"distance":2671},{"line":2,"is_transit":false,"transit":false,"station_name":"Pasar Minggu","station_id":"PSM","distance":2820,"i_lat":-6.2842400000000005,"time":4,"i_long":106.843999},{"time":2,"line":2,"station_name":"Pasar Minggu Baru","is_transit":false,"transit":false,"station_id":"PSMB","distance":2380,"i_long":106.851577,"i_lat":-6.263214},{"i_long":106.85449,"station_name":"Duren Kalibata","station_id":"DRN","time":2,"i_lat":-6.255332,"transit":false,"is_transit":false,"distance":824,"line":2},{"transit":false,"i_long":106.856607,"is_transit":false,"time":3,"distance":1546,"station_id":"CW","i_lat":-6.242512,"line":2,"station_name":"Cawang"},{"distance":1230,"transit":false,"station_name":"Tebet","time":2,"i_lat":-6.226659,"i_long":106.857948,"station_id":"TEB","line":2,"is_transit":false},{"line":2,"station_name":"Manggarai","transit":false,"time":4,"is_transit":false,"distance":2610,"i_lat":-6.209883,"i_long":106.84912,"station_id":"MRI"},{"i_lat":-6.198556,"i_long":106.840169,"is_transit":false,"time":4,"line":2,"transit":false,"station_name":"Cikini","station_id":"CKI","distance":1590},{"i_long":106.832183,"time":3,"line":2,"is_transit":false,"distance":1750,"i_lat":-6.186295,"station_id":"GDD","station_name":"Gondangdia","transit":false},{"station_id":"JUA","is_transit":false,"transit":false,"station_name":"Juanda","i_lat":-6.166716,"distance":2015,"i_long":106.828284,"time":4,"line":2},{"transit":false,"i_long":106.827103,"station_id":"SW","station_name":"Sawah Besar","is_transit":false,"time":2,"line":2,"i_lat":-6.160725,"distance":1149},{"time":2,"station_name":"Manggabesar","line":2,"transit":false,"is_transit":false,"distance":906,"i_lat":-6.149769,"i_long":106.82482,"station_id":"MGB"},{"transit":false,"distance":1080,"is_transit":false,"station_name":"Jayakarta","station_id":"JAY","line":2,"i_lat":-6.141205,"time":2,"i_long":106.820901},{"time":4,"i_long":106.812439,"station_name":"Jakarta Kota","distance":1264,"station_id":"JAKK","line":2,"i_lat":-6.137569,"is_transit":true,"transit":true},{"time":3,"i_long":106.826365,"station_name":"Kampung Bandan","i_lat":-6.132549,"is_transit":true,"transit":true,"station_id":"KPB","distance":1364,"line":4},{"i_long":106.79867,"transit":false,"station_id":"AK","time":9,"station_name":"Angke","i_lat":-6.144674,"distance":4102,"line":1,"is_transit":false},{"station_name":"Duri","distance":1230,"i_lat":-6.155215,"transit":false,"time":4,"i_long":106.800832,"line":1,"station_id":"DU","is_transit":false},{"i_lat":-6.185545,"distance":3632,"time":8,"is_transit":true,"station_name":"Tanah Abang","station_id":"THB","i_long":106.811091,"transit":true,"line":1},{"time":6,"i_long":106.79689,"transit":false,"station_id":"PLM","station_name":"Palmerah","line":6,"i_lat":-6.207404,"distance":3191,"is_transit":false},{"is_transit":false,"station_id":"KBY","station_name":"Kebayoran","distance":3737,"i_long":106.780334,"transit":false,"i_lat":-6.237242,"line":6,"time":7},{"station_name":"Pondokranji","distance":6218,"i_lat":-6.276362,"i_long":106.74273,"transit":false,"time":8,"line":6,"station_id":"PDJ","is_transit":false},{"time":3,"transit":false,"distance":2179,"i_long":106.728916,"station_id":"JMU","line":6,"i_lat":-6.288927,"is_transit":false,"station_name":"Jurangmangu"},{"i_long":106.712277,"line":6,"station_name":"Sudimara","station_id":"SDM","is_transit":false,"time":4,"distance":1994,"transit":false,"i_lat":-6.296963},{"transit":false,"station_id":"RU","i_long":106.675475,"is_transit":false,"station_name":"Rawa Buntu","line":6,"i_lat":-6.314823,"time":6,"distance":4566}],[{"i_lat":-6.460735,"station_id":"PDRG","is_transit":false,"time":0,"transit":false,"i_long":106.824374,"station_name":"Pondok Rajeg","distance":0,"line":21},{"i_long":106.800298,"line":2,"station_name":"Citayam","is_transit":true,"distance":0,"station_id":"CTA","i_lat":-6.448811,"transit":true,"time":0},{"station_name":"Depok","i_long":106.816926,"is_transit":false,"distance":5084,"station_id":"DP","i_lat":-6.405256,"transit":false,"line":2,"time":6},{"transit":false,"time":3,"station_name":"Depokbaru","distance":1584,"i_lat":-6.391065,"is_transit":false,"line":2,"station_id":"DPB","i_long":106.819451},{"transit":false,"station_id":"POC","distance":2727,"time":4,"line":2,"station_name":"Pondok Cina","i_lat":-6.369073,"i_long":106.831114,"is_transit":false},{"station_id":"UI","distance":1109,"is_transit":false,"line":2,"station_name":"Univ. Indonesia","time":2,"i_long":106.831474,"transit":false,"i_lat":-6.360749},{"time":3,"station_name":"Univ. Pancasila","distance":2264,"line":2,"is_transit":false,"i_lat":-6.339291,"station_id":"UP","i_long":106.834175,"transit":false},{"station_name":"Lenteng Agung","transit":false,"is_transit":false,"i_lat":-6.330363,"time":2,"line":2,"station_id":"LNA","i_long":106.832616,"distance":1029},{"transit":false,"is_transit":false,"i_lat":-6.3080680000000005,"station_id":"TNT","distance":2671,"station_name":"Tanjung Barat","i_long":106.838896,"time":3,"line":2},{"transit":false,"station_id":"PSM","distance":2820,"time":4,"i_long":106.843999,"i_lat":-6.2842400000000005,"line":2,"station_name":"Pasar Minggu","is_transit":false},{"time":2,"station_name":"Pasar Minggu Baru","distance":2380,"i_long":106.851577,"i_lat":-6.263214,"transit":false,"is_transit":false,"station_id":"PSMB","line":2},{"station_id":"DRN","is_transit":false,"i_long":106.85449,"line":2,"distance":824,"station_name":"Duren Kalibata","time":2,"i_lat":-6.255332,"transit":false},{"station_id":"CW","i_long":106.856607,"transit":false,"is_transit":false,"distance":1546,"time":3,"i_lat":-6.242512,"line":2,"station_name":"Cawang"},{"is_transit":false,"i_lat":-6.226659,"transit":false,"time":2,"station_id":"TEB","station_name":"Tebet","line":2,"distance":1230,"i_long":106.857948},{"transit":true,"i_long":106.84912,"distance":2610,"station_id":"MRI","is_transit":true,"i_lat":-6.209883,"line":2,"station_name":"Manggarai","time":4},{"transit":false,"station_name":"Matraman","i_lat":-6.212485,"line":1,"distance":1275,"time":2,"i_long":106.858896,"is_transit":false,"station_id":"MTR"},{"is_transit":true,"time":8,"transit":true,"i_long":106.86807400000001,"station_id":"JNG","distance":1377,"i_lat":-6.215091,"line":1,"station_name":"Jatinegara"},{"i_long":106.861737,"station_id":"POK","line":11,"distance":1236,"is_transit":false,"transit":false,"time":2,"i_lat":-6.209188,"station_name":"Pondok Jati"},{"line":11,"station_id":"KMT","transit":false,"time":2,"distance":1829,"i_long":106.855437,"i_lat":-6.193792,"is_transit":false,"station_name":"Kramat"},{"distance":973,"is_transit":false,"time":1,"line":11,"station_name":"Gang Sentiong","transit":false,"station_id":"GST","i_lat":-6.185975,"i_long":106.850107},{"line":11,"is_transit":false,"distance":1567,"i_long":106.84368,"station_id":"PSE","transit":false,"time":8,"i_lat":-6.174784,"station_name":"Pasar Senen"},{"is_transit":false,"line":11,"time":4,"station_id":"KMO","transit":false,"i_lat":-6.161728,"distance":1436,"i_long":106.839204,"station_name":"Kemayoran"},{"time":5,"transit":false,"distance":1901,"station_id":"RJW","station_name":"Rajawali","line":11,"i_lat":-6.14505,"i_long":106.836569,"is_transit":false},{"station_name":"Kampung Bandan","is_transit":true,"i_lat":-6.132549,"transit":true,"station_id":"KPB","distance":1444,"i_long":106.826365,"time":3,"line":4},{"distance":4102,"i_long":106.79867,"station_name":"Angke","time":9,"transit":false,"station_id":"AK","i_lat":-6.144674,"line":1,"is_transit":false},{"line":1,"station_name":"Duri","i_lat":-6.155215,"station_id":"DU","is_transit":false,"distance":1230,"i_long":106.800832,"time":4,"transit":false},{"station_name":"Tanah Abang","line":1,"station_id":"THB","is_transit":true,"i_long":106.811091,"i_lat":-6.185545,"transit":true,"distance":3632,"time":8},{"station_id":"PLM","line":6,"is_transit":false,"time":6,"distance":3191,"i_long":106.79689,"station_name":"Palmerah","i_lat":-6.207404,"transit":false},{"time":7,"i_long":106.780334,"line":6,"is_transit":false,"transit":false,"station_name":"Kebayoran","i_lat":-6.237242,"distance":3737,"station_id":"KBY"},{"is_transit":false,"time":8,"i_long":106.74273,"station_name":"Pondokranji","i_lat":-6.276362,"distance":6218,"transit":false,"line":6,"station_id":"PDJ"},{"i_long":106.728916,"line":6,"time":3,"station_name":"Jurangmangu","distance":2179,"is_transit":false,"transit":false,"station_id":"JMU","i_lat":-6.288927},{"time":4,"i_long":106.712277,"station_name":"Sudimara","transit":false,"line":6,"station_id":"SDM","is_transit":false,"distance":1994,"i_lat":-6.296963},{"i_long":106.675475,"distance":4566,"is_transit":false,"transit":false,"line":6,"station_id":"RU","station_name":"Rawa Buntu","time":6,"i_lat":-6.314823}]]}