{"data":[[{"station_id":"PDRG","i_long":106.824374,"line":21,"time":0,"distance":0,"is_transit":false,"station_name":"Pondok Rajeg","i_lat":-6.460735,"transit":false},{"i_long":106.800298,"line":2,"transit":true,"station_id":"CTA","is_transit":true,"i_lat":-6.448811,"station_name":"Citayam","time":0,"distance":0},{"time":6,"i_long":106.816926,"i_lat":-6.405256,"line":2,"is_transit":false,"transit":false,"distance":5084,"station_name":"Depok","station_id":"DP"},{"transit":false,"i_lat":-6.391065,"i_long":106.819451,"line":2,"distance":1584,"time":3,"station_name":"Depokbaru","station_id":"DPB","is_transit":false},{"time":4,"line":2,"i_lat":-6.369073,"station_id":"POC","station_name":"Pondok Cina","is_transit":false,"distance":2727,"i_long":106.831114,"transit":false},{"i_long":106.831474,"i_lat":-6.360749,"station_name":"Univ. Indonesia","line":2,"time":2,"station_id":"UI","transit":false,"distance":1109,"is_transit":false},{"time":3,"i_long":106.834175,"station_id":"UP","i_lat":-6.339291,"is_transit":false,"transit":false,"line":2,"station_name":"Univ. Pancasila","distance":2264},{"time":2,"i_long":106.832616,"line":2,"is_transit":false,"station_name":"Lenteng Agung","i_lat":-6.330363,"station_id":"LNA","transit":false,"distance":1029},{"is_transit":false,"station_name":"Tanjung Barat","station_id":"TNT","transit":false,"i_lat":-6.3080680000000005,"distance":2671,"time":3,"i_long":106.838896,"line":2},{"station_id":"PSM","line":2,"transit":false,"time":4,"is_transit":false,"distance":2820,"station_name":"Pasar Minggu","i_lat":-6.2842400000000005,"i_long":106.843999},{"line":2,"distance":2380,"is_transit":false,"transit":false,"time":2,"station_id":"PSMB","station_name":"Pasar Minggu Baru","i_long":106.851577,"i_lat":-6.263214},{"station_name":"Duren Kalibata","distance":824,"is_transit":false,"transit":false,"station_id":"DRN","i_long":106.85449,"line":2,"time":2,"i_lat":-6.255332},{"station_name":"Cawang","line":2,"i_lat":-6.242512,"is_transit":false,"time":3,"i_long":106.856607,"transit":false,"distance":1546,"station_id":"CW"},{"station_id":"TEB","i_long":106.857948,"is_transit":false,"transit":false,"station_name":"Tebet","line":2,"distance":1230,"time":2,"i_lat":-6.226659},{"i_long":106.84912,"is_transit":true,"station_id":"MRI","i_lat":-6.209883,"line":2,"distance":2610,"time":4,"station_name":"Manggarai","transit":true},{"station_id":"MTR","distance":1275,"line":1,"time":2,"i_long":106.858896,"transit":false,"i_lat":-6.212485,"station_name":"Matraman","is_transit":false}],[{"time":0,"station_id":"PDRG","distance":0,"line":21,"is_transit":false,"i_long":106.824374,"transit":false,"i_lat":-6.460735,"station_name":"Pondok Rajeg"},{"distance":0,"i_long":106.800298,"station_name":"Citayam","i_lat":-6.448811,"line":2,"station_id":"CTA","time":0,"transit":true,"is_transit":true},{"time":6,"is_transit":false,"station_id":"DP","line":2,"transit":false,"i_long":106.816926,"distance":5084,"station_name":"Depok","i_lat":-6.405256},{"distance":1584,"station_name":"Depokbaru","i_lat":-6.391065,"transit":false,"time":3,"station_id":"DPB","line":2,"i_long":106.819451,"is_transit":false},{"i_long":106.831114,"line":2,"station_name":"Pondok Cina","is_transit":false,"transit":false,"distance":2727,"time":4,"station_id":"POC","i_lat":-6.369073},{"transit":false,"distance":1109,"station_id":"UI","i_lat":-6.360749,"time":2,"is_transit":false,"station_name":"Univ. Indonesia","i_long":106.831474,"line":2},{"distance":2264,"i_lat":-6.339291,"time":3,"transit":false,"station_name":"Univ. Pancasila","line":2,"i_long":106.834175,"station_id":"UP","is_transit":false},{"distance":1029,"station_id":"LNA","i_lat":-6.330363,"station_name":"Lenteng Agung","line":2,"transit":false,"time":2,"is_transit":false,"i_long":106.832616},{"station_id":"TNT","transit":false,"i_lat":-6.3080680000000005,"distance":2671,"station_name":"Tanjung Barat","is_transit":false,"line":2,"i_long":106.838896,"time":3},{"i_long":106.843999,"time":4,"is_transit":false,"station_id":"PSM","i_lat":-6.2842400000000005,"transit":false,"station_name":"Pasar Minggu","distance":2820,"line":2},{"time":2,"i_long":106.851577,"i_lat":-6.263214,"is_transit":false,"transit":false,"distance":2380,"station_id":"PSMB","station_name":"Pasar Minggu Baru","line":2},{"distance":824,"station_id":"DRN","transit":false,"time":2,"i_lat":-6.255332,"i_long":106.85449,"is_transit":false,"line":2,"station_name":"Duren Kalibata"},{"transit":false,"i_lat":-6.242512,"distance":1546,"i_long":106.856607,"station_name":"Cawang","line":2,"time":3,"is_transit":false,"station_id":"CW"},{"station_name":"Tebet","station_id":"TEB","transit":false,"distance":1230,"is_transit":false,"time":2,"i_long":106.857948,"i_lat":-6.226659,"line":2},{"station_name":"Manggarai","i_lat":-6.209883,"i_long":106.84912,"line":2,"is_transit":true,"transit":true,"time":4,"station_id":"MRI","distance":2610},{"station_id":"SUD","is_transit":false,"i_lat":-6.202263,"time":4,"transit":false,"station_name":"Sudirman","line":1,"i_long":106.822649,"distance":3186},{"station_id":"SUDB","is_transit":false,"i_lat":-6.201433,"i_long":106.819881,"station_name":"Sudirman Baru","line":1,"time":1,"transit":false,"distance":280},{"time":1,"transit":false,"i_long":106.816351,"station_name":"Karet","is_transit":false,"distance":471,"i_lat":-6.20132,"line":1,"station_id":"KAT"},{"transit":false,"line":1,"station_id":"THB","time":5,"distance":2029,"station_name":"Tanah Abang","is_transit":false,"i_lat":-6.185545,"i_long":106.811091},{"station_id":"DU","line":1,"transit":false,"distance":3632,"time":8,"station_name":"Duri","i_lat":-6.155215,"i_long":106.800832,"is_transit":false},{"i_long":106.79867,"line":1,"station_id":"AK","time":4,"distance":1230,"is_transit":false,"transit":false,"station_name":"Angke","i_lat":-6.144674},{"is_transit":true,"time":9,"distance":4102,"i_lat":-6.132549,"line":4,"station_id":"KPB","station_name":"Kampung Bandan","transit":true,"i_long":106.826365},{"i_long":106.836569,"station_name":"Rajawali","station_id":"RJW","is_transit":false,"transit":false,"time":3,"line":11,"distance":1444,"i_lat":-6.14505},{"station_id":"KMO","i_lat":-6.161728,"is_transit":false,"time":5,"transit":false,"i_long":106.839204,"distance":1901,"station_name":"Kemayoran","line":11},{"station_id":"PSE","transit":false,"station_name":"Pasar Senen","is_transit":false,"distance":1436,"line":11,"i_lat":-6.174784,"i_long":106.84368,"time":4},{"station_id":"GST","distance":1567,"time":8,"transit":false,"station_name":"Gang Sentiong","is_transit":false,"i_long":106.850107,"i_lat":-6.185975,"line":11},{"i_lat":-6.193792,"i_long":106.855437,"time":1,"station_id":"KMT","distance":973,"station_name":"Kramat","line":11,"transit":false,"is_transit":false},{"time":2,"distance":1829,"is_transit":false,"transit":false,"i_lat":-6.209188,"station_id":"POK","i_long":106.861737,"station_name":"Pondok Jati","line":11},{"time":9,"distance":1236,"i_lat":-6.215091,"line":1,"i_long":106.86807400000001,"transit":true,"station_name":"Jatinegara","station_id":"JNG","is_transit":true},{"transit":false,"time":2,"station_id":"MTR","i_long":106.858896,"distance":1377,"i_lat":-6.212485,"line":1,"station_name":"Matraman","is_transit":false}],[{"time":0,"transit":false,"is_transit":false,"station_id":"PDRG","i_long":106.824374,"line":21,"station_name":"Pondok Rajeg","i_lat":-6.460735,"distance":0},{"line":2,"is_transit":true,"transit":true,"station_name":"Citayam","time":0,"distance":0,"i_long":106.800298,"station_id":"CTA","i_lat":-6.448811},{"transit":false,"distance":5084,"line":2,"i_long":106.816926,"station_name":"Depok","station_id":"DP","time":6,"i_lat":-6.405256,"is_transit":false},{"line":2,"is_transit":false,"time":3,"i_long":106.819451,"distance":1584,"station_id":"DPB","transit":false,"station_name":"Depokbaru","i_lat":-6.391065},{"station_name":"Pondok Cina","time":4,"transit":false,"station_id":"POC","line":2,"i_lat":-6.369073,"distance":2727,"is_transit":false,"i_long":106.831114},{"i_lat":-6.360749,"is_transit":false,"line":2,"transit":false,"station_name":"Univ. Indonesia","station_id":"UI","time":2,"distance":1109,"i_long":106.831474},{"i_long":106.834175,"station_name":"Univ. Pancasila","line":2,"transit":false,"time":3,"is_transit":false,"station_id":"UP","distance":2264,"i_lat":-6.339291},{"is_transit":false,"i_long":106.832616,"time":2,"station_id":"LNA","distance":1029,"station_name":"Lenteng Agung","line":2,"transit":false,"i_lat":-6.330363},{"is_transit":false,"transit":false,"line":2,"distance":2671,"station_name":"Tanjung Barat","i_long":106.838896,"time":3,"i_lat":-6.3080680000000005,"station_id":"TNT"},{"i_lat":-6.2842400000000005,"time":4,"transit":false,"distance":2820,"is_transit":false,"i_long":106.843999,"line":2,"station_id":"PSM","station_name":"Pasar Minggu"},{"is_transit":false,"i_lat":-6.263214,"station_name":"Pasar Minggu Baru","i_long":106.851577,"line":2,"station_id":"PSMB","transit":false,"distance":2380,"time":2},{"time":2,"station_name":"Duren Kalibata","distance":824,"i_long":106.85449,"is_transit":false,"line":2,"transit":false,"station_id":"DRN","i_lat":-6.255332},{"station_id":"CW","time":3,"station_name":"Cawang","is_transit":false,"distance":1546,"transit":false,"i_lat":-6.242512,"i_long":106.856607,"line":2},{"station_name":"Tebet","is_transit":false,"i_long":106.857948,"station_id":"TEB","distance":1230,"time":2,"line":2,"transit":false,"i_lat":-6.226659},{"line":2,"is_transit":false,"time":4,"transit":false,"station_id":"MRI","station_name":"Manggarai","i_lat":-6.209883,"i_long":106.84912,"distance":2610},{"i_lat":-6.198556,"time":4,"i_long":106.840169,"line":2,"station_name":"Cikini","is_transit":false,"transit":false,"distance":1590,"station_id":"CKI"},{"time":3,"is_transit":false,"station_name":"Gondangdia","transit":false,"distance":1750,"station_id":"GDD","i_long":106.832183,"line":2,"i_lat":-6.186295},{"i_lat":-6.166716,"time":4,"transit":false,"distance":2015,"line":2,"station_name":"Juanda","i_long":106.828284,"station_id":"JUA","is_transit":false},{"line":2,"i_lat":-6.160725,"station_id":"SW","station_name":"Sawah Besar","distance":1149,"i_long":106.827103,"is_transit":false,"time":2,"transit":false},{"distance":906,"time":2,"transit":false,"station_name":"Manggabesar","i_lat":-6.149769,"line":2,"station_id":"MGB","i_long":106.82482,"is_transit":false},{"i_long":106.820901,"time":2,"station_name":"Jayakarta","transit":false,"station_id":"JAY","distance":1080,"i_lat":-6.141205,"line":2,"is_transit":false},{"time":4,"transit":true,"station_id":"JAKK","is_transit":true,"i_long":106.812439,"station_name":"Jakarta Kota","line":2,"distance":1264,"i_lat":-6.137569},{"line":4,"station_id":"KPB","transit":true,"station_name":"Kampung Bandan","time":3,"distance":1364,"is_transit":true,"i_lat":-6.132549,"i_long":106.826365},{"i_lat":-6.14505,"time":3,"line":11,"is_transit":false,"station_id":"RJW","i_long":106.836569,"station_name":"Rajawali","distance":1444,"transit":false},{"transit":false,"time":5,"distance":1901,"station_id":"KMO","i_lat":-6.161728,"station_name":"Kemayoran","i_long":106.839204,"line":11,"is_transit":false},{"time":4,"i_lat":-6.174784,"station_id":"PSE","line":11,"is_transit":false,"transit":false,"station_name":"Pasar Senen","i_long":106.84368,"distance":1436},{"time":8,"transit":false,"i_lat":-6.185975,"line":11,"station_name":"Gang Sentiong","distance":1567,"i_long":106.850107,"is_transit":false,"station_id":"GST"},{"time":1,"station_name":"Kramat","i_lat":-6.193792,"line":11,"i_long":106.855437,"distance":973,"station_id":"KMT","is_transit":false,"transit":false},{"line":11,"i_lat":-6.209188,"is_transit":false,"time":2,"distance":1829,"i_long":106.861737,"station_id":"POK","station_name":"Pondok Jati","transit":false},{"i_lat":-6.215091,"station_id":"JNG","i_long":106.86807400000001,"distance":1236,"line":1,"time":9,"transit":true,"is_transit":true,"station_name":"Jatinegara"},{"station_name":"Matraman","line":1,"distance":1377,"station_id":"MTR","i_lat":-6.212485,"i_long":106.858896,"transit":false,"time":2,"is_transit":false}]]}