{"data":[[{"i_lat":-6.460735,"station_name":"Pondok Rajeg","line":21,"time":0,"distance":0,"station_id":"PDRG","transit":false,"is_transit":false,"i_long":106.824374},{"transit":true,"station_name":"Citayam","is_transit":true,"distance":0,"time":0,"i_lat":-6.448811,"i_long":106.800298,"line":2,"station_id":"CTA"},{"line":2,"time":6,"distance":5084,"i_long":106.816926,"station_id":"DP","is_transit":false,"i_lat":-6.405256,"transit":false,"station_name":"Depok"},{"transit":false,"distance":1584,"is_transit":false,"i_lat":-6.391065,"time":3,"i_long":106.819451,"line":2,"station_id":"DPB","station_name":"Depokbaru"},{"distance":2727,"i_lat":-6.369073,"station_id":"POC","time":4,"transit":false,"line":2,"station_name":"Pondok Cina","i_long":106.831114,"is_transit":false},{"distance":1109,"i_long":106.831474,"time":2,"transit":false,"station_id":"UI","station_name":"Univ. Indonesia","is_transit":false,"i_lat":-6.360749,"line":2},{"i_lat":-6.339291,"time":3,"station_name":"Univ. Pancasila","distance":2264,"is_transit":false,"transit":false,"i_long":106.834175,"station_id":"UP","line":2},{"transit":false,"station_name":"Lenteng Agung","i_lat":-6.330363,"line":2,"station_id":"LNA","i_long":106.832616,"time":2,"distance":1029,"is_transit":false},{"i_long":106.838896,"time":3,"is_transit":false,"station_name":"Tanjung Barat","i_lat":-6.3080680000000005,"transit":false,"station_id":"TNT","line":2,"distance":2671},{"distance":2820,"time":4,"line":2,"station_name":"Pasar Minggu","i_long":106.843999,"is_transit":false,"station_id":"PSM","i_lat":-6.2842400000000005,"transit":false},{"line":2,"time":2,"station_id":"PSMB","is_transit":false,"i_lat":-6.263214,"distance":2380,"transit":false,"station_name":"Pasar Minggu Baru","i_long":106.851577},{"distance":824,"transit":false,"time":2,"station_id":"DRN","is_transit":false,"line":2,"station_name":"Duren Kalibata","i_lat":-6.255332,"i_long":106.85449},{"is_transit":false,"station_id":"CW","i_lat":-6.242512,"distance":1546,"time":3,"i_long":106.856607,"line":2,"transit":false,"station_name":"Cawang"},{"station_name":"Tebet","time":2,"is_transit":false,"transit":false,"i_lat":-6.226659,"i_long":106.857948,"station_id":"TEB","line":2,"distance":1230},{"station_id":"MRI","line":2,"i_lat":-6.209883,"distance":2610,"transit":true,"i_long":106.84912,"station_name":"Manggarai","time":4,"is_transit":true},{"station_name":"Sudirman","is_transit":false,"distance":3186,"i_long":106.822649,"line":1,"time":4,"station_id":"SUD","transit":false,"i_lat":-6.202263},{"time":1,"is_transit":false,"line":1,"station_id":"SUDB","distance":280,"transit":false,"station_name":"Sudirman Baru","i_lat":-6.201433,"i_long":106.819881}],[{"i_long":106.824374,"line":21,"time":0,"station_name":"Pondok Rajeg","transit":false,"i_lat":-6.460735,"distance":0,"is_transit":false,"station_id":"PDRG"},{"transit":true,"time":0,"station_id":"CTA","i_lat":-6.448811,"i_long":106.800298,"distance":0,"is_transit":true,"line":2,"station_name":"Citayam"},{"is_transit":false,"i_long":106.816926,"time":6,"station_id":"DP","i_lat":-6.405256,"transit":false,"line":2,"distance":5084,"station_name":"Depok"},{"distance":1584,"station_name":"Depokbaru","i_lat":-6.391065,"transit":false,"is_transit":false,"time":3,"line":2,"station_id":"DPB","i_long":106.819451},{"line":2,"i_long":106.831114,"station_id":"POC","transit":false,"station_name":"Pondok Cina","i_lat":-6.369073,"distance":2727,"is_transit":false,"time":4},{"line":2,"station_name":"Univ. Indonesia","distance":1109,"i_lat":-6.360749,"i_long":106.831474,"time":2,"transit":false,"is_transit":false,"station_id":"UI"},{"line":2,"distance":2264,"i_lat":-6.339291,"is_transit":false,"station_id":"UP","i_long":106.834175,"transit":false,"station_name":"Univ. Pancasila","time":3},{"i_lat":-6.330363,"station_name":"Lenteng Agung","time":2,"distance":1029,"station_id":"LNA","line":2,"transit":false,"i_long":106.832616,"is_transit":false},{"is_transit":false,"line":2,"station_name":"Tanjung Barat","station_id":"TNT","time":3,"distance":2671,"i_long":106.838896,"i_lat":-6.3080680000000005,"transit":false},{"time":4,"station_name":"Pasar Minggu","i_long":106.843999,"line":2,"station_id":"PSM","distance":2820,"i_lat":-6.2842400000000005,"transit":false,"is_transit":false},{"is_transit":false,"i_lat":-6.263214,"time":2,"transit":false,"line":2,"station_name":"Pasar Minggu Baru","distance":2380,"station_id":"PSMB","i_long":106.851577},{"distance":824,"is_transit":false,"time":2,"station_name":"Duren Kalibata","i_lat":-6.255332,"i_long":106.85449,"transit":false,"line":2,"station_id":"DRN"},{"station_id":"CW","station_name":"Cawang","transit":false,"i_lat":-6.242512,"line":2,"distance":1546,"i_long":106.856607,"is_transit":false,"time":3},{"distance":1230,"station_id":"TEB","i_long":106.857948,"is_transit":false,"line":2,"station_name":"Tebet","i_lat":-6.226659,"transit":false,"time":2},{"time":4,"distance":2610,"line":2,"station_name":"Manggarai","i_long":106.84912,"transit":false,"i_lat":-6.209883,"station_id":"MRI","is_transit":false},{"station_name":"Cikini","transit":false,"i_lat":-6.198556,"is_transit":false,"station_id":"CKI","distance":1590,"i_long":106.840169,"line":2,"time":4},{"station_id":"GDD","distance":1750,"time":3,"i_long":106.832183,"line":2,"station_name":"Gondangdia","is_transit":false,"i_lat":-6.186295,"transit":false},{"station_name":"Juanda","time":4,"is_transit":false,"i_long":106.828284,"line":2,"distance":2015,"transit":false,"i_lat":-6.166716,"station_id":"JUA"},{"i_lat":-6.160725,"line":2,"time":2,"station_id":"SW","distance":1149,"transit":false,"station_name":"Sawah Besar","i_long":106.827103,"is_transit":false},{"transit":false,"i_lat":-6.149769,"i_long":106.82482,"time":2,"station_id":"MGB","station_name":"Manggabesar","distance":906,"line":2,"is_transit":false},{"time":2,"line":2,"transit":false,"station_id":"JAY","i_lat":-6.141205,"station_name":"Jayakarta","is_transit":false,"distance":1080,"i_long":106.820901},{"transit":true,"station_id":"JAKK","is_transit":true,"time":4,"distance":1264,"station_name":"Jakarta Kota","i_lat":-6.137569,"i_long":106.812439,"line":2},{"distance":1364,"is_transit":true,"line":4,"i_lat":-6.132549,"i_long":106.826365,"station_id":"KPB","station_name":"Kampung Bandan","time":3,"transit":true},{"distance":4102,"transit":false,"station_name":"Angke","station_id":"AK","i_long":106.79867,"is_transit":false,"line":1,"time":9,"i_lat":-6.144674},{"distance":1230,"i_long":106.800832,"station_name":"Duri","i_lat":-6.155215,"is_transit":false,"transit":false,"line":1,"time":4,"station_id":"DU"},{"i_lat":-6.185545,"is_transit":false,"i_long":106.811091,"line":1,"transit":false,"distance":3632,"station_name":"Tanah Abang","time":8,"station_id":"THB"},{"transit":false,"i_long":106.816351,"station_id":"KAT","time":5,"is_transit":false,"distance":2029,"station_name":"Karet","i_lat":-6.20132,"line":1},{"transit":false,"is_transit":false,"distance":471,"station_id":"SUDB","time":1,"station_name":"Sudirman Baru","i_long":106.819881,"line":1,"i_lat":-6.201433}],[{"time":0,"transit":false,"i_lat":-6.460735,"line":21,"station_id":"PDRG","station_name":"Pondok Rajeg","is_transit":false,"distance":0,"i_long":106.824374},{"station_name":"Citayam","distance":0,"station_id":"CTA","i_long":106.800298,"line":2,"time":0,"i_lat":-6.448811,"transit":true,"is_transit":true},{"is_transit":false,"i_lat":-6.405256,"transit":false,"station_id":"DP","time":6,"station_name":"Depok","line":2,"i_long":106.816926,"distance":5084},{"line":2,"station_name":"Depokbaru","time":3,"station_id":"DPB","distance":1584,"i_lat":-6.391065,"transit":false,"is_transit":false,"i_long":106.819451},{"line":2,"time":4,"station_id":"POC","station_name":"Pondok Cina","distance":2727,"i_long":106.831114,"i_lat":-6.369073,"is_transit":false,"transit":false},{"is_transit":false,"i_long":106.831474,"time":2,"transit":false,"station_id":"UI","i_lat":-6.360749,"distance":1109,"station_name":"Univ. Indonesia","line":2},{"i_long":106.834175,"i_lat":-6.339291,"transit":false,"time":3,"station_name":"Univ. Pancasila","line":2,"is_transit":false,"station_id":"UP","distance":2264},{"i_long":106.832616,"distance":1029,"line":2,"transit":false,"i_lat":-6.330363,"station_id":"LNA","time":2,"station_name":"Lenteng Agung","is_transit":false},{"is_transit":false,"distance":2671,"i_lat":-6.3080680000000005,"station_name":"Tanjung Barat","line":2,"time":3,"transit":false,"i_long":106.838896,"station_id":"TNT"},{"station_name":"Pasar Minggu","line":2,"transit":false,"time":4,"i_lat":-6.2842400000000005,"is_transit":false,"distance":2820,"i_long":106.843999,"station_id":"PSM"},{"distance":2380,"station_id":"PSMB","i_lat":-6.263214,"i_long":106.851577,"time":2,"station_name":"Pasar Minggu Baru","line":2,"transit":false,"is_transit":false},{"transit":false,"distance":824,"i_long":106.85449,"i_lat":-6.255332,"is_transit":false,"line":2,"station_name":"Duren Kalibata","time":2,"station_id":"DRN"},{"time":3,"i_lat":-6.242512,"i_long":106.856607,"station_name":"Cawang","is_transit":false,"distance":1546,"transit":false,"station_id":"CW","line":2},{"is_transit":false,"station_id":"TEB","distance":1230,"station_name":"Tebet","i_lat":-6.226659,"time":2,"transit":false,"i_long":106.857948,"line":2},{"i_lat":-6.209883,"is_transit":true,"transit":true,"station_name":"Manggarai","line":2,"station_id":"MRI","time":4,"distance":2610,"i_long":106.84912},{"distance":1275,"station_id":"MTR","transit":false,"time":2,"station_name":"Matraman","i_long":106.858896,"line":1,"is_transit":false,"i_lat":-6.212485},{"transit":true,"distance":1377,"i_long":106.86807400000001,"station_id":"JNG","time":8,"station_name":"Jatinegara","is_transit":true,"i_lat":-6.215091,"line":1},{"i_lat":-6.209188,"station_name":"Pondok Jati","station_id":"POK","line":11,"is_transit":false,"distance":1236,"time":2,"i_long":106.861737,"transit":false},{"station_name":"Kramat","i_long":106.855437,"line":11,"i_lat":-6.193792,"distance":1829,"is_transit":false,"time":2,"transit":false,"station_id":"KMT"},{"station_name":"Gang Sentiong","transit":false,"station_id":"GST","distance":973,"i_lat":-6.185975,"line":11,"time":1,"is_transit":false,"i_long":106.850107},{"line":11,"i_lat":-6.174784,"time":8,"station_name":"Pasar Senen","station_id":"PSE","is_transit":false,"distance":1567,"transit":false,"i_long":106.84368},{"time":4,"station_name":"Kemayoran","i_lat":-6.161728,"distance":1436,"line":11,"station_id":"KMO","is_transit":false,"i_long":106.839204,"transit":false},{"station_id":"RJW","transit":false,"time":5,"i_lat":-6.14505,"is_transit":false,"line":11,"distance":1901,"station_name":"Rajawali","i_long":106.836569},{"line":4,"station_name":"Kampung Bandan","i_lat":-6.132549,"station_id":"KPB","time":3,"is_transit":true,"i_long":106.826365,"transit":true,"distance":1444},{"i_long":106.79867,"distance":4102,"time":9,"station_id":"AK","transit":false,"is_transit":false,"i_lat":-6.144674,"line":1,"station_name":"Angke"},{"station_name":"Duri","i_long":106.800832,"distance":1230,"is_transit":false,"i_lat":-6.155215,"transit":false,"station_id":"DU","line":1,"time":4},{"i_long":106.811091,"station_id":"THB","is_transit":false,"line":1,"distance":3632,"transit":false,"station_name":"Tanah Abang","i_lat":-6.185545,"time":8},{"station_name":"Karet","is_transit":false,"i_lat":-6.20132,"station_id":"KAT","line":1,"transit":false,"i_long":106.816351,"distance":2029,"time":5},{"transit":false,"station_name":"Sudirman Baru","i_long":106.819881,"is_transit":false,"i_lat":-6.201433,"time":1,"station_id":"SUDB","distance":471,"line":1}]]}