{"data":[[{"station_name":"Pondok Rajeg","is_transit":false,"distance":0,"i_lat":-6.460735,"time":0,"station_id":"PDRG","transit":false,"i_long":106.824374,"line":21},{"distance":0,"station_name":"Citayam","transit":true,"i_long":106.800298,"station_id":"CTA","line":2,"is_transit":true,"time":0,"i_lat":-6.448811},{"station_name":"Depok","i_long":106.816926,"is_transit":false,"transit":false,"time":6,"line":2,"distance":5084,"i_lat":-6.405256,"station_id":"DP"},{"i_lat":-6.391065,"station_name":"Depokbaru","is_transit":false,"time":3,"station_id":"DPB","distance":1584,"transit":false,"line":2,"i_long":106.819451},{"i_lat":-6.369073,"i_long":106.831114,"time":4,"station_name":"Pondok Cina","transit":false,"distance":2727,"line":2,"is_transit":false,"station_id":"POC"},{"station_name":"Univ. Indonesia","station_id":"UI","i_lat":-6.360749,"i_long":106.831474,"line":2,"distance":1109,"time":2,"is_transit":false,"transit":false},{"transit":false,"time":3,"line":2,"distance":2264,"station_id":"UP","i_long":106.834175,"is_transit":false,"station_name":"Univ. Pancasila","i_lat":-6.339291},{"station_id":"LNA","i_lat":-6.330363,"time":2,"transit":false,"i_long":106.832616,"line":2,"station_name":"Lenteng Agung","is_transit":false,"distance":1029},{"distance":2671,"i_lat":-6.3080680000000005,"time":3,"transit":false,"station_name":"Tanjung Barat","is_transit":false,"station_id":"TNT","line":2,"i_long":106.838896},{"i_lat":-6.2842400000000005,"time":4,"station_name":"Pasar Minggu","transit":false,"line":2,"distance":2820,"station_id":"PSM","i_long":106.843999,"is_transit":false},{"transit":false,"distance":2380,"time":2,"station_name":"Pasar Minggu Baru","station_id":"PSMB","i_long":106.851577,"line":2,"i_lat":-6.263214,"is_transit":false},{"i_lat":-6.255332,"line":2,"transit":false,"is_transit":false,"distance":824,"station_name":"Duren Kalibata","station_id":"DRN","time":2,"i_long":106.85449},{"i_lat":-6.242512,"i_long":106.856607,"transit":false,"station_name":"Cawang","line":2,"time":3,"station_id":"CW","distance":1546,"is_transit":false},{"distance":1230,"time":2,"line":2,"station_id":"TEB","i_lat":-6.226659,"station_name":"Tebet","is_transit":false,"transit":false,"i_long":106.857948},{"transit":true,"line":2,"station_name":"Manggarai","station_id":"MRI","is_transit":true,"distance":2610,"i_long":106.84912,"i_lat":-6.209883,"time":4},{"station_name":"Matraman","i_lat":-6.212485,"time":2,"distance":1275,"line":1,"station_id":"MTR","transit":false,"is_transit":false,"i_long":106.858896}],[{"transit":false,"is_transit":false,"time":0,"i_lat":-6.460735,"station_name":"Pondok Rajeg","line":21,"distance":0,"i_long":106.824374,"station_id":"PDRG"},{"station_name":"Citayam","line":2,"i_lat":-6.448811,"distance":0,"station_id":"CTA","time":0,"i_long":106.800298,"transit":true,"is_transit":true},{"distance":5084,"i_lat":-6.405256,"time":6,"is_transit":false,"line":2,"station_id":"DP","transit":false,"i_long":106.816926,"station_name":"Depok"},{"station_name":"Depokbaru","transit":false,"i_long":106.819451,"station_id":"DPB","distance":1584,"line":2,"is_transit":false,"time":3,"i_lat":-6.391065},{"station_id":"POC","is_transit":false,"time":4,"distance":2727,"i_long":106.831114,"line":2,"transit":false,"station_name":"Pondok Cina","i_lat":-6.369073},{"station_id":"UI","transit":false,"station_name":"Univ. Indonesia","i_long":106.831474,"i_lat":-6.360749,"is_transit":false,"time":2,"line":2,"distance":1109},{"station_id":"UP","i_long":106.834175,"transit":false,"station_name":"Univ. Pancasila","time":3,"distance":2264,"line":2,"i_lat":-6.339291,"is_transit":false},{"line":2,"station_name":"Lenteng Agung","is_transit":false,"time":2,"i_lat":-6.330363,"transit":false,"distance":1029,"station_id":"LNA","i_long":106.832616},{"i_long":106.838896,"station_name":"Tanjung Barat","i_lat":-6.3080680000000005,"distance":2671,"transit":false,"line":2,"time":3,"station_id":"TNT","is_transit":false},{"station_name":"Pasar Minggu","time":4,"distance":2820,"line":2,"transit":false,"station_id":"PSM","i_lat":-6.2842400000000005,"is_transit":false,"i_long":106.843999},{"line":2,"station_name":"Pasar Minggu Baru","is_transit":false,"distance":2380,"i_long":106.851577,"time":2,"transit":false,"station_id":"PSMB","i_lat":-6.263214},{"transit":false,"is_transit":false,"line":2,"station_name":"Duren Kalibata","station_id":"DRN","distance":824,"time":2,"i_lat":-6.255332,"i_long":106.85449},{"line":2,"time":3,"transit":false,"is_transit":false,"i_long":106.856607,"distance":1546,"station_id":"CW","i_lat":-6.242512,"station_name":"Cawang"},{"distance":1230,"i_long":106.857948,"i_lat":-6.226659,"station_name":"Tebet","transit":false,"line":2,"is_transit":false,"time":2,"station_id":"TEB"},{"i_lat":-6.209883,"station_id":"MRI","distance":2610,"is_transit":true,"i_long":106.84912,"line":2,"station_name":"Manggarai","transit":true,"time":4},{"i_lat":-6.202263,"i_long":106.822649,"transit":false,"distance":3186,"station_name":"Sudirman","time":4,"station_id":"SUD","is_transit":false,"line":1},{"station_id":"SUDB","i_long":106.819881,"transit":false,"time":1,"station_name":"Sudirman Baru","is_transit":false,"i_lat":-6.201433,"line":1,"distance":280},{"station_id":"KAT","is_transit":false,"i_long":106.816351,"i_lat":-6.20132,"time":1,"distance":471,"line":1,"transit":false,"station_name":"Karet"},{"is_transit":false,"time":5,"i_lat":-6.185545,"station_name":"Tanah Abang","distance":2029,"station_id":"THB","i_long":106.811091,"line":1,"transit":false},{"station_name":"Duri","is_transit":false,"i_long":106.800832,"distance":3632,"time":8,"i_lat":-6.155215,"transit":false,"station_id":"DU","line":1},{"distance":1230,"transit":false,"station_name":"Angke","time":4,"is_transit":false,"i_lat":-6.144674,"i_long":106.79867,"line":1,"station_id":"AK"},{"time":9,"line":4,"i_long":106.826365,"distance":4102,"i_lat":-6.132549,"is_transit":true,"transit":true,"station_id":"KPB","station_name":"Kampung Bandan"},{"distance":1444,"i_lat":-6.14505,"station_name":"Rajawali","transit":false,"i_long":106.836569,"line":11,"time":3,"is_transit":false,"station_id":"RJW"},{"station_id":"KMO","time":5,"i_lat":-6.161728,"line":11,"is_transit":false,"transit":false,"distance":1901,"i_long":106.839204,"station_name":"Kemayoran"},{"i_long":106.84368,"station_name":"Pasar Senen","line":11,"time":4,"is_transit":false,"i_lat":-6.174784,"station_id":"PSE","transit":false,"distance":1436},{"station_id":"GST","is_transit":false,"transit":false,"time":8,"i_lat":-6.185975,"line":11,"i_long":106.850107,"distance":1567,"station_name":"Gang Sentiong"},{"line":11,"transit":false,"station_id":"KMT","is_transit":false,"time":1,"station_name":"Kramat","distance":973,"i_long":106.855437,"i_lat":-6.193792},{"i_long":106.861737,"time":2,"line":11,"distance":1829,"i_lat":-6.209188,"transit":false,"station_name":"Pondok Jati","station_id":"POK","is_transit":false},{"i_long":106.86807400000001,"station_name":"Jatinegara","station_id":"JNG","line":1,"i_lat":-6.215091,"time":9,"transit":true,"is_transit":true,"distance":1236},{"distance":1377,"is_transit":false,"time":2,"station_name":"Matraman","station_id":"MTR","line":1,"i_lat":-6.212485,"transit":false,"i_long":106.858896}],[{"transit":false,"is_transit":false,"line":21,"station_name":"Pondok Rajeg","distance":0,"i_lat":-6.460735,"time":0,"station_id":"PDRG","i_long":106.824374},{"i_long":106.800298,"distance":0,"is_transit":true,"line":2,"station_name":"Citayam","station_id":"CTA","time":0,"transit":true,"i_lat":-6.448811},{"station_id":"DP","i_lat":-6.405256,"i_long":106.816926,"line":2,"station_name":"Depok","time":6,"transit":false,"is_transit":false,"distance":5084},{"station_id":"DPB","i_lat":-6.391065,"is_transit":false,"distance":1584,"transit":false,"line":2,"i_long":106.819451,"station_name":"Depokbaru","time":3},{"i_long":106.831114,"transit":false,"station_id":"POC","i_lat":-6.369073,"time":4,"is_transit":false,"station_name":"Pondok Cina","line":2,"distance":2727},{"i_lat":-6.360749,"transit":false,"time":2,"is_transit":false,"station_name":"Univ. Indonesia","i_long":106.831474,"distance":1109,"line":2,"station_id":"UI"},{"station_name":"Univ. Pancasila","station_id":"UP","i_lat":-6.339291,"is_transit":false,"line":2,"transit":false,"time":3,"distance":2264,"i_long":106.834175},{"transit":false,"i_lat":-6.330363,"station_name":"Lenteng Agung","line":2,"time":2,"is_transit":false,"distance":1029,"i_long":106.832616,"station_id":"LNA"},{"distance":2671,"is_transit":false,"i_lat":-6.3080680000000005,"i_long":106.838896,"time":3,"line":2,"transit":false,"station_id":"TNT","station_name":"Tanjung Barat"},{"transit":false,"is_transit":false,"station_id":"PSM","distance":2820,"i_long":106.843999,"line":2,"i_lat":-6.2842400000000005,"station_name":"Pasar Minggu","time":4},{"time":2,"i_long":106.851577,"transit":false,"station_name":"Pasar Minggu Baru","station_id":"PSMB","is_transit":false,"distance":2380,"line":2,"i_lat":-6.263214},{"station_name":"Duren Kalibata","line":2,"is_transit":false,"i_lat":-6.255332,"distance":824,"transit":false,"station_id":"DRN","time":2,"i_long":106.85449},{"i_lat":-6.242512,"time":3,"station_id":"CW","station_name":"Cawang","transit":false,"distance":1546,"i_long":106.856607,"is_transit":false,"line":2},{"line":2,"is_transit":false,"station_id":"TEB","i_lat":-6.226659,"distance":1230,"time":2,"station_name":"Tebet","transit":false,"i_long":106.857948},{"is_transit":false,"time":4,"distance":2610,"i_lat":-6.209883,"station_name":"Manggarai","station_id":"MRI","line":2,"i_long":106.84912,"transit":false},{"i_long":106.840169,"time":4,"line":2,"station_id":"CKI","station_name":"Cikini","is_transit":false,"distance":1590,"i_lat":-6.198556,"transit":false},{"station_id":"GDD","is_transit":false,"distance":1750,"i_long":106.832183,"i_lat":-6.186295,"line":2,"transit":false,"station_name":"Gondangdia","time":3},{"station_id":"JUA","i_lat":-6.166716,"time":4,"transit":false,"is_transit":false,"distance":2015,"station_name":"Juanda","i_long":106.828284,"line":2},{"transit":false,"is_transit":false,"station_name":"Sawah Besar","time":2,"distance":1149,"i_long":106.827103,"i_lat":-6.160725,"line":2,"station_id":"SW"},{"is_transit":false,"time":2,"transit":false,"station_id":"MGB","i_long":106.82482,"distance":906,"i_lat":-6.149769,"station_name":"Manggabesar","line":2},{"is_transit":false,"time":2,"i_lat":-6.141205,"station_id":"JAY","station_name":"Jayakarta","i_long":106.820901,"transit":false,"distance":1080,"line":2},{"station_id":"JAKK","transit":true,"i_long":106.812439,"is_transit":true,"station_name":"Jakarta Kota","time":4,"distance":1264,"line":2,"i_lat":-6.137569},{"station_id":"KPB","i_lat":-6.132549,"is_transit":true,"transit":true,"station_name":"Kampung Bandan","time":3,"distance":1364,"i_long":106.826365,"line":4},{"transit":false,"time":3,"distance":1444,"is_transit":false,"station_name":"Rajawali","station_id":"RJW","i_lat":-6.14505,"i_long":106.836569,"line":11},{"time":5,"is_transit":false,"transit":false,"distance":1901,"i_long":106.839204,"station_name":"Kemayoran","i_lat":-6.161728,"station_id":"KMO","line":11},{"station_name":"Pasar Senen","station_id":"PSE","distance":1436,"i_lat":-6.174784,"transit":false,"is_transit":false,"time":4,"line":11,"i_long":106.84368},{"is_transit":false,"transit":false,"i_lat":-6.185975,"i_long":106.850107,"station_name":"Gang Sentiong","line":11,"distance":1567,"station_id":"GST","time":8},{"line":11,"i_lat":-6.193792,"distance":973,"time":1,"transit":false,"station_id":"KMT","station_name":"Kramat","is_transit":false,"i_long":106.855437},{"station_name":"Pondok Jati","transit":false,"is_transit":false,"time":2,"distance":1829,"i_long":106.861737,"i_lat":-6.209188,"line":11,"station_id":"POK"},{"i_lat":-6.215091,"station_id":"JNG","line":1,"transit":true,"distance":1236,"time":9,"i_long":106.86807400000001,"station_name":"Jatinegara","is_transit":true},{"distance":1377,"i_lat":-6.212485,"transit":false,"station_name":"Matraman","station_id":"MTR","line":1,"time":2,"i_long":106.858896,"is_transit":false}]]}