{"data":[[{"i_lat":-6.460735,"line":21,"station_name":"Pondok Rajeg","time":0,"i_long":106.824374,"distance":0,"transit":false,"station_id":"PDRG","is_transit":false},{"distance":0,"is_transit":true,"i_long":106.800298,"transit":true,"station_id":"CTA","time":0,"station_name":"Citayam","i_lat":-6.448811,"line":2},{"line":2,"i_lat":-6.405256,"transit":false,"distance":5084,"station_name":"Depok","station_id":"DP","i_long":106.816926,"time":6,"is_transit":false},{"i_lat":-6.391065,"transit":false,"is_transit":false,"i_long":106.819451,"station_name":"Depokbaru","distance":1584,"line":2,"time":3,"station_id":"DPB"},{"i_lat":-6.369073,"station_name":"Pondok Cina","transit":false,"time":4,"station_id":"POC","line":2,"is_transit":false,"distance":2727,"i_long":106.831114},{"station_name":"Univ. Indonesia","i_lat":-6.360749,"transit":false,"time":2,"distance":1109,"is_transit":false,"i_long":106.831474,"line":2,"station_id":"UI"},{"transit":false,"station_id":"UP","is_transit":false,"station_name":"Univ. Pancasila","distance":2264,"time":3,"i_lat":-6.339291,"i_long":106.834175,"line":2},{"i_long":106.832616,"distance":1029,"transit":false,"i_lat":-6.330363,"time":2,"station_name":"Lenteng Agung","line":2,"is_transit":false,"station_id":"LNA"},{"line":2,"station_name":"Tanjung Barat","i_lat":-6.3080680000000005,"transit":false,"is_transit":false,"time":3,"distance":2671,"i_long":106.838896,"station_id":"TNT"},{"distance":2820,"station_name":"Pasar Minggu","station_id":"PSM","time":4,"transit":false,"i_long":106.843999,"is_transit":false,"line":2,"i_lat":-6.2842400000000005},{"station_name":"Pasar Minggu Baru","time":2,"distance":2380,"i_lat":-6.263214,"is_transit":false,"transit":false,"station_id":"PSMB","i_long":106.851577,"line":2},{"station_id":"DRN","distance":824,"transit":false,"is_transit":false,"i_lat":-6.255332,"line":2,"station_name":"Duren Kalibata","time":2,"i_long":106.85449},{"time":3,"station_id":"CW","i_lat":-6.242512,"distance":1546,"i_long":106.856607,"line":2,"station_name":"Cawang","transit":false,"is_transit":false},{"time":2,"i_lat":-6.226659,"is_transit":false,"i_long":106.857948,"line":2,"distance":1230,"station_name":"Tebet","transit":false,"station_id":"TEB"},{"time":4,"i_lat":-6.209883,"station_id":"MRI","transit":true,"station_name":"Manggarai","is_transit":true,"i_long":106.84912,"distance":2610,"line":2},{"i_lat":-6.202263,"is_transit":false,"i_long":106.822649,"station_name":"Sudirman","station_id":"SUD","time":4,"distance":3186,"line":1,"transit":false},{"i_lat":-6.201433,"transit":false,"time":1,"line":1,"station_id":"SUDB","distance":280,"is_transit":false,"i_long":106.819881,"station_name":"Sudirman Baru"},{"transit":false,"station_name":"Karet","is_transit":false,"time":1,"i_long":106.816351,"distance":471,"i_lat":-6.20132,"line":1,"station_id":"KAT"}],[{"i_long":106.824374,"transit":false,"station_name":"Pondok Rajeg","line":21,"is_transit":false,"distance":0,"station_id":"PDRG","time":0,"i_lat":-6.460735},{"i_long":106.800298,"time":0,"i_lat":-6.448811,"station_name":"Citayam","station_id":"CTA","is_transit":true,"distance":0,"line":2,"transit":true},{"i_lat":-6.405256,"time":6,"station_id":"DP","is_transit":false,"transit":false,"line":2,"i_long":106.816926,"distance":5084,"station_name":"Depok"},{"transit":false,"is_transit":false,"station_id":"DPB","distance":1584,"i_lat":-6.391065,"station_name":"Depokbaru","time":3,"line":2,"i_long":106.819451},{"station_name":"Pondok Cina","time":4,"distance":2727,"i_lat":-6.369073,"station_id":"POC","transit":false,"is_transit":false,"line":2,"i_long":106.831114},{"time":2,"station_name":"Univ. Indonesia","transit":false,"is_transit":false,"line":2,"station_id":"UI","distance":1109,"i_lat":-6.360749,"i_long":106.831474},{"i_lat":-6.339291,"station_id":"UP","distance":2264,"is_transit":false,"line":2,"time":3,"station_name":"Univ. Pancasila","transit":false,"i_long":106.834175},{"line":2,"station_name":"Lenteng Agung","station_id":"LNA","i_long":106.832616,"time":2,"i_lat":-6.330363,"transit":false,"is_transit":false,"distance":1029},{"i_lat":-6.3080680000000005,"is_transit":false,"time":3,"i_long":106.838896,"transit":false,"line":2,"distance":2671,"station_name":"Tanjung Barat","station_id":"TNT"},{"i_lat":-6.2842400000000005,"transit":false,"time":4,"is_transit":false,"station_name":"Pasar Minggu","station_id":"PSM","i_long":106.843999,"line":2,"distance":2820},{"station_id":"PSMB","distance":2380,"line":2,"i_lat":-6.263214,"i_long":106.851577,"time":2,"transit":false,"is_transit":false,"station_name":"Pasar Minggu Baru"},{"distance":824,"i_lat":-6.255332,"i_long":106.85449,"station_id":"DRN","transit":false,"time":2,"station_name":"Duren Kalibata","is_transit":false,"line":2},{"transit":false,"i_lat":-6.242512,"station_name":"Cawang","is_transit":false,"i_long":106.856607,"distance":1546,"time":3,"station_id":"CW","line":2},{"transit":false,"line":2,"station_name":"Tebet","time":2,"i_lat":-6.226659,"distance":1230,"i_long":106.857948,"is_transit":false,"station_id":"TEB"},{"i_lat":-6.209883,"station_name":"Manggarai","station_id":"MRI","line":2,"is_transit":false,"i_long":106.84912,"transit":false,"time":4,"distance":2610},{"transit":false,"distance":1590,"i_lat":-6.198556,"station_id":"CKI","line":2,"station_name":"Cikini","i_long":106.840169,"time":4,"is_transit":false},{"transit":false,"i_long":106.832183,"is_transit":false,"station_name":"Gondangdia","time":3,"distance":1750,"i_lat":-6.186295,"line":2,"station_id":"GDD"},{"station_name":"Juanda","i_lat":-6.166716,"distance":2015,"i_long":106.828284,"line":2,"time":4,"station_id":"JUA","is_transit":false,"transit":false},{"time":2,"is_transit":false,"distance":1149,"transit":false,"station_name":"Sawah Besar","station_id":"SW","i_lat":-6.160725,"i_long":106.827103,"line":2},{"i_long":106.82482,"line":2,"time":2,"is_transit":false,"transit":false,"distance":906,"i_lat":-6.149769,"station_name":"Manggabesar","station_id":"MGB"},{"station_id":"JAY","i_long":106.820901,"distance":1080,"is_transit":false,"time":2,"line":2,"transit":false,"i_lat":-6.141205,"station_name":"Jayakarta"},{"station_name":"Jakarta Kota","i_lat":-6.137569,"transit":true,"distance":1264,"line":2,"station_id":"JAKK","time":4,"i_long":106.812439,"is_transit":true},{"distance":1364,"i_lat":-6.132549,"is_transit":true,"transit":true,"i_long":106.826365,"station_name":"Kampung Bandan","station_id":"KPB","time":3,"line":4},{"transit":false,"i_long":106.79867,"time":9,"station_name":"Angke","is_transit":false,"line":1,"i_lat":-6.144674,"distance":4102,"station_id":"AK"},{"i_lat":-6.155215,"line":1,"distance":1230,"station_id":"DU","i_long":106.800832,"time":4,"transit":false,"station_name":"Duri","is_transit":false},{"transit":false,"line":1,"i_long":106.811091,"station_id":"THB","is_transit":false,"distance":3632,"i_lat":-6.185545,"station_name":"Tanah Abang","time":8},{"station_id":"KAT","time":5,"i_lat":-6.20132,"transit":false,"is_transit":false,"line":1,"station_name":"Karet","distance":2029,"i_long":106.816351}],[{"i_long":106.824374,"time":0,"distance":0,"transit":false,"i_lat":-6.460735,"is_transit":false,"line":21,"station_name":"Pondok Rajeg","station_id":"PDRG"},{"station_name":"Citayam","time":0,"distance":0,"is_transit":true,"i_lat":-6.448811,"i_long":106.800298,"line":2,"station_id":"CTA","transit":true},{"i_long":106.816926,"station_id":"DP","is_transit":false,"line":2,"i_lat":-6.405256,"station_name":"Depok","transit":false,"distance":5084,"time":6},{"transit":false,"station_name":"Depokbaru","time":3,"is_transit":false,"station_id":"DPB","distance":1584,"i_long":106.819451,"line":2,"i_lat":-6.391065},{"station_name":"Pondok Cina","transit":false,"time":4,"distance":2727,"is_transit":false,"i_lat":-6.369073,"i_long":106.831114,"station_id":"POC","line":2},{"distance":1109,"i_long":106.831474,"line":2,"time":2,"station_id":"UI","transit":false,"is_transit":false,"i_lat":-6.360749,"station_name":"Univ. Indonesia"},{"line":2,"i_lat":-6.339291,"is_transit":false,"i_long":106.834175,"station_id":"UP","station_name":"Univ. Pancasila","transit":false,"time":3,"distance":2264},{"transit":false,"station_name":"Lenteng Agung","station_id":"LNA","i_lat":-6.330363,"i_long":106.832616,"is_transit":false,"distance":1029,"time":2,"line":2},{"transit":false,"is_transit":false,"time":3,"station_id":"TNT","station_name":"Tanjung Barat","i_lat":-6.3080680000000005,"distance":2671,"i_long":106.838896,"line":2},{"line":2,"i_lat":-6.2842400000000005,"station_name":"Pasar Minggu","is_transit":false,"transit":false,"time":4,"station_id":"PSM","distance":2820,"i_long":106.843999},{"line":2,"is_transit":false,"station_name":"Pasar Minggu Baru","time":2,"station_id":"PSMB","transit":false,"i_long":106.851577,"i_lat":-6.263214,"distance":2380},{"transit":false,"i_long":106.85449,"station_id":"DRN","time":2,"station_name":"Duren Kalibata","distance":824,"is_transit":false,"i_lat":-6.255332,"line":2},{"transit":false,"station_id":"CW","time":3,"station_name":"Cawang","line":2,"distance":1546,"is_transit":false,"i_lat":-6.242512,"i_long":106.856607},{"transit":false,"station_id":"TEB","i_long":106.857948,"time":2,"distance":1230,"is_transit":false,"station_name":"Tebet","line":2,"i_lat":-6.226659},{"distance":2610,"i_long":106.84912,"station_name":"Manggarai","station_id":"MRI","time":4,"line":2,"is_transit":true,"transit":true,"i_lat":-6.209883},{"station_name":"Matraman","station_id":"MTR","is_transit":false,"i_lat":-6.212485,"transit":false,"time":2,"distance":1275,"i_long":106.858896,"line":1},{"line":1,"time":8,"station_id":"JNG","transit":true,"i_long":106.86807400000001,"station_name":"Jatinegara","i_lat":-6.215091,"is_transit":true,"distance":1377},{"transit":false,"is_transit":false,"time":2,"distance":1236,"line":11,"i_long":106.861737,"station_id":"POK","station_name":"Pondok Jati","i_lat":-6.209188},{"i_lat":-6.193792,"station_name":"Kramat","station_id":"KMT","time":2,"distance":1829,"i_long":106.855437,"line":11,"is_transit":false,"transit":false},{"transit":false,"is_transit":false,"i_lat":-6.185975,"distance":973,"station_name":"Gang Sentiong","time":1,"i_long":106.850107,"line":11,"station_id":"GST"},{"line":11,"transit":false,"station_id":"PSE","time":8,"distance":1567,"i_lat":-6.174784,"station_name":"Pasar Senen","i_long":106.84368,"is_transit":false},{"time":4,"is_transit":false,"distance":1436,"station_id":"KMO","station_name":"Kemayoran","i_long":106.839204,"transit":false,"line":11,"i_lat":-6.161728},{"i_lat":-6.14505,"i_long":106.836569,"time":5,"station_name":"Rajawali","transit":false,"distance":1901,"line":11,"is_transit":false,"station_id":"RJW"},{"station_name":"Kampung Bandan","transit":true,"station_id":"KPB","distance":1444,"i_lat":-6.132549,"line":4,"is_transit":true,"time":3,"i_long":106.826365},{"transit":false,"station_name":"Angke","line":1,"i_lat":-6.144674,"station_id":"AK","distance":4102,"i_long":106.79867,"is_transit":false,"time":9},{"station_name":"Duri","time":4,"distance":1230,"i_long":106.800832,"i_lat":-6.155215,"transit":false,"station_id":"DU","is_transit":false,"line":1},{"i_lat":-6.185545,"transit":false,"station_name":"Tanah Abang","is_transit":false,"station_id":"THB","distance":3632,"i_long":106.811091,"time":8,"line":1},{"i_lat":-6.20132,"i_long":106.816351,"time":5,"is_transit":false,"distance":2029,"station_id":"KAT","line":1,"transit":false,"station_name":"Karet"}]]}