{"data":[[{"station_name":"Pondok Rajeg","i_long":106.824374,"i_lat":-6.460735,"time":0,"distance":0,"station_id":"PDRG","transit":false,"line":21,"is_transit":false},{"i_lat":-6.448811,"station_id":"CTA","is_transit":true,"line":2,"transit":true,"time":0,"distance":0,"i_long":106.800298,"station_name":"Citayam"},{"distance":5084,"station_name":"Depok","i_lat":-6.405256,"i_long":106.816926,"is_transit":false,"line":2,"transit":false,"station_id":"DP","time":6},{"i_lat":-6.391065,"station_id":"DPB","time":3,"line":2,"is_transit":false,"transit":false,"station_name":"Depokbaru","distance":1584,"i_long":106.819451},{"station_id":"POC","i_lat":-6.369073,"is_transit":false,"transit":false,"i_long":106.831114,"station_name":"Pondok Cina","time":4,"distance":2727,"line":2},{"station_id":"UI","distance":1109,"i_long":106.831474,"is_transit":false,"time":2,"transit":false,"line":2,"station_name":"Univ. Indonesia","i_lat":-6.360749},{"station_name":"Univ. Pancasila","time":3,"is_transit":false,"distance":2264,"transit":false,"i_long":106.834175,"i_lat":-6.339291,"line":2,"station_id":"UP"},{"transit":false,"station_name":"Lenteng Agung","time":2,"i_lat":-6.330363,"line":2,"is_transit":false,"distance":1029,"i_long":106.832616,"station_id":"LNA"},{"transit":false,"distance":2671,"time":3,"is_transit":false,"i_lat":-6.3080680000000005,"station_name":"Tanjung Barat","station_id":"TNT","i_long":106.838896,"line":2},{"i_lat":-6.2842400000000005,"i_long":106.843999,"station_name":"Pasar Minggu","is_transit":false,"transit":false,"station_id":"PSM","line":2,"time":4,"distance":2820}]]}