{"data":[[{"i_long":106.824374,"station_name":"Pondok Rajeg","line":21,"transit":false,"i_lat":-6.460735,"distance":0,"time":0,"is_transit":false,"station_id":"PDRG"},{"i_long":106.800298,"line":2,"is_transit":true,"distance":0,"station_name":"Citayam","i_lat":-6.448811,"time":0,"transit":true,"station_id":"CTA"},{"distance":5084,"transit":false,"i_lat":-6.405256,"time":6,"i_long":106.816926,"station_id":"DP","is_transit":false,"station_name":"Depok","line":2},{"station_id":"DPB","is_transit":false,"distance":1584,"station_name":"Depokbaru","transit":false,"time":3,"line":2,"i_lat":-6.391065,"i_long":106.819451},{"transit":false,"station_name":"Pondok Cina","station_id":"POC","distance":2727,"i_long":106.831114,"line":2,"time":4,"i_lat":-6.369073,"is_transit":false},{"time":2,"is_transit":false,"i_lat":-6.360749,"station_id":"UI","distance":1109,"i_long":106.831474,"line":2,"transit":false,"station_name":"Univ. Indonesia"},{"is_transit":false,"i_lat":-6.339291,"distance":2264,"time":3,"station_id":"UP","station_name":"Univ. Pancasila","i_long":106.834175,"transit":false,"line":2},{"station_name":"Lenteng Agung","time":2,"i_long":106.832616,"i_lat":-6.330363,"distance":1029,"line":2,"station_id":"LNA","is_transit":false,"transit":false},{"i_lat":-6.3080680000000005,"station_name":"Tanjung Barat","time":3,"line":2,"station_id":"TNT","transit":false,"distance":2671,"i_long":106.838896,"is_transit":false},{"station_name":"Pasar Minggu","line":2,"distance":2820,"i_lat":-6.2842400000000005,"station_id":"PSM","is_transit":false,"i_long":106.843999,"transit":false,"time":4},{"station_id":"PSMB","i_long":106.851577,"distance":2380,"transit":false,"station_name":"Pasar Minggu Baru","i_lat":-6.263214,"line":2,"is_transit":false,"time":2},{"station_name":"Duren Kalibata","i_lat":-6.255332,"time":2,"line":2,"i_long":106.85449,"distance":824,"station_id":"DRN","transit":false,"is_transit":false},{"distance":1546,"station_id":"CW","line":2,"transit":false,"i_long":106.856607,"time":3,"is_transit":false,"station_name":"Cawang","i_lat":-6.242512},{"is_transit":false,"time":2,"station_id":"TEB","line":2,"transit":false,"station_name":"Tebet","distance":1230,"i_long":106.857948,"i_lat":-6.226659},{"i_long":106.84912,"transit":true,"time":4,"i_lat":-6.209883,"is_transit":true,"distance":2610,"station_name":"Manggarai","line":2,"station_id":"MRI"},{"i_long":106.822649,"time":4,"transit":false,"i_lat":-6.202263,"station_id":"SUD","is_transit":false,"line":1,"distance":3186,"station_name":"Sudirman"},{"distance":280,"transit":false,"line":1,"station_name":"Sudirman Baru","is_transit":false,"time":1,"i_lat":-6.201433,"station_id":"SUDB","i_long":106.819881},{"distance":471,"is_transit":false,"line":1,"station_name":"Karet","i_lat":-6.20132,"transit":false,"i_long":106.816351,"time":1,"station_id":"KAT"},{"i_lat":-6.185545,"line":1,"station_name":"Tanah Abang","transit":true,"distance":2029,"i_long":106.811091,"is_transit":true,"time":5,"station_id":"THB"},{"time":6,"i_long":106.79689,"station_name":"Palmerah","line":6,"is_transit":false,"station_id":"PLM","distance":3191,"i_lat":-6.207404,"transit":false},{"distance":3737,"i_long":106.780334,"is_transit":false,"i_lat":-6.237242,"station_id":"KBY","line":6,"station_name":"Kebayoran","transit":false,"time":7},{"station_id":"PDJ","time":8,"distance":6218,"transit":false,"i_lat":-6.276362,"i_long":106.74273,"station_name":"Pondokranji","line":6,"is_transit":false},{"is_transit":false,"time":3,"station_name":"Jurangmangu","i_lat":-6.288927,"line":6,"transit":false,"distance":2179,"i_long":106.728916,"station_id":"JMU"},{"i_lat":-6.296963,"station_id":"SDM","time":4,"is_transit":false,"i_long":106.712277,"distance":1994,"transit":false,"station_name":"Sudimara","line":6},{"i_long":106.675475,"station_name":"Rawa Buntu","distance":4566,"time":6,"transit":false,"i_lat":-6.314823,"line":6,"station_id":"RU","is_transit":false},{"line":6,"station_name":"Serpong","station_id":"SRP","i_long":106.66566,"transit":false,"distance":2413,"is_transit":false,"time":4,"i_lat":-6.319871},{"i_long":106.640411,"is_transit":false,"time":4,"line":3,"i_lat":-6.32484,"station_id":"CSK","station_name":"Cisauk","transit":false,"distance":1784},{"station_name":"Cicayur","i_long":106.617853,"time":4,"is_transit":false,"transit":false,"line":3,"station_id":"CC","i_lat":-6.329547,"distance":2519},{"i_long":106.568863,"distance":5968,"time":8,"transit":false,"line":6,"i_lat":-6.3441410000000005,"is_transit":false,"station_name":"Parung Panjang","station_id":"PRP"},{"time":9,"station_name":"Cilejit","station_id":"CJT","distance":7025,"transit":false,"i_lat":-6.354349,"i_long":106.508482,"line":3,"is_transit":false},{"transit":false,"station_id":"DAR","distance":2675,"station_name":"Daru","time":6,"i_lat":-6.338021,"i_long":106.491338,"line":0,"is_transit":false}],[{"line":21,"i_long":106.824374,"station_name":"Pondok Rajeg","transit":false,"time":0,"i_lat":-6.460735,"station_id":"PDRG","distance":0,"is_transit":false},{"station_name":"Citayam","i_lat":-6.448811,"is_transit":true,"time":0,"station_id":"CTA","distance":0,"transit":true,"line":2,"i_long":106.800298},{"i_lat":-6.405256,"station_id":"DP","is_transit":false,"transit":false,"line":2,"station_name":"Depok","time":6,"distance":5084,"i_long":106.816926},{"transit":false,"i_lat":-6.391065,"line":2,"distance":1584,"i_long":106.819451,"is_transit":false,"station_name":"Depokbaru","station_id":"DPB","time":3},{"i_lat":-6.369073,"i_long":106.831114,"is_transit":false,"time":4,"station_id":"POC","distance":2727,"line":2,"transit":false,"station_name":"Pondok Cina"},{"distance":1109,"i_lat":-6.360749,"station_name":"Univ. Indonesia","is_transit":false,"station_id":"UI","line":2,"transit":false,"i_long":106.831474,"time":2},{"transit":false,"is_transit":false,"station_id":"UP","i_long":106.834175,"distance":2264,"i_lat":-6.339291,"line":2,"station_name":"Univ. Pancasila","time":3},{"i_lat":-6.330363,"station_name":"Lenteng Agung","is_transit":false,"line":2,"station_id":"LNA","distance":1029,"transit":false,"time":2,"i_long":106.832616},{"line":2,"transit":false,"station_name":"Tanjung Barat","is_transit":false,"time":3,"i_long":106.838896,"station_id":"TNT","distance":2671,"i_lat":-6.3080680000000005},{"i_lat":-6.2842400000000005,"i_long":106.843999,"station_id":"PSM","time":4,"distance":2820,"transit":false,"line":2,"is_transit":false,"station_name":"Pasar Minggu"},{"station_name":"Pasar Minggu Baru","line":2,"distance":2380,"station_id":"PSMB","is_transit":false,"transit":false,"i_lat":-6.263214,"i_long":106.851577,"time":2},{"i_long":106.85449,"time":2,"i_lat":-6.255332,"transit":false,"is_transit":false,"distance":824,"line":2,"station_id":"DRN","station_name":"Duren Kalibata"},{"i_long":106.856607,"line":2,"station_id":"CW","distance":1546,"transit":false,"time":3,"station_name":"Cawang","is_transit":false,"i_lat":-6.242512},{"distance":1230,"i_lat":-6.226659,"line":2,"i_long":106.857948,"station_id":"TEB","time":2,"station_name":"Tebet","is_transit":false,"transit":false},{"station_id":"MRI","transit":false,"distance":2610,"i_lat":-6.209883,"i_long":106.84912,"station_name":"Manggarai","is_transit":false,"line":2,"time":4},{"time":4,"transit":false,"line":2,"i_long":106.840169,"is_transit":false,"i_lat":-6.198556,"distance":1590,"station_id":"CKI","station_name":"Cikini"},{"i_lat":-6.186295,"distance":1750,"station_name":"Gondangdia","time":3,"i_long":106.832183,"line":2,"is_transit":false,"transit":false,"station_id":"GDD"},{"line":2,"station_name":"Juanda","is_transit":false,"distance":2015,"time":4,"station_id":"JUA","transit":false,"i_long":106.828284,"i_lat":-6.166716},{"i_lat":-6.160725,"time":2,"station_name":"Sawah Besar","line":2,"distance":1149,"i_long":106.827103,"station_id":"SW","transit":false,"is_transit":false},{"line":2,"is_transit":false,"time":2,"distance":906,"i_lat":-6.149769,"transit":false,"station_id":"MGB","station_name":"Manggabesar","i_long":106.82482},{"station_id":"JAY","time":2,"line":2,"station_name":"Jayakarta","is_transit":false,"i_long":106.820901,"transit":false,"distance":1080,"i_lat":-6.141205},{"distance":1264,"is_transit":true,"time":4,"transit":true,"i_lat":-6.137569,"line":2,"station_name":"Jakarta Kota","i_long":106.812439,"station_id":"JAKK"},{"is_transit":true,"station_id":"KPB","time":3,"transit":true,"line":4,"station_name":"Kampung Bandan","distance":1364,"i_lat":-6.132549,"i_long":106.826365},{"transit":false,"station_name":"Angke","i_lat":-6.144674,"is_transit":false,"station_id":"AK","i_long":106.79867,"distance":4102,"line":1,"time":9},{"station_name":"Duri","station_id":"DU","transit":false,"i_lat":-6.155215,"line":1,"distance":1230,"i_long":106.800832,"is_transit":false,"time":4},{"station_id":"THB","distance":3632,"time":8,"i_long":106.811091,"station_name":"Tanah Abang","is_transit":true,"transit":true,"i_lat":-6.185545,"line":1},{"station_id":"PLM","i_lat":-6.207404,"line":6,"time":6,"i_long":106.79689,"transit":false,"station_name":"Palmerah","is_transit":false,"distance":3191},{"line":6,"time":7,"is_transit":false,"distance":3737,"i_lat":-6.237242,"transit":false,"station_id":"KBY","station_name":"Kebayoran","i_long":106.780334},{"station_id":"PDJ","i_lat":-6.276362,"i_long":106.74273,"station_name":"Pondokranji","distance":6218,"time":8,"transit":false,"line":6,"is_transit":false},{"line":6,"is_transit":false,"time":3,"transit":false,"i_long":106.728916,"station_id":"JMU","distance":2179,"station_name":"Jurangmangu","i_lat":-6.288927},{"line":6,"station_name":"Sudimara","distance":1994,"is_transit":false,"i_long":106.712277,"i_lat":-6.296963,"station_id":"SDM","time":4,"transit":false},{"station_id":"RU","transit":false,"station_name":"Rawa Buntu","i_lat":-6.314823,"i_long":106.675475,"line":6,"distance":4566,"is_transit":false,"time":6},{"time":4,"station_id":"SRP","i_lat":-6.319871,"i_long":106.66566,"line":6,"station_name":"Serpong","distance":2413,"transit":false,"is_transit":false},{"i_lat":-6.32484,"transit":false,"distance":1784,"time":4,"station_name":"Cisauk","i_long":106.640411,"line":3,"station_id":"CSK","is_transit":false},{"i_long":106.617853,"line":3,"distance":2519,"i_lat":-6.329547,"station_id":"CC","station_name":"Cicayur","is_transit":false,"time":4,"transit":false},{"station_name":"Parung Panjang","distance":5968,"is_transit":false,"transit":false,"i_long":106.568863,"line":6,"time":8,"station_id":"PRP","i_lat":-6.3441410000000005},{"station_name":"Cilejit","is_transit":false,"transit":false,"time":9,"i_lat":-6.354349,"line":3,"station_id":"CJT","i_long":106.508482,"distance":7025},{"distance":2675,"i_long":106.491338,"line":0,"station_name":"Daru","is_transit":false,"station_id":"DAR","transit":false,"time":6,"i_lat":-6.338021}],[{"station_id":"PDRG","is_transit":false,"time":0,"line":21,"i_lat":-6.460735,"distance":0,"transit":false,"i_long":106.824374,"station_name":"Pondok Rajeg"},{"distance":0,"station_name":"Citayam","i_lat":-6.448811,"line":2,"station_id":"CTA","time":0,"i_long":106.800298,"is_transit":true,"transit":true},{"station_id":"DP","time":6,"transit":false,"i_long":106.816926,"i_lat":-6.405256,"line":2,"station_name":"Depok","distance":5084,"is_transit":false},{"is_transit":false,"station_name":"Depokbaru","line":2,"time":3,"i_lat":-6.391065,"station_id":"DPB","distance":1584,"transit":false,"i_long":106.819451},{"transit":false,"station_name":"Pondok Cina","i_lat":-6.369073,"is_transit":false,"station_id":"POC","time":4,"line":2,"i_long":106.831114,"distance":2727},{"line":2,"transit":false,"distance":1109,"is_transit":false,"i_lat":-6.360749,"i_long":106.831474,"station_name":"Univ. Indonesia","time":2,"station_id":"UI"},{"transit":false,"i_long":106.834175,"station_name":"Univ. Pancasila","station_id":"UP","i_lat":-6.339291,"line":2,"time":3,"distance":2264,"is_transit":false},{"distance":1029,"transit":false,"is_transit":false,"station_name":"Lenteng Agung","i_lat":-6.330363,"line":2,"i_long":106.832616,"station_id":"LNA","time":2},{"station_id":"TNT","distance":2671,"station_name":"Tanjung Barat","time":3,"i_long":106.838896,"line":2,"is_transit":false,"transit":false,"i_lat":-6.3080680000000005},{"is_transit":false,"i_lat":-6.2842400000000005,"line":2,"station_id":"PSM","i_long":106.843999,"station_name":"Pasar Minggu","transit":false,"time":4,"distance":2820},{"is_transit":false,"station_name":"Pasar Minggu Baru","time":2,"i_long":106.851577,"i_lat":-6.263214,"line":2,"transit":false,"station_id":"PSMB","distance":2380},{"transit":false,"station_name":"Duren Kalibata","i_lat":-6.255332,"line":2,"distance":824,"station_id":"DRN","is_transit":false,"time":2,"i_long":106.85449},{"distance":1546,"transit":false,"time":3,"i_long":106.856607,"is_transit":false,"line":2,"station_name":"Cawang","i_lat":-6.242512,"station_id":"CW"},{"station_id":"TEB","line":2,"distance":1230,"is_transit":false,"station_name":"Tebet","transit":false,"time":2,"i_lat":-6.226659,"i_long":106.857948},{"time":4,"is_transit":true,"i_lat":-6.209883,"i_long":106.84912,"transit":true,"station_id":"MRI","line":2,"distance":2610,"station_name":"Manggarai"},{"transit":false,"station_id":"MTR","distance":1275,"is_transit":false,"i_lat":-6.212485,"line":1,"station_name":"Matraman","time":2,"i_long":106.858896},{"is_transit":true,"station_id":"JNG","station_name":"Jatinegara","time":8,"distance":1377,"transit":true,"i_lat":-6.215091,"i_long":106.86807400000001,"line":1},{"i_long":106.861737,"distance":1236,"station_name":"Pondok Jati","station_id":"POK","time":2,"transit":false,"i_lat":-6.209188,"is_transit":false,"line":11},{"station_name":"Kramat","i_long":106.855437,"line":11,"transit":false,"i_lat":-6.193792,"station_id":"KMT","distance":1829,"is_transit":false,"time":2},{"i_long":106.850107,"is_transit":false,"transit":false,"station_name":"Gang Sentiong","time":1,"line":11,"station_id":"GST","distance":973,"i_lat":-6.185975},{"time":8,"i_lat":-6.174784,"is_transit":false,"distance":1567,"station_id":"PSE","i_long":106.84368,"station_name":"Pasar Senen","line":11,"transit":false},{"line":11,"station_id":"KMO","station_name":"Kemayoran","time":4,"distance":1436,"i_lat":-6.161728,"is_transit":false,"transit":false,"i_long":106.839204},{"line":11,"station_name":"Rajawali","distance":1901,"i_lat":-6.14505,"time":5,"transit":false,"station_id":"RJW","is_transit":false,"i_long":106.836569},{"station_name":"Kampung Bandan","is_transit":true,"time":3,"i_long":106.826365,"line":4,"distance":1444,"transit":true,"i_lat":-6.132549,"station_id":"KPB"},{"i_lat":-6.144674,"line":1,"station_id":"AK","time":9,"distance":4102,"transit":false,"station_name":"Angke","i_long":106.79867,"is_transit":false},{"transit":false,"i_lat":-6.155215,"i_long":106.800832,"station_id":"DU","distance":1230,"station_name":"Duri","time":4,"line":1,"is_transit":false},{"time":8,"line":1,"station_id":"THB","transit":true,"i_lat":-6.185545,"station_name":"Tanah Abang","is_transit":true,"distance":3632,"i_long":106.811091},{"transit":false,"station_id":"PLM","distance":3191,"is_transit":false,"time":6,"station_name":"Palmerah","i_lat":-6.207404,"i_long":106.79689,"line":6},{"transit":false,"is_transit":false,"line":6,"i_lat":-6.237242,"i_long":106.780334,"station_id":"KBY","station_name":"Kebayoran","time":7,"distance":3737},{"distance":6218,"transit":false,"station_name":"Pondokranji","station_id":"PDJ","i_long":106.74273,"is_transit":false,"line":6,"time":8,"i_lat":-6.276362},{"distance":2179,"i_long":106.728916,"station_name":"Jurangmangu","i_lat":-6.288927,"is_transit":false,"transit":false,"line":6,"time":3,"station_id":"JMU"},{"i_lat":-6.296963,"is_transit":false,"i_long":106.712277,"line":6,"transit":false,"distance":1994,"station_name":"Sudimara","time":4,"station_id":"SDM"},{"transit":false,"i_long":106.675475,"station_id":"RU","is_transit":false,"distance":4566,"time":6,"station_name":"Rawa Buntu","i_lat":-6.314823,"line":6},{"distance":2413,"station_name":"Serpong","is_transit":false,"time":4,"i_lat":-6.319871,"line":6,"transit":false,"i_long":106.66566,"station_id":"SRP"},{"transit":false,"distance":1784,"i_long":106.640411,"i_lat":-6.32484,"line":3,"station_name":"Cisauk","is_transit":false,"time":4,"station_id":"CSK"},{"is_transit":false,"i_lat":-6.329547,"transit":false,"i_long":106.617853,"station_name":"Cicayur","distance":2519,"line":3,"station_id":"CC","time":4},{"line":6,"station_id":"PRP","station_name":"Parung Panjang","i_long":106.568863,"distance":5968,"time":8,"is_transit":false,"transit":false,"i_lat":-6.3441410000000005},{"time":9,"station_id":"CJT","transit":false,"station_name":"Cilejit","i_lat":-6.354349,"i_long":106.508482,"distance":7025,"line":3,"is_transit":false},{"i_lat":-6.338021,"is_transit":false,"i_long":106.491338,"line":0,"distance":2675,"station_name":"Daru","station_id":"DAR","time":6,"transit":false}]]}