{"data":[[{"station_name":"Pondok Rajeg","i_long":106.824374,"is_transit":false,"distance":0,"transit":false,"station_id":"PDRG","i_lat":-6.460735,"line":21,"time":0},{"station_name":"Citayam","transit":true,"is_transit":true,"distance":0,"time":0,"line":2,"station_id":"CTA","i_long":106.800298,"i_lat":-6.448811},{"station_name":"Depok","i_lat":-6.405256,"transit":false,"time":6,"distance":5084,"station_id":"DP","i_long":106.816926,"line":2,"is_transit":false},{"line":2,"i_lat":-6.391065,"transit":false,"is_transit":false,"time":3,"distance":1584,"i_long":106.819451,"station_name":"Depokbaru","station_id":"DPB"},{"is_transit":false,"station_id":"POC","i_lat":-6.369073,"transit":false,"time":4,"i_long":106.831114,"line":2,"station_name":"Pondok Cina","distance":2727},{"i_long":106.831474,"line":2,"station_name":"Univ. Indonesia","time":2,"transit":false,"i_lat":-6.360749,"station_id":"UI","is_transit":false,"distance":1109},{"i_lat":-6.339291,"line":2,"time":3,"is_transit":false,"i_long":106.834175,"transit":false,"station_name":"Univ. Pancasila","station_id":"UP","distance":2264},{"station_id":"LNA","i_lat":-6.330363,"transit":false,"i_long":106.832616,"is_transit":false,"line":2,"time":2,"distance":1029,"station_name":"Lenteng Agung"},{"is_transit":false,"line":2,"time":3,"i_long":106.838896,"transit":false,"station_id":"TNT","distance":2671,"i_lat":-6.3080680000000005,"station_name":"Tanjung Barat"},{"transit":false,"i_long":106.843999,"time":4,"distance":2820,"station_name":"Pasar Minggu","is_transit":false,"i_lat":-6.2842400000000005,"line":2,"station_id":"PSM"},{"transit":false,"time":2,"station_id":"PSMB","is_transit":false,"i_lat":-6.263214,"distance":2380,"i_long":106.851577,"station_name":"Pasar Minggu Baru","line":2},{"time":2,"is_transit":false,"i_lat":-6.255332,"line":2,"station_id":"DRN","transit":false,"distance":824,"i_long":106.85449,"station_name":"Duren Kalibata"},{"line":2,"transit":false,"station_name":"Cawang","time":3,"i_long":106.856607,"station_id":"CW","distance":1546,"i_lat":-6.242512,"is_transit":false},{"station_name":"Tebet","distance":1230,"transit":false,"is_transit":false,"i_lat":-6.226659,"i_long":106.857948,"station_id":"TEB","time":2,"line":2},{"transit":true,"station_name":"Manggarai","time":4,"i_lat":-6.209883,"station_id":"MRI","is_transit":true,"i_long":106.84912,"distance":2610,"line":2},{"is_transit":false,"distance":3186,"line":1,"time":4,"i_lat":-6.202263,"station_id":"SUD","station_name":"Sudirman","i_long":106.822649,"transit":false},{"station_id":"SUDB","line":1,"station_name":"Sudirman Baru","time":1,"is_transit":false,"distance":280,"transit":false,"i_lat":-6.201433,"i_long":106.819881},{"transit":false,"i_lat":-6.20132,"line":1,"station_name":"Karet","distance":471,"i_long":106.816351,"is_transit":false,"station_id":"KAT","time":1},{"is_transit":true,"transit":true,"i_long":106.811091,"station_name":"Tanah Abang","i_lat":-6.185545,"station_id":"THB","time":5,"line":1,"distance":2029},{"transit":false,"time":6,"station_id":"PLM","i_lat":-6.207404,"i_long":106.79689,"line":6,"is_transit":false,"station_name":"Palmerah","distance":3191},{"time":7,"distance":3737,"station_name":"Kebayoran","station_id":"KBY","line":6,"i_lat":-6.237242,"is_transit":false,"i_long":106.780334,"transit":false},{"i_long":106.74273,"is_transit":false,"i_lat":-6.276362,"transit":false,"station_name":"Pondokranji","line":6,"station_id":"PDJ","time":8,"distance":6218},{"distance":2179,"i_long":106.728916,"line":6,"station_name":"Jurangmangu","i_lat":-6.288927,"station_id":"JMU","is_transit":false,"time":3,"transit":false},{"station_name":"Sudimara","line":6,"is_transit":false,"i_lat":-6.296963,"i_long":106.712277,"transit":false,"station_id":"SDM","distance":1994,"time":4},{"transit":false,"is_transit":false,"time":6,"station_name":"Rawa Buntu","station_id":"RU","distance":4566,"i_lat":-6.314823,"line":6,"i_long":106.675475}],[{"station_id":"PDRG","line":21,"station_name":"Pondok Rajeg","transit":false,"time":0,"distance":0,"i_lat":-6.460735,"i_long":106.824374,"is_transit":false},{"station_id":"CTA","time":0,"distance":0,"i_lat":-6.448811,"transit":true,"i_long":106.800298,"is_transit":true,"station_name":"Citayam","line":2},{"transit":false,"station_id":"DP","line":2,"time":6,"is_transit":false,"i_lat":-6.405256,"station_name":"Depok","i_long":106.816926,"distance":5084},{"time":3,"is_transit":false,"station_id":"DPB","transit":false,"distance":1584,"i_lat":-6.391065,"i_long":106.819451,"line":2,"station_name":"Depokbaru"},{"distance":2727,"transit":false,"station_id":"POC","time":4,"i_long":106.831114,"is_transit":false,"i_lat":-6.369073,"station_name":"Pondok Cina","line":2},{"distance":1109,"i_lat":-6.360749,"time":2,"i_long":106.831474,"is_transit":false,"transit":false,"line":2,"station_id":"UI","station_name":"Univ. Indonesia"},{"line":2,"transit":false,"i_lat":-6.339291,"station_id":"UP","station_name":"Univ. Pancasila","is_transit":false,"distance":2264,"i_long":106.834175,"time":3},{"distance":1029,"line":2,"transit":false,"is_transit":false,"station_id":"LNA","i_long":106.832616,"time":2,"station_name":"Lenteng Agung","i_lat":-6.330363},{"line":2,"station_id":"TNT","time":3,"i_lat":-6.3080680000000005,"distance":2671,"transit":false,"i_long":106.838896,"station_name":"Tanjung Barat","is_transit":false},{"transit":false,"station_id":"PSM","distance":2820,"i_lat":-6.2842400000000005,"time":4,"line":2,"station_name":"Pasar Minggu","is_transit":false,"i_long":106.843999},{"time":2,"distance":2380,"i_lat":-6.263214,"station_id":"PSMB","station_name":"Pasar Minggu Baru","i_long":106.851577,"is_transit":false,"transit":false,"line":2},{"distance":824,"i_lat":-6.255332,"station_name":"Duren Kalibata","is_transit":false,"station_id":"DRN","i_long":106.85449,"line":2,"transit":false,"time":2},{"station_name":"Cawang","distance":1546,"transit":false,"i_long":106.856607,"is_transit":false,"line":2,"i_lat":-6.242512,"station_id":"CW","time":3},{"line":2,"station_name":"Tebet","distance":1230,"i_lat":-6.226659,"is_transit":false,"time":2,"station_id":"TEB","transit":false,"i_long":106.857948},{"transit":false,"time":4,"station_name":"Manggarai","line":2,"is_transit":false,"i_lat":-6.209883,"i_long":106.84912,"distance":2610,"station_id":"MRI"},{"transit":false,"station_name":"Cikini","time":4,"distance":1590,"station_id":"CKI","i_lat":-6.198556,"i_long":106.840169,"line":2,"is_transit":false},{"time":3,"is_transit":false,"i_long":106.832183,"line":2,"i_lat":-6.186295,"transit":false,"station_name":"Gondangdia","station_id":"GDD","distance":1750},{"i_lat":-6.166716,"station_id":"JUA","time":4,"i_long":106.828284,"is_transit":false,"distance":2015,"station_name":"Juanda","transit":false,"line":2},{"i_long":106.827103,"station_name":"Sawah Besar","time":2,"transit":false,"line":2,"i_lat":-6.160725,"is_transit":false,"station_id":"SW","distance":1149},{"station_name":"Manggabesar","distance":906,"is_transit":false,"transit":false,"i_lat":-6.149769,"line":2,"i_long":106.82482,"time":2,"station_id":"MGB"},{"line":2,"i_lat":-6.141205,"i_long":106.820901,"station_name":"Jayakarta","station_id":"JAY","is_transit":false,"distance":1080,"time":2,"transit":false},{"i_lat":-6.137569,"distance":1264,"i_long":106.812439,"time":4,"transit":true,"line":2,"is_transit":true,"station_name":"Jakarta Kota","station_id":"JAKK"},{"transit":true,"is_transit":true,"i_lat":-6.132549,"i_long":106.826365,"line":4,"time":3,"distance":1364,"station_name":"Kampung Bandan","station_id":"KPB"},{"transit":false,"is_transit":false,"i_long":106.79867,"station_id":"AK","time":9,"line":1,"station_name":"Angke","distance":4102,"i_lat":-6.144674},{"station_name":"Duri","distance":1230,"i_long":106.800832,"station_id":"DU","transit":false,"line":1,"is_transit":false,"i_lat":-6.155215,"time":4},{"transit":true,"station_name":"Tanah Abang","line":1,"time":8,"station_id":"THB","i_lat":-6.185545,"distance":3632,"is_transit":true,"i_long":106.811091},{"i_long":106.79689,"i_lat":-6.207404,"distance":3191,"line":6,"time":6,"is_transit":false,"transit":false,"station_id":"PLM","station_name":"Palmerah"},{"line":6,"station_id":"KBY","distance":3737,"is_transit":false,"time":7,"station_name":"Kebayoran","transit":false,"i_lat":-6.237242,"i_long":106.780334},{"i_long":106.74273,"line":6,"i_lat":-6.276362,"transit":false,"distance":6218,"station_id":"PDJ","station_name":"Pondokranji","time":8,"is_transit":false},{"is_transit":false,"transit":false,"i_lat":-6.288927,"station_id":"JMU","time":3,"station_name":"Jurangmangu","distance":2179,"line":6,"i_long":106.728916},{"station_id":"SDM","transit":false,"i_lat":-6.296963,"distance":1994,"i_long":106.712277,"line":6,"is_transit":false,"time":4,"station_name":"Sudimara"},{"time":6,"is_transit":false,"distance":4566,"station_id":"RU","i_lat":-6.314823,"i_long":106.675475,"line":6,"station_name":"Rawa Buntu","transit":false}],[{"i_lat":-6.460735,"i_long":106.824374,"time":0,"station_id":"PDRG","distance":0,"is_transit":false,"station_name":"Pondok Rajeg","line":21,"transit":false},{"station_id":"CTA","is_transit":true,"station_name":"Citayam","line":2,"transit":true,"distance":0,"i_lat":-6.448811,"i_long":106.800298,"time":0},{"line":2,"station_id":"DP","station_name":"Depok","distance":5084,"time":6,"transit":false,"i_lat":-6.405256,"i_long":106.816926,"is_transit":false},{"distance":1584,"i_long":106.819451,"transit":false,"is_transit":false,"time":3,"line":2,"station_id":"DPB","i_lat":-6.391065,"station_name":"Depokbaru"},{"is_transit":false,"i_lat":-6.369073,"line":2,"transit":false,"i_long":106.831114,"time":4,"station_id":"POC","distance":2727,"station_name":"Pondok Cina"},{"is_transit":false,"distance":1109,"line":2,"transit":false,"time":2,"i_lat":-6.360749,"station_id":"UI","i_long":106.831474,"station_name":"Univ. Indonesia"},{"line":2,"station_id":"UP","transit":false,"station_name":"Univ. Pancasila","is_transit":false,"distance":2264,"i_long":106.834175,"time":3,"i_lat":-6.339291},{"time":2,"i_lat":-6.330363,"station_id":"LNA","transit":false,"line":2,"is_transit":false,"distance":1029,"station_name":"Lenteng Agung","i_long":106.832616},{"line":2,"station_id":"TNT","transit":false,"i_long":106.838896,"time":3,"distance":2671,"station_name":"Tanjung Barat","is_transit":false,"i_lat":-6.3080680000000005},{"distance":2820,"line":2,"transit":false,"is_transit":false,"i_long":106.843999,"i_lat":-6.2842400000000005,"station_name":"Pasar Minggu","time":4,"station_id":"PSM"},{"line":2,"station_name":"Pasar Minggu Baru","distance":2380,"transit":false,"time":2,"i_lat":-6.263214,"i_long":106.851577,"is_transit":false,"station_id":"PSMB"},{"line":2,"station_name":"Duren Kalibata","i_lat":-6.255332,"distance":824,"i_long":106.85449,"transit":false,"is_transit":false,"time":2,"station_id":"DRN"},{"is_transit":false,"time":3,"line":2,"station_name":"Cawang","i_lat":-6.242512,"i_long":106.856607,"transit":false,"distance":1546,"station_id":"CW"},{"is_transit":false,"distance":1230,"station_name":"Tebet","station_id":"TEB","transit":false,"i_long":106.857948,"line":2,"i_lat":-6.226659,"time":2},{"station_id":"MRI","i_lat":-6.209883,"i_long":106.84912,"distance":2610,"transit":true,"time":4,"station_name":"Manggarai","is_transit":true,"line":2},{"station_id":"MTR","time":2,"distance":1275,"is_transit":false,"i_lat":-6.212485,"i_long":106.858896,"line":1,"station_name":"Matraman","transit":false},{"is_transit":true,"time":8,"transit":true,"station_id":"JNG","i_lat":-6.215091,"i_long":106.86807400000001,"distance":1377,"line":1,"station_name":"Jatinegara"},{"transit":false,"time":2,"station_name":"Pondok Jati","station_id":"POK","i_long":106.861737,"is_transit":false,"distance":1236,"line":11,"i_lat":-6.209188},{"line":11,"distance":1829,"is_transit":false,"station_id":"KMT","i_lat":-6.193792,"time":2,"station_name":"Kramat","transit":false,"i_long":106.855437},{"station_name":"Gang Sentiong","time":1,"station_id":"GST","distance":973,"i_lat":-6.185975,"line":11,"transit":false,"i_long":106.850107,"is_transit":false},{"station_name":"Pasar Senen","line":11,"i_long":106.84368,"station_id":"PSE","distance":1567,"is_transit":false,"time":8,"transit":false,"i_lat":-6.174784},{"i_long":106.839204,"station_name":"Kemayoran","i_lat":-6.161728,"distance":1436,"time":4,"transit":false,"is_transit":false,"station_id":"KMO","line":11},{"i_long":106.836569,"line":11,"station_name":"Rajawali","distance":1901,"i_lat":-6.14505,"is_transit":false,"station_id":"RJW","transit":false,"time":5},{"line":4,"station_id":"KPB","time":3,"station_name":"Kampung Bandan","transit":true,"i_lat":-6.132549,"distance":1444,"i_long":106.826365,"is_transit":true},{"i_lat":-6.144674,"is_transit":false,"station_id":"AK","time":9,"i_long":106.79867,"distance":4102,"line":1,"station_name":"Angke","transit":false},{"line":1,"distance":1230,"time":4,"station_name":"Duri","i_lat":-6.155215,"transit":false,"i_long":106.800832,"is_transit":false,"station_id":"DU"},{"station_id":"THB","distance":3632,"is_transit":true,"time":8,"i_lat":-6.185545,"i_long":106.811091,"transit":true,"station_name":"Tanah Abang","line":1},{"is_transit":false,"time":6,"i_long":106.79689,"distance":3191,"station_name":"Palmerah","i_lat":-6.207404,"station_id":"PLM","transit":false,"line":6},{"i_lat":-6.237242,"i_long":106.780334,"line":6,"station_name":"Kebayoran","is_transit":false,"distance":3737,"station_id":"KBY","time":7,"transit":false},{"transit":false,"distance":6218,"station_id":"PDJ","i_long":106.74273,"line":6,"time":8,"is_transit":false,"station_name":"Pondokranji","i_lat":-6.276362},{"station_id":"JMU","i_long":106.728916,"line":6,"distance":2179,"i_lat":-6.288927,"transit":false,"station_name":"Jurangmangu","time":3,"is_transit":false},{"station_id":"SDM","distance":1994,"transit":false,"is_transit":false,"station_name":"Sudimara","i_long":106.712277,"i_lat":-6.296963,"line":6,"time":4},{"distance":4566,"i_long":106.675475,"transit":false,"station_id":"RU","time":6,"line":6,"station_name":"Rawa Buntu","is_transit":false,"i_lat":-6.314823}]]}