{"data":[[{"line":21,"i_long":106.824374,"station_id":"PDRG","distance":0,"i_lat":-6.460735,"station_name":"Pondok Rajeg","time":0,"is_transit":false,"transit":false},{"i_long":106.800298,"line":2,"time":0,"station_id":"CTA","is_transit":true,"transit":true,"distance":0,"station_name":"Citayam","i_lat":-6.448811},{"station_id":"DP","is_transit":false,"transit":false,"station_name":"Depok","distance":5084,"time":6,"i_long":106.816926,"line":2,"i_lat":-6.405256},{"i_long":106.819451,"station_name":"Depokbaru","line":2,"station_id":"DPB","is_transit":false,"transit":false,"distance":1584,"time":3,"i_lat":-6.391065},{"station_id":"POC","is_transit":false,"transit":false,"station_name":"Pondok Cina","i_long":106.831114,"line":2,"time":4,"i_lat":-6.369073,"distance":2727},{"i_long":106.831474,"transit":false,"station_name":"Univ. Indonesia","station_id":"UI","time":2,"i_lat":-6.360749,"line":2,"is_transit":false,"distance":1109},{"is_transit":false,"station_name":"Univ. Pancasila","time":3,"transit":false,"i_long":106.834175,"distance":2264,"station_id":"UP","i_lat":-6.339291,"line":2},{"i_long":106.832616,"time":2,"distance":1029,"station_id":"LNA","transit":false,"station_name":"Lenteng Agung","is_transit":false,"i_lat":-6.330363,"line":2},{"time":3,"station_id":"TNT","transit":false,"i_lat":-6.3080680000000005,"line":2,"is_transit":false,"distance":2671,"station_name":"Tanjung Barat","i_long":106.838896},{"is_transit":false,"transit":false,"line":2,"station_name":"Pasar Minggu","i_long":106.843999,"station_id":"PSM","distance":2820,"time":4,"i_lat":-6.2842400000000005},{"station_id":"PSMB","i_lat":-6.263214,"is_transit":false,"line":2,"transit":false,"distance":2380,"station_name":"Pasar Minggu Baru","i_long":106.851577,"time":2},{"station_name":"Duren Kalibata","line":2,"i_long":106.85449,"time":2,"i_lat":-6.255332,"distance":824,"is_transit":false,"station_id":"DRN","transit":false},{"is_transit":false,"station_id":"CW","transit":false,"i_lat":-6.242512,"station_name":"Cawang","i_long":106.856607,"distance":1546,"line":2,"time":3},{"transit":false,"station_name":"Tebet","line":2,"station_id":"TEB","distance":1230,"i_long":106.857948,"time":2,"is_transit":false,"i_lat":-6.226659},{"station_name":"Manggarai","i_long":106.84912,"is_transit":true,"transit":true,"distance":2610,"time":4,"i_lat":-6.209883,"line":2,"station_id":"MRI"},{"i_lat":-6.212485,"is_transit":false,"line":1,"i_long":106.858896,"time":2,"station_name":"Matraman","transit":false,"station_id":"MTR","distance":1275},{"transit":false,"distance":1377,"station_id":"JNG","is_transit":false,"station_name":"Jatinegara","line":1,"i_lat":-6.215091,"i_long":106.86807400000001,"time":8}],[{"line":21,"station_name":"Pondok Rajeg","is_transit":false,"transit":false,"time":0,"distance":0,"i_lat":-6.460735,"i_long":106.824374,"station_id":"PDRG"},{"time":0,"station_id":"CTA","station_name":"Citayam","transit":true,"distance":0,"line":2,"i_long":106.800298,"i_lat":-6.448811,"is_transit":true},{"i_lat":-6.405256,"transit":false,"station_name":"Depok","time":6,"i_long":106.816926,"station_id":"DP","is_transit":false,"line":2,"distance":5084},{"line":2,"station_name":"Depokbaru","station_id":"DPB","transit":false,"distance":1584,"is_transit":false,"time":3,"i_lat":-6.391065,"i_long":106.819451},{"time":4,"line":2,"transit":false,"i_lat":-6.369073,"i_long":106.831114,"distance":2727,"station_id":"POC","station_name":"Pondok Cina","is_transit":false},{"station_id":"UI","line":2,"i_long":106.831474,"i_lat":-6.360749,"time":2,"station_name":"Univ. Indonesia","transit":false,"is_transit":false,"distance":1109},{"i_long":106.834175,"time":3,"transit":false,"station_id":"UP","is_transit":false,"station_name":"Univ. Pancasila","i_lat":-6.339291,"line":2,"distance":2264},{"station_name":"Lenteng Agung","transit":false,"i_lat":-6.330363,"time":2,"line":2,"is_transit":false,"distance":1029,"i_long":106.832616,"station_id":"LNA"},{"transit":false,"distance":2671,"i_lat":-6.3080680000000005,"line":2,"is_transit":false,"time":3,"station_name":"Tanjung Barat","station_id":"TNT","i_long":106.838896},{"station_name":"Pasar Minggu","time":4,"distance":2820,"line":2,"i_long":106.843999,"station_id":"PSM","i_lat":-6.2842400000000005,"transit":false,"is_transit":false},{"time":2,"i_long":106.851577,"transit":false,"line":2,"is_transit":false,"distance":2380,"i_lat":-6.263214,"station_id":"PSMB","station_name":"Pasar Minggu Baru"},{"distance":824,"transit":false,"station_id":"DRN","time":2,"is_transit":false,"i_lat":-6.255332,"line":2,"i_long":106.85449,"station_name":"Duren Kalibata"},{"station_name":"Cawang","is_transit":false,"time":3,"i_lat":-6.242512,"distance":1546,"i_long":106.856607,"transit":false,"line":2,"station_id":"CW"},{"station_id":"TEB","station_name":"Tebet","is_transit":false,"transit":false,"distance":1230,"i_lat":-6.226659,"line":2,"time":2,"i_long":106.857948},{"i_lat":-6.209883,"transit":true,"station_name":"Manggarai","line":2,"is_transit":true,"i_long":106.84912,"time":4,"station_id":"MRI","distance":2610},{"i_lat":-6.202263,"line":1,"station_id":"SUD","transit":false,"i_long":106.822649,"time":4,"station_name":"Sudirman","is_transit":false,"distance":3186},{"distance":280,"line":1,"station_name":"Sudirman Baru","is_transit":false,"station_id":"SUDB","transit":false,"time":1,"i_lat":-6.201433,"i_long":106.819881},{"line":1,"station_name":"Karet","transit":false,"time":1,"station_id":"KAT","is_transit":false,"distance":471,"i_lat":-6.20132,"i_long":106.816351},{"station_name":"Tanah Abang","transit":false,"i_lat":-6.185545,"i_long":106.811091,"line":1,"station_id":"THB","time":5,"is_transit":false,"distance":2029},{"line":1,"is_transit":false,"station_name":"Duri","station_id":"DU","distance":3632,"transit":false,"i_lat":-6.155215,"time":8,"i_long":106.800832},{"time":4,"i_long":106.79867,"is_transit":false,"i_lat":-6.144674,"station_id":"AK","line":1,"distance":1230,"transit":false,"station_name":"Angke"},{"transit":true,"i_lat":-6.132549,"station_name":"Kampung Bandan","line":4,"station_id":"KPB","is_transit":true,"distance":4102,"time":9,"i_long":106.826365},{"is_transit":false,"i_long":106.836569,"distance":1444,"station_name":"Rajawali","line":11,"transit":false,"station_id":"RJW","time":3,"i_lat":-6.14505},{"station_id":"KMO","time":5,"is_transit":false,"station_name":"Kemayoran","transit":false,"i_lat":-6.161728,"distance":1901,"i_long":106.839204,"line":11},{"line":11,"transit":false,"time":4,"station_id":"PSE","station_name":"Pasar Senen","is_transit":false,"i_long":106.84368,"i_lat":-6.174784,"distance":1436},{"station_id":"GST","transit":false,"distance":1567,"i_lat":-6.185975,"i_long":106.850107,"is_transit":false,"line":11,"station_name":"Gang Sentiong","time":8},{"time":1,"i_long":106.855437,"station_name":"Kramat","line":11,"transit":false,"is_transit":false,"distance":973,"station_id":"KMT","i_lat":-6.193792},{"time":2,"i_long":106.861737,"station_id":"POK","station_name":"Pondok Jati","distance":1829,"is_transit":false,"line":11,"i_lat":-6.209188,"transit":false},{"is_transit":false,"line":1,"distance":1236,"i_long":106.86807400000001,"station_id":"JNG","transit":false,"time":9,"station_name":"Jatinegara","i_lat":-6.215091}],[{"is_transit":false,"time":0,"i_long":106.824374,"station_id":"PDRG","line":21,"i_lat":-6.460735,"distance":0,"transit":false,"station_name":"Pondok Rajeg"},{"is_transit":true,"distance":0,"line":2,"station_id":"CTA","station_name":"Citayam","i_long":106.800298,"transit":true,"time":0,"i_lat":-6.448811},{"time":6,"station_id":"DP","station_name":"Depok","is_transit":false,"distance":5084,"transit":false,"i_lat":-6.405256,"i_long":106.816926,"line":2},{"transit":false,"is_transit":false,"time":3,"i_long":106.819451,"distance":1584,"i_lat":-6.391065,"line":2,"station_name":"Depokbaru","station_id":"DPB"},{"station_name":"Pondok Cina","distance":2727,"is_transit":false,"station_id":"POC","transit":false,"time":4,"i_lat":-6.369073,"i_long":106.831114,"line":2},{"station_id":"UI","time":2,"station_name":"Univ. Indonesia","line":2,"i_long":106.831474,"transit":false,"i_lat":-6.360749,"is_transit":false,"distance":1109},{"i_lat":-6.339291,"time":3,"i_long":106.834175,"station_id":"UP","distance":2264,"station_name":"Univ. Pancasila","line":2,"is_transit":false,"transit":false},{"distance":1029,"station_name":"Lenteng Agung","line":2,"i_lat":-6.330363,"transit":false,"i_long":106.832616,"station_id":"LNA","time":2,"is_transit":false},{"i_long":106.838896,"transit":false,"time":3,"is_transit":false,"i_lat":-6.3080680000000005,"distance":2671,"line":2,"station_name":"Tanjung Barat","station_id":"TNT"},{"transit":false,"station_id":"PSM","distance":2820,"line":2,"station_name":"Pasar Minggu","is_transit":false,"i_lat":-6.2842400000000005,"i_long":106.843999,"time":4},{"line":2,"station_id":"PSMB","time":2,"transit":false,"distance":2380,"is_transit":false,"i_long":106.851577,"station_name":"Pasar Minggu Baru","i_lat":-6.263214},{"distance":824,"transit":false,"line":2,"time":2,"station_id":"DRN","station_name":"Duren Kalibata","i_lat":-6.255332,"i_long":106.85449,"is_transit":false},{"time":3,"line":2,"distance":1546,"station_name":"Cawang","i_long":106.856607,"i_lat":-6.242512,"station_id":"CW","is_transit":false,"transit":false},{"station_name":"Tebet","time":2,"i_long":106.857948,"transit":false,"distance":1230,"line":2,"station_id":"TEB","is_transit":false,"i_lat":-6.226659},{"is_transit":false,"i_long":106.84912,"station_name":"Manggarai","distance":2610,"i_lat":-6.209883,"transit":false,"station_id":"MRI","line":2,"time":4},{"transit":false,"station_name":"Cikini","i_lat":-6.198556,"i_long":106.840169,"line":2,"is_transit":false,"distance":1590,"time":4,"station_id":"CKI"},{"transit":false,"distance":1750,"i_lat":-6.186295,"is_transit":false,"station_name":"Gondangdia","station_id":"GDD","time":3,"i_long":106.832183,"line":2},{"i_long":106.828284,"station_id":"JUA","time":4,"station_name":"Juanda","transit":false,"i_lat":-6.166716,"is_transit":false,"distance":2015,"line":2},{"time":2,"station_id":"SW","distance":1149,"i_long":106.827103,"line":2,"i_lat":-6.160725,"transit":false,"is_transit":false,"station_name":"Sawah Besar"},{"station_id":"MGB","transit":false,"is_transit":false,"distance":906,"i_lat":-6.149769,"time":2,"line":2,"i_long":106.82482,"station_name":"Manggabesar"},{"distance":1080,"station_id":"JAY","i_lat":-6.141205,"i_long":106.820901,"line":2,"is_transit":false,"time":2,"station_name":"Jayakarta","transit":false},{"i_lat":-6.137569,"i_long":106.812439,"is_transit":true,"time":4,"line":2,"station_name":"Jakarta Kota","station_id":"JAKK","distance":1264,"transit":true},{"time":3,"line":4,"distance":1364,"transit":true,"station_name":"Kampung Bandan","is_transit":true,"i_lat":-6.132549,"i_long":106.826365,"station_id":"KPB"},{"i_lat":-6.14505,"time":3,"distance":1444,"station_id":"RJW","line":11,"is_transit":false,"transit":false,"station_name":"Rajawali","i_long":106.836569},{"line":11,"station_name":"Kemayoran","transit":false,"distance":1901,"i_long":106.839204,"time":5,"station_id":"KMO","is_transit":false,"i_lat":-6.161728},{"i_long":106.84368,"station_id":"PSE","transit":false,"time":4,"distance":1436,"line":11,"is_transit":false,"station_name":"Pasar Senen","i_lat":-6.174784},{"time":8,"i_long":106.850107,"line":11,"station_id":"GST","is_transit":false,"transit":false,"distance":1567,"station_name":"Gang Sentiong","i_lat":-6.185975},{"station_name":"Kramat","i_long":106.855437,"is_transit":false,"line":11,"transit":false,"time":1,"distance":973,"station_id":"KMT","i_lat":-6.193792},{"station_name":"Pondok Jati","station_id":"POK","line":11,"time":2,"transit":false,"i_long":106.861737,"is_transit":false,"distance":1829,"i_lat":-6.209188},{"i_long":106.86807400000001,"station_id":"JNG","transit":false,"is_transit":false,"distance":1236,"time":9,"i_lat":-6.215091,"station_name":"Jatinegara","line":1}]]}