{"data":[[{"is_transit":false,"station_name":"Pondok Rajeg","time":0,"i_lat":-6.460735,"distance":0,"i_long":106.824374,"transit":false,"line":21,"station_id":"PDRG"},{"station_id":"CTA","station_name":"Citayam","is_transit":true,"distance":0,"transit":true,"i_lat":-6.448811,"line":2,"time":0,"i_long":106.800298},{"i_lat":-6.405256,"transit":false,"station_name":"Depok","line":2,"is_transit":false,"i_long":106.816926,"time":6,"distance":5084,"station_id":"DP"},{"i_lat":-6.391065,"line":2,"station_id":"DPB","transit":false,"i_long":106.819451,"time":3,"is_transit":false,"distance":1584,"station_name":"Depokbaru"},{"distance":2727,"line":2,"station_name":"Pondok Cina","is_transit":false,"station_id":"POC","time":4,"transit":false,"i_lat":-6.369073,"i_long":106.831114},{"station_id":"UI","i_lat":-6.360749,"station_name":"Univ. Indonesia","distance":1109,"transit":false,"i_long":106.831474,"time":2,"is_transit":false,"line":2},{"is_transit":false,"station_name":"Univ. Pancasila","i_long":106.834175,"station_id":"UP","transit":false,"time":3,"line":2,"i_lat":-6.339291,"distance":2264},{"line":2,"station_id":"LNA","i_lat":-6.330363,"transit":false,"station_name":"Lenteng Agung","distance":1029,"time":2,"i_long":106.832616,"is_transit":false},{"line":2,"station_id":"TNT","station_name":"Tanjung Barat","i_long":106.838896,"is_transit":false,"distance":2671,"time":3,"transit":false,"i_lat":-6.3080680000000005},{"i_long":106.843999,"station_id":"PSM","time":4,"transit":false,"line":2,"is_transit":false,"station_name":"Pasar Minggu","distance":2820,"i_lat":-6.2842400000000005},{"station_id":"PSMB","i_long":106.851577,"transit":false,"distance":2380,"station_name":"Pasar Minggu Baru","i_lat":-6.263214,"line":2,"is_transit":false,"time":2},{"transit":false,"i_lat":-6.255332,"station_id":"DRN","is_transit":false,"line":2,"distance":824,"time":2,"station_name":"Duren Kalibata","i_long":106.85449},{"is_transit":false,"time":3,"line":2,"i_lat":-6.242512,"i_long":106.856607,"station_name":"Cawang","distance":1546,"station_id":"CW","transit":false},{"station_id":"TEB","i_lat":-6.226659,"i_long":106.857948,"transit":false,"time":2,"is_transit":false,"station_name":"Tebet","distance":1230,"line":2},{"is_transit":true,"distance":2610,"time":4,"i_long":106.84912,"line":2,"transit":true,"station_id":"MRI","station_name":"Manggarai","i_lat":-6.209883},{"distance":3186,"time":4,"station_id":"SUD","station_name":"Sudirman","i_lat":-6.202263,"i_long":106.822649,"is_transit":false,"transit":false,"line":1},{"line":1,"is_transit":false,"i_lat":-6.201433,"station_id":"SUDB","distance":280,"station_name":"Sudirman Baru","i_long":106.819881,"transit":false,"time":1},{"time":1,"transit":false,"i_long":106.816351,"station_id":"KAT","distance":471,"i_lat":-6.20132,"station_name":"Karet","line":1,"is_transit":false},{"station_id":"THB","line":1,"i_long":106.811091,"station_name":"Tanah Abang","transit":true,"distance":2029,"time":5,"i_lat":-6.185545,"is_transit":true},{"transit":false,"time":6,"distance":3191,"station_id":"PLM","i_lat":-6.207404,"is_transit":false,"i_long":106.79689,"station_name":"Palmerah","line":6},{"transit":false,"is_transit":false,"i_lat":-6.237242,"distance":3737,"station_id":"KBY","i_long":106.780334,"line":6,"time":7,"station_name":"Kebayoran"},{"transit":false,"distance":6218,"is_transit":false,"time":8,"station_id":"PDJ","i_lat":-6.276362,"line":6,"station_name":"Pondokranji","i_long":106.74273},{"time":3,"is_transit":false,"station_name":"Jurangmangu","transit":false,"i_long":106.728916,"station_id":"JMU","line":6,"i_lat":-6.288927,"distance":2179},{"transit":false,"is_transit":false,"station_name":"Sudimara","time":4,"line":6,"distance":1994,"station_id":"SDM","i_long":106.712277,"i_lat":-6.296963},{"time":6,"line":6,"distance":4566,"transit":false,"is_transit":false,"station_id":"RU","station_name":"Rawa Buntu","i_long":106.675475,"i_lat":-6.314823}],[{"station_name":"Pondok Rajeg","distance":0,"transit":false,"is_transit":false,"time":0,"i_lat":-6.460735,"line":21,"i_long":106.824374,"station_id":"PDRG"},{"distance":0,"station_id":"CTA","i_long":106.800298,"i_lat":-6.448811,"transit":true,"time":0,"is_transit":true,"station_name":"Citayam","line":2},{"time":6,"station_id":"DP","station_name":"Depok","i_long":106.816926,"transit":false,"line":2,"i_lat":-6.405256,"is_transit":false,"distance":5084},{"line":2,"i_long":106.819451,"is_transit":false,"distance":1584,"station_id":"DPB","i_lat":-6.391065,"station_name":"Depokbaru","transit":false,"time":3},{"i_lat":-6.369073,"time":4,"station_name":"Pondok Cina","is_transit":false,"station_id":"POC","i_long":106.831114,"line":2,"transit":false,"distance":2727},{"i_long":106.831474,"line":2,"is_transit":false,"distance":1109,"station_name":"Univ. Indonesia","station_id":"UI","time":2,"i_lat":-6.360749,"transit":false},{"i_long":106.834175,"distance":2264,"is_transit":false,"transit":false,"i_lat":-6.339291,"line":2,"station_id":"UP","station_name":"Univ. Pancasila","time":3},{"i_lat":-6.330363,"line":2,"is_transit":false,"time":2,"distance":1029,"station_name":"Lenteng Agung","transit":false,"station_id":"LNA","i_long":106.832616},{"station_name":"Tanjung Barat","transit":false,"i_long":106.838896,"distance":2671,"line":2,"is_transit":false,"i_lat":-6.3080680000000005,"station_id":"TNT","time":3},{"i_lat":-6.2842400000000005,"is_transit":false,"i_long":106.843999,"distance":2820,"line":2,"station_id":"PSM","time":4,"station_name":"Pasar Minggu","transit":false},{"i_long":106.851577,"transit":false,"line":2,"i_lat":-6.263214,"distance":2380,"time":2,"station_id":"PSMB","is_transit":false,"station_name":"Pasar Minggu Baru"},{"station_id":"DRN","i_long":106.85449,"line":2,"time":2,"i_lat":-6.255332,"transit":false,"distance":824,"station_name":"Duren Kalibata","is_transit":false},{"line":2,"transit":false,"distance":1546,"i_lat":-6.242512,"is_transit":false,"station_id":"CW","i_long":106.856607,"time":3,"station_name":"Cawang"},{"line":2,"station_name":"Tebet","station_id":"TEB","transit":false,"i_long":106.857948,"is_transit":false,"time":2,"distance":1230,"i_lat":-6.226659},{"station_id":"MRI","i_lat":-6.209883,"station_name":"Manggarai","line":2,"i_long":106.84912,"time":4,"transit":false,"is_transit":false,"distance":2610},{"is_transit":false,"i_lat":-6.198556,"i_long":106.840169,"transit":false,"distance":1590,"station_name":"Cikini","line":2,"time":4,"station_id":"CKI"},{"is_transit":false,"i_long":106.832183,"line":2,"time":3,"i_lat":-6.186295,"transit":false,"distance":1750,"station_id":"GDD","station_name":"Gondangdia"},{"transit":false,"is_transit":false,"i_long":106.828284,"station_id":"JUA","time":4,"i_lat":-6.166716,"line":2,"distance":2015,"station_name":"Juanda"},{"i_long":106.827103,"transit":false,"station_name":"Sawah Besar","i_lat":-6.160725,"line":2,"time":2,"station_id":"SW","is_transit":false,"distance":1149},{"station_name":"Manggabesar","transit":false,"i_lat":-6.149769,"time":2,"distance":906,"station_id":"MGB","i_long":106.82482,"is_transit":false,"line":2},{"distance":1080,"i_lat":-6.141205,"transit":false,"line":2,"time":2,"is_transit":false,"station_id":"JAY","i_long":106.820901,"station_name":"Jayakarta"},{"station_name":"Jakarta Kota","line":2,"transit":true,"i_lat":-6.137569,"station_id":"JAKK","time":4,"is_transit":true,"i_long":106.812439,"distance":1264},{"transit":true,"station_name":"Kampung Bandan","is_transit":true,"line":4,"i_lat":-6.132549,"station_id":"KPB","time":3,"distance":1364,"i_long":106.826365},{"distance":4102,"line":1,"station_id":"AK","i_long":106.79867,"is_transit":false,"station_name":"Angke","i_lat":-6.144674,"transit":false,"time":9},{"time":4,"distance":1230,"i_lat":-6.155215,"line":1,"station_name":"Duri","transit":false,"i_long":106.800832,"station_id":"DU","is_transit":false},{"distance":3632,"station_id":"THB","transit":true,"station_name":"Tanah Abang","i_long":106.811091,"time":8,"i_lat":-6.185545,"line":1,"is_transit":true},{"is_transit":false,"distance":3191,"i_lat":-6.207404,"time":6,"line":6,"i_long":106.79689,"transit":false,"station_id":"PLM","station_name":"Palmerah"},{"distance":3737,"i_lat":-6.237242,"i_long":106.780334,"is_transit":false,"transit":false,"line":6,"time":7,"station_id":"KBY","station_name":"Kebayoran"},{"i_long":106.74273,"station_id":"PDJ","transit":false,"time":8,"is_transit":false,"distance":6218,"station_name":"Pondokranji","i_lat":-6.276362,"line":6},{"station_name":"Jurangmangu","station_id":"JMU","i_lat":-6.288927,"line":6,"time":3,"distance":2179,"is_transit":false,"i_long":106.728916,"transit":false},{"i_lat":-6.296963,"station_name":"Sudimara","i_long":106.712277,"transit":false,"station_id":"SDM","line":6,"time":4,"distance":1994,"is_transit":false},{"is_transit":false,"station_name":"Rawa Buntu","i_long":106.675475,"transit":false,"line":6,"i_lat":-6.314823,"distance":4566,"station_id":"RU","time":6}],[{"station_name":"Pondok Rajeg","time":0,"i_long":106.824374,"is_transit":false,"station_id":"PDRG","line":21,"i_lat":-6.460735,"transit":false,"distance":0},{"time":0,"station_name":"Citayam","i_long":106.800298,"station_id":"CTA","line":2,"i_lat":-6.448811,"transit":true,"is_transit":true,"distance":0},{"station_id":"DP","line":2,"i_lat":-6.405256,"time":6,"distance":5084,"station_name":"Depok","i_long":106.816926,"is_transit":false,"transit":false},{"i_lat":-6.391065,"transit":false,"i_long":106.819451,"is_transit":false,"line":2,"distance":1584,"station_id":"DPB","station_name":"Depokbaru","time":3},{"time":4,"line":2,"station_name":"Pondok Cina","i_long":106.831114,"transit":false,"distance":2727,"is_transit":false,"station_id":"POC","i_lat":-6.369073},{"i_lat":-6.360749,"transit":false,"is_transit":false,"distance":1109,"station_id":"UI","time":2,"station_name":"Univ. Indonesia","line":2,"i_long":106.831474},{"is_transit":false,"i_lat":-6.339291,"station_id":"UP","station_name":"Univ. Pancasila","line":2,"i_long":106.834175,"distance":2264,"transit":false,"time":3},{"distance":1029,"station_name":"Lenteng Agung","time":2,"is_transit":false,"i_lat":-6.330363,"line":2,"transit":false,"i_long":106.832616,"station_id":"LNA"},{"station_id":"TNT","distance":2671,"i_long":106.838896,"i_lat":-6.3080680000000005,"line":2,"station_name":"Tanjung Barat","is_transit":false,"time":3,"transit":false},{"is_transit":false,"i_lat":-6.2842400000000005,"transit":false,"i_long":106.843999,"station_name":"Pasar Minggu","distance":2820,"line":2,"time":4,"station_id":"PSM"},{"line":2,"station_id":"PSMB","station_name":"Pasar Minggu Baru","i_long":106.851577,"distance":2380,"time":2,"transit":false,"is_transit":false,"i_lat":-6.263214},{"time":2,"station_id":"DRN","transit":false,"station_name":"Duren Kalibata","i_lat":-6.255332,"i_long":106.85449,"distance":824,"line":2,"is_transit":false},{"i_lat":-6.242512,"is_transit":false,"i_long":106.856607,"line":2,"distance":1546,"transit":false,"station_id":"CW","time":3,"station_name":"Cawang"},{"transit":false,"i_lat":-6.226659,"is_transit":false,"distance":1230,"i_long":106.857948,"line":2,"time":2,"station_id":"TEB","station_name":"Tebet"},{"i_lat":-6.209883,"station_name":"Manggarai","line":2,"distance":2610,"transit":true,"i_long":106.84912,"time":4,"station_id":"MRI","is_transit":true},{"is_transit":false,"distance":1275,"i_lat":-6.212485,"time":2,"station_id":"MTR","i_long":106.858896,"line":1,"transit":false,"station_name":"Matraman"},{"line":1,"i_long":106.86807400000001,"distance":1377,"transit":true,"station_id":"JNG","i_lat":-6.215091,"station_name":"Jatinegara","is_transit":true,"time":8},{"transit":false,"line":11,"is_transit":false,"time":2,"distance":1236,"station_name":"Pondok Jati","i_long":106.861737,"station_id":"POK","i_lat":-6.209188},{"i_long":106.855437,"is_transit":false,"time":2,"transit":false,"distance":1829,"line":11,"station_id":"KMT","station_name":"Kramat","i_lat":-6.193792},{"transit":false,"time":1,"is_transit":false,"station_name":"Gang Sentiong","distance":973,"i_long":106.850107,"line":11,"i_lat":-6.185975,"station_id":"GST"},{"time":8,"station_name":"Pasar Senen","is_transit":false,"i_long":106.84368,"i_lat":-6.174784,"distance":1567,"line":11,"transit":false,"station_id":"PSE"},{"station_id":"KMO","distance":1436,"i_long":106.839204,"line":11,"time":4,"is_transit":false,"transit":false,"station_name":"Kemayoran","i_lat":-6.161728},{"station_name":"Rajawali","distance":1901,"is_transit":false,"i_lat":-6.14505,"i_long":106.836569,"line":11,"station_id":"RJW","transit":false,"time":5},{"time":3,"is_transit":true,"station_name":"Kampung Bandan","i_long":106.826365,"line":4,"transit":true,"distance":1444,"station_id":"KPB","i_lat":-6.132549},{"i_lat":-6.144674,"station_name":"Angke","transit":false,"is_transit":false,"line":1,"time":9,"distance":4102,"station_id":"AK","i_long":106.79867},{"i_long":106.800832,"line":1,"station_name":"Duri","time":4,"is_transit":false,"station_id":"DU","transit":false,"i_lat":-6.155215,"distance":1230},{"transit":true,"is_transit":true,"distance":3632,"station_id":"THB","station_name":"Tanah Abang","i_lat":-6.185545,"time":8,"i_long":106.811091,"line":1},{"distance":3191,"i_long":106.79689,"transit":false,"time":6,"station_name":"Palmerah","station_id":"PLM","i_lat":-6.207404,"line":6,"is_transit":false},{"line":6,"distance":3737,"is_transit":false,"time":7,"station_name":"Kebayoran","i_lat":-6.237242,"i_long":106.780334,"transit":false,"station_id":"KBY"},{"station_name":"Pondokranji","line":6,"time":8,"distance":6218,"transit":false,"is_transit":false,"i_lat":-6.276362,"i_long":106.74273,"station_id":"PDJ"},{"i_lat":-6.288927,"transit":false,"station_name":"Jurangmangu","distance":2179,"is_transit":false,"time":3,"station_id":"JMU","line":6,"i_long":106.728916},{"station_name":"Sudimara","i_long":106.712277,"transit":false,"line":6,"i_lat":-6.296963,"time":4,"distance":1994,"is_transit":false,"station_id":"SDM"},{"time":6,"station_id":"RU","transit":false,"distance":4566,"i_long":106.675475,"station_name":"Rawa Buntu","line":6,"i_lat":-6.314823,"is_transit":false}]]}