{"data":[[{"line":5,"distance":0,"i_lat":-6.169933,"time":0,"station_name":"Poris","station_id":"PI","transit":false,"is_transit":false,"i_long":106.679458},{"station_name":"Kalideres","i_long":106.701612,"is_transit":false,"distance":2548,"station_id":"KDS","line":5,"transit":false,"time":3,"i_lat":-6.166068},{"station_name":"Rawa Buaya","i_lat":-6.162758,"line":5,"distance":2504,"is_transit":false,"transit":false,"i_long":106.723064,"time":3,"station_id":"RW"},{"station_id":"BOI","is_transit":false,"station_name":"Bojongindah","transit":false,"distance":1152,"i_lat":-6.159876,"time":4,"i_long":106.737035,"line":5},{"distance":2334,"station_id":"TKO","transit":false,"line":5,"station_name":"Taman Kota","is_transit":false,"i_lat":-6.1587309999999995,"i_long":106.756522,"time":2},{"station_id":"PSG","i_long":106.771379,"line":5,"station_name":"Pesing","is_transit":false,"distance":1614,"transit":false,"i_lat":-6.161433,"time":2},{"is_transit":false,"station_name":"Grogol","station_id":"GGL","distance":2036,"time":2,"i_lat":-6.162021,"i_long":106.788277,"transit":false,"line":5},{"time":3,"i_lat":-6.155215,"transit":true,"station_name":"Duri","station_id":"DU","is_transit":true,"distance":1700,"line":1,"i_long":106.800832},{"transit":false,"i_lat":-6.144674,"station_name":"Angke","distance":1230,"line":1,"is_transit":false,"station_id":"AK","time":4,"i_long":106.79867}],[{"i_lat":-6.169933,"station_name":"Poris","station_id":"PI","distance":0,"transit":false,"is_transit":false,"i_long":106.679458,"line":5,"time":0},{"line":5,"transit":false,"station_id":"KDS","i_lat":-6.166068,"station_name":"Kalideres","time":3,"distance":2548,"i_long":106.701612,"is_transit":false},{"distance":2504,"i_long":106.723064,"line":5,"station_id":"RW","i_lat":-6.162758,"station_name":"Rawa Buaya","transit":false,"is_transit":false,"time":3},{"transit":false,"station_name":"Bojongindah","time":4,"is_transit":false,"distance":1152,"i_lat":-6.159876,"line":5,"i_long":106.737035,"station_id":"BOI"},{"station_id":"TKO","transit":false,"is_transit":false,"line":5,"distance":2334,"i_long":106.756522,"station_name":"Taman Kota","i_lat":-6.1587309999999995,"time":2},{"time":2,"i_lat":-6.161433,"line":5,"station_id":"PSG","is_transit":false,"i_long":106.771379,"transit":false,"station_name":"Pesing","distance":1614},{"station_name":"Grogol","is_transit":false,"transit":false,"station_id":"GGL","distance":2036,"time":2,"i_long":106.788277,"line":5,"i_lat":-6.162021},{"transit":true,"is_transit":true,"i_long":106.800832,"distance":1700,"station_name":"Duri","time":3,"station_id":"DU","i_lat":-6.155215,"line":1},{"line":1,"station_name":"Tanah Abang","station_id":"THB","distance":3632,"i_lat":-6.185545,"i_long":106.811091,"transit":false,"is_transit":false,"time":8},{"is_transit":false,"distance":2029,"station_name":"Karet","time":5,"line":1,"i_lat":-6.20132,"i_long":106.816351,"station_id":"KAT","transit":false},{"is_transit":false,"transit":false,"station_id":"SUDB","line":1,"i_long":106.819881,"time":1,"distance":471,"station_name":"Sudirman Baru","i_lat":-6.201433},{"i_long":106.822649,"time":1,"is_transit":false,"station_name":"Sudirman","station_id":"SUD","distance":280,"transit":false,"i_lat":-6.202263,"line":1},{"i_long":106.84912,"line":2,"is_transit":true,"station_id":"MRI","time":4,"i_lat":-6.209883,"transit":true,"distance":3186,"station_name":"Manggarai"},{"station_name":"Cikini","i_long":106.840169,"transit":false,"station_id":"CKI","i_lat":-6.198556,"distance":1590,"line":2,"time":4,"is_transit":false},{"line":2,"station_id":"GDD","distance":1750,"i_lat":-6.186295,"time":3,"i_long":106.832183,"station_name":"Gondangdia","transit":false,"is_transit":false},{"line":2,"distance":2015,"time":4,"transit":false,"i_long":106.828284,"i_lat":-6.166716,"station_name":"Juanda","is_transit":false,"station_id":"JUA"},{"line":2,"station_name":"Sawah Besar","i_long":106.827103,"time":2,"i_lat":-6.160725,"is_transit":false,"transit":false,"station_id":"SW","distance":1149},{"station_id":"MGB","is_transit":false,"i_long":106.82482,"distance":906,"line":2,"station_name":"Manggabesar","i_lat":-6.149769,"time":2,"transit":false},{"is_transit":false,"transit":false,"time":2,"line":2,"station_name":"Jayakarta","distance":1080,"i_lat":-6.141205,"station_id":"JAY","i_long":106.820901},{"distance":1264,"station_name":"Jakarta Kota","line":2,"i_long":106.812439,"transit":true,"is_transit":true,"i_lat":-6.137569,"station_id":"JAKK","time":4},{"line":4,"distance":1364,"i_long":106.826365,"is_transit":true,"i_lat":-6.132549,"station_name":"Kampung Bandan","station_id":"KPB","transit":true,"time":3},{"time":9,"is_transit":false,"i_lat":-6.144674,"line":1,"station_name":"Angke","i_long":106.79867,"transit":false,"station_id":"AK","distance":4102}],[{"is_transit":false,"i_long":106.679458,"time":0,"distance":0,"station_name":"Poris","station_id":"PI","line":5,"transit":false,"i_lat":-6.169933},{"station_id":"KDS","station_name":"Kalideres","i_long":106.701612,"is_transit":false,"distance":2548,"transit":false,"line":5,"i_lat":-6.166068,"time":3},{"is_transit":false,"i_lat":-6.162758,"station_id":"RW","transit":false,"distance":2504,"i_long":106.723064,"time":3,"station_name":"Rawa Buaya","line":5},{"station_name":"Bojongindah","time":4,"distance":1152,"line":5,"is_transit":false,"i_lat":-6.159876,"transit":false,"station_id":"BOI","i_long":106.737035},{"station_name":"Taman Kota","i_lat":-6.1587309999999995,"i_long":106.756522,"line":5,"distance":2334,"time":2,"transit":false,"station_id":"TKO","is_transit":false},{"time":2,"is_transit":false,"line":5,"transit":false,"station_name":"Pesing","i_long":106.771379,"distance":1614,"station_id":"PSG","i_lat":-6.161433},{"transit":false,"i_long":106.788277,"time":2,"station_id":"GGL","is_transit":false,"i_lat":-6.162021,"station_name":"Grogol","distance":2036,"line":5},{"transit":true,"i_long":106.800832,"station_name":"Duri","distance":1700,"time":3,"is_transit":true,"i_lat":-6.155215,"line":1,"station_id":"DU"},{"i_lat":-6.185545,"distance":3632,"is_transit":false,"transit":false,"time":8,"station_name":"Tanah Abang","station_id":"THB","i_long":106.811091,"line":1},{"transit":false,"station_id":"KAT","i_long":106.816351,"distance":2029,"line":1,"time":5,"is_transit":false,"i_lat":-6.20132,"station_name":"Karet"},{"transit":false,"station_id":"SUDB","i_long":106.819881,"line":1,"is_transit":false,"station_name":"Sudirman Baru","i_lat":-6.201433,"time":1,"distance":471},{"line":1,"station_id":"SUD","i_lat":-6.202263,"time":1,"is_transit":false,"transit":false,"station_name":"Sudirman","i_long":106.822649,"distance":280},{"station_id":"MRI","is_transit":false,"i_lat":-6.209883,"time":4,"i_long":106.84912,"transit":false,"line":2,"distance":3186,"station_name":"Manggarai"},{"transit":false,"i_lat":-6.212485,"line":1,"station_name":"Matraman","time":2,"distance":1275,"station_id":"MTR","is_transit":false,"i_long":106.858896},{"distance":1377,"i_lat":-6.215091,"line":1,"i_long":106.86807400000001,"station_name":"Jatinegara","is_transit":true,"time":8,"transit":true,"station_id":"JNG"},{"is_transit":false,"transit":false,"distance":1236,"line":11,"i_lat":-6.209188,"station_id":"POK","station_name":"Pondok Jati","i_long":106.861737,"time":2},{"i_long":106.855437,"line":11,"station_id":"KMT","transit":false,"i_lat":-6.193792,"station_name":"Kramat","time":2,"distance":1829,"is_transit":false},{"transit":false,"distance":973,"station_name":"Gang Sentiong","station_id":"GST","i_lat":-6.185975,"line":11,"i_long":106.850107,"is_transit":false,"time":1},{"transit":false,"time":8,"station_id":"PSE","station_name":"Pasar Senen","i_long":106.84368,"is_transit":false,"distance":1567,"i_lat":-6.174784,"line":11},{"distance":1436,"line":11,"i_lat":-6.161728,"station_id":"KMO","i_long":106.839204,"transit":false,"station_name":"Kemayoran","time":4,"is_transit":false},{"station_name":"Rajawali","time":5,"i_long":106.836569,"line":11,"transit":false,"station_id":"RJW","distance":1901,"is_transit":false,"i_lat":-6.14505},{"i_lat":-6.132549,"distance":1444,"i_long":106.826365,"transit":true,"station_name":"Kampung Bandan","time":3,"station_id":"KPB","is_transit":true,"line":4},{"line":1,"station_id":"AK","time":9,"distance":4102,"station_name":"Angke","i_lat":-6.144674,"i_long":106.79867,"is_transit":false,"transit":false}]]}