{"data":[[{"i_long":106.679458,"line":5,"time":0,"distance":0,"transit":false,"is_transit":false,"i_lat":-6.169933,"station_name":"Poris","station_id":"PI"},{"station_name":"Kalideres","i_lat":-6.166068,"i_long":106.701612,"distance":2548,"station_id":"KDS","is_transit":false,"time":3,"transit":false,"line":5},{"i_lat":-6.162758,"line":5,"distance":2504,"time":3,"i_long":106.723064,"station_id":"RW","transit":false,"station_name":"Rawa Buaya","is_transit":false},{"i_long":106.737035,"distance":1152,"station_id":"BOI","time":4,"transit":false,"is_transit":false,"line":5,"station_name":"Bojongindah","i_lat":-6.159876},{"is_transit":false,"i_long":106.756522,"time":2,"station_id":"TKO","distance":2334,"i_lat":-6.1587309999999995,"line":5,"transit":false,"station_name":"Taman Kota"},{"station_id":"PSG","i_long":106.771379,"line":5,"is_transit":false,"station_name":"Pesing","time":2,"distance":1614,"transit":false,"i_lat":-6.161433},{"is_transit":false,"transit":false,"line":5,"station_name":"Grogol","station_id":"GGL","time":2,"distance":2036,"i_lat":-6.162021,"i_long":106.788277},{"transit":true,"station_id":"DU","is_transit":true,"station_name":"Duri","time":3,"i_lat":-6.155215,"i_long":106.800832,"distance":1700,"line":1},{"station_id":"AK","time":4,"i_lat":-6.144674,"distance":1230,"is_transit":false,"i_long":106.79867,"line":1,"station_name":"Angke","transit":false}],[{"i_long":106.679458,"time":0,"distance":0,"station_id":"PI","i_lat":-6.169933,"transit":false,"line":5,"station_name":"Poris","is_transit":false},{"station_id":"KDS","is_transit":false,"transit":false,"distance":2548,"station_name":"Kalideres","line":5,"i_long":106.701612,"time":3,"i_lat":-6.166068},{"distance":2504,"station_id":"RW","is_transit":false,"i_long":106.723064,"line":5,"transit":false,"station_name":"Rawa Buaya","i_lat":-6.162758,"time":3},{"i_lat":-6.159876,"is_transit":false,"time":4,"distance":1152,"i_long":106.737035,"station_name":"Bojongindah","line":5,"transit":false,"station_id":"BOI"},{"station_name":"Taman Kota","station_id":"TKO","is_transit":false,"i_lat":-6.1587309999999995,"line":5,"time":2,"i_long":106.756522,"distance":2334,"transit":false},{"i_lat":-6.161433,"station_id":"PSG","is_transit":false,"distance":1614,"i_long":106.771379,"transit":false,"time":2,"line":5,"station_name":"Pesing"},{"is_transit":false,"distance":2036,"i_long":106.788277,"time":2,"transit":false,"station_name":"Grogol","station_id":"GGL","line":5,"i_lat":-6.162021},{"is_transit":true,"i_long":106.800832,"station_id":"DU","line":1,"time":3,"station_name":"Duri","distance":1700,"transit":true,"i_lat":-6.155215},{"i_long":106.811091,"station_name":"Tanah Abang","station_id":"THB","distance":3632,"line":1,"i_lat":-6.185545,"is_transit":false,"transit":false,"time":8},{"time":5,"distance":2029,"station_id":"KAT","transit":false,"is_transit":false,"i_long":106.816351,"i_lat":-6.20132,"station_name":"Karet","line":1},{"i_lat":-6.201433,"station_name":"Sudirman Baru","distance":471,"is_transit":false,"line":1,"transit":false,"i_long":106.819881,"station_id":"SUDB","time":1},{"station_name":"Sudirman","i_lat":-6.202263,"line":1,"transit":false,"i_long":106.822649,"station_id":"SUD","is_transit":false,"distance":280,"time":1},{"transit":true,"is_transit":true,"distance":3186,"i_lat":-6.209883,"station_id":"MRI","station_name":"Manggarai","time":4,"line":2,"i_long":106.84912},{"line":2,"station_name":"Cikini","station_id":"CKI","i_lat":-6.198556,"distance":1590,"i_long":106.840169,"time":4,"transit":false,"is_transit":false},{"i_long":106.832183,"station_name":"Gondangdia","transit":false,"is_transit":false,"i_lat":-6.186295,"station_id":"GDD","time":3,"distance":1750,"line":2},{"i_long":106.828284,"station_name":"Juanda","line":2,"station_id":"JUA","time":4,"i_lat":-6.166716,"transit":false,"is_transit":false,"distance":2015},{"line":2,"station_name":"Sawah Besar","distance":1149,"is_transit":false,"station_id":"SW","time":2,"i_lat":-6.160725,"transit":false,"i_long":106.827103},{"i_long":106.82482,"line":2,"station_id":"MGB","transit":false,"station_name":"Manggabesar","i_lat":-6.149769,"is_transit":false,"distance":906,"time":2},{"station_id":"JAY","i_lat":-6.141205,"transit":false,"line":2,"station_name":"Jayakarta","time":2,"is_transit":false,"i_long":106.820901,"distance":1080},{"i_long":106.812439,"transit":true,"station_id":"JAKK","distance":1264,"i_lat":-6.137569,"is_transit":true,"line":2,"time":4,"station_name":"Jakarta Kota"},{"time":3,"distance":1364,"line":4,"is_transit":true,"transit":true,"station_name":"Kampung Bandan","station_id":"KPB","i_lat":-6.132549,"i_long":106.826365},{"time":9,"transit":false,"i_lat":-6.144674,"station_name":"Angke","distance":4102,"i_long":106.79867,"is_transit":false,"line":1,"station_id":"AK"}],[{"i_lat":-6.169933,"station_id":"PI","transit":false,"is_transit":false,"station_name":"Poris","distance":0,"time":0,"line":5,"i_long":106.679458},{"time":3,"station_name":"Kalideres","is_transit":false,"line":5,"i_lat":-6.166068,"station_id":"KDS","transit":false,"distance":2548,"i_long":106.701612},{"time":3,"station_name":"Rawa Buaya","is_transit":false,"i_long":106.723064,"line":5,"transit":false,"i_lat":-6.162758,"distance":2504,"station_id":"RW"},{"is_transit":false,"time":4,"i_lat":-6.159876,"line":5,"station_id":"BOI","transit":false,"station_name":"Bojongindah","i_long":106.737035,"distance":1152},{"is_transit":false,"station_name":"Taman Kota","i_lat":-6.1587309999999995,"station_id":"TKO","line":5,"distance":2334,"time":2,"transit":false,"i_long":106.756522},{"i_long":106.771379,"is_transit":false,"station_name":"Pesing","station_id":"PSG","time":2,"i_lat":-6.161433,"distance":1614,"transit":false,"line":5},{"station_id":"GGL","distance":2036,"i_lat":-6.162021,"station_name":"Grogol","is_transit":false,"time":2,"i_long":106.788277,"transit":false,"line":5},{"i_lat":-6.155215,"station_id":"DU","line":1,"i_long":106.800832,"time":3,"transit":true,"distance":1700,"is_transit":true,"station_name":"Duri"},{"distance":3632,"line":1,"transit":false,"i_long":106.811091,"station_id":"THB","time":8,"station_name":"Tanah Abang","is_transit":false,"i_lat":-6.185545},{"station_name":"Karet","station_id":"KAT","transit":false,"distance":2029,"i_lat":-6.20132,"is_transit":false,"line":1,"i_long":106.816351,"time":5},{"station_id":"SUDB","i_long":106.819881,"station_name":"Sudirman Baru","i_lat":-6.201433,"time":1,"distance":471,"transit":false,"line":1,"is_transit":false},{"line":1,"i_lat":-6.202263,"station_name":"Sudirman","transit":false,"time":1,"station_id":"SUD","distance":280,"is_transit":false,"i_long":106.822649},{"is_transit":false,"station_name":"Manggarai","station_id":"MRI","distance":3186,"line":2,"i_lat":-6.209883,"i_long":106.84912,"transit":false,"time":4},{"station_id":"MTR","i_lat":-6.212485,"station_name":"Matraman","transit":false,"distance":1275,"line":1,"time":2,"i_long":106.858896,"is_transit":false},{"is_transit":true,"distance":1377,"transit":true,"station_name":"Jatinegara","time":8,"i_lat":-6.215091,"i_long":106.86807400000001,"line":1,"station_id":"JNG"},{"station_name":"Pondok Jati","transit":false,"station_id":"POK","distance":1236,"i_lat":-6.209188,"line":11,"time":2,"is_transit":false,"i_long":106.861737},{"time":2,"station_id":"KMT","line":11,"is_transit":false,"i_lat":-6.193792,"transit":false,"station_name":"Kramat","distance":1829,"i_long":106.855437},{"distance":973,"is_transit":false,"i_long":106.850107,"line":11,"i_lat":-6.185975,"transit":false,"station_name":"Gang Sentiong","station_id":"GST","time":1},{"station_name":"Pasar Senen","time":8,"distance":1567,"line":11,"station_id":"PSE","i_long":106.84368,"transit":false,"is_transit":false,"i_lat":-6.174784},{"transit":false,"is_transit":false,"time":4,"station_name":"Kemayoran","i_long":106.839204,"i_lat":-6.161728,"station_id":"KMO","line":11,"distance":1436},{"station_id":"RJW","time":5,"i_long":106.836569,"line":11,"distance":1901,"is_transit":false,"transit":false,"station_name":"Rajawali","i_lat":-6.14505},{"time":3,"transit":true,"i_long":106.826365,"i_lat":-6.132549,"line":4,"is_transit":true,"distance":1444,"station_name":"Kampung Bandan","station_id":"KPB"},{"transit":false,"time":9,"line":1,"station_name":"Angke","i_lat":-6.144674,"station_id":"AK","i_long":106.79867,"distance":4102,"is_transit":false}]]}