{"data":[[{"transit":false,"i_long":106.679458,"time":0,"distance":0,"line":5,"station_id":"PI","is_transit":false,"i_lat":-6.169933,"station_name":"Poris"},{"line":5,"distance":2548,"time":3,"station_name":"Kalideres","is_transit":false,"transit":false,"station_id":"KDS","i_lat":-6.166068,"i_long":106.701612},{"station_name":"Rawa Buaya","station_id":"RW","transit":false,"time":3,"distance":2504,"line":5,"i_lat":-6.162758,"is_transit":false,"i_long":106.723064},{"distance":1152,"transit":false,"time":4,"is_transit":false,"i_lat":-6.159876,"i_long":106.737035,"station_id":"BOI","line":0,"station_name":"Bojongindah"},{"time":2,"station_id":"TKO","i_long":106.756522,"transit":false,"distance":2334,"station_name":"Taman Kota","is_transit":false,"i_lat":-6.1587309999999995,"line":5},{"i_lat":-6.161433,"distance":1614,"station_id":"PSG","transit":false,"line":5,"station_name":"Pesing","i_long":106.771379,"time":2,"is_transit":false},{"transit":false,"i_lat":-6.162021,"time":2,"distance":2036,"station_name":"Grogol","line":5,"i_long":106.788277,"is_transit":false,"station_id":"GGL"},{"station_id":"DU","distance":1700,"is_transit":true,"time":3,"transit":true,"line":1,"station_name":"Duri","i_lat":-6.155215,"i_long":106.800832},{"time":4,"distance":1230,"i_long":106.79867,"is_transit":false,"transit":false,"line":0,"station_id":"AK","i_lat":-6.144674,"station_name":"Angke"}],[{"i_lat":-6.169933,"distance":0,"station_id":"PI","i_long":106.679458,"transit":false,"is_transit":false,"station_name":"Poris","time":0,"line":5},{"i_lat":-6.166068,"time":3,"distance":2548,"station_name":"Kalideres","line":5,"is_transit":false,"station_id":"KDS","transit":false,"i_long":106.701612},{"i_long":106.723064,"i_lat":-6.162758,"station_name":"Rawa Buaya","station_id":"RW","time":3,"line":5,"is_transit":false,"transit":false,"distance":2504},{"station_name":"Bojongindah","distance":1152,"time":4,"station_id":"BOI","is_transit":false,"transit":false,"i_lat":-6.159876,"i_long":106.737035,"line":0},{"station_id":"TKO","is_transit":false,"transit":false,"i_long":106.756522,"line":5,"time":2,"i_lat":-6.1587309999999995,"station_name":"Taman Kota","distance":2334},{"i_lat":-6.161433,"line":5,"i_long":106.771379,"station_name":"Pesing","time":2,"distance":1614,"station_id":"PSG","is_transit":false,"transit":false},{"line":5,"time":2,"transit":false,"is_transit":false,"distance":2036,"station_name":"Grogol","station_id":"GGL","i_lat":-6.162021,"i_long":106.788277},{"transit":true,"i_long":106.800832,"i_lat":-6.155215,"station_id":"DU","time":3,"distance":1700,"station_name":"Duri","is_transit":true,"line":1},{"distance":3632,"station_id":"THB","is_transit":true,"transit":false,"time":8,"i_lat":-6.185545,"i_long":106.811091,"line":1,"station_name":"Tanah Abang"},{"station_id":"KAT","i_lat":-6.20132,"time":5,"distance":2029,"transit":false,"i_long":106.816351,"line":1,"station_name":"Karet","is_transit":false},{"time":1,"station_name":"Sudirman Baru","is_transit":false,"station_id":"SUDB","i_long":106.819881,"transit":false,"i_lat":-6.201433,"line":1,"distance":471},{"distance":280,"station_name":"Sudirman","i_lat":-6.202263,"transit":false,"time":1,"station_id":"SUD","i_long":106.822649,"line":1,"is_transit":false},{"station_id":"MRI","distance":3186,"is_transit":true,"time":4,"line":0,"i_lat":-6.209883,"transit":true,"station_name":"Manggarai","i_long":106.84912},{"is_transit":false,"distance":1590,"station_id":"CKI","station_name":"Cikini","transit":false,"i_lat":-6.198556,"line":0,"time":4,"i_long":106.840169},{"distance":1750,"i_lat":-6.186295,"station_name":"Gondangdia","is_transit":false,"transit":false,"i_long":106.832183,"time":3,"line":2,"station_id":"GDD"},{"i_long":106.828284,"station_name":"Juanda","line":2,"station_id":"JUA","transit":false,"i_lat":-6.166716,"distance":2015,"is_transit":false,"time":4},{"station_id":"SW","i_lat":-6.160725,"time":2,"transit":false,"i_long":106.827103,"distance":1149,"station_name":"Sawah Besar","is_transit":false,"line":2},{"line":2,"is_transit":false,"time":2,"i_lat":-6.149769,"station_name":"Manggabesar","station_id":"MGB","i_long":106.82482,"transit":false,"distance":906},{"transit":false,"time":2,"station_id":"JAY","station_name":"Jayakarta","line":7,"distance":1080,"i_lat":-6.141205,"i_long":106.820901,"is_transit":false},{"line":0,"transit":true,"i_long":106.812439,"station_id":"JAKK","i_lat":-6.137569,"station_name":"Jakarta Kota","distance":1264,"is_transit":true,"time":4},{"station_name":"Kampung Bandan","time":3,"line":0,"i_lat":-6.132549,"station_id":"KPB","distance":1364,"transit":false,"i_long":106.826365,"is_transit":true},{"time":9,"i_lat":-6.144674,"i_long":106.79867,"distance":4102,"station_id":"AK","transit":false,"station_name":"Angke","line":0,"is_transit":false}],[{"is_transit":false,"transit":false,"line":5,"i_long":106.679458,"station_id":"PI","station_name":"Poris","i_lat":-6.169933,"time":0,"distance":0},{"distance":2548,"i_long":106.701612,"station_id":"KDS","station_name":"Kalideres","is_transit":false,"transit":false,"time":3,"i_lat":-6.166068,"line":5},{"time":3,"line":5,"is_transit":false,"transit":false,"station_id":"RW","i_lat":-6.162758,"distance":2504,"i_long":106.723064,"station_name":"Rawa Buaya"},{"transit":false,"is_transit":false,"i_lat":-6.159876,"time":4,"station_id":"BOI","distance":1152,"i_long":106.737035,"station_name":"Bojongindah","line":0},{"line":5,"is_transit":false,"i_long":106.756522,"i_lat":-6.1587309999999995,"transit":false,"station_name":"Taman Kota","station_id":"TKO","time":2,"distance":2334},{"time":2,"line":5,"station_name":"Pesing","station_id":"PSG","transit":false,"i_lat":-6.161433,"distance":1614,"is_transit":false,"i_long":106.771379},{"is_transit":false,"i_long":106.788277,"transit":false,"line":5,"station_id":"GGL","i_lat":-6.162021,"distance":2036,"station_name":"Grogol","time":2},{"time":3,"is_transit":true,"station_name":"Duri","transit":true,"distance":1700,"i_long":106.800832,"i_lat":-6.155215,"station_id":"DU","line":1},{"i_lat":-6.185545,"i_long":106.811091,"time":8,"is_transit":true,"distance":3632,"transit":false,"station_name":"Tanah Abang","line":1,"station_id":"THB"},{"transit":false,"is_transit":false,"distance":2029,"station_name":"Karet","i_lat":-6.20132,"time":5,"station_id":"KAT","i_long":106.816351,"line":1},{"station_name":"Sudirman Baru","is_transit":false,"station_id":"SUDB","i_lat":-6.201433,"i_long":106.819881,"line":1,"distance":471,"transit":false,"time":1},{"time":1,"distance":280,"station_name":"Sudirman","is_transit":false,"transit":false,"i_lat":-6.202263,"i_long":106.822649,"line":1,"station_id":"SUD"},{"i_lat":-6.209883,"station_name":"Manggarai","transit":false,"i_long":106.84912,"line":0,"station_id":"MRI","time":4,"is_transit":true,"distance":3186},{"time":2,"transit":false,"i_lat":-6.212485,"line":1,"i_long":106.858896,"distance":1275,"station_id":"MTR","is_transit":false,"station_name":"Matraman"},{"transit":true,"i_long":106.86807400000001,"line":0,"time":8,"station_id":"JNG","distance":1377,"is_transit":true,"i_lat":-6.215091,"station_name":"Jatinegara"},{"i_long":106.861737,"time":2,"line":11,"distance":1236,"is_transit":false,"i_lat":-6.209188,"station_id":"POK","transit":false,"station_name":"Pondok Jati"},{"station_name":"Kramat","station_id":"KMT","i_lat":-6.193792,"transit":false,"i_long":106.855437,"is_transit":false,"time":2,"distance":1829,"line":11},{"distance":973,"i_lat":-6.185975,"line":11,"time":1,"is_transit":false,"i_long":106.850107,"station_name":"Gang Sentiong","station_id":"GST","transit":false},{"station_name":"Pasar Senen","station_id":"PSE","transit":false,"time":8,"is_transit":false,"i_lat":-6.174784,"line":11,"i_long":106.84368,"distance":1567},{"i_long":106.839204,"station_name":"Kemayoran","i_lat":-6.161728,"time":4,"distance":1436,"station_id":"KMO","transit":false,"line":11,"is_transit":false},{"distance":1901,"transit":false,"time":5,"is_transit":false,"i_long":106.836569,"i_lat":-6.14505,"station_name":"Rajawali","line":11,"station_id":"RJW"},{"i_long":106.826365,"time":3,"distance":1444,"station_name":"Kampung Bandan","transit":true,"is_transit":true,"i_lat":-6.132549,"line":0,"station_id":"KPB"},{"i_long":106.79867,"station_name":"Angke","is_transit":false,"line":0,"station_id":"AK","i_lat":-6.144674,"distance":4102,"transit":false,"time":9}]]}