{"data":[[{"i_long":106.679458,"i_lat":-6.169933,"transit":false,"station_name":"Poris","is_transit":false,"time":0,"line":5,"distance":0,"station_id":"PI"},{"station_name":"Kalideres","is_transit":false,"time":3,"distance":2548,"i_lat":-6.166068,"i_long":106.701612,"station_id":"KDS","transit":false,"line":5},{"is_transit":false,"time":3,"i_long":106.723064,"transit":false,"station_name":"Rawa Buaya","distance":2504,"station_id":"RW","line":5,"i_lat":-6.162758},{"line":5,"time":4,"is_transit":false,"distance":1152,"i_lat":-6.159876,"transit":false,"station_name":"Bojongindah","station_id":"BOI","i_long":106.737035},{"distance":2334,"station_name":"Taman Kota","time":2,"i_lat":-6.1587309999999995,"i_long":106.756522,"is_transit":false,"transit":false,"line":5,"station_id":"TKO"},{"transit":false,"line":5,"i_lat":-6.161433,"time":2,"station_name":"Pesing","i_long":106.771379,"is_transit":false,"distance":1614,"station_id":"PSG"},{"i_long":106.788277,"line":5,"i_lat":-6.162021,"distance":2036,"station_name":"Grogol","station_id":"GGL","is_transit":false,"transit":false,"time":2},{"i_long":106.800832,"i_lat":-6.155215,"line":1,"is_transit":true,"station_name":"Duri","distance":1700,"transit":true,"time":3,"station_id":"DU"},{"i_lat":-6.144674,"station_id":"AK","i_long":106.79867,"time":4,"distance":1230,"line":1,"transit":false,"is_transit":false,"station_name":"Angke"}],[{"station_name":"Poris","time":0,"is_transit":false,"i_long":106.679458,"line":5,"transit":false,"station_id":"PI","i_lat":-6.169933,"distance":0},{"transit":false,"is_transit":false,"i_lat":-6.166068,"time":3,"station_name":"Kalideres","i_long":106.701612,"line":5,"station_id":"KDS","distance":2548},{"distance":2504,"i_long":106.723064,"line":5,"transit":false,"station_id":"RW","time":3,"station_name":"Rawa Buaya","i_lat":-6.162758,"is_transit":false},{"distance":1152,"time":4,"line":5,"station_id":"BOI","i_long":106.737035,"transit":false,"i_lat":-6.159876,"station_name":"Bojongindah","is_transit":false},{"is_transit":false,"time":2,"i_lat":-6.1587309999999995,"station_id":"TKO","station_name":"Taman Kota","i_long":106.756522,"distance":2334,"line":5,"transit":false},{"is_transit":false,"line":5,"i_long":106.771379,"distance":1614,"station_id":"PSG","time":2,"i_lat":-6.161433,"transit":false,"station_name":"Pesing"},{"i_long":106.788277,"distance":2036,"station_id":"GGL","i_lat":-6.162021,"line":5,"station_name":"Grogol","time":2,"transit":false,"is_transit":false},{"station_name":"Duri","station_id":"DU","is_transit":true,"transit":true,"line":1,"i_lat":-6.155215,"i_long":106.800832,"time":3,"distance":1700},{"transit":false,"i_lat":-6.185545,"station_id":"THB","is_transit":false,"time":8,"distance":3632,"line":1,"i_long":106.811091,"station_name":"Tanah Abang"},{"time":5,"transit":false,"i_lat":-6.20132,"distance":2029,"i_long":106.816351,"station_name":"Karet","is_transit":false,"station_id":"KAT","line":1},{"line":1,"station_name":"Sudirman Baru","transit":false,"i_lat":-6.201433,"distance":471,"station_id":"SUDB","time":1,"is_transit":false,"i_long":106.819881},{"i_lat":-6.202263,"i_long":106.822649,"station_id":"SUD","distance":280,"is_transit":false,"station_name":"Sudirman","time":1,"line":1,"transit":false},{"transit":true,"time":4,"distance":3186,"line":2,"i_long":106.84912,"i_lat":-6.209883,"is_transit":true,"station_name":"Manggarai","station_id":"MRI"},{"i_long":106.840169,"station_name":"Cikini","distance":1590,"line":2,"time":4,"station_id":"CKI","transit":false,"is_transit":false,"i_lat":-6.198556},{"i_lat":-6.186295,"line":2,"i_long":106.832183,"time":3,"is_transit":false,"transit":false,"station_id":"GDD","station_name":"Gondangdia","distance":1750},{"i_lat":-6.166716,"station_id":"JUA","transit":false,"i_long":106.828284,"time":4,"distance":2015,"is_transit":false,"station_name":"Juanda","line":2},{"line":2,"station_id":"SW","station_name":"Sawah Besar","distance":1149,"i_lat":-6.160725,"i_long":106.827103,"transit":false,"is_transit":false,"time":2},{"station_id":"MGB","i_lat":-6.149769,"i_long":106.82482,"distance":906,"line":2,"time":2,"station_name":"Manggabesar","is_transit":false,"transit":false},{"i_lat":-6.141205,"time":2,"i_long":106.820901,"distance":1080,"station_name":"Jayakarta","line":2,"station_id":"JAY","transit":false,"is_transit":false},{"line":2,"station_name":"Jakarta Kota","station_id":"JAKK","i_long":106.812439,"time":4,"distance":1264,"i_lat":-6.137569,"is_transit":true,"transit":true},{"distance":1364,"time":3,"i_long":106.826365,"station_name":"Kampung Bandan","transit":true,"is_transit":true,"line":4,"station_id":"KPB","i_lat":-6.132549},{"distance":4102,"station_id":"AK","line":1,"transit":false,"station_name":"Angke","time":9,"is_transit":false,"i_lat":-6.144674,"i_long":106.79867}],[{"distance":0,"station_name":"Poris","station_id":"PI","i_long":106.679458,"transit":false,"is_transit":false,"time":0,"i_lat":-6.169933,"line":5},{"distance":2548,"transit":false,"i_lat":-6.166068,"time":3,"i_long":106.701612,"line":5,"station_name":"Kalideres","station_id":"KDS","is_transit":false},{"station_name":"Rawa Buaya","i_lat":-6.162758,"transit":false,"is_transit":false,"i_long":106.723064,"line":5,"distance":2504,"time":3,"station_id":"RW"},{"transit":false,"line":5,"distance":1152,"is_transit":false,"i_lat":-6.159876,"station_id":"BOI","station_name":"Bojongindah","i_long":106.737035,"time":4},{"time":2,"distance":2334,"is_transit":false,"station_id":"TKO","transit":false,"station_name":"Taman Kota","i_lat":-6.1587309999999995,"i_long":106.756522,"line":5},{"time":2,"station_id":"PSG","i_lat":-6.161433,"station_name":"Pesing","is_transit":false,"i_long":106.771379,"transit":false,"line":5,"distance":1614},{"time":2,"distance":2036,"i_lat":-6.162021,"transit":false,"station_id":"GGL","station_name":"Grogol","i_long":106.788277,"line":5,"is_transit":false},{"i_lat":-6.155215,"station_name":"Duri","station_id":"DU","is_transit":true,"i_long":106.800832,"line":1,"distance":1700,"transit":true,"time":3},{"i_long":106.811091,"distance":3632,"line":1,"transit":false,"station_id":"THB","station_name":"Tanah Abang","is_transit":false,"i_lat":-6.185545,"time":8},{"time":5,"i_long":106.816351,"i_lat":-6.20132,"distance":2029,"station_name":"Karet","is_transit":false,"line":1,"transit":false,"station_id":"KAT"},{"station_name":"Sudirman Baru","station_id":"SUDB","transit":false,"is_transit":false,"i_lat":-6.201433,"distance":471,"time":1,"line":1,"i_long":106.819881},{"station_name":"Sudirman","i_lat":-6.202263,"distance":280,"is_transit":false,"time":1,"transit":false,"i_long":106.822649,"station_id":"SUD","line":1},{"is_transit":false,"time":4,"station_name":"Manggarai","line":2,"transit":false,"i_long":106.84912,"i_lat":-6.209883,"distance":3186,"station_id":"MRI"},{"i_lat":-6.212485,"distance":1275,"station_name":"Matraman","line":1,"i_long":106.858896,"time":2,"transit":false,"station_id":"MTR","is_transit":false},{"is_transit":true,"time":8,"transit":true,"i_long":106.86807400000001,"i_lat":-6.215091,"station_id":"JNG","station_name":"Jatinegara","distance":1377,"line":1},{"distance":1236,"time":2,"transit":false,"station_id":"POK","i_lat":-6.209188,"station_name":"Pondok Jati","line":11,"is_transit":false,"i_long":106.861737},{"transit":false,"station_id":"KMT","distance":1829,"station_name":"Kramat","time":2,"i_long":106.855437,"is_transit":false,"i_lat":-6.193792,"line":11},{"distance":973,"station_name":"Gang Sentiong","i_long":106.850107,"is_transit":false,"transit":false,"i_lat":-6.185975,"line":11,"station_id":"GST","time":1},{"is_transit":false,"station_name":"Pasar Senen","line":11,"transit":false,"distance":1567,"time":8,"station_id":"PSE","i_long":106.84368,"i_lat":-6.174784},{"i_lat":-6.161728,"i_long":106.839204,"station_name":"Kemayoran","transit":false,"line":11,"station_id":"KMO","time":4,"is_transit":false,"distance":1436},{"time":5,"transit":false,"station_name":"Rajawali","line":11,"distance":1901,"i_lat":-6.14505,"i_long":106.836569,"station_id":"RJW","is_transit":false},{"transit":true,"time":3,"station_name":"Kampung Bandan","i_long":106.826365,"distance":1444,"station_id":"KPB","line":4,"i_lat":-6.132549,"is_transit":true},{"line":1,"station_id":"AK","i_lat":-6.144674,"distance":4102,"transit":false,"is_transit":false,"station_name":"Angke","time":9,"i_long":106.79867}]]}