{"data":[[{"distance":0,"station_name":"Poris","i_lat":-6.169933,"station_id":"PI","is_transit":false,"time":0,"i_long":106.679458,"line":5,"transit":false},{"distance":2548,"i_long":106.701612,"time":3,"line":5,"i_lat":-6.166068,"station_id":"KDS","transit":false,"station_name":"Kalideres","is_transit":false},{"i_long":106.723064,"station_name":"Rawa Buaya","transit":false,"station_id":"RW","distance":2504,"is_transit":false,"i_lat":-6.162758,"time":3,"line":5},{"transit":false,"i_long":106.737035,"line":5,"i_lat":-6.159876,"station_name":"Bojongindah","station_id":"BOI","distance":1152,"is_transit":false,"time":4},{"is_transit":false,"station_name":"Taman Kota","station_id":"TKO","transit":false,"i_lat":-6.1587309999999995,"line":5,"time":2,"distance":2334,"i_long":106.756522},{"distance":1614,"transit":false,"time":2,"station_name":"Pesing","i_lat":-6.161433,"i_long":106.771379,"station_id":"PSG","is_transit":false,"line":5},{"i_lat":-6.162021,"transit":false,"is_transit":false,"time":2,"station_id":"GGL","i_long":106.788277,"distance":2036,"station_name":"Grogol","line":5},{"transit":true,"i_long":106.800832,"station_name":"Duri","distance":1700,"is_transit":true,"time":3,"i_lat":-6.155215,"station_id":"DU","line":1},{"time":8,"station_id":"THB","distance":3632,"i_lat":-6.185545,"is_transit":false,"i_long":106.811091,"transit":false,"line":1,"station_name":"Tanah Abang"},{"transit":false,"time":5,"distance":2029,"i_lat":-6.20132,"line":1,"station_id":"KAT","i_long":106.816351,"station_name":"Karet","is_transit":false},{"is_transit":false,"distance":471,"station_name":"Sudirman Baru","i_lat":-6.201433,"station_id":"SUDB","i_long":106.819881,"time":1,"line":1,"transit":false},{"i_long":106.822649,"is_transit":false,"distance":280,"time":1,"line":1,"transit":false,"station_id":"SUD","i_lat":-6.202263,"station_name":"Sudirman"},{"distance":3186,"time":4,"line":2,"station_name":"Manggarai","station_id":"MRI","i_lat":-6.209883,"transit":true,"is_transit":true,"i_long":106.84912},{"station_id":"TEB","i_long":106.857948,"transit":false,"distance":2610,"line":2,"is_transit":false,"i_lat":-6.226659,"time":4,"station_name":"Tebet"},{"i_long":106.856607,"station_id":"CW","line":2,"is_transit":false,"distance":1230,"station_name":"Cawang","transit":false,"time":2,"i_lat":-6.242512},{"transit":false,"distance":1546,"line":2,"is_transit":false,"station_name":"Duren Kalibata","i_long":106.85449,"station_id":"DRN","i_lat":-6.255332,"time":3},{"line":2,"station_id":"PSMB","station_name":"Pasar Minggu Baru","is_transit":false,"i_lat":-6.263214,"distance":824,"transit":false,"i_long":106.851577,"time":2},{"distance":2380,"station_name":"Pasar Minggu","i_long":106.843999,"line":2,"time":2,"is_transit":false,"transit":false,"station_id":"PSM","i_lat":-6.2842400000000005},{"station_id":"TNT","station_name":"Tanjung Barat","is_transit":false,"transit":false,"time":4,"distance":2820,"i_lat":-6.3080680000000005,"i_long":106.838896,"line":2},{"station_name":"Lenteng Agung","transit":false,"station_id":"LNA","distance":2671,"i_long":106.832616,"time":3,"i_lat":-6.330363,"line":2,"is_transit":false},{"i_long":106.834175,"line":2,"station_name":"Univ. Pancasila","i_lat":-6.339291,"transit":false,"station_id":"UP","is_transit":false,"time":2,"distance":1029},{"station_name":"Univ. Indonesia","line":2,"distance":2264,"is_transit":false,"transit":false,"i_lat":-6.360749,"i_long":106.831474,"station_id":"UI","time":3},{"station_name":"Pondok Cina","station_id":"POC","is_transit":false,"distance":1109,"transit":false,"i_lat":-6.369073,"i_long":106.831114,"line":2,"time":2},{"line":2,"i_long":106.819451,"is_transit":false,"time":4,"distance":2727,"transit":false,"i_lat":-6.391065,"station_id":"DPB","station_name":"Depokbaru"},{"station_name":"Depok","line":2,"is_transit":false,"station_id":"DP","transit":false,"time":3,"distance":1584,"i_lat":-6.405256,"i_long":106.816926},{"transit":false,"time":6,"i_long":106.800298,"i_lat":-6.448811,"line":2,"station_name":"Citayam","is_transit":false,"station_id":"CTA","distance":5084},{"i_long":106.792719,"station_id":"BJD","line":2,"i_lat":-6.493243,"distance":5197,"station_name":"Bojonggede","time":5,"is_transit":false,"transit":false}],[{"is_transit":false,"station_name":"Poris","station_id":"PI","transit":false,"i_long":106.679458,"i_lat":-6.169933,"line":5,"time":0,"distance":0},{"line":5,"distance":2548,"station_id":"KDS","transit":false,"i_lat":-6.166068,"station_name":"Kalideres","i_long":106.701612,"is_transit":false,"time":3},{"station_id":"RW","is_transit":false,"time":3,"distance":2504,"transit":false,"i_lat":-6.162758,"station_name":"Rawa Buaya","i_long":106.723064,"line":5},{"is_transit":false,"distance":1152,"station_name":"Bojongindah","transit":false,"line":5,"station_id":"BOI","time":4,"i_lat":-6.159876,"i_long":106.737035},{"i_lat":-6.1587309999999995,"transit":false,"distance":2334,"i_long":106.756522,"line":5,"is_transit":false,"station_id":"TKO","station_name":"Taman Kota","time":2},{"station_id":"PSG","i_lat":-6.161433,"line":5,"transit":false,"i_long":106.771379,"time":2,"distance":1614,"station_name":"Pesing","is_transit":false},{"station_id":"GGL","distance":2036,"i_lat":-6.162021,"transit":false,"line":5,"time":2,"i_long":106.788277,"station_name":"Grogol","is_transit":false},{"is_transit":true,"time":3,"i_long":106.800832,"station_name":"Duri","line":1,"transit":true,"station_id":"DU","distance":1700,"i_lat":-6.155215},{"line":1,"transit":false,"i_long":106.79867,"time":4,"i_lat":-6.144674,"station_id":"AK","is_transit":false,"distance":1230,"station_name":"Angke"},{"i_lat":-6.132549,"station_id":"KPB","station_name":"Kampung Bandan","transit":true,"i_long":106.826365,"time":9,"line":4,"is_transit":true,"distance":4102},{"station_name":"Jakarta Kota","is_transit":true,"i_long":106.812439,"line":2,"station_id":"JAKK","time":3,"i_lat":-6.137569,"transit":true,"distance":1364},{"i_long":106.820901,"station_name":"Jayakarta","distance":1264,"transit":false,"line":2,"station_id":"JAY","time":4,"i_lat":-6.141205,"is_transit":false},{"is_transit":false,"station_id":"MGB","i_lat":-6.149769,"time":2,"transit":false,"line":2,"station_name":"Manggabesar","distance":1080,"i_long":106.82482},{"time":2,"distance":906,"station_name":"Sawah Besar","line":2,"i_long":106.827103,"is_transit":false,"i_lat":-6.160725,"station_id":"SW","transit":false},{"station_id":"JUA","distance":1149,"station_name":"Juanda","line":2,"is_transit":false,"i_long":106.828284,"transit":false,"time":2,"i_lat":-6.166716},{"is_transit":false,"i_lat":-6.186295,"station_name":"Gondangdia","station_id":"GDD","transit":false,"time":4,"i_long":106.832183,"line":2,"distance":2015},{"transit":false,"station_id":"CKI","is_transit":false,"time":3,"i_long":106.840169,"station_name":"Cikini","i_lat":-6.198556,"distance":1750,"line":2},{"station_name":"Manggarai","time":4,"is_transit":false,"distance":1590,"i_lat":-6.209883,"station_id":"MRI","line":2,"transit":false,"i_long":106.84912},{"is_transit":false,"distance":2610,"i_long":106.857948,"time":4,"line":2,"station_id":"TEB","station_name":"Tebet","transit":false,"i_lat":-6.226659},{"transit":false,"i_lat":-6.242512,"station_id":"CW","line":2,"i_long":106.856607,"station_name":"Cawang","is_transit":false,"distance":1230,"time":2},{"i_lat":-6.255332,"time":3,"distance":1546,"is_transit":false,"i_long":106.85449,"station_name":"Duren Kalibata","station_id":"DRN","line":2,"transit":false},{"station_id":"PSMB","station_name":"Pasar Minggu Baru","transit":false,"line":2,"distance":824,"i_lat":-6.263214,"i_long":106.851577,"is_transit":false,"time":2},{"line":2,"transit":false,"station_id":"PSM","distance":2380,"i_lat":-6.2842400000000005,"station_name":"Pasar Minggu","i_long":106.843999,"is_transit":false,"time":2},{"distance":2820,"transit":false,"is_transit":false,"time":4,"line":2,"station_id":"TNT","i_lat":-6.3080680000000005,"station_name":"Tanjung Barat","i_long":106.838896},{"i_long":106.832616,"i_lat":-6.330363,"transit":false,"station_id":"LNA","time":3,"distance":2671,"line":2,"station_name":"Lenteng Agung","is_transit":false},{"transit":false,"station_name":"Univ. Pancasila","is_transit":false,"time":2,"i_lat":-6.339291,"i_long":106.834175,"line":2,"distance":1029,"station_id":"UP"},{"station_id":"UI","station_name":"Univ. Indonesia","distance":2264,"i_long":106.831474,"time":3,"is_transit":false,"i_lat":-6.360749,"transit":false,"line":2},{"is_transit":false,"station_name":"Pondok Cina","distance":1109,"i_lat":-6.369073,"transit":false,"i_long":106.831114,"line":2,"time":2,"station_id":"POC"},{"time":4,"station_name":"Depokbaru","distance":2727,"i_lat":-6.391065,"i_long":106.819451,"station_id":"DPB","transit":false,"line":2,"is_transit":false},{"station_name":"Depok","station_id":"DP","is_transit":false,"distance":1584,"i_lat":-6.405256,"transit":false,"time":3,"line":2,"i_long":106.816926},{"i_lat":-6.448811,"time":6,"station_id":"CTA","station_name":"Citayam","transit":false,"distance":5084,"i_long":106.800298,"is_transit":false,"line":2},{"station_name":"Bojonggede","i_long":106.792719,"is_transit":false,"station_id":"BJD","distance":5197,"line":2,"i_lat":-6.493243,"transit":false,"time":5}],[{"i_long":106.679458,"station_id":"PI","distance":0,"station_name":"Poris","line":5,"is_transit":false,"i_lat":-6.169933,"transit":false,"time":0},{"is_transit":false,"station_id":"KDS","distance":2548,"i_long":106.701612,"line":5,"time":3,"i_lat":-6.166068,"transit":false,"station_name":"Kalideres"},{"time":3,"station_id":"RW","is_transit":false,"i_long":106.723064,"i_lat":-6.162758,"distance":2504,"transit":false,"station_name":"Rawa Buaya","line":5},{"distance":1152,"is_transit":false,"i_lat":-6.159876,"i_long":106.737035,"line":5,"station_id":"BOI","station_name":"Bojongindah","time":4,"transit":false},{"is_transit":false,"time":2,"i_lat":-6.1587309999999995,"i_long":106.756522,"line":5,"station_id":"TKO","station_name":"Taman Kota","distance":2334,"transit":false},{"distance":1614,"line":5,"station_name":"Pesing","i_long":106.771379,"transit":false,"time":2,"i_lat":-6.161433,"station_id":"PSG","is_transit":false},{"transit":false,"i_long":106.788277,"i_lat":-6.162021,"station_name":"Grogol","time":2,"is_transit":false,"distance":2036,"line":5,"station_id":"GGL"},{"station_name":"Duri","station_id":"DU","line":1,"distance":1700,"i_lat":-6.155215,"is_transit":true,"i_long":106.800832,"time":3,"transit":true},{"i_lat":-6.144674,"station_name":"Angke","line":1,"station_id":"AK","time":4,"i_long":106.79867,"distance":1230,"transit":false,"is_transit":false},{"transit":true,"is_transit":true,"distance":4102,"station_name":"Kampung Bandan","time":9,"i_lat":-6.132549,"station_id":"KPB","i_long":106.826365,"line":4},{"station_name":"Rajawali","line":11,"i_long":106.836569,"distance":1444,"time":3,"i_lat":-6.14505,"station_id":"RJW","transit":false,"is_transit":false},{"i_lat":-6.161728,"station_id":"KMO","time":5,"transit":false,"line":11,"station_name":"Kemayoran","is_transit":false,"distance":1901,"i_long":106.839204},{"distance":1436,"transit":false,"time":4,"line":11,"station_name":"Pasar Senen","i_lat":-6.174784,"i_long":106.84368,"station_id":"PSE","is_transit":false},{"i_lat":-6.185975,"line":11,"transit":false,"i_long":106.850107,"time":8,"station_id":"GST","distance":1567,"station_name":"Gang Sentiong","is_transit":false},{"distance":973,"i_long":106.855437,"time":1,"transit":false,"line":11,"i_lat":-6.193792,"station_id":"KMT","station_name":"Kramat","is_transit":false},{"station_id":"POK","distance":1829,"transit":false,"station_name":"Pondok Jati","line":11,"is_transit":false,"time":2,"i_lat":-6.209188,"i_long":106.861737},{"station_id":"JNG","time":9,"station_name":"Jatinegara","i_long":106.86807400000001,"is_transit":true,"transit":true,"distance":1236,"line":1,"i_lat":-6.215091},{"time":2,"i_long":106.858896,"is_transit":false,"station_id":"MTR","station_name":"Matraman","distance":1377,"i_lat":-6.212485,"line":1,"transit":false},{"time":2,"transit":true,"station_id":"MRI","i_long":106.84912,"distance":1275,"line":2,"is_transit":true,"station_name":"Manggarai","i_lat":-6.209883},{"i_long":106.857948,"distance":2610,"transit":false,"line":2,"station_id":"TEB","is_transit":false,"time":4,"i_lat":-6.226659,"station_name":"Tebet"},{"station_id":"CW","distance":1230,"time":2,"line":2,"station_name":"Cawang","is_transit":false,"transit":false,"i_lat":-6.242512,"i_long":106.856607},{"i_lat":-6.255332,"station_name":"Duren Kalibata","transit":false,"line":2,"i_long":106.85449,"is_transit":false,"station_id":"DRN","time":3,"distance":1546},{"time":2,"line":2,"transit":false,"i_long":106.851577,"station_name":"Pasar Minggu Baru","is_transit":false,"distance":824,"i_lat":-6.263214,"station_id":"PSMB"},{"time":2,"station_id":"PSM","i_long":106.843999,"transit":false,"is_transit":false,"distance":2380,"i_lat":-6.2842400000000005,"station_name":"Pasar Minggu","line":2},{"transit":false,"distance":2820,"time":4,"station_id":"TNT","i_long":106.838896,"station_name":"Tanjung Barat","line":2,"i_lat":-6.3080680000000005,"is_transit":false},{"station_id":"LNA","station_name":"Lenteng Agung","time":3,"distance":2671,"i_lat":-6.330363,"i_long":106.832616,"transit":false,"is_transit":false,"line":2},{"station_id":"UP","time":2,"distance":1029,"line":2,"station_name":"Univ. Pancasila","transit":false,"is_transit":false,"i_lat":-6.339291,"i_long":106.834175},{"station_id":"UI","is_transit":false,"line":2,"station_name":"Univ. Indonesia","transit":false,"i_long":106.831474,"i_lat":-6.360749,"time":3,"distance":2264},{"distance":1109,"i_long":106.831114,"is_transit":false,"line":2,"transit":false,"time":2,"i_lat":-6.369073,"station_id":"POC","station_name":"Pondok Cina"},{"transit":false,"is_transit":false,"i_lat":-6.391065,"i_long":106.819451,"time":4,"line":2,"station_id":"DPB","station_name":"Depokbaru","distance":2727},{"transit":false,"time":3,"i_lat":-6.405256,"i_long":106.816926,"station_name":"Depok","station_id":"DP","is_transit":false,"line":2,"distance":1584},{"i_long":106.800298,"distance":5084,"line":2,"station_id":"CTA","station_name":"Citayam","transit":false,"is_transit":false,"time":6,"i_lat":-6.448811},{"is_transit":false,"distance":5197,"line":2,"i_lat":-6.493243,"time":5,"i_long":106.792719,"station_id":"BJD","station_name":"Bojonggede","transit":false}]]}