{"data":[[{"is_transit":false,"i_lat":-6.169933,"station_id":"PI","transit":false,"distance":0,"time":0,"station_name":"Poris","i_long":106.679458,"line":5},{"i_lat":-6.166068,"is_transit":false,"station_name":"Kalideres","time":3,"distance":2548,"transit":false,"i_long":106.701612,"line":5,"station_id":"KDS"},{"time":3,"station_id":"RW","station_name":"Rawa Buaya","i_long":106.723064,"line":5,"transit":false,"i_lat":-6.162758,"distance":2504,"is_transit":false},{"station_name":"Bojongindah","i_long":106.737035,"distance":1152,"transit":false,"time":4,"i_lat":-6.159876,"is_transit":false,"line":0,"station_id":"BOI"},{"distance":2334,"station_id":"TKO","is_transit":false,"transit":false,"i_lat":-6.1587309999999995,"time":2,"line":5,"i_long":106.756522,"station_name":"Taman Kota"},{"distance":1614,"i_lat":-6.161433,"station_id":"PSG","line":5,"i_long":106.771379,"station_name":"Pesing","is_transit":false,"transit":false,"time":2},{"station_id":"GGL","distance":2036,"is_transit":false,"transit":false,"i_long":106.788277,"line":5,"i_lat":-6.162021,"station_name":"Grogol","time":2},{"i_long":106.800832,"station_id":"DU","transit":true,"distance":1700,"station_name":"Duri","line":1,"i_lat":-6.155215,"is_transit":true,"time":3},{"is_transit":true,"i_lat":-6.185545,"i_long":106.811091,"distance":3632,"station_name":"Tanah Abang","line":1,"station_id":"THB","time":8,"transit":false},{"distance":2029,"station_id":"KAT","station_name":"Karet","transit":false,"time":5,"i_lat":-6.20132,"i_long":106.816351,"is_transit":false,"line":1},{"i_long":106.819881,"line":1,"i_lat":-6.201433,"station_name":"Sudirman Baru","time":1,"distance":471,"transit":false,"station_id":"SUDB","is_transit":false},{"time":1,"station_id":"SUD","i_long":106.822649,"transit":false,"i_lat":-6.202263,"is_transit":false,"line":1,"distance":280,"station_name":"Sudirman"},{"station_id":"MRI","station_name":"Manggarai","is_transit":true,"time":4,"line":0,"i_lat":-6.209883,"i_long":106.84912,"transit":true,"distance":3186},{"line":2,"time":4,"distance":2610,"station_name":"Tebet","i_long":106.857948,"transit":false,"i_lat":-6.226659,"is_transit":false,"station_id":"TEB"},{"time":2,"line":0,"station_name":"Cawang","is_transit":false,"i_long":106.856607,"station_id":"CW","i_lat":-6.242512,"transit":false,"distance":1230},{"distance":1546,"station_id":"DRN","line":0,"i_lat":-6.255332,"i_long":106.85449,"is_transit":false,"time":3,"station_name":"Duren Kalibata","transit":false},{"time":2,"i_lat":-6.263214,"station_name":"Pasar Minggu Baru","transit":false,"distance":824,"is_transit":false,"station_id":"PSMB","line":2,"i_long":106.851577},{"station_name":"Pasar Minggu","is_transit":false,"line":2,"station_id":"PSM","transit":false,"i_long":106.843999,"time":2,"i_lat":-6.2842400000000005,"distance":2380},{"distance":2820,"station_name":"Tanjung Barat","i_lat":-6.3080680000000005,"i_long":106.838896,"transit":false,"line":2,"station_id":"TNT","time":4,"is_transit":false},{"distance":2671,"station_id":"LNA","station_name":"Lenteng Agung","time":3,"is_transit":false,"i_lat":-6.330363,"i_long":106.832616,"line":2,"transit":false},{"station_name":"Univ. Pancasila","distance":1029,"i_lat":-6.339291,"time":2,"is_transit":false,"station_id":"UP","transit":false,"i_long":106.834175,"line":2},{"i_long":106.831474,"station_id":"UI","is_transit":false,"station_name":"Univ. Indonesia","line":2,"time":3,"distance":2264,"i_lat":-6.360749,"transit":false},{"i_lat":-6.369073,"is_transit":false,"transit":false,"line":2,"station_name":"Pondok Cina","i_long":106.831114,"distance":1109,"time":2,"station_id":"POC"},{"time":4,"is_transit":false,"station_name":"Depokbaru","transit":false,"i_long":106.819451,"station_id":"DPB","line":0,"distance":2727,"i_lat":-6.391065},{"station_name":"Depok","time":3,"i_long":106.816926,"transit":false,"distance":1584,"station_id":"DP","line":0,"i_lat":-6.405256,"is_transit":false},{"station_id":"CTA","station_name":"Citayam","time":6,"transit":false,"i_lat":-6.448811,"line":1,"i_long":106.800298,"is_transit":true,"distance":5084},{"station_id":"BJD","station_name":"Bojonggede","time":5,"is_transit":false,"i_long":106.792719,"i_lat":-6.493243,"line":0,"distance":5197,"transit":false}],[{"station_name":"Poris","station_id":"PI","is_transit":false,"i_lat":-6.169933,"i_long":106.679458,"time":0,"distance":0,"line":5,"transit":false},{"transit":false,"is_transit":false,"distance":2548,"i_lat":-6.166068,"line":5,"time":3,"station_id":"KDS","station_name":"Kalideres","i_long":106.701612},{"i_long":106.723064,"distance":2504,"transit":false,"time":3,"station_id":"RW","i_lat":-6.162758,"line":5,"is_transit":false,"station_name":"Rawa Buaya"},{"transit":false,"distance":1152,"i_lat":-6.159876,"station_name":"Bojongindah","line":0,"station_id":"BOI","i_long":106.737035,"time":4,"is_transit":false},{"line":5,"station_id":"TKO","is_transit":false,"distance":2334,"i_lat":-6.1587309999999995,"transit":false,"station_name":"Taman Kota","time":2,"i_long":106.756522},{"i_long":106.771379,"time":2,"station_id":"PSG","transit":false,"distance":1614,"i_lat":-6.161433,"station_name":"Pesing","is_transit":false,"line":5},{"i_lat":-6.162021,"line":5,"is_transit":false,"distance":2036,"transit":false,"time":2,"station_id":"GGL","station_name":"Grogol","i_long":106.788277},{"station_name":"Duri","station_id":"DU","time":3,"i_long":106.800832,"distance":1700,"transit":true,"i_lat":-6.155215,"is_transit":true,"line":1},{"is_transit":false,"time":4,"station_id":"AK","station_name":"Angke","i_lat":-6.144674,"transit":false,"i_long":106.79867,"line":0,"distance":1230},{"i_long":106.826365,"time":9,"is_transit":true,"station_id":"KPB","transit":false,"i_lat":-6.132549,"station_name":"Kampung Bandan","line":0,"distance":4102},{"time":3,"station_name":"Jakarta Kota","i_lat":-6.137569,"station_id":"JAKK","line":0,"i_long":106.812439,"distance":1364,"transit":true,"is_transit":true},{"transit":false,"distance":1264,"time":4,"station_id":"JAY","i_long":106.820901,"i_lat":-6.141205,"line":7,"is_transit":false,"station_name":"Jayakarta"},{"time":2,"station_id":"MGB","transit":false,"is_transit":false,"station_name":"Manggabesar","line":2,"distance":1080,"i_lat":-6.149769,"i_long":106.82482},{"station_name":"Sawah Besar","transit":false,"time":2,"station_id":"SW","distance":906,"i_long":106.827103,"i_lat":-6.160725,"is_transit":false,"line":2},{"time":2,"station_id":"JUA","station_name":"Juanda","i_lat":-6.166716,"transit":false,"is_transit":false,"i_long":106.828284,"line":2,"distance":1149},{"station_id":"GDD","distance":2015,"i_lat":-6.186295,"i_long":106.832183,"transit":false,"is_transit":false,"station_name":"Gondangdia","line":2,"time":4},{"is_transit":false,"station_id":"CKI","i_long":106.840169,"time":3,"distance":1750,"transit":false,"station_name":"Cikini","i_lat":-6.198556,"line":0},{"i_lat":-6.209883,"distance":1590,"is_transit":true,"transit":true,"line":0,"station_name":"Manggarai","station_id":"MRI","i_long":106.84912,"time":4},{"time":4,"transit":false,"distance":2610,"station_name":"Tebet","is_transit":false,"i_lat":-6.226659,"station_id":"TEB","line":2,"i_long":106.857948},{"station_id":"CW","distance":1230,"i_lat":-6.242512,"transit":false,"i_long":106.856607,"time":2,"station_name":"Cawang","is_transit":false,"line":0},{"station_name":"Duren Kalibata","distance":1546,"station_id":"DRN","transit":false,"is_transit":false,"i_long":106.85449,"i_lat":-6.255332,"line":0,"time":3},{"station_name":"Pasar Minggu Baru","line":2,"i_long":106.851577,"station_id":"PSMB","is_transit":false,"i_lat":-6.263214,"time":2,"transit":false,"distance":824},{"station_name":"Pasar Minggu","time":2,"i_long":106.843999,"transit":false,"is_transit":false,"line":2,"i_lat":-6.2842400000000005,"distance":2380,"station_id":"PSM"},{"distance":2820,"station_id":"TNT","station_name":"Tanjung Barat","i_lat":-6.3080680000000005,"time":4,"i_long":106.838896,"is_transit":false,"line":2,"transit":false},{"station_id":"LNA","time":3,"is_transit":false,"line":2,"transit":false,"station_name":"Lenteng Agung","i_lat":-6.330363,"i_long":106.832616,"distance":2671},{"station_id":"UP","transit":false,"i_lat":-6.339291,"station_name":"Univ. Pancasila","distance":1029,"time":2,"is_transit":false,"i_long":106.834175,"line":2},{"time":3,"distance":2264,"station_name":"Univ. Indonesia","transit":false,"line":2,"is_transit":false,"i_lat":-6.360749,"i_long":106.831474,"station_id":"UI"},{"station_name":"Pondok Cina","i_lat":-6.369073,"time":2,"transit":false,"line":2,"is_transit":false,"station_id":"POC","i_long":106.831114,"distance":1109},{"station_name":"Depokbaru","distance":2727,"is_transit":false,"i_long":106.819451,"time":4,"line":0,"station_id":"DPB","i_lat":-6.391065,"transit":false},{"station_name":"Depok","distance":1584,"station_id":"DP","is_transit":false,"i_long":106.816926,"time":3,"transit":false,"line":0,"i_lat":-6.405256},{"station_id":"CTA","is_transit":true,"i_lat":-6.448811,"transit":false,"station_name":"Citayam","i_long":106.800298,"distance":5084,"line":1,"time":6},{"distance":5197,"station_id":"BJD","time":5,"station_name":"Bojonggede","is_transit":false,"line":0,"i_lat":-6.493243,"transit":false,"i_long":106.792719}],[{"line":5,"station_id":"PI","i_long":106.679458,"distance":0,"time":0,"station_name":"Poris","transit":false,"is_transit":false,"i_lat":-6.169933},{"transit":false,"station_name":"Kalideres","is_transit":false,"line":5,"time":3,"distance":2548,"i_lat":-6.166068,"station_id":"KDS","i_long":106.701612},{"is_transit":false,"i_lat":-6.162758,"transit":false,"line":5,"time":3,"distance":2504,"station_name":"Rawa Buaya","station_id":"RW","i_long":106.723064},{"distance":1152,"station_name":"Bojongindah","transit":false,"station_id":"BOI","i_lat":-6.159876,"i_long":106.737035,"is_transit":false,"line":0,"time":4},{"line":5,"i_lat":-6.1587309999999995,"is_transit":false,"transit":false,"i_long":106.756522,"time":2,"station_id":"TKO","distance":2334,"station_name":"Taman Kota"},{"transit":false,"distance":1614,"i_lat":-6.161433,"station_id":"PSG","line":5,"i_long":106.771379,"time":2,"station_name":"Pesing","is_transit":false},{"time":2,"transit":false,"i_lat":-6.162021,"i_long":106.788277,"station_id":"GGL","distance":2036,"line":5,"station_name":"Grogol","is_transit":false},{"i_lat":-6.155215,"station_name":"Duri","station_id":"DU","transit":true,"time":3,"line":1,"is_transit":true,"distance":1700,"i_long":106.800832},{"station_name":"Angke","line":0,"is_transit":false,"i_long":106.79867,"distance":1230,"station_id":"AK","transit":false,"time":4,"i_lat":-6.144674},{"station_name":"Kampung Bandan","is_transit":true,"transit":true,"i_lat":-6.132549,"i_long":106.826365,"distance":4102,"line":0,"time":9,"station_id":"KPB"},{"time":3,"transit":false,"is_transit":false,"i_long":106.836569,"i_lat":-6.14505,"distance":1444,"station_name":"Rajawali","line":11,"station_id":"RJW"},{"is_transit":false,"transit":false,"time":5,"station_id":"KMO","i_lat":-6.161728,"station_name":"Kemayoran","line":11,"i_long":106.839204,"distance":1901},{"i_lat":-6.174784,"station_name":"Pasar Senen","i_long":106.84368,"line":11,"station_id":"PSE","time":4,"transit":false,"distance":1436,"is_transit":false},{"i_long":106.850107,"station_name":"Gang Sentiong","is_transit":false,"i_lat":-6.185975,"transit":false,"station_id":"GST","time":8,"line":11,"distance":1567},{"i_long":106.855437,"time":1,"station_name":"Kramat","is_transit":false,"station_id":"KMT","transit":false,"line":11,"distance":973,"i_lat":-6.193792},{"transit":false,"time":2,"station_id":"POK","distance":1829,"station_name":"Pondok Jati","is_transit":false,"i_lat":-6.209188,"i_long":106.861737,"line":11},{"is_transit":true,"station_name":"Jatinegara","station_id":"JNG","i_lat":-6.215091,"transit":true,"distance":1236,"time":9,"i_long":106.86807400000001,"line":0},{"line":1,"transit":false,"time":2,"is_transit":false,"i_long":106.858896,"station_id":"MTR","distance":1377,"station_name":"Matraman","i_lat":-6.212485},{"time":2,"i_lat":-6.209883,"i_long":106.84912,"transit":true,"line":0,"distance":1275,"station_id":"MRI","station_name":"Manggarai","is_transit":true},{"line":2,"i_lat":-6.226659,"is_transit":false,"distance":2610,"time":4,"station_name":"Tebet","transit":false,"station_id":"TEB","i_long":106.857948},{"time":2,"i_lat":-6.242512,"transit":false,"station_id":"CW","i_long":106.856607,"distance":1230,"station_name":"Cawang","is_transit":false,"line":0},{"station_name":"Duren Kalibata","line":0,"transit":false,"time":3,"i_long":106.85449,"is_transit":false,"i_lat":-6.255332,"station_id":"DRN","distance":1546},{"i_long":106.851577,"is_transit":false,"station_name":"Pasar Minggu Baru","distance":824,"station_id":"PSMB","transit":false,"i_lat":-6.263214,"line":2,"time":2},{"distance":2380,"station_name":"Pasar Minggu","transit":false,"i_lat":-6.2842400000000005,"line":2,"is_transit":false,"time":2,"station_id":"PSM","i_long":106.843999},{"line":2,"time":4,"transit":false,"is_transit":false,"i_lat":-6.3080680000000005,"i_long":106.838896,"station_name":"Tanjung Barat","station_id":"TNT","distance":2820},{"station_name":"Lenteng Agung","line":2,"i_long":106.832616,"is_transit":false,"transit":false,"i_lat":-6.330363,"station_id":"LNA","distance":2671,"time":3},{"distance":1029,"station_name":"Univ. Pancasila","is_transit":false,"i_lat":-6.339291,"station_id":"UP","line":2,"transit":false,"time":2,"i_long":106.834175},{"station_id":"UI","is_transit":false,"i_lat":-6.360749,"station_name":"Univ. Indonesia","transit":false,"time":3,"line":2,"distance":2264,"i_long":106.831474},{"time":2,"i_lat":-6.369073,"transit":false,"is_transit":false,"distance":1109,"line":2,"station_id":"POC","station_name":"Pondok Cina","i_long":106.831114},{"station_name":"Depokbaru","i_lat":-6.391065,"time":4,"i_long":106.819451,"station_id":"DPB","distance":2727,"transit":false,"is_transit":false,"line":0},{"station_id":"DP","i_lat":-6.405256,"i_long":106.816926,"time":3,"transit":false,"distance":1584,"station_name":"Depok","is_transit":false,"line":0},{"line":1,"i_long":106.800298,"station_id":"CTA","station_name":"Citayam","distance":5084,"is_transit":true,"time":6,"i_lat":-6.448811,"transit":false},{"station_id":"BJD","line":0,"station_name":"Bojonggede","distance":5197,"is_transit":false,"transit":false,"i_lat":-6.493243,"time":5,"i_long":106.792719}]]}