{"data":[[{"station_name":"Poris","line":5,"i_lat":-6.169933,"time":0,"i_long":106.679458,"distance":0,"station_id":"PI","transit":false,"is_transit":false},{"distance":2548,"i_lat":-6.166068,"station_name":"Kalideres","transit":false,"is_transit":false,"station_id":"KDS","line":5,"time":3,"i_long":106.701612},{"station_id":"RW","line":5,"time":3,"station_name":"Rawa Buaya","i_lat":-6.162758,"transit":false,"is_transit":false,"distance":2504,"i_long":106.723064},{"is_transit":false,"station_id":"BOI","station_name":"Bojongindah","line":5,"time":4,"i_lat":-6.159876,"distance":1152,"transit":false,"i_long":106.737035},{"i_lat":-6.1587309999999995,"transit":false,"i_long":106.756522,"distance":2334,"line":5,"station_name":"Taman Kota","station_id":"TKO","is_transit":false,"time":2},{"station_name":"Pesing","station_id":"PSG","distance":1614,"i_long":106.771379,"time":2,"line":5,"is_transit":false,"transit":false,"i_lat":-6.161433},{"distance":2036,"i_long":106.788277,"station_name":"Grogol","transit":false,"i_lat":-6.162021,"line":5,"time":2,"station_id":"GGL","is_transit":false},{"transit":true,"distance":1700,"is_transit":true,"station_id":"DU","i_lat":-6.155215,"i_long":106.800832,"time":3,"line":1,"station_name":"Duri"},{"time":8,"distance":3632,"line":1,"is_transit":false,"station_id":"THB","i_long":106.811091,"i_lat":-6.185545,"station_name":"Tanah Abang","transit":false},{"line":1,"distance":2029,"time":5,"is_transit":false,"station_id":"KAT","transit":false,"station_name":"Karet","i_lat":-6.20132,"i_long":106.816351},{"station_name":"Sudirman Baru","line":1,"station_id":"SUDB","transit":false,"i_long":106.819881,"distance":471,"time":1,"i_lat":-6.201433,"is_transit":false},{"transit":false,"i_lat":-6.202263,"station_name":"Sudirman","station_id":"SUD","i_long":106.822649,"line":1,"distance":280,"time":1,"is_transit":false},{"i_lat":-6.209883,"station_id":"MRI","transit":true,"is_transit":true,"station_name":"Manggarai","time":4,"distance":3186,"line":2,"i_long":106.84912},{"station_id":"TEB","distance":2610,"is_transit":false,"i_long":106.857948,"i_lat":-6.226659,"line":2,"transit":false,"time":4,"station_name":"Tebet"},{"distance":1230,"i_lat":-6.242512,"i_long":106.856607,"transit":false,"time":2,"line":2,"station_name":"Cawang","station_id":"CW","is_transit":false},{"transit":false,"time":3,"i_lat":-6.255332,"is_transit":false,"i_long":106.85449,"station_name":"Duren Kalibata","station_id":"DRN","distance":1546,"line":2},{"i_long":106.851577,"transit":false,"line":2,"station_id":"PSMB","distance":824,"time":2,"station_name":"Pasar Minggu Baru","is_transit":false,"i_lat":-6.263214},{"time":2,"is_transit":false,"station_id":"PSM","line":2,"i_lat":-6.2842400000000005,"distance":2380,"i_long":106.843999,"transit":false,"station_name":"Pasar Minggu"},{"transit":false,"distance":2820,"line":2,"station_id":"TNT","is_transit":false,"station_name":"Tanjung Barat","time":4,"i_lat":-6.3080680000000005,"i_long":106.838896},{"station_name":"Lenteng Agung","transit":false,"is_transit":false,"i_lat":-6.330363,"time":3,"station_id":"LNA","line":2,"i_long":106.832616,"distance":2671},{"line":2,"distance":1029,"i_long":106.834175,"time":2,"station_id":"UP","is_transit":false,"i_lat":-6.339291,"station_name":"Univ. Pancasila","transit":false},{"station_id":"UI","distance":2264,"time":3,"i_lat":-6.360749,"transit":false,"i_long":106.831474,"is_transit":false,"line":2,"station_name":"Univ. Indonesia"},{"station_id":"POC","i_long":106.831114,"distance":1109,"transit":false,"is_transit":false,"station_name":"Pondok Cina","line":2,"i_lat":-6.369073,"time":2},{"time":4,"station_name":"Depokbaru","station_id":"DPB","distance":2727,"line":2,"transit":false,"is_transit":false,"i_lat":-6.391065,"i_long":106.819451},{"line":2,"i_long":106.816926,"i_lat":-6.405256,"station_name":"Depok","distance":1584,"transit":false,"station_id":"DP","is_transit":false,"time":3},{"station_id":"CTA","transit":false,"i_lat":-6.448811,"i_long":106.800298,"distance":5084,"time":6,"is_transit":false,"station_name":"Citayam","line":2},{"i_lat":-6.493243,"distance":5197,"is_transit":false,"time":5,"station_id":"BJD","transit":false,"i_long":106.792719,"station_name":"Bojonggede","line":2}],[{"distance":0,"line":5,"station_id":"PI","station_name":"Poris","i_long":106.679458,"i_lat":-6.169933,"is_transit":false,"time":0,"transit":false},{"i_long":106.701612,"station_name":"Kalideres","station_id":"KDS","distance":2548,"line":5,"is_transit":false,"transit":false,"time":3,"i_lat":-6.166068},{"i_long":106.723064,"line":5,"time":3,"i_lat":-6.162758,"station_id":"RW","transit":false,"is_transit":false,"distance":2504,"station_name":"Rawa Buaya"},{"transit":false,"line":5,"i_long":106.737035,"distance":1152,"is_transit":false,"time":4,"station_name":"Bojongindah","station_id":"BOI","i_lat":-6.159876},{"distance":2334,"station_id":"TKO","is_transit":false,"i_lat":-6.1587309999999995,"line":5,"i_long":106.756522,"time":2,"station_name":"Taman Kota","transit":false},{"i_long":106.771379,"line":5,"transit":false,"is_transit":false,"distance":1614,"time":2,"i_lat":-6.161433,"station_name":"Pesing","station_id":"PSG"},{"station_id":"GGL","i_lat":-6.162021,"line":5,"i_long":106.788277,"station_name":"Grogol","time":2,"is_transit":false,"distance":2036,"transit":false},{"distance":1700,"is_transit":true,"i_lat":-6.155215,"transit":true,"station_name":"Duri","station_id":"DU","i_long":106.800832,"line":1,"time":3},{"distance":1230,"i_long":106.79867,"station_id":"AK","is_transit":false,"i_lat":-6.144674,"station_name":"Angke","line":1,"time":4,"transit":false},{"i_long":106.826365,"station_id":"KPB","time":9,"station_name":"Kampung Bandan","distance":4102,"i_lat":-6.132549,"is_transit":true,"line":4,"transit":true},{"time":3,"is_transit":true,"i_long":106.812439,"distance":1364,"i_lat":-6.137569,"line":2,"station_name":"Jakarta Kota","transit":true,"station_id":"JAKK"},{"station_name":"Jayakarta","line":2,"transit":false,"i_lat":-6.141205,"station_id":"JAY","distance":1264,"i_long":106.820901,"time":4,"is_transit":false},{"station_name":"Manggabesar","is_transit":false,"distance":1080,"line":2,"time":2,"i_long":106.82482,"i_lat":-6.149769,"station_id":"MGB","transit":false},{"station_name":"Sawah Besar","is_transit":false,"transit":false,"i_long":106.827103,"line":2,"station_id":"SW","time":2,"distance":906,"i_lat":-6.160725},{"is_transit":false,"distance":1149,"station_name":"Juanda","line":2,"i_long":106.828284,"i_lat":-6.166716,"transit":false,"station_id":"JUA","time":2},{"i_lat":-6.186295,"distance":2015,"i_long":106.832183,"station_name":"Gondangdia","transit":false,"station_id":"GDD","is_transit":false,"time":4,"line":2},{"transit":false,"station_name":"Cikini","i_lat":-6.198556,"station_id":"CKI","is_transit":false,"i_long":106.840169,"distance":1750,"time":3,"line":2},{"line":2,"transit":false,"station_name":"Manggarai","station_id":"MRI","i_lat":-6.209883,"time":4,"is_transit":false,"i_long":106.84912,"distance":1590},{"station_id":"TEB","i_lat":-6.226659,"transit":false,"i_long":106.857948,"station_name":"Tebet","is_transit":false,"distance":2610,"time":4,"line":2},{"station_name":"Cawang","time":2,"distance":1230,"station_id":"CW","i_long":106.856607,"i_lat":-6.242512,"is_transit":false,"transit":false,"line":2},{"time":3,"i_lat":-6.255332,"line":2,"is_transit":false,"distance":1546,"transit":false,"i_long":106.85449,"station_id":"DRN","station_name":"Duren Kalibata"},{"station_name":"Pasar Minggu Baru","time":2,"is_transit":false,"line":2,"station_id":"PSMB","transit":false,"distance":824,"i_lat":-6.263214,"i_long":106.851577},{"station_id":"PSM","distance":2380,"i_long":106.843999,"transit":false,"line":2,"is_transit":false,"time":2,"station_name":"Pasar Minggu","i_lat":-6.2842400000000005},{"station_name":"Tanjung Barat","is_transit":false,"distance":2820,"i_lat":-6.3080680000000005,"station_id":"TNT","i_long":106.838896,"time":4,"line":2,"transit":false},{"station_name":"Lenteng Agung","transit":false,"is_transit":false,"line":2,"station_id":"LNA","distance":2671,"i_lat":-6.330363,"time":3,"i_long":106.832616},{"transit":false,"is_transit":false,"time":2,"i_lat":-6.339291,"distance":1029,"i_long":106.834175,"station_id":"UP","line":2,"station_name":"Univ. Pancasila"},{"distance":2264,"station_name":"Univ. Indonesia","i_long":106.831474,"station_id":"UI","is_transit":false,"i_lat":-6.360749,"time":3,"line":2,"transit":false},{"time":2,"i_lat":-6.369073,"is_transit":false,"line":2,"transit":false,"station_name":"Pondok Cina","i_long":106.831114,"station_id":"POC","distance":1109},{"i_long":106.819451,"distance":2727,"line":2,"is_transit":false,"station_name":"Depokbaru","i_lat":-6.391065,"time":4,"transit":false,"station_id":"DPB"},{"line":2,"station_name":"Depok","i_lat":-6.405256,"distance":1584,"time":3,"i_long":106.816926,"is_transit":false,"station_id":"DP","transit":false},{"i_long":106.800298,"distance":5084,"line":2,"time":6,"station_name":"Citayam","station_id":"CTA","transit":false,"is_transit":false,"i_lat":-6.448811},{"i_long":106.792719,"distance":5197,"is_transit":false,"time":5,"station_name":"Bojonggede","transit":false,"station_id":"BJD","line":2,"i_lat":-6.493243}],[{"transit":false,"station_id":"PI","distance":0,"i_lat":-6.169933,"station_name":"Poris","is_transit":false,"i_long":106.679458,"line":5,"time":0},{"time":3,"station_name":"Kalideres","station_id":"KDS","distance":2548,"line":5,"is_transit":false,"i_long":106.701612,"transit":false,"i_lat":-6.166068},{"is_transit":false,"i_lat":-6.162758,"station_id":"RW","transit":false,"line":5,"time":3,"station_name":"Rawa Buaya","distance":2504,"i_long":106.723064},{"transit":false,"time":4,"i_long":106.737035,"station_id":"BOI","station_name":"Bojongindah","is_transit":false,"line":5,"distance":1152,"i_lat":-6.159876},{"station_id":"TKO","is_transit":false,"i_long":106.756522,"station_name":"Taman Kota","transit":false,"distance":2334,"i_lat":-6.1587309999999995,"line":5,"time":2},{"station_id":"PSG","is_transit":false,"distance":1614,"transit":false,"i_lat":-6.161433,"station_name":"Pesing","time":2,"line":5,"i_long":106.771379},{"time":2,"station_id":"GGL","i_long":106.788277,"transit":false,"i_lat":-6.162021,"station_name":"Grogol","distance":2036,"line":5,"is_transit":false},{"distance":1700,"station_id":"DU","time":3,"is_transit":true,"transit":true,"i_lat":-6.155215,"line":1,"station_name":"Duri","i_long":106.800832},{"distance":1230,"transit":false,"i_lat":-6.144674,"time":4,"station_id":"AK","is_transit":false,"line":1,"i_long":106.79867,"station_name":"Angke"},{"distance":4102,"time":9,"line":4,"i_long":106.826365,"i_lat":-6.132549,"transit":true,"station_id":"KPB","station_name":"Kampung Bandan","is_transit":true},{"i_long":106.836569,"line":11,"station_id":"RJW","station_name":"Rajawali","is_transit":false,"distance":1444,"i_lat":-6.14505,"transit":false,"time":3},{"is_transit":false,"i_lat":-6.161728,"i_long":106.839204,"station_id":"KMO","time":5,"distance":1901,"line":11,"transit":false,"station_name":"Kemayoran"},{"station_id":"PSE","station_name":"Pasar Senen","line":11,"transit":false,"i_lat":-6.174784,"is_transit":false,"i_long":106.84368,"time":4,"distance":1436},{"station_name":"Gang Sentiong","transit":false,"distance":1567,"is_transit":false,"line":11,"station_id":"GST","i_long":106.850107,"time":8,"i_lat":-6.185975},{"i_lat":-6.193792,"station_id":"KMT","distance":973,"line":11,"station_name":"Kramat","transit":false,"i_long":106.855437,"time":1,"is_transit":false},{"is_transit":false,"time":2,"distance":1829,"line":11,"station_name":"Pondok Jati","i_lat":-6.209188,"station_id":"POK","transit":false,"i_long":106.861737},{"station_name":"Jatinegara","i_lat":-6.215091,"station_id":"JNG","transit":true,"is_transit":true,"time":9,"distance":1236,"i_long":106.86807400000001,"line":1},{"i_long":106.858896,"station_id":"MTR","distance":1377,"line":1,"time":2,"transit":false,"i_lat":-6.212485,"station_name":"Matraman","is_transit":false},{"i_lat":-6.209883,"station_name":"Manggarai","time":2,"line":2,"distance":1275,"transit":true,"is_transit":true,"i_long":106.84912,"station_id":"MRI"},{"i_lat":-6.226659,"distance":2610,"station_id":"TEB","i_long":106.857948,"line":2,"is_transit":false,"station_name":"Tebet","transit":false,"time":4},{"station_name":"Cawang","is_transit":false,"i_long":106.856607,"transit":false,"station_id":"CW","distance":1230,"time":2,"i_lat":-6.242512,"line":2},{"transit":false,"line":2,"is_transit":false,"time":3,"distance":1546,"station_name":"Duren Kalibata","station_id":"DRN","i_long":106.85449,"i_lat":-6.255332},{"is_transit":false,"line":2,"station_name":"Pasar Minggu Baru","time":2,"distance":824,"i_lat":-6.263214,"station_id":"PSMB","transit":false,"i_long":106.851577},{"is_transit":false,"distance":2380,"station_name":"Pasar Minggu","time":2,"i_long":106.843999,"i_lat":-6.2842400000000005,"transit":false,"station_id":"PSM","line":2},{"transit":false,"distance":2820,"i_lat":-6.3080680000000005,"line":2,"station_id":"TNT","is_transit":false,"time":4,"i_long":106.838896,"station_name":"Tanjung Barat"},{"i_lat":-6.330363,"time":3,"station_name":"Lenteng Agung","transit":false,"is_transit":false,"distance":2671,"station_id":"LNA","i_long":106.832616,"line":2},{"is_transit":false,"transit":false,"line":2,"i_lat":-6.339291,"distance":1029,"station_name":"Univ. Pancasila","i_long":106.834175,"time":2,"station_id":"UP"},{"time":3,"is_transit":false,"i_lat":-6.360749,"station_id":"UI","distance":2264,"i_long":106.831474,"line":2,"transit":false,"station_name":"Univ. Indonesia"},{"station_name":"Pondok Cina","distance":1109,"transit":false,"station_id":"POC","is_transit":false,"i_lat":-6.369073,"i_long":106.831114,"time":2,"line":2},{"station_id":"DPB","is_transit":false,"time":4,"transit":false,"i_long":106.819451,"station_name":"Depokbaru","distance":2727,"line":2,"i_lat":-6.391065},{"transit":false,"i_lat":-6.405256,"line":2,"distance":1584,"station_id":"DP","is_transit":false,"time":3,"i_long":106.816926,"station_name":"Depok"},{"i_lat":-6.448811,"is_transit":false,"transit":false,"distance":5084,"i_long":106.800298,"station_id":"CTA","time":6,"station_name":"Citayam","line":2},{"i_lat":-6.493243,"time":5,"i_long":106.792719,"transit":false,"station_id":"BJD","is_transit":false,"line":2,"station_name":"Bojonggede","distance":5197}]]}