{"data":[[{"i_long":106.679458,"station_id":"PI","i_lat":-6.169933,"station_name":"Poris","distance":0,"time":0,"transit":false,"line":5,"is_transit":false},{"transit":false,"time":3,"station_id":"KDS","line":5,"distance":2548,"i_lat":-6.166068,"is_transit":false,"i_long":106.701612,"station_name":"Kalideres"},{"transit":false,"station_name":"Rawa Buaya","station_id":"RW","i_lat":-6.162758,"i_long":106.723064,"line":5,"time":3,"distance":2504,"is_transit":false},{"distance":1152,"line":5,"transit":false,"station_name":"Bojongindah","i_lat":-6.159876,"station_id":"BOI","time":4,"i_long":106.737035,"is_transit":false},{"i_lat":-6.1587309999999995,"station_name":"Taman Kota","time":2,"distance":2334,"transit":false,"station_id":"TKO","is_transit":false,"i_long":106.756522,"line":5},{"station_id":"PSG","distance":1614,"line":5,"i_lat":-6.161433,"time":2,"is_transit":false,"transit":false,"i_long":106.771379,"station_name":"Pesing"},{"is_transit":false,"station_id":"GGL","i_lat":-6.162021,"distance":2036,"transit":false,"line":5,"time":2,"i_long":106.788277,"station_name":"Grogol"},{"i_long":106.800832,"is_transit":true,"station_id":"DU","station_name":"Duri","i_lat":-6.155215,"distance":1700,"time":3,"transit":true,"line":1},{"station_id":"THB","i_long":106.811091,"distance":3632,"transit":false,"station_name":"Tanah Abang","i_lat":-6.185545,"is_transit":false,"line":1,"time":8},{"station_name":"Karet","i_long":106.816351,"distance":2029,"is_transit":false,"time":5,"station_id":"KAT","i_lat":-6.20132,"transit":false,"line":1},{"station_id":"SUDB","line":1,"transit":false,"i_lat":-6.201433,"time":1,"i_long":106.819881,"distance":471,"station_name":"Sudirman Baru","is_transit":false},{"time":1,"distance":280,"station_name":"Sudirman","i_lat":-6.202263,"line":1,"transit":false,"is_transit":false,"i_long":106.822649,"station_id":"SUD"},{"line":2,"transit":false,"station_name":"Manggarai","distance":3186,"time":4,"i_lat":-6.209883,"station_id":"MRI","i_long":106.84912,"is_transit":false},{"station_id":"MTR","i_long":106.858896,"transit":false,"time":2,"i_lat":-6.212485,"station_name":"Matraman","distance":1275,"line":1,"is_transit":false},{"i_long":106.86807400000001,"is_transit":false,"station_id":"JNG","time":8,"transit":false,"line":1,"station_name":"Jatinegara","distance":1377,"i_lat":-6.215091},{"station_id":"KLD","i_long":106.899548,"transit":false,"i_lat":-6.2135,"distance":3395,"time":3,"is_transit":false,"station_name":"Klender","line":1},{"distance":3100,"i_lat":-6.215568,"line":1,"station_name":"Buaran","i_long":106.922662,"transit":false,"station_id":"BUA","time":2,"is_transit":false}],[{"transit":false,"distance":0,"station_id":"PI","line":5,"i_lat":-6.169933,"i_long":106.679458,"time":0,"station_name":"Poris","is_transit":false},{"station_id":"KDS","i_long":106.701612,"time":3,"i_lat":-6.166068,"distance":2548,"transit":false,"is_transit":false,"station_name":"Kalideres","line":5},{"station_name":"Rawa Buaya","transit":false,"is_transit":false,"i_lat":-6.162758,"time":3,"station_id":"RW","distance":2504,"line":5,"i_long":106.723064},{"i_lat":-6.159876,"station_name":"Bojongindah","distance":1152,"transit":false,"is_transit":false,"time":4,"i_long":106.737035,"station_id":"BOI","line":5},{"i_long":106.756522,"distance":2334,"station_name":"Taman Kota","transit":false,"i_lat":-6.1587309999999995,"time":2,"is_transit":false,"station_id":"TKO","line":5},{"i_long":106.771379,"station_id":"PSG","line":5,"station_name":"Pesing","time":2,"distance":1614,"transit":false,"is_transit":false,"i_lat":-6.161433},{"distance":2036,"time":2,"transit":false,"is_transit":false,"i_lat":-6.162021,"i_long":106.788277,"line":5,"station_id":"GGL","station_name":"Grogol"},{"time":3,"i_long":106.800832,"line":1,"station_name":"Duri","distance":1700,"station_id":"DU","is_transit":true,"i_lat":-6.155215,"transit":true},{"station_id":"AK","i_long":106.79867,"station_name":"Angke","transit":false,"is_transit":false,"i_lat":-6.144674,"line":1,"distance":1230,"time":4},{"distance":4102,"time":9,"i_lat":-6.132549,"is_transit":true,"transit":true,"line":4,"station_id":"KPB","station_name":"Kampung Bandan","i_long":106.826365},{"i_lat":-6.14505,"is_transit":false,"station_name":"Rajawali","station_id":"RJW","distance":1444,"time":3,"i_long":106.836569,"line":11,"transit":false},{"station_id":"KMO","station_name":"Kemayoran","i_lat":-6.161728,"distance":1901,"is_transit":false,"transit":false,"time":5,"i_long":106.839204,"line":11},{"time":4,"is_transit":false,"transit":false,"distance":1436,"station_id":"PSE","i_lat":-6.174784,"station_name":"Pasar Senen","i_long":106.84368,"line":11},{"time":8,"distance":1567,"i_lat":-6.185975,"line":11,"station_name":"Gang Sentiong","station_id":"GST","i_long":106.850107,"is_transit":false,"transit":false},{"i_long":106.855437,"transit":false,"i_lat":-6.193792,"distance":973,"time":1,"is_transit":false,"station_id":"KMT","line":11,"station_name":"Kramat"},{"station_id":"POK","i_lat":-6.209188,"transit":false,"station_name":"Pondok Jati","i_long":106.861737,"line":11,"distance":1829,"is_transit":false,"time":2},{"distance":1236,"is_transit":true,"station_id":"JNG","transit":true,"i_lat":-6.215091,"i_long":106.86807400000001,"line":1,"station_name":"Jatinegara","time":9},{"is_transit":false,"i_lat":-6.2135,"line":1,"distance":3395,"time":3,"transit":false,"i_long":106.899548,"station_id":"KLD","station_name":"Klender"},{"station_name":"Buaran","i_lat":-6.215568,"distance":3100,"transit":false,"station_id":"BUA","is_transit":false,"i_long":106.922662,"time":2,"line":1}],[{"i_long":106.679458,"transit":false,"is_transit":false,"station_id":"PI","line":5,"i_lat":-6.169933,"distance":0,"station_name":"Poris","time":0},{"station_name":"Kalideres","time":3,"is_transit":false,"i_lat":-6.166068,"station_id":"KDS","transit":false,"i_long":106.701612,"distance":2548,"line":5},{"i_long":106.723064,"distance":2504,"station_id":"RW","line":5,"i_lat":-6.162758,"station_name":"Rawa Buaya","time":3,"transit":false,"is_transit":false},{"line":5,"i_long":106.737035,"i_lat":-6.159876,"station_name":"Bojongindah","transit":false,"time":4,"is_transit":false,"station_id":"BOI","distance":1152},{"station_name":"Taman Kota","distance":2334,"line":5,"station_id":"TKO","time":2,"i_lat":-6.1587309999999995,"i_long":106.756522,"is_transit":false,"transit":false},{"i_long":106.771379,"distance":1614,"is_transit":false,"time":2,"line":5,"i_lat":-6.161433,"transit":false,"station_name":"Pesing","station_id":"PSG"},{"i_lat":-6.162021,"line":5,"is_transit":false,"station_name":"Grogol","station_id":"GGL","distance":2036,"i_long":106.788277,"transit":false,"time":2},{"time":3,"station_name":"Duri","distance":1700,"is_transit":true,"transit":true,"i_lat":-6.155215,"i_long":106.800832,"line":1,"station_id":"DU"},{"is_transit":false,"transit":false,"distance":1230,"line":1,"station_id":"AK","i_long":106.79867,"i_lat":-6.144674,"time":4,"station_name":"Angke"},{"line":4,"transit":true,"i_lat":-6.132549,"time":9,"i_long":106.826365,"distance":4102,"station_name":"Kampung Bandan","is_transit":true,"station_id":"KPB"},{"transit":true,"i_lat":-6.137569,"is_transit":true,"line":2,"time":3,"station_name":"Jakarta Kota","distance":1364,"station_id":"JAKK","i_long":106.812439},{"transit":false,"station_id":"JAY","station_name":"Jayakarta","line":2,"i_lat":-6.141205,"distance":1264,"time":4,"is_transit":false,"i_long":106.820901},{"transit":false,"is_transit":false,"time":2,"station_id":"MGB","distance":1080,"i_long":106.82482,"station_name":"Manggabesar","line":2,"i_lat":-6.149769},{"time":2,"station_id":"SW","line":2,"i_long":106.827103,"transit":false,"distance":906,"is_transit":false,"i_lat":-6.160725,"station_name":"Sawah Besar"},{"i_long":106.828284,"line":2,"transit":false,"is_transit":false,"station_name":"Juanda","i_lat":-6.166716,"time":2,"station_id":"JUA","distance":1149},{"i_lat":-6.186295,"station_id":"GDD","line":2,"time":4,"distance":2015,"transit":false,"i_long":106.832183,"is_transit":false,"station_name":"Gondangdia"},{"station_id":"CKI","is_transit":false,"i_lat":-6.198556,"line":2,"station_name":"Cikini","distance":1750,"time":3,"i_long":106.840169,"transit":false},{"station_name":"Manggarai","i_lat":-6.209883,"is_transit":true,"station_id":"MRI","i_long":106.84912,"transit":true,"distance":1590,"time":4,"line":2},{"time":2,"transit":false,"is_transit":false,"station_name":"Matraman","distance":1275,"i_lat":-6.212485,"i_long":106.858896,"station_id":"MTR","line":1},{"time":8,"station_id":"JNG","i_lat":-6.215091,"line":1,"transit":false,"is_transit":false,"station_name":"Jatinegara","i_long":106.86807400000001,"distance":1377},{"distance":3395,"line":1,"i_long":106.899548,"time":3,"station_name":"Klender","transit":false,"is_transit":false,"i_lat":-6.2135,"station_id":"KLD"},{"station_name":"Buaran","station_id":"BUA","transit":false,"time":2,"distance":3100,"i_long":106.922662,"is_transit":false,"line":1,"i_lat":-6.215568}],[{"is_transit":false,"station_id":"PI","distance":0,"transit":false,"i_long":106.679458,"station_name":"Poris","time":0,"i_lat":-6.169933,"line":5},{"is_transit":false,"station_id":"KDS","transit":false,"distance":2548,"station_name":"Kalideres","time":3,"line":5,"i_lat":-6.166068,"i_long":106.701612},{"transit":false,"distance":2504,"is_transit":false,"time":3,"station_name":"Rawa Buaya","line":5,"i_long":106.723064,"station_id":"RW","i_lat":-6.162758},{"transit":false,"i_lat":-6.159876,"is_transit":false,"station_name":"Bojongindah","station_id":"BOI","i_long":106.737035,"distance":1152,"line":5,"time":4},{"is_transit":false,"i_lat":-6.1587309999999995,"time":2,"transit":false,"station_id":"TKO","i_long":106.756522,"station_name":"Taman Kota","distance":2334,"line":5},{"transit":false,"i_lat":-6.161433,"line":5,"station_name":"Pesing","i_long":106.771379,"distance":1614,"time":2,"station_id":"PSG","is_transit":false},{"station_id":"GGL","i_long":106.788277,"is_transit":false,"time":2,"station_name":"Grogol","transit":false,"line":5,"distance":2036,"i_lat":-6.162021},{"i_long":106.800832,"i_lat":-6.155215,"transit":true,"station_id":"DU","distance":1700,"station_name":"Duri","time":3,"is_transit":true,"line":1},{"distance":3632,"i_long":106.811091,"station_id":"THB","line":1,"station_name":"Tanah Abang","is_transit":false,"transit":false,"i_lat":-6.185545,"time":8},{"station_name":"Karet","i_long":106.816351,"distance":2029,"is_transit":false,"station_id":"KAT","i_lat":-6.20132,"time":5,"transit":false,"line":1},{"transit":false,"station_name":"Sudirman Baru","time":1,"distance":471,"is_transit":false,"i_lat":-6.201433,"i_long":106.819881,"line":1,"station_id":"SUDB"},{"station_id":"SUD","i_long":106.822649,"i_lat":-6.202263,"line":1,"station_name":"Sudirman","transit":false,"time":1,"distance":280,"is_transit":false},{"distance":3186,"is_transit":true,"line":2,"station_name":"Manggarai","i_lat":-6.209883,"i_long":106.84912,"station_id":"MRI","transit":true,"time":4},{"station_name":"Cikini","distance":1590,"is_transit":false,"i_lat":-6.198556,"i_long":106.840169,"transit":false,"time":4,"station_id":"CKI","line":2},{"i_lat":-6.186295,"time":3,"distance":1750,"transit":false,"is_transit":false,"station_id":"GDD","i_long":106.832183,"line":2,"station_name":"Gondangdia"},{"distance":2015,"is_transit":false,"line":2,"i_long":106.828284,"station_name":"Juanda","time":4,"station_id":"JUA","i_lat":-6.166716,"transit":false},{"is_transit":false,"distance":1149,"station_id":"SW","line":2,"i_long":106.827103,"i_lat":-6.160725,"time":2,"station_name":"Sawah Besar","transit":false},{"distance":906,"transit":false,"station_id":"MGB","station_name":"Manggabesar","line":2,"time":2,"i_long":106.82482,"i_lat":-6.149769,"is_transit":false},{"is_transit":false,"i_long":106.820901,"distance":1080,"station_id":"JAY","time":2,"line":2,"i_lat":-6.141205,"transit":false,"station_name":"Jayakarta"},{"i_long":106.812439,"i_lat":-6.137569,"line":2,"distance":1264,"transit":true,"time":4,"station_id":"JAKK","is_transit":true,"station_name":"Jakarta Kota"},{"i_lat":-6.132549,"i_long":106.826365,"station_name":"Kampung Bandan","time":3,"transit":true,"is_transit":true,"line":4,"distance":1364,"station_id":"KPB"},{"distance":1444,"i_long":106.836569,"is_transit":false,"station_name":"Rajawali","station_id":"RJW","line":11,"time":3,"i_lat":-6.14505,"transit":false},{"station_id":"KMO","time":5,"station_name":"Kemayoran","is_transit":false,"transit":false,"i_long":106.839204,"line":11,"i_lat":-6.161728,"distance":1901},{"station_id":"PSE","is_transit":false,"station_name":"Pasar Senen","line":11,"i_lat":-6.174784,"i_long":106.84368,"transit":false,"distance":1436,"time":4},{"distance":1567,"transit":false,"i_lat":-6.185975,"time":8,"i_long":106.850107,"station_name":"Gang Sentiong","is_transit":false,"station_id":"GST","line":11},{"transit":false,"is_transit":false,"time":1,"distance":973,"i_lat":-6.193792,"i_long":106.855437,"line":11,"station_id":"KMT","station_name":"Kramat"},{"station_id":"POK","time":2,"station_name":"Pondok Jati","i_lat":-6.209188,"i_long":106.861737,"distance":1829,"transit":false,"is_transit":false,"line":11},{"is_transit":true,"distance":1236,"transit":true,"i_lat":-6.215091,"time":9,"station_id":"JNG","i_long":106.86807400000001,"station_name":"Jatinegara","line":1},{"i_lat":-6.2135,"i_long":106.899548,"time":3,"line":1,"station_id":"KLD","station_name":"Klender","distance":3395,"transit":false,"is_transit":false},{"time":2,"station_id":"BUA","i_long":106.922662,"transit":false,"is_transit":false,"i_lat":-6.215568,"station_name":"Buaran","line":1,"distance":3100}]]}