{"data":[[{"station_id":"PI","i_long":106.679458,"time":0,"i_lat":-6.169933,"line":5,"is_transit":false,"transit":false,"distance":0,"station_name":"Poris"},{"i_long":106.701612,"transit":false,"is_transit":false,"station_id":"KDS","station_name":"Kalideres","line":5,"distance":2548,"i_lat":-6.166068,"time":3},{"station_name":"Rawa Buaya","time":3,"station_id":"RW","distance":2504,"i_long":106.723064,"i_lat":-6.162758,"is_transit":false,"line":5,"transit":false},{"i_long":106.737035,"station_name":"Bojongindah","transit":false,"time":4,"line":5,"distance":1152,"station_id":"BOI","i_lat":-6.159876,"is_transit":false},{"time":2,"distance":2334,"is_transit":false,"i_lat":-6.1587309999999995,"i_long":106.756522,"station_name":"Taman Kota","transit":false,"line":5,"station_id":"TKO"},{"time":2,"station_id":"PSG","is_transit":false,"i_lat":-6.161433,"line":5,"transit":false,"station_name":"Pesing","distance":1614,"i_long":106.771379},{"distance":2036,"i_long":106.788277,"time":2,"line":5,"i_lat":-6.162021,"station_id":"GRG","is_transit":false,"station_name":"Grogol","transit":false},{"is_transit":true,"station_id":"DU","transit":true,"i_lat":-6.155215,"station_name":"Duri","i_long":106.800832,"time":3,"distance":1700,"line":1},{"transit":false,"time":8,"station_id":"THB","i_long":106.811091,"distance":3632,"line":1,"is_transit":false,"station_name":"Tanah Abang","i_lat":-6.185545},{"line":1,"station_name":"Karet","is_transit":false,"time":5,"station_id":"KAT","i_long":106.816351,"i_lat":-6.20132,"transit":false,"distance":2029},{"i_long":106.819881,"station_id":"SUDB","time":1,"distance":471,"i_lat":-6.201433,"transit":false,"line":1,"is_transit":false,"station_name":"Sudirman Baru"},{"i_lat":-6.202263,"line":1,"i_long":106.822649,"is_transit":false,"station_name":"Sudirman","time":1,"transit":false,"distance":280,"station_id":"SUD"},{"distance":3186,"is_transit":true,"time":4,"station_id":"MRI","transit":true,"i_lat":-6.209883,"i_long":106.84912,"station_name":"Manggarai","line":2},{"station_name":"Tebet","distance":2610,"transit":false,"i_lat":-6.226659,"i_long":106.857948,"line":2,"station_id":"TEB","time":4,"is_transit":false},{"station_id":"CW","transit":false,"time":2,"line":2,"distance":1230,"station_name":"Cawang","i_lat":-6.242512,"i_long":106.856607,"is_transit":false},{"distance":1546,"transit":false,"station_id":"DRN","i_long":106.85449,"is_transit":false,"station_name":"Duren Kalibata","i_lat":-6.255332,"time":3,"line":2},{"time":2,"line":2,"i_long":106.851577,"i_lat":-6.263214,"distance":824,"station_name":"Pasar Minggu Baru","transit":false,"is_transit":false,"station_id":"PSMB"},{"i_lat":-6.2842400000000005,"i_long":106.843999,"transit":false,"station_id":"PSM","line":2,"distance":2380,"is_transit":false,"station_name":"Pasar Minggu","time":2},{"line":2,"station_id":"TNT","i_long":106.838896,"i_lat":-6.3080680000000005,"station_name":"Tanjung Barat","time":4,"transit":false,"is_transit":false,"distance":2820},{"station_id":"LNA","i_long":106.832616,"is_transit":false,"i_lat":-6.330363,"line":2,"station_name":"Lenteng Agung","time":3,"transit":false,"distance":2671},{"i_lat":-6.339291,"is_transit":false,"station_name":"Univ. Pancasila","station_id":"UP","line":2,"distance":1029,"i_long":106.834175,"time":2,"transit":false},{"i_lat":-6.360749,"line":2,"time":3,"distance":2264,"station_id":"UI","transit":false,"is_transit":false,"i_long":106.831474,"station_name":"Univ. Indonesia"},{"station_name":"Pondok Cina","station_id":"POC","distance":1109,"line":2,"i_long":106.831114,"is_transit":false,"transit":false,"time":2,"i_lat":-6.369073},{"station_id":"DPB","time":4,"i_lat":-6.391065,"i_long":106.819451,"transit":false,"station_name":"Depokbaru","line":2,"distance":2727,"is_transit":false},{"station_name":"Depok","transit":false,"distance":1584,"station_id":"DP","line":2,"time":3,"i_long":106.816926,"is_transit":false,"i_lat":-6.405256},{"station_name":"Citayam","time":6,"transit":false,"i_lat":-6.448811,"station_id":"CTA","distance":5084,"line":2,"i_long":106.800298,"is_transit":false},{"distance":5197,"time":5,"station_name":"Bojonggede","is_transit":false,"line":2,"i_long":106.792719,"i_lat":-6.493243,"transit":false,"station_id":"BJD"}],[{"station_name":"Poris","time":0,"transit":false,"distance":0,"is_transit":false,"i_lat":-6.169933,"station_id":"PI","i_long":106.679458,"line":5},{"distance":2548,"line":5,"transit":false,"time":3,"station_name":"Kalideres","is_transit":false,"i_long":106.701612,"i_lat":-6.166068,"station_id":"KDS"},{"is_transit":false,"station_name":"Rawa Buaya","i_long":106.723064,"transit":false,"time":3,"station_id":"RW","distance":2504,"line":5,"i_lat":-6.162758},{"distance":1152,"i_lat":-6.159876,"is_transit":false,"station_name":"Bojongindah","time":4,"i_long":106.737035,"transit":false,"station_id":"BOI","line":5},{"station_name":"Taman Kota","transit":false,"time":2,"line":5,"distance":2334,"is_transit":false,"station_id":"TKO","i_long":106.756522,"i_lat":-6.1587309999999995},{"i_lat":-6.161433,"line":5,"time":2,"transit":false,"i_long":106.771379,"station_id":"PSG","station_name":"Pesing","distance":1614,"is_transit":false},{"distance":2036,"line":5,"i_lat":-6.162021,"i_long":106.788277,"transit":false,"station_name":"Grogol","is_transit":false,"station_id":"GRG","time":2},{"time":3,"i_long":106.800832,"i_lat":-6.155215,"line":1,"distance":1700,"station_id":"DU","transit":true,"is_transit":true,"station_name":"Duri"},{"i_lat":-6.144674,"is_transit":false,"i_long":106.79867,"distance":1230,"line":1,"transit":false,"station_name":"Angke","station_id":"AK","time":4},{"i_long":106.826365,"i_lat":-6.132549,"station_id":"KPB","distance":4102,"time":9,"is_transit":true,"station_name":"Kampung Bandan","transit":true,"line":4},{"transit":true,"i_long":106.812439,"is_transit":true,"i_lat":-6.137569,"distance":1364,"station_name":"Jakarta Kota","line":2,"time":3,"station_id":"JAKK"},{"transit":false,"is_transit":false,"time":4,"station_name":"Jayakarta","distance":1264,"i_lat":-6.141205,"i_long":106.820901,"station_id":"JAY","line":2},{"transit":false,"line":2,"station_id":"MGB","station_name":"Manggabesar","i_long":106.82482,"time":2,"distance":1080,"is_transit":false,"i_lat":-6.149769},{"line":2,"is_transit":false,"station_id":"SW","distance":906,"transit":false,"i_lat":-6.160725,"i_long":106.827103,"time":2,"station_name":"Sawah Besar"},{"station_name":"Juanda","distance":1149,"i_lat":-6.166716,"time":2,"line":2,"station_id":"JUA","is_transit":false,"i_long":106.828284,"transit":false},{"is_transit":false,"i_long":106.832183,"line":2,"distance":2015,"station_id":"GDD","transit":false,"time":4,"station_name":"Gondangdia","i_lat":-6.186295},{"station_id":"CKI","line":2,"transit":false,"station_name":"Cikini","i_long":106.840169,"is_transit":false,"time":3,"i_lat":-6.198556,"distance":1750},{"i_long":106.84912,"i_lat":-6.209883,"is_transit":false,"transit":false,"station_id":"MRI","time":4,"station_name":"Manggarai","line":2,"distance":1590},{"i_long":106.857948,"station_name":"Tebet","transit":false,"time":4,"line":2,"distance":2610,"is_transit":false,"station_id":"TEB","i_lat":-6.226659},{"transit":false,"is_transit":false,"i_lat":-6.242512,"time":2,"distance":1230,"i_long":106.856607,"station_name":"Cawang","station_id":"CW","line":2},{"is_transit":false,"i_lat":-6.255332,"station_name":"Duren Kalibata","time":3,"line":2,"distance":1546,"transit":false,"station_id":"DRN","i_long":106.85449},{"transit":false,"is_transit":false,"station_id":"PSMB","line":2,"distance":824,"i_long":106.851577,"station_name":"Pasar Minggu Baru","time":2,"i_lat":-6.263214},{"station_name":"Pasar Minggu","time":2,"transit":false,"station_id":"PSM","i_lat":-6.2842400000000005,"line":2,"i_long":106.843999,"distance":2380,"is_transit":false},{"is_transit":false,"distance":2820,"transit":false,"time":4,"i_long":106.838896,"station_name":"Tanjung Barat","line":2,"i_lat":-6.3080680000000005,"station_id":"TNT"},{"station_id":"LNA","transit":false,"is_transit":false,"station_name":"Lenteng Agung","distance":2671,"line":2,"i_lat":-6.330363,"i_long":106.832616,"time":3},{"transit":false,"i_lat":-6.339291,"i_long":106.834175,"line":2,"station_name":"Univ. Pancasila","distance":1029,"station_id":"UP","is_transit":false,"time":2},{"station_id":"UI","is_transit":false,"time":3,"i_lat":-6.360749,"station_name":"Univ. Indonesia","i_long":106.831474,"line":2,"transit":false,"distance":2264},{"time":2,"i_long":106.831114,"i_lat":-6.369073,"station_name":"Pondok Cina","station_id":"POC","transit":false,"distance":1109,"is_transit":false,"line":2},{"line":2,"i_lat":-6.391065,"station_name":"Depokbaru","station_id":"DPB","i_long":106.819451,"is_transit":false,"transit":false,"time":4,"distance":2727},{"station_name":"Depok","time":3,"i_lat":-6.405256,"line":2,"transit":false,"station_id":"DP","distance":1584,"i_long":106.816926,"is_transit":false},{"station_id":"CTA","is_transit":false,"line":2,"transit":false,"time":6,"station_name":"Citayam","distance":5084,"i_long":106.800298,"i_lat":-6.448811},{"i_long":106.792719,"line":2,"station_id":"BJD","transit":false,"station_name":"Bojonggede","distance":5197,"time":5,"is_transit":false,"i_lat":-6.493243}],[{"line":5,"is_transit":false,"time":0,"station_id":"PI","i_long":106.679458,"i_lat":-6.169933,"transit":false,"station_name":"Poris","distance":0},{"i_lat":-6.166068,"distance":2548,"i_long":106.701612,"is_transit":false,"time":3,"line":5,"station_id":"KDS","transit":false,"station_name":"Kalideres"},{"distance":2504,"i_lat":-6.162758,"i_long":106.723064,"time":3,"line":5,"station_name":"Rawa Buaya","transit":false,"station_id":"RW","is_transit":false},{"transit":false,"time":4,"i_lat":-6.159876,"i_long":106.737035,"distance":1152,"station_name":"Bojongindah","is_transit":false,"line":5,"station_id":"BOI"},{"i_long":106.756522,"is_transit":false,"time":2,"station_name":"Taman Kota","i_lat":-6.1587309999999995,"line":5,"distance":2334,"transit":false,"station_id":"TKO"},{"is_transit":false,"distance":1614,"i_lat":-6.161433,"line":5,"transit":false,"time":2,"station_id":"PSG","i_long":106.771379,"station_name":"Pesing"},{"station_name":"Grogol","i_long":106.788277,"transit":false,"distance":2036,"time":2,"station_id":"GRG","i_lat":-6.162021,"is_transit":false,"line":5},{"i_lat":-6.155215,"line":1,"is_transit":true,"distance":1700,"time":3,"i_long":106.800832,"station_id":"DU","transit":true,"station_name":"Duri"},{"transit":false,"i_lat":-6.144674,"distance":1230,"station_id":"AK","line":1,"time":4,"station_name":"Angke","is_transit":false,"i_long":106.79867},{"transit":true,"i_lat":-6.132549,"line":4,"station_name":"Kampung Bandan","distance":4102,"is_transit":true,"i_long":106.826365,"time":9,"station_id":"KPB"},{"i_lat":-6.14505,"station_name":"Rajawali","distance":1444,"is_transit":false,"station_id":"RJW","time":3,"line":11,"i_long":106.836569,"transit":false},{"is_transit":false,"transit":false,"station_id":"KMO","i_lat":-6.161728,"i_long":106.839204,"distance":1901,"time":5,"station_name":"Kemayoran","line":11},{"i_lat":-6.174784,"transit":false,"time":4,"distance":1436,"line":11,"station_name":"Pasar Senen","i_long":106.84368,"is_transit":false,"station_id":"PSE"},{"is_transit":false,"time":8,"distance":1567,"i_long":106.850107,"station_name":"Gang Sentiong","i_lat":-6.185975,"line":11,"station_id":"GST","transit":false},{"distance":973,"time":1,"station_id":"KMT","i_lat":-6.193792,"transit":false,"i_long":106.855437,"station_name":"Kramat","line":11,"is_transit":false},{"is_transit":false,"time":2,"station_id":"POK","distance":1829,"transit":false,"i_long":106.861737,"line":11,"station_name":"Pondok Jati","i_lat":-6.209188},{"station_name":"Jatinegara","transit":true,"distance":1236,"station_id":"JNG","line":1,"i_long":106.86807400000001,"is_transit":true,"time":9,"i_lat":-6.215091},{"distance":1377,"is_transit":false,"station_id":"MTR","line":1,"i_long":106.858896,"time":2,"i_lat":-6.212485,"station_name":"Matraman","transit":false},{"line":2,"distance":1275,"time":2,"transit":true,"station_id":"MRI","is_transit":true,"station_name":"Manggarai","i_lat":-6.209883,"i_long":106.84912},{"is_transit":false,"distance":2610,"transit":false,"i_long":106.857948,"time":4,"station_id":"TEB","line":2,"station_name":"Tebet","i_lat":-6.226659},{"is_transit":false,"time":2,"distance":1230,"i_lat":-6.242512,"line":2,"transit":false,"station_id":"CW","i_long":106.856607,"station_name":"Cawang"},{"transit":false,"line":2,"distance":1546,"i_long":106.85449,"station_id":"DRN","is_transit":false,"station_name":"Duren Kalibata","time":3,"i_lat":-6.255332},{"time":2,"station_id":"PSMB","i_long":106.851577,"transit":false,"i_lat":-6.263214,"line":2,"station_name":"Pasar Minggu Baru","is_transit":false,"distance":824},{"transit":false,"distance":2380,"is_transit":false,"line":2,"time":2,"station_id":"PSM","i_lat":-6.2842400000000005,"station_name":"Pasar Minggu","i_long":106.843999},{"i_long":106.838896,"is_transit":false,"station_id":"TNT","transit":false,"station_name":"Tanjung Barat","distance":2820,"time":4,"line":2,"i_lat":-6.3080680000000005},{"line":2,"is_transit":false,"time":3,"i_lat":-6.330363,"i_long":106.832616,"transit":false,"station_id":"LNA","station_name":"Lenteng Agung","distance":2671},{"line":2,"is_transit":false,"time":2,"i_lat":-6.339291,"transit":false,"i_long":106.834175,"station_id":"UP","distance":1029,"station_name":"Univ. Pancasila"},{"time":3,"station_name":"Univ. Indonesia","i_lat":-6.360749,"is_transit":false,"transit":false,"station_id":"UI","distance":2264,"line":2,"i_long":106.831474},{"is_transit":false,"time":2,"i_long":106.831114,"station_id":"POC","i_lat":-6.369073,"line":2,"distance":1109,"transit":false,"station_name":"Pondok Cina"},{"is_transit":false,"transit":false,"distance":2727,"i_long":106.819451,"time":4,"line":2,"station_name":"Depokbaru","i_lat":-6.391065,"station_id":"DPB"},{"transit":false,"time":3,"i_long":106.816926,"station_id":"DP","station_name":"Depok","is_transit":false,"distance":1584,"i_lat":-6.405256,"line":2},{"is_transit":false,"time":6,"distance":5084,"station_name":"Citayam","i_lat":-6.448811,"transit":false,"line":2,"station_id":"CTA","i_long":106.800298},{"station_id":"BJD","is_transit":false,"time":5,"i_lat":-6.493243,"transit":false,"i_long":106.792719,"station_name":"Bojonggede","distance":5197,"line":2}]]}