{"data":[[{"transit":false,"time":0,"is_transit":false,"i_lat":-6.169933,"station_name":"Poris","line":5,"i_long":106.679458,"distance":0,"station_id":"PI"},{"transit":false,"station_name":"Kalideres","i_lat":-6.166068,"time":3,"is_transit":false,"i_long":106.701612,"station_id":"KDS","distance":2548,"line":5},{"is_transit":false,"i_lat":-6.162758,"time":3,"i_long":106.723064,"transit":false,"distance":2504,"station_name":"Rawa Buaya","line":5,"station_id":"RW"},{"distance":1152,"station_id":"BOI","i_lat":-6.159876,"i_long":106.737035,"line":5,"transit":false,"time":4,"is_transit":false,"station_name":"Bojongindah"},{"i_lat":-6.1587309999999995,"station_name":"Taman Kota","transit":false,"i_long":106.756522,"is_transit":false,"time":2,"station_id":"TKO","line":5,"distance":2334},{"time":2,"transit":false,"line":5,"is_transit":false,"station_name":"Pesing","distance":1614,"station_id":"PSG","i_long":106.771379,"i_lat":-6.161433},{"station_name":"Grogol","transit":false,"i_lat":-6.162021,"line":5,"is_transit":false,"time":2,"i_long":106.788277,"station_id":"GGL","distance":2036},{"station_id":"DU","i_long":106.800832,"transit":true,"line":1,"time":3,"distance":1700,"station_name":"Duri","is_transit":true,"i_lat":-6.155215},{"station_name":"Tanah Abang","distance":3632,"time":8,"is_transit":false,"i_long":106.811091,"line":1,"transit":false,"station_id":"THB","i_lat":-6.185545},{"line":1,"transit":false,"i_lat":-6.20132,"time":5,"is_transit":false,"station_id":"KAT","i_long":106.816351,"distance":2029,"station_name":"Karet"},{"station_name":"Sudirman Baru","i_long":106.819881,"line":1,"station_id":"SUDB","is_transit":false,"transit":false,"time":1,"distance":471,"i_lat":-6.201433},{"time":1,"station_id":"SUD","line":1,"i_long":106.822649,"is_transit":false,"i_lat":-6.202263,"distance":280,"transit":false,"station_name":"Sudirman"},{"distance":3186,"is_transit":false,"time":4,"line":2,"station_id":"MRI","i_lat":-6.209883,"i_long":106.84912,"station_name":"Manggarai","transit":false},{"transit":false,"i_lat":-6.212485,"line":1,"time":2,"i_long":106.858896,"station_name":"Matraman","is_transit":false,"distance":1275,"station_id":"MTR"},{"transit":false,"is_transit":false,"time":8,"i_long":106.86807400000001,"station_name":"Jatinegara","station_id":"JNG","line":1,"i_lat":-6.215091,"distance":1377},{"line":1,"station_name":"Klender","is_transit":false,"time":3,"distance":3395,"station_id":"KLD","i_lat":-6.2135,"i_long":106.899548,"transit":false},{"i_lat":-6.215568,"time":2,"distance":3100,"station_name":"Buaran","i_long":106.922662,"station_id":"BUA","line":1,"transit":false,"is_transit":false}],[{"transit":false,"station_id":"PI","i_lat":-6.169933,"distance":0,"line":5,"is_transit":false,"i_long":106.679458,"station_name":"Poris","time":0},{"i_long":106.701612,"station_name":"Kalideres","distance":2548,"i_lat":-6.166068,"is_transit":false,"transit":false,"time":3,"line":5,"station_id":"KDS"},{"distance":2504,"i_lat":-6.162758,"i_long":106.723064,"line":5,"station_name":"Rawa Buaya","station_id":"RW","transit":false,"is_transit":false,"time":3},{"time":4,"station_id":"BOI","transit":false,"distance":1152,"i_lat":-6.159876,"is_transit":false,"line":5,"station_name":"Bojongindah","i_long":106.737035},{"station_id":"TKO","transit":false,"distance":2334,"line":5,"station_name":"Taman Kota","i_long":106.756522,"is_transit":false,"i_lat":-6.1587309999999995,"time":2},{"station_name":"Pesing","is_transit":false,"distance":1614,"time":2,"transit":false,"i_lat":-6.161433,"line":5,"station_id":"PSG","i_long":106.771379},{"transit":false,"time":2,"i_long":106.788277,"distance":2036,"i_lat":-6.162021,"is_transit":false,"station_id":"GGL","line":5,"station_name":"Grogol"},{"i_lat":-6.155215,"transit":true,"station_name":"Duri","time":3,"i_long":106.800832,"line":1,"distance":1700,"is_transit":true,"station_id":"DU"},{"distance":1230,"i_lat":-6.144674,"is_transit":false,"line":1,"station_name":"Angke","time":4,"transit":false,"i_long":106.79867,"station_id":"AK"},{"station_id":"KPB","i_lat":-6.132549,"distance":4102,"station_name":"Kampung Bandan","is_transit":true,"time":9,"transit":true,"i_long":106.826365,"line":4},{"distance":1444,"station_name":"Rajawali","i_long":106.836569,"line":11,"is_transit":false,"i_lat":-6.14505,"transit":false,"station_id":"RJW","time":3},{"is_transit":false,"distance":1901,"i_lat":-6.161728,"i_long":106.839204,"line":11,"transit":false,"station_id":"KMO","time":5,"station_name":"Kemayoran"},{"i_long":106.84368,"station_name":"Pasar Senen","time":4,"line":11,"station_id":"PSE","transit":false,"is_transit":false,"i_lat":-6.174784,"distance":1436},{"i_long":106.850107,"i_lat":-6.185975,"station_name":"Gang Sentiong","station_id":"GST","line":11,"distance":1567,"is_transit":false,"time":8,"transit":false},{"i_lat":-6.193792,"station_name":"Kramat","distance":973,"transit":false,"line":11,"station_id":"KMT","is_transit":false,"time":1,"i_long":106.855437},{"transit":false,"distance":1829,"is_transit":false,"line":11,"time":2,"i_long":106.861737,"station_name":"Pondok Jati","station_id":"POK","i_lat":-6.209188},{"distance":1236,"line":1,"time":9,"station_name":"Jatinegara","i_long":106.86807400000001,"i_lat":-6.215091,"transit":true,"station_id":"JNG","is_transit":true},{"distance":3395,"i_lat":-6.2135,"is_transit":false,"station_name":"Klender","i_long":106.899548,"station_id":"KLD","line":1,"transit":false,"time":3},{"i_long":106.922662,"transit":false,"time":2,"distance":3100,"i_lat":-6.215568,"is_transit":false,"station_id":"BUA","station_name":"Buaran","line":1}],[{"station_id":"PI","station_name":"Poris","i_long":106.679458,"distance":0,"transit":false,"is_transit":false,"line":5,"i_lat":-6.169933,"time":0},{"i_long":106.701612,"line":5,"i_lat":-6.166068,"distance":2548,"station_id":"KDS","station_name":"Kalideres","transit":false,"is_transit":false,"time":3},{"is_transit":false,"station_name":"Rawa Buaya","time":3,"distance":2504,"line":5,"transit":false,"i_long":106.723064,"station_id":"RW","i_lat":-6.162758},{"transit":false,"station_id":"BOI","i_lat":-6.159876,"station_name":"Bojongindah","line":5,"i_long":106.737035,"time":4,"is_transit":false,"distance":1152},{"station_name":"Taman Kota","station_id":"TKO","i_long":106.756522,"line":5,"transit":false,"is_transit":false,"time":2,"distance":2334,"i_lat":-6.1587309999999995},{"distance":1614,"station_id":"PSG","time":2,"transit":false,"is_transit":false,"line":5,"i_lat":-6.161433,"i_long":106.771379,"station_name":"Pesing"},{"distance":2036,"station_name":"Grogol","i_lat":-6.162021,"i_long":106.788277,"transit":false,"station_id":"GGL","is_transit":false,"time":2,"line":5},{"time":3,"i_lat":-6.155215,"i_long":106.800832,"is_transit":true,"station_name":"Duri","station_id":"DU","line":1,"transit":true,"distance":1700},{"is_transit":false,"distance":1230,"transit":false,"i_long":106.79867,"i_lat":-6.144674,"line":1,"station_name":"Angke","station_id":"AK","time":4},{"distance":4102,"transit":true,"line":4,"time":9,"station_name":"Kampung Bandan","is_transit":true,"i_long":106.826365,"i_lat":-6.132549,"station_id":"KPB"},{"i_long":106.812439,"line":2,"station_name":"Jakarta Kota","distance":1364,"station_id":"JAKK","i_lat":-6.137569,"is_transit":true,"transit":true,"time":3},{"transit":false,"i_lat":-6.141205,"line":2,"distance":1264,"i_long":106.820901,"station_name":"Jayakarta","time":4,"station_id":"JAY","is_transit":false},{"station_id":"MGB","distance":1080,"i_long":106.82482,"station_name":"Manggabesar","line":2,"i_lat":-6.149769,"time":2,"transit":false,"is_transit":false},{"i_long":106.827103,"time":2,"line":2,"station_id":"SW","transit":false,"station_name":"Sawah Besar","distance":906,"i_lat":-6.160725,"is_transit":false},{"distance":1149,"station_id":"JUA","i_long":106.828284,"transit":false,"is_transit":false,"station_name":"Juanda","time":2,"i_lat":-6.166716,"line":2},{"distance":2015,"is_transit":false,"station_id":"GDD","time":4,"i_lat":-6.186295,"station_name":"Gondangdia","i_long":106.832183,"line":2,"transit":false},{"station_name":"Cikini","distance":1750,"station_id":"CKI","i_long":106.840169,"line":2,"is_transit":false,"i_lat":-6.198556,"transit":false,"time":3},{"time":4,"line":2,"distance":1590,"transit":true,"station_name":"Manggarai","station_id":"MRI","i_lat":-6.209883,"i_long":106.84912,"is_transit":true},{"transit":false,"station_id":"MTR","station_name":"Matraman","distance":1275,"is_transit":false,"i_long":106.858896,"line":1,"i_lat":-6.212485,"time":2},{"station_name":"Jatinegara","transit":false,"distance":1377,"i_lat":-6.215091,"line":1,"is_transit":false,"time":8,"i_long":106.86807400000001,"station_id":"JNG"},{"i_lat":-6.2135,"is_transit":false,"station_id":"KLD","station_name":"Klender","time":3,"distance":3395,"transit":false,"i_long":106.899548,"line":1},{"line":1,"station_id":"BUA","i_long":106.922662,"i_lat":-6.215568,"time":2,"distance":3100,"transit":false,"station_name":"Buaran","is_transit":false}],[{"i_long":106.679458,"distance":0,"i_lat":-6.169933,"line":5,"time":0,"transit":false,"station_name":"Poris","station_id":"PI","is_transit":false},{"time":3,"i_long":106.701612,"station_name":"Kalideres","i_lat":-6.166068,"transit":false,"is_transit":false,"line":5,"distance":2548,"station_id":"KDS"},{"transit":false,"station_id":"RW","distance":2504,"i_long":106.723064,"time":3,"line":5,"is_transit":false,"station_name":"Rawa Buaya","i_lat":-6.162758},{"station_name":"Bojongindah","is_transit":false,"station_id":"BOI","time":4,"line":5,"transit":false,"distance":1152,"i_long":106.737035,"i_lat":-6.159876},{"station_name":"Taman Kota","is_transit":false,"time":2,"station_id":"TKO","i_lat":-6.1587309999999995,"transit":false,"line":5,"distance":2334,"i_long":106.756522},{"time":2,"i_long":106.771379,"distance":1614,"transit":false,"line":5,"station_id":"PSG","is_transit":false,"station_name":"Pesing","i_lat":-6.161433},{"transit":false,"time":2,"station_id":"GGL","distance":2036,"i_lat":-6.162021,"is_transit":false,"i_long":106.788277,"station_name":"Grogol","line":5},{"i_lat":-6.155215,"line":1,"is_transit":true,"time":3,"station_name":"Duri","station_id":"DU","transit":true,"i_long":106.800832,"distance":1700},{"time":8,"station_name":"Tanah Abang","line":1,"i_lat":-6.185545,"transit":false,"distance":3632,"is_transit":false,"station_id":"THB","i_long":106.811091},{"time":5,"line":1,"station_name":"Karet","station_id":"KAT","is_transit":false,"distance":2029,"transit":false,"i_lat":-6.20132,"i_long":106.816351},{"station_name":"Sudirman Baru","is_transit":false,"time":1,"transit":false,"station_id":"SUDB","distance":471,"i_lat":-6.201433,"line":1,"i_long":106.819881},{"station_name":"Sudirman","transit":false,"distance":280,"i_long":106.822649,"line":1,"is_transit":false,"i_lat":-6.202263,"time":1,"station_id":"SUD"},{"i_lat":-6.209883,"line":2,"distance":3186,"is_transit":true,"i_long":106.84912,"time":4,"transit":true,"station_name":"Manggarai","station_id":"MRI"},{"time":4,"transit":false,"is_transit":false,"distance":1590,"line":2,"station_id":"CKI","i_lat":-6.198556,"i_long":106.840169,"station_name":"Cikini"},{"time":3,"distance":1750,"i_lat":-6.186295,"i_long":106.832183,"transit":false,"station_id":"GDD","station_name":"Gondangdia","line":2,"is_transit":false},{"i_lat":-6.166716,"transit":false,"is_transit":false,"time":4,"i_long":106.828284,"distance":2015,"line":2,"station_id":"JUA","station_name":"Juanda"},{"i_long":106.827103,"line":2,"time":2,"station_id":"SW","transit":false,"is_transit":false,"distance":1149,"i_lat":-6.160725,"station_name":"Sawah Besar"},{"i_lat":-6.149769,"line":2,"time":2,"station_id":"MGB","i_long":106.82482,"transit":false,"station_name":"Manggabesar","distance":906,"is_transit":false},{"line":2,"station_name":"Jayakarta","distance":1080,"i_long":106.820901,"time":2,"is_transit":false,"transit":false,"station_id":"JAY","i_lat":-6.141205},{"station_name":"Jakarta Kota","time":4,"transit":true,"i_long":106.812439,"station_id":"JAKK","i_lat":-6.137569,"line":2,"is_transit":true,"distance":1264},{"is_transit":true,"station_id":"KPB","time":3,"distance":1364,"line":4,"station_name":"Kampung Bandan","i_lat":-6.132549,"transit":true,"i_long":106.826365},{"station_id":"RJW","line":11,"i_lat":-6.14505,"distance":1444,"is_transit":false,"time":3,"i_long":106.836569,"transit":false,"station_name":"Rajawali"},{"distance":1901,"transit":false,"time":5,"i_long":106.839204,"station_name":"Kemayoran","station_id":"KMO","is_transit":false,"i_lat":-6.161728,"line":11},{"time":4,"transit":false,"is_transit":false,"i_long":106.84368,"station_id":"PSE","line":11,"station_name":"Pasar Senen","distance":1436,"i_lat":-6.174784},{"i_lat":-6.185975,"transit":false,"time":8,"is_transit":false,"distance":1567,"station_id":"GST","i_long":106.850107,"station_name":"Gang Sentiong","line":11},{"is_transit":false,"time":1,"distance":973,"i_long":106.855437,"i_lat":-6.193792,"station_name":"Kramat","station_id":"KMT","line":11,"transit":false},{"i_lat":-6.209188,"is_transit":false,"station_id":"POK","distance":1829,"station_name":"Pondok Jati","transit":false,"i_long":106.861737,"line":11,"time":2},{"line":1,"i_long":106.86807400000001,"transit":true,"i_lat":-6.215091,"station_id":"JNG","time":9,"distance":1236,"is_transit":true,"station_name":"Jatinegara"},{"i_long":106.899548,"is_transit":false,"station_name":"Klender","time":3,"transit":false,"distance":3395,"i_lat":-6.2135,"line":1,"station_id":"KLD"},{"station_name":"Buaran","distance":3100,"i_long":106.922662,"line":1,"station_id":"BUA","is_transit":false,"i_lat":-6.215568,"transit":false,"time":2}]]}