{"data":[[{"i_lat":-6.169933,"line":5,"station_id":"PI","transit":false,"is_transit":false,"time":0,"i_long":106.679458,"distance":0,"station_name":"Poris"},{"station_name":"Kalideres","distance":2548,"time":3,"is_transit":false,"station_id":"KDS","transit":false,"i_long":106.701612,"i_lat":-6.166068,"line":5},{"i_lat":-6.162758,"i_long":106.723064,"time":3,"is_transit":false,"line":5,"station_id":"RW","station_name":"Rawa Buaya","distance":2504,"transit":false},{"distance":1152,"is_transit":false,"time":4,"station_id":"BOI","i_lat":-6.159876,"line":0,"i_long":106.737035,"transit":false,"station_name":"Bojongindah"},{"time":2,"transit":false,"i_long":106.756522,"line":5,"station_id":"TKO","is_transit":false,"distance":2334,"station_name":"Taman Kota","i_lat":-6.1587309999999995},{"i_long":106.771379,"time":2,"i_lat":-6.161433,"station_id":"PSG","station_name":"Pesing","distance":1614,"is_transit":false,"transit":false,"line":5},{"station_name":"Grogol","line":5,"distance":2036,"is_transit":false,"i_lat":-6.162021,"i_long":106.788277,"time":2,"station_id":"GGL","transit":false},{"distance":1700,"time":3,"station_name":"Duri","i_long":106.800832,"i_lat":-6.155215,"station_id":"DU","is_transit":true,"transit":true,"line":1},{"is_transit":true,"transit":false,"line":1,"time":8,"i_long":106.811091,"distance":3632,"station_id":"THB","station_name":"Tanah Abang","i_lat":-6.185545},{"distance":2029,"station_name":"Karet","transit":false,"station_id":"KAT","i_lat":-6.20132,"is_transit":false,"time":5,"line":1,"i_long":106.816351},{"line":1,"i_lat":-6.201433,"station_name":"Sudirman Baru","is_transit":false,"transit":false,"distance":471,"time":1,"i_long":106.819881,"station_id":"SUDB"},{"transit":false,"station_name":"Sudirman","i_lat":-6.202263,"line":1,"i_long":106.822649,"is_transit":false,"distance":280,"station_id":"SUD","time":1},{"is_transit":true,"time":4,"i_long":106.84912,"station_name":"Manggarai","i_lat":-6.209883,"distance":3186,"station_id":"MRI","transit":false,"line":0},{"is_transit":false,"i_long":106.858896,"line":1,"time":2,"i_lat":-6.212485,"station_name":"Matraman","station_id":"MTR","distance":1275,"transit":false},{"transit":false,"i_lat":-6.215091,"i_long":106.86807400000001,"time":8,"is_transit":true,"distance":1377,"station_name":"Jatinegara","station_id":"JNG","line":0},{"i_lat":-6.2135,"line":1,"is_transit":false,"transit":false,"station_id":"KLD","station_name":"Klender","time":3,"distance":3395,"i_long":106.899548},{"station_name":"Buaran","line":0,"is_transit":false,"transit":false,"station_id":"BUA","distance":3100,"i_long":106.922662,"i_lat":-6.215568,"time":2}],[{"is_transit":false,"station_id":"PI","transit":false,"i_long":106.679458,"line":5,"distance":0,"i_lat":-6.169933,"station_name":"Poris","time":0},{"transit":false,"station_id":"KDS","time":3,"i_long":106.701612,"i_lat":-6.166068,"line":5,"station_name":"Kalideres","is_transit":false,"distance":2548},{"is_transit":false,"i_lat":-6.162758,"time":3,"line":5,"distance":2504,"transit":false,"i_long":106.723064,"station_id":"RW","station_name":"Rawa Buaya"},{"transit":false,"time":4,"is_transit":false,"station_name":"Bojongindah","i_long":106.737035,"station_id":"BOI","i_lat":-6.159876,"line":0,"distance":1152},{"distance":2334,"transit":false,"time":2,"station_id":"TKO","is_transit":false,"i_lat":-6.1587309999999995,"i_long":106.756522,"line":5,"station_name":"Taman Kota"},{"distance":1614,"station_name":"Pesing","i_long":106.771379,"line":5,"is_transit":false,"i_lat":-6.161433,"time":2,"station_id":"PSG","transit":false},{"distance":2036,"station_name":"Grogol","i_long":106.788277,"i_lat":-6.162021,"transit":false,"is_transit":false,"time":2,"line":5,"station_id":"GGL"},{"line":1,"time":3,"distance":1700,"is_transit":true,"station_name":"Duri","transit":true,"station_id":"DU","i_lat":-6.155215,"i_long":106.800832},{"station_id":"AK","station_name":"Angke","is_transit":false,"transit":false,"time":4,"distance":1230,"i_long":106.79867,"i_lat":-6.144674,"line":0},{"station_name":"Kampung Bandan","distance":4102,"line":0,"station_id":"KPB","transit":true,"i_long":106.826365,"is_transit":true,"i_lat":-6.132549,"time":9},{"station_id":"RJW","is_transit":false,"i_long":106.836569,"distance":1444,"station_name":"Rajawali","i_lat":-6.14505,"line":11,"transit":false,"time":3},{"station_id":"KMO","is_transit":false,"i_lat":-6.161728,"distance":1901,"i_long":106.839204,"station_name":"Kemayoran","time":5,"transit":false,"line":11},{"i_long":106.84368,"line":11,"station_name":"Pasar Senen","distance":1436,"is_transit":false,"transit":false,"time":4,"station_id":"PSE","i_lat":-6.174784},{"time":8,"station_id":"GST","transit":false,"i_long":106.850107,"i_lat":-6.185975,"distance":1567,"station_name":"Gang Sentiong","line":11,"is_transit":false},{"distance":973,"station_id":"KMT","is_transit":false,"transit":false,"i_lat":-6.193792,"i_long":106.855437,"time":1,"station_name":"Kramat","line":11},{"i_lat":-6.209188,"station_name":"Pondok Jati","line":11,"station_id":"POK","i_long":106.861737,"transit":false,"is_transit":false,"distance":1829,"time":2},{"station_name":"Jatinegara","i_long":106.86807400000001,"time":9,"line":0,"distance":1236,"is_transit":true,"transit":true,"station_id":"JNG","i_lat":-6.215091},{"transit":false,"is_transit":false,"distance":3395,"station_name":"Klender","i_lat":-6.2135,"time":3,"station_id":"KLD","i_long":106.899548,"line":1},{"station_name":"Buaran","is_transit":false,"station_id":"BUA","i_lat":-6.215568,"i_long":106.922662,"line":0,"distance":3100,"transit":false,"time":2}],[{"time":0,"distance":0,"station_name":"Poris","is_transit":false,"transit":false,"i_lat":-6.169933,"i_long":106.679458,"line":5,"station_id":"PI"},{"i_lat":-6.166068,"station_name":"Kalideres","transit":false,"i_long":106.701612,"line":5,"station_id":"KDS","time":3,"is_transit":false,"distance":2548},{"time":3,"transit":false,"i_lat":-6.162758,"line":5,"i_long":106.723064,"distance":2504,"station_id":"RW","is_transit":false,"station_name":"Rawa Buaya"},{"transit":false,"i_long":106.737035,"line":0,"time":4,"station_id":"BOI","distance":1152,"is_transit":false,"i_lat":-6.159876,"station_name":"Bojongindah"},{"i_long":106.756522,"time":2,"line":5,"distance":2334,"is_transit":false,"i_lat":-6.1587309999999995,"station_id":"TKO","transit":false,"station_name":"Taman Kota"},{"station_name":"Pesing","station_id":"PSG","i_lat":-6.161433,"transit":false,"i_long":106.771379,"is_transit":false,"time":2,"distance":1614,"line":5},{"transit":false,"i_long":106.788277,"station_id":"GGL","station_name":"Grogol","is_transit":false,"distance":2036,"i_lat":-6.162021,"line":5,"time":2},{"distance":1700,"station_name":"Duri","is_transit":true,"transit":true,"station_id":"DU","i_long":106.800832,"line":1,"time":3,"i_lat":-6.155215},{"is_transit":false,"transit":false,"station_name":"Angke","line":0,"station_id":"AK","i_long":106.79867,"time":4,"distance":1230,"i_lat":-6.144674},{"is_transit":true,"i_lat":-6.132549,"distance":4102,"i_long":106.826365,"time":9,"station_name":"Kampung Bandan","station_id":"KPB","transit":false,"line":0},{"distance":1364,"station_id":"JAKK","i_lat":-6.137569,"line":0,"time":3,"station_name":"Jakarta Kota","is_transit":true,"transit":true,"i_long":106.812439},{"time":4,"station_name":"Jayakarta","distance":1264,"station_id":"JAY","i_lat":-6.141205,"transit":false,"is_transit":false,"i_long":106.820901,"line":7},{"station_name":"Manggabesar","station_id":"MGB","is_transit":false,"time":2,"transit":false,"i_lat":-6.149769,"i_long":106.82482,"line":2,"distance":1080},{"time":2,"transit":false,"is_transit":false,"station_id":"SW","i_long":106.827103,"station_name":"Sawah Besar","i_lat":-6.160725,"line":2,"distance":906},{"station_name":"Juanda","time":2,"is_transit":false,"i_lat":-6.166716,"i_long":106.828284,"transit":false,"station_id":"JUA","line":2,"distance":1149},{"distance":2015,"station_id":"GDD","is_transit":false,"i_long":106.832183,"time":4,"line":2,"i_lat":-6.186295,"transit":false,"station_name":"Gondangdia"},{"distance":1750,"station_id":"CKI","transit":false,"is_transit":false,"time":3,"line":0,"station_name":"Cikini","i_lat":-6.198556,"i_long":106.840169},{"i_lat":-6.209883,"i_long":106.84912,"distance":1590,"station_id":"MRI","time":4,"transit":true,"line":0,"is_transit":true,"station_name":"Manggarai"},{"i_lat":-6.212485,"station_name":"Matraman","is_transit":false,"station_id":"MTR","i_long":106.858896,"line":1,"distance":1275,"transit":false,"time":2},{"distance":1377,"station_id":"JNG","is_transit":true,"station_name":"Jatinegara","transit":false,"time":8,"i_lat":-6.215091,"i_long":106.86807400000001,"line":0},{"station_name":"Klender","time":3,"i_long":106.899548,"distance":3395,"station_id":"KLD","is_transit":false,"transit":false,"line":1,"i_lat":-6.2135},{"i_lat":-6.215568,"line":0,"distance":3100,"station_name":"Buaran","is_transit":false,"time":2,"station_id":"BUA","i_long":106.922662,"transit":false}],[{"station_id":"PI","transit":false,"i_lat":-6.169933,"i_long":106.679458,"distance":0,"time":0,"station_name":"Poris","line":5,"is_transit":false},{"station_name":"Kalideres","station_id":"KDS","distance":2548,"is_transit":false,"time":3,"i_lat":-6.166068,"i_long":106.701612,"line":5,"transit":false},{"i_lat":-6.162758,"i_long":106.723064,"station_id":"RW","time":3,"distance":2504,"is_transit":false,"station_name":"Rawa Buaya","line":5,"transit":false},{"station_name":"Bojongindah","distance":1152,"is_transit":false,"station_id":"BOI","transit":false,"i_long":106.737035,"time":4,"line":0,"i_lat":-6.159876},{"station_id":"TKO","is_transit":false,"transit":false,"i_lat":-6.1587309999999995,"distance":2334,"i_long":106.756522,"time":2,"station_name":"Taman Kota","line":5},{"is_transit":false,"i_lat":-6.161433,"i_long":106.771379,"distance":1614,"transit":false,"line":5,"station_name":"Pesing","station_id":"PSG","time":2},{"i_long":106.788277,"time":2,"distance":2036,"station_id":"GGL","transit":false,"line":5,"is_transit":false,"i_lat":-6.162021,"station_name":"Grogol"},{"i_lat":-6.155215,"distance":1700,"i_long":106.800832,"transit":true,"station_id":"DU","time":3,"station_name":"Duri","is_transit":true,"line":1},{"is_transit":true,"transit":false,"i_lat":-6.185545,"station_id":"THB","station_name":"Tanah Abang","i_long":106.811091,"time":8,"distance":3632,"line":1},{"i_long":106.816351,"line":1,"time":5,"distance":2029,"station_name":"Karet","i_lat":-6.20132,"is_transit":false,"station_id":"KAT","transit":false},{"time":1,"is_transit":false,"i_lat":-6.201433,"station_id":"SUDB","transit":false,"line":1,"station_name":"Sudirman Baru","distance":471,"i_long":106.819881},{"station_id":"SUD","i_lat":-6.202263,"i_long":106.822649,"station_name":"Sudirman","time":1,"is_transit":false,"distance":280,"line":1,"transit":false},{"distance":3186,"station_name":"Manggarai","i_lat":-6.209883,"station_id":"MRI","is_transit":true,"line":0,"time":4,"transit":true,"i_long":106.84912},{"i_lat":-6.198556,"time":4,"station_name":"Cikini","i_long":106.840169,"is_transit":false,"distance":1590,"line":0,"station_id":"CKI","transit":false},{"line":2,"is_transit":false,"station_name":"Gondangdia","i_long":106.832183,"distance":1750,"station_id":"GDD","time":3,"transit":false,"i_lat":-6.186295},{"i_long":106.828284,"time":4,"is_transit":false,"transit":false,"station_name":"Juanda","distance":2015,"i_lat":-6.166716,"station_id":"JUA","line":2},{"i_lat":-6.160725,"i_long":106.827103,"station_name":"Sawah Besar","line":2,"transit":false,"station_id":"SW","time":2,"is_transit":false,"distance":1149},{"time":2,"i_lat":-6.149769,"distance":906,"station_name":"Manggabesar","is_transit":false,"transit":false,"station_id":"MGB","i_long":106.82482,"line":2},{"station_id":"JAY","transit":false,"i_lat":-6.141205,"is_transit":false,"station_name":"Jayakarta","time":2,"line":7,"i_long":106.820901,"distance":1080},{"station_id":"JAKK","is_transit":true,"time":4,"station_name":"Jakarta Kota","i_lat":-6.137569,"distance":1264,"transit":true,"line":0,"i_long":106.812439},{"time":3,"transit":true,"station_name":"Kampung Bandan","station_id":"KPB","is_transit":true,"distance":1364,"i_lat":-6.132549,"i_long":106.826365,"line":0},{"i_long":106.836569,"time":3,"line":11,"station_id":"RJW","transit":false,"i_lat":-6.14505,"station_name":"Rajawali","distance":1444,"is_transit":false},{"station_name":"Kemayoran","time":5,"distance":1901,"i_long":106.839204,"is_transit":false,"transit":false,"station_id":"KMO","i_lat":-6.161728,"line":11},{"is_transit":false,"time":4,"transit":false,"station_id":"PSE","station_name":"Pasar Senen","i_long":106.84368,"line":11,"distance":1436,"i_lat":-6.174784},{"is_transit":false,"time":8,"transit":false,"line":11,"i_lat":-6.185975,"station_id":"GST","distance":1567,"station_name":"Gang Sentiong","i_long":106.850107},{"station_name":"Kramat","transit":false,"line":11,"is_transit":false,"i_lat":-6.193792,"station_id":"KMT","i_long":106.855437,"time":1,"distance":973},{"is_transit":false,"station_name":"Pondok Jati","transit":false,"line":11,"distance":1829,"i_lat":-6.209188,"time":2,"i_long":106.861737,"station_id":"POK"},{"time":9,"distance":1236,"station_name":"Jatinegara","i_long":106.86807400000001,"is_transit":true,"i_lat":-6.215091,"line":0,"transit":true,"station_id":"JNG"},{"time":3,"station_name":"Klender","is_transit":false,"line":1,"distance":3395,"station_id":"KLD","i_long":106.899548,"i_lat":-6.2135,"transit":false},{"time":2,"i_long":106.922662,"is_transit":false,"line":0,"station_id":"BUA","distance":3100,"station_name":"Buaran","transit":false,"i_lat":-6.215568}]]}