{"data":[[{"distance":0,"i_lat":-6.169933,"i_long":106.679458,"transit":false,"line":5,"is_transit":false,"time":0,"station_name":"Poris","station_id":"PI"},{"is_transit":false,"station_id":"KDS","i_long":106.701612,"transit":false,"distance":2548,"i_lat":-6.166068,"line":5,"station_name":"Kalideres","time":3},{"line":5,"station_id":"RW","station_name":"Rawa Buaya","i_lat":-6.162758,"i_long":106.723064,"distance":2504,"time":3,"transit":false,"is_transit":false},{"transit":false,"time":4,"i_lat":-6.159876,"station_id":"BOI","is_transit":false,"distance":1152,"line":5,"station_name":"Bojongindah","i_long":106.737035},{"distance":2334,"station_id":"TKO","line":5,"station_name":"Taman Kota","i_long":106.756522,"time":2,"i_lat":-6.1587309999999995,"transit":false,"is_transit":false},{"station_name":"Pesing","i_lat":-6.161433,"station_id":"PSG","transit":false,"i_long":106.771379,"line":5,"distance":1614,"is_transit":false,"time":2},{"transit":false,"station_id":"GGL","line":5,"is_transit":false,"station_name":"Grogol","time":2,"i_lat":-6.162021,"distance":2036,"i_long":106.788277},{"i_long":106.800832,"is_transit":true,"station_name":"Duri","station_id":"DU","transit":true,"time":3,"i_lat":-6.155215,"line":1,"distance":1700},{"transit":false,"i_lat":-6.185545,"time":8,"is_transit":false,"distance":3632,"i_long":106.811091,"station_name":"Tanah Abang","station_id":"THB","line":1},{"i_long":106.816351,"time":5,"line":1,"i_lat":-6.20132,"distance":2029,"station_id":"KAT","transit":false,"station_name":"Karet","is_transit":false},{"is_transit":false,"time":1,"distance":471,"station_id":"SUDB","i_lat":-6.201433,"line":1,"station_name":"Sudirman Baru","i_long":106.819881,"transit":false},{"is_transit":false,"distance":280,"station_id":"SUD","station_name":"Sudirman","i_long":106.822649,"i_lat":-6.202263,"line":1,"time":1,"transit":false},{"distance":3186,"i_long":106.84912,"station_name":"Manggarai","station_id":"MRI","is_transit":false,"transit":false,"time":4,"line":2,"i_lat":-6.209883},{"is_transit":false,"transit":false,"i_long":106.858896,"line":1,"station_id":"MTR","station_name":"Matraman","time":2,"i_lat":-6.212485,"distance":1275},{"i_long":106.86807400000001,"station_name":"Jatinegara","distance":1377,"station_id":"JNG","transit":false,"i_lat":-6.215091,"line":1,"time":8,"is_transit":false},{"station_id":"KLD","distance":3395,"transit":false,"is_transit":false,"time":3,"station_name":"Klender","i_lat":-6.2135,"line":1,"i_long":106.899548},{"i_long":106.922662,"is_transit":false,"transit":false,"station_id":"BUA","distance":3100,"i_lat":-6.215568,"line":1,"station_name":"Buaran","time":2}],[{"station_id":"PI","time":0,"i_lat":-6.169933,"station_name":"Poris","distance":0,"i_long":106.679458,"line":5,"transit":false,"is_transit":false},{"is_transit":false,"line":5,"i_long":106.701612,"station_name":"Kalideres","station_id":"KDS","time":3,"i_lat":-6.166068,"transit":false,"distance":2548},{"distance":2504,"time":3,"is_transit":false,"line":5,"station_name":"Rawa Buaya","station_id":"RW","i_lat":-6.162758,"transit":false,"i_long":106.723064},{"i_lat":-6.159876,"station_name":"Bojongindah","line":5,"is_transit":false,"time":4,"i_long":106.737035,"station_id":"BOI","distance":1152,"transit":false},{"i_long":106.756522,"transit":false,"station_id":"TKO","i_lat":-6.1587309999999995,"is_transit":false,"distance":2334,"time":2,"station_name":"Taman Kota","line":5},{"is_transit":false,"station_id":"PSG","time":2,"i_long":106.771379,"station_name":"Pesing","distance":1614,"transit":false,"line":5,"i_lat":-6.161433},{"is_transit":false,"station_id":"GGL","distance":2036,"line":5,"time":2,"i_long":106.788277,"transit":false,"i_lat":-6.162021,"station_name":"Grogol"},{"is_transit":true,"line":1,"i_lat":-6.155215,"i_long":106.800832,"station_name":"Duri","distance":1700,"time":3,"transit":true,"station_id":"DU"},{"station_id":"AK","line":1,"distance":1230,"time":4,"station_name":"Angke","i_lat":-6.144674,"is_transit":false,"i_long":106.79867,"transit":false},{"is_transit":true,"line":4,"time":9,"transit":true,"distance":4102,"station_id":"KPB","i_lat":-6.132549,"i_long":106.826365,"station_name":"Kampung Bandan"},{"i_lat":-6.14505,"is_transit":false,"distance":1444,"i_long":106.836569,"station_name":"Rajawali","station_id":"RJW","time":3,"line":11,"transit":false},{"transit":false,"line":11,"is_transit":false,"i_lat":-6.161728,"distance":1901,"time":5,"station_id":"KMO","i_long":106.839204,"station_name":"Kemayoran"},{"distance":1436,"i_long":106.84368,"transit":false,"station_name":"Pasar Senen","i_lat":-6.174784,"station_id":"PSE","line":11,"time":4,"is_transit":false},{"time":8,"transit":false,"station_name":"Gang Sentiong","is_transit":false,"station_id":"GST","i_lat":-6.185975,"distance":1567,"i_long":106.850107,"line":11},{"station_id":"KMT","i_long":106.855437,"i_lat":-6.193792,"is_transit":false,"distance":973,"line":11,"time":1,"station_name":"Kramat","transit":false},{"i_lat":-6.209188,"transit":false,"is_transit":false,"time":2,"distance":1829,"station_id":"POK","i_long":106.861737,"line":11,"station_name":"Pondok Jati"},{"is_transit":true,"transit":true,"time":9,"station_id":"JNG","i_lat":-6.215091,"line":1,"distance":1236,"station_name":"Jatinegara","i_long":106.86807400000001},{"transit":false,"is_transit":false,"time":3,"line":1,"station_id":"KLD","distance":3395,"station_name":"Klender","i_lat":-6.2135,"i_long":106.899548},{"i_lat":-6.215568,"transit":false,"station_name":"Buaran","is_transit":false,"i_long":106.922662,"distance":3100,"time":2,"line":1,"station_id":"BUA"}],[{"distance":0,"transit":false,"i_long":106.679458,"i_lat":-6.169933,"time":0,"station_name":"Poris","station_id":"PI","line":5,"is_transit":false},{"time":3,"i_lat":-6.166068,"i_long":106.701612,"transit":false,"station_name":"Kalideres","station_id":"KDS","distance":2548,"is_transit":false,"line":5},{"is_transit":false,"station_id":"RW","time":3,"i_long":106.723064,"line":5,"i_lat":-6.162758,"distance":2504,"transit":false,"station_name":"Rawa Buaya"},{"station_name":"Bojongindah","i_long":106.737035,"line":5,"time":4,"i_lat":-6.159876,"transit":false,"station_id":"BOI","distance":1152,"is_transit":false},{"is_transit":false,"time":2,"station_id":"TKO","i_lat":-6.1587309999999995,"i_long":106.756522,"line":5,"distance":2334,"station_name":"Taman Kota","transit":false},{"time":2,"i_lat":-6.161433,"transit":false,"station_name":"Pesing","i_long":106.771379,"is_transit":false,"distance":1614,"station_id":"PSG","line":5},{"time":2,"transit":false,"i_lat":-6.162021,"is_transit":false,"distance":2036,"station_name":"Grogol","i_long":106.788277,"station_id":"GGL","line":5},{"distance":1700,"station_id":"DU","time":3,"i_long":106.800832,"i_lat":-6.155215,"line":1,"transit":true,"station_name":"Duri","is_transit":true},{"station_id":"AK","i_lat":-6.144674,"time":4,"station_name":"Angke","is_transit":false,"distance":1230,"transit":false,"i_long":106.79867,"line":1},{"i_long":106.826365,"distance":4102,"time":9,"is_transit":true,"transit":true,"i_lat":-6.132549,"station_name":"Kampung Bandan","station_id":"KPB","line":4},{"distance":1364,"is_transit":true,"line":2,"transit":true,"station_name":"Jakarta Kota","station_id":"JAKK","time":3,"i_lat":-6.137569,"i_long":106.812439},{"distance":1264,"time":4,"is_transit":false,"station_name":"Jayakarta","station_id":"JAY","i_long":106.820901,"line":2,"transit":false,"i_lat":-6.141205},{"i_long":106.82482,"is_transit":false,"time":2,"station_name":"Manggabesar","i_lat":-6.149769,"station_id":"MGB","transit":false,"distance":1080,"line":2},{"i_lat":-6.160725,"is_transit":false,"station_id":"SW","line":2,"distance":906,"i_long":106.827103,"transit":false,"station_name":"Sawah Besar","time":2},{"i_lat":-6.166716,"time":2,"station_name":"Juanda","distance":1149,"i_long":106.828284,"is_transit":false,"transit":false,"line":2,"station_id":"JUA"},{"i_long":106.832183,"time":4,"i_lat":-6.186295,"is_transit":false,"distance":2015,"line":2,"station_name":"Gondangdia","station_id":"GDD","transit":false},{"is_transit":false,"i_lat":-6.198556,"time":3,"station_name":"Cikini","line":2,"i_long":106.840169,"station_id":"CKI","transit":false,"distance":1750},{"station_id":"MRI","line":2,"i_long":106.84912,"distance":1590,"time":4,"station_name":"Manggarai","transit":true,"is_transit":true,"i_lat":-6.209883},{"distance":1275,"i_lat":-6.212485,"transit":false,"station_id":"MTR","time":2,"line":1,"station_name":"Matraman","is_transit":false,"i_long":106.858896},{"i_long":106.86807400000001,"time":8,"distance":1377,"is_transit":false,"station_id":"JNG","line":1,"i_lat":-6.215091,"transit":false,"station_name":"Jatinegara"},{"i_lat":-6.2135,"distance":3395,"i_long":106.899548,"time":3,"is_transit":false,"station_id":"KLD","transit":false,"line":1,"station_name":"Klender"},{"station_id":"BUA","is_transit":false,"distance":3100,"line":1,"transit":false,"time":2,"station_name":"Buaran","i_lat":-6.215568,"i_long":106.922662}],[{"is_transit":false,"i_lat":-6.169933,"i_long":106.679458,"time":0,"station_name":"Poris","distance":0,"transit":false,"station_id":"PI","line":5},{"station_id":"KDS","transit":false,"is_transit":false,"time":3,"station_name":"Kalideres","distance":2548,"line":5,"i_lat":-6.166068,"i_long":106.701612},{"station_name":"Rawa Buaya","i_long":106.723064,"transit":false,"line":5,"is_transit":false,"i_lat":-6.162758,"time":3,"distance":2504,"station_id":"RW"},{"transit":false,"time":4,"station_name":"Bojongindah","i_lat":-6.159876,"i_long":106.737035,"is_transit":false,"line":5,"distance":1152,"station_id":"BOI"},{"is_transit":false,"i_lat":-6.1587309999999995,"time":2,"station_name":"Taman Kota","station_id":"TKO","transit":false,"distance":2334,"i_long":106.756522,"line":5},{"station_id":"PSG","i_long":106.771379,"line":5,"station_name":"Pesing","transit":false,"is_transit":false,"time":2,"distance":1614,"i_lat":-6.161433},{"distance":2036,"is_transit":false,"station_id":"GGL","station_name":"Grogol","i_lat":-6.162021,"i_long":106.788277,"time":2,"line":5,"transit":false},{"time":3,"distance":1700,"is_transit":true,"i_lat":-6.155215,"transit":true,"station_name":"Duri","i_long":106.800832,"line":1,"station_id":"DU"},{"i_lat":-6.185545,"is_transit":false,"time":8,"distance":3632,"transit":false,"i_long":106.811091,"station_id":"THB","station_name":"Tanah Abang","line":1},{"line":1,"station_id":"KAT","transit":false,"time":5,"distance":2029,"is_transit":false,"station_name":"Karet","i_long":106.816351,"i_lat":-6.20132},{"transit":false,"station_name":"Sudirman Baru","is_transit":false,"line":1,"time":1,"i_lat":-6.201433,"station_id":"SUDB","i_long":106.819881,"distance":471},{"i_lat":-6.202263,"i_long":106.822649,"transit":false,"line":1,"is_transit":false,"time":1,"station_id":"SUD","distance":280,"station_name":"Sudirman"},{"i_lat":-6.209883,"transit":true,"time":4,"is_transit":true,"i_long":106.84912,"distance":3186,"station_id":"MRI","line":2,"station_name":"Manggarai"},{"time":4,"distance":1590,"transit":false,"line":2,"is_transit":false,"i_long":106.840169,"station_id":"CKI","i_lat":-6.198556,"station_name":"Cikini"},{"station_name":"Gondangdia","i_long":106.832183,"station_id":"GDD","distance":1750,"time":3,"line":2,"is_transit":false,"transit":false,"i_lat":-6.186295},{"i_lat":-6.166716,"i_long":106.828284,"station_id":"JUA","is_transit":false,"distance":2015,"time":4,"line":2,"station_name":"Juanda","transit":false},{"station_name":"Sawah Besar","i_lat":-6.160725,"station_id":"SW","i_long":106.827103,"is_transit":false,"time":2,"line":2,"transit":false,"distance":1149},{"station_id":"MGB","transit":false,"distance":906,"station_name":"Manggabesar","i_lat":-6.149769,"i_long":106.82482,"line":2,"is_transit":false,"time":2},{"distance":1080,"station_name":"Jayakarta","is_transit":false,"i_lat":-6.141205,"i_long":106.820901,"station_id":"JAY","line":2,"time":2,"transit":false},{"station_name":"Jakarta Kota","distance":1264,"time":4,"station_id":"JAKK","i_long":106.812439,"is_transit":true,"i_lat":-6.137569,"line":2,"transit":true},{"i_long":106.826365,"time":3,"is_transit":true,"i_lat":-6.132549,"line":4,"transit":true,"distance":1364,"station_name":"Kampung Bandan","station_id":"KPB"},{"line":11,"station_name":"Rajawali","transit":false,"distance":1444,"station_id":"RJW","time":3,"i_lat":-6.14505,"i_long":106.836569,"is_transit":false},{"transit":false,"time":5,"distance":1901,"is_transit":false,"i_lat":-6.161728,"i_long":106.839204,"station_name":"Kemayoran","line":11,"station_id":"KMO"},{"i_long":106.84368,"station_id":"PSE","line":11,"distance":1436,"transit":false,"station_name":"Pasar Senen","is_transit":false,"i_lat":-6.174784,"time":4},{"line":11,"transit":false,"station_name":"Gang Sentiong","distance":1567,"time":8,"station_id":"GST","i_lat":-6.185975,"is_transit":false,"i_long":106.850107},{"station_id":"KMT","i_lat":-6.193792,"time":1,"i_long":106.855437,"is_transit":false,"station_name":"Kramat","line":11,"transit":false,"distance":973},{"station_id":"POK","i_lat":-6.209188,"i_long":106.861737,"station_name":"Pondok Jati","distance":1829,"transit":false,"time":2,"line":11,"is_transit":false},{"distance":1236,"transit":true,"i_lat":-6.215091,"i_long":106.86807400000001,"station_id":"JNG","is_transit":true,"time":9,"station_name":"Jatinegara","line":1},{"station_id":"KLD","distance":3395,"station_name":"Klender","i_long":106.899548,"i_lat":-6.2135,"time":3,"transit":false,"line":1,"is_transit":false},{"line":1,"time":2,"transit":false,"distance":3100,"i_long":106.922662,"is_transit":false,"station_name":"Buaran","station_id":"BUA","i_lat":-6.215568}]]}