{"data":[[{"transit":false,"distance":0,"line":5,"station_id":"PI","is_transit":false,"station_name":"Poris","time":0,"i_lat":-6.169933,"i_long":106.679458},{"station_name":"Kalideres","transit":false,"is_transit":false,"i_lat":-6.166068,"time":3,"station_id":"KDS","line":5,"i_long":106.701612,"distance":2548},{"line":5,"distance":2504,"i_long":106.723064,"time":3,"station_id":"RW","is_transit":false,"i_lat":-6.162758,"station_name":"Rawa Buaya","transit":false},{"station_id":"BOI","distance":1152,"time":4,"i_lat":-6.159876,"transit":false,"i_long":106.737035,"is_transit":false,"line":5,"station_name":"Bojongindah"},{"station_id":"TKO","i_long":106.756522,"distance":2334,"transit":false,"is_transit":false,"station_name":"Taman Kota","line":5,"i_lat":-6.1587309999999995,"time":2},{"time":2,"station_name":"Pesing","station_id":"PSG","distance":1614,"line":5,"transit":false,"is_transit":false,"i_lat":-6.161433,"i_long":106.771379},{"line":5,"i_long":106.788277,"i_lat":-6.162021,"station_name":"Grogol","distance":2036,"transit":false,"station_id":"GGL","is_transit":false,"time":2},{"station_id":"DU","transit":true,"i_lat":-6.155215,"i_long":106.800832,"distance":1700,"time":3,"is_transit":true,"station_name":"Duri","line":1},{"i_lat":-6.185545,"distance":3632,"is_transit":false,"time":8,"station_id":"THB","transit":false,"i_long":106.811091,"station_name":"Tanah Abang","line":1},{"distance":2029,"line":1,"station_id":"KAT","station_name":"Karet","i_long":106.816351,"i_lat":-6.20132,"is_transit":false,"time":5,"transit":false},{"i_long":106.819881,"station_name":"Sudirman Baru","station_id":"SUDB","distance":471,"line":1,"is_transit":false,"transit":false,"time":1,"i_lat":-6.201433},{"i_long":106.822649,"line":1,"time":1,"i_lat":-6.202263,"station_id":"SUD","transit":false,"is_transit":false,"distance":280,"station_name":"Sudirman"},{"transit":false,"line":2,"i_long":106.84912,"distance":3186,"is_transit":false,"time":4,"station_name":"Manggarai","station_id":"MRI","i_lat":-6.209883},{"distance":1275,"station_id":"MTR","is_transit":false,"i_lat":-6.212485,"line":1,"i_long":106.858896,"time":2,"station_name":"Matraman","transit":false},{"i_long":106.86807400000001,"line":1,"transit":false,"is_transit":false,"distance":1377,"time":8,"i_lat":-6.215091,"station_name":"Jatinegara","station_id":"JNG"},{"station_id":"KLD","i_lat":-6.2135,"line":1,"i_long":106.899548,"station_name":"Klender","time":3,"is_transit":false,"distance":3395,"transit":false},{"distance":3100,"is_transit":false,"i_lat":-6.215568,"transit":false,"station_name":"Buaran","station_id":"BUA","i_long":106.922662,"line":1,"time":2},{"transit":false,"i_lat":-6.217455,"distance":1305,"station_name":"Klenderbaru","station_id":"KLDB","line":1,"time":1,"i_long":106.939679,"is_transit":false},{"i_long":106.951283,"station_id":"CUK","distance":1385,"station_name":"Cakung","line":1,"i_lat":-6.219053,"transit":false,"is_transit":false,"time":8},{"i_lat":-6.224515,"i_long":106.977657,"distance":3097,"station_name":"Kranji","transit":false,"time":3,"station_id":"KRI","is_transit":false,"line":1},{"station_id":"BKS","is_transit":false,"transit":false,"distance":2520,"i_lat":-6.236616,"station_name":"Bekasi","i_long":106.997013,"line":1,"time":4},{"line":1,"distance":2368,"station_name":"Bekasi Timur","transit":false,"i_lat":-6.248029,"station_id":"BKST","is_transit":false,"time":2,"i_long":107.016735},{"i_lat":-6.258864,"i_long":107.055722,"time":7,"transit":false,"line":1,"station_id":"TB","station_name":"Tambun","distance":4460,"is_transit":false},{"time":3,"distance":3420,"i_lat":-6.261877,"i_long":107.083084,"transit":false,"station_name":"Cibitung","station_id":"CIT","is_transit":false,"line":1},{"i_long":107.093313,"line":1,"transit":false,"station_id":"TLM","distance":2800,"station_name":"Metland Telaga Murni","is_transit":false,"time":2,"i_lat":-6.262938},{"transit":false,"i_lat":-6.2553149999999995,"time":4,"line":1,"station_id":"CKR","distance":3689,"station_name":"Cikarang","i_long":107.144613,"is_transit":false}],[{"line":5,"transit":false,"station_name":"Poris","station_id":"PI","i_lat":-6.169933,"time":0,"is_transit":false,"i_long":106.679458,"distance":0},{"station_id":"KDS","i_lat":-6.166068,"transit":false,"i_long":106.701612,"station_name":"Kalideres","is_transit":false,"distance":2548,"time":3,"line":5},{"station_name":"Rawa Buaya","time":3,"distance":2504,"station_id":"RW","i_long":106.723064,"i_lat":-6.162758,"is_transit":false,"transit":false,"line":5},{"time":4,"i_lat":-6.159876,"line":5,"is_transit":false,"distance":1152,"transit":false,"i_long":106.737035,"station_id":"BOI","station_name":"Bojongindah"},{"station_name":"Taman Kota","time":2,"is_transit":false,"line":5,"station_id":"TKO","transit":false,"distance":2334,"i_lat":-6.1587309999999995,"i_long":106.756522},{"station_id":"PSG","distance":1614,"i_long":106.771379,"transit":false,"line":5,"is_transit":false,"time":2,"station_name":"Pesing","i_lat":-6.161433},{"station_name":"Grogol","is_transit":false,"distance":2036,"i_lat":-6.162021,"station_id":"GGL","i_long":106.788277,"time":2,"line":5,"transit":false},{"station_name":"Duri","transit":true,"is_transit":true,"line":1,"station_id":"DU","distance":1700,"i_lat":-6.155215,"time":3,"i_long":106.800832},{"transit":false,"is_transit":false,"time":4,"i_lat":-6.144674,"distance":1230,"i_long":106.79867,"station_id":"AK","line":1,"station_name":"Angke"},{"distance":4102,"station_name":"Kampung Bandan","i_long":106.826365,"station_id":"KPB","is_transit":true,"i_lat":-6.132549,"time":9,"line":4,"transit":true},{"time":3,"i_lat":-6.14505,"is_transit":false,"line":11,"transit":false,"station_name":"Rajawali","i_long":106.836569,"station_id":"RJW","distance":1444},{"i_long":106.839204,"distance":1901,"line":11,"is_transit":false,"station_name":"Kemayoran","i_lat":-6.161728,"time":5,"transit":false,"station_id":"KMO"},{"line":11,"station_name":"Pasar Senen","i_lat":-6.174784,"distance":1436,"time":4,"i_long":106.84368,"is_transit":false,"station_id":"PSE","transit":false},{"i_long":106.850107,"distance":1567,"line":11,"time":8,"station_name":"Gang Sentiong","station_id":"GST","transit":false,"is_transit":false,"i_lat":-6.185975},{"i_long":106.855437,"distance":973,"is_transit":false,"time":1,"station_name":"Kramat","transit":false,"station_id":"KMT","line":11,"i_lat":-6.193792},{"transit":false,"station_id":"POK","distance":1829,"i_lat":-6.209188,"station_name":"Pondok Jati","is_transit":false,"i_long":106.861737,"line":11,"time":2},{"time":9,"station_name":"Jatinegara","station_id":"JNG","distance":1236,"line":1,"is_transit":true,"i_long":106.86807400000001,"transit":true,"i_lat":-6.215091},{"time":3,"is_transit":false,"i_long":106.899548,"i_lat":-6.2135,"distance":3395,"line":1,"station_name":"Klender","station_id":"KLD","transit":false},{"i_long":106.922662,"is_transit":false,"station_id":"BUA","time":2,"i_lat":-6.215568,"transit":false,"station_name":"Buaran","line":1,"distance":3100},{"i_long":106.939679,"distance":1305,"time":1,"line":1,"station_name":"Klenderbaru","is_transit":false,"transit":false,"i_lat":-6.217455,"station_id":"KLDB"},{"i_lat":-6.219053,"line":1,"station_id":"CUK","is_transit":false,"distance":1385,"transit":false,"time":8,"i_long":106.951283,"station_name":"Cakung"},{"station_name":"Kranji","i_lat":-6.224515,"transit":false,"distance":3097,"i_long":106.977657,"time":3,"station_id":"KRI","is_transit":false,"line":1},{"station_name":"Bekasi","i_lat":-6.236616,"i_long":106.997013,"is_transit":false,"time":4,"line":1,"transit":false,"distance":2520,"station_id":"BKS"},{"station_id":"BKST","i_lat":-6.248029,"station_name":"Bekasi Timur","distance":2368,"is_transit":false,"i_long":107.016735,"transit":false,"time":2,"line":1},{"station_name":"Tambun","station_id":"TB","is_transit":false,"time":7,"i_long":107.055722,"distance":4460,"i_lat":-6.258864,"line":1,"transit":false},{"is_transit":false,"station_name":"Cibitung","i_long":107.083084,"i_lat":-6.261877,"line":1,"time":3,"distance":3420,"station_id":"CIT","transit":false},{"transit":false,"is_transit":false,"station_name":"Metland Telaga Murni","i_lat":-6.262938,"time":2,"distance":2800,"station_id":"TLM","i_long":107.093313,"line":1},{"transit":false,"time":4,"i_long":107.144613,"is_transit":false,"distance":3689,"station_name":"Cikarang","line":1,"station_id":"CKR","i_lat":-6.2553149999999995}],[{"time":0,"distance":0,"i_long":106.679458,"station_id":"PI","is_transit":false,"line":5,"i_lat":-6.169933,"station_name":"Poris","transit":false},{"i_lat":-6.166068,"station_name":"Kalideres","i_long":106.701612,"distance":2548,"is_transit":false,"transit":false,"line":5,"time":3,"station_id":"KDS"},{"station_id":"RW","station_name":"Rawa Buaya","line":5,"is_transit":false,"i_lat":-6.162758,"time":3,"distance":2504,"transit":false,"i_long":106.723064},{"time":4,"transit":false,"distance":1152,"i_lat":-6.159876,"station_id":"BOI","station_name":"Bojongindah","line":5,"i_long":106.737035,"is_transit":false},{"line":5,"distance":2334,"i_lat":-6.1587309999999995,"transit":false,"is_transit":false,"time":2,"i_long":106.756522,"station_name":"Taman Kota","station_id":"TKO"},{"i_long":106.771379,"i_lat":-6.161433,"distance":1614,"transit":false,"time":2,"line":5,"station_id":"PSG","station_name":"Pesing","is_transit":false},{"station_name":"Grogol","is_transit":false,"line":5,"i_lat":-6.162021,"transit":false,"i_long":106.788277,"distance":2036,"time":2,"station_id":"GGL"},{"distance":1700,"i_lat":-6.155215,"i_long":106.800832,"station_id":"DU","transit":true,"time":3,"station_name":"Duri","is_transit":true,"line":1},{"station_name":"Angke","is_transit":false,"station_id":"AK","time":4,"transit":false,"i_lat":-6.144674,"i_long":106.79867,"distance":1230,"line":1},{"time":9,"i_lat":-6.132549,"transit":true,"station_id":"KPB","is_transit":true,"distance":4102,"station_name":"Kampung Bandan","line":4,"i_long":106.826365},{"i_lat":-6.137569,"i_long":106.812439,"time":3,"distance":1364,"station_name":"Jakarta Kota","line":2,"is_transit":true,"station_id":"JAKK","transit":true},{"is_transit":false,"distance":1264,"i_lat":-6.141205,"line":2,"station_id":"JAY","station_name":"Jayakarta","time":4,"transit":false,"i_long":106.820901},{"transit":false,"distance":1080,"i_long":106.82482,"time":2,"i_lat":-6.149769,"is_transit":false,"station_id":"MGB","line":2,"station_name":"Manggabesar"},{"is_transit":false,"time":2,"i_lat":-6.160725,"distance":906,"line":2,"station_id":"SW","station_name":"Sawah Besar","i_long":106.827103,"transit":false},{"i_lat":-6.166716,"is_transit":false,"i_long":106.828284,"line":2,"station_name":"Juanda","station_id":"JUA","transit":false,"time":2,"distance":1149},{"i_long":106.832183,"is_transit":false,"transit":false,"station_id":"GDD","station_name":"Gondangdia","i_lat":-6.186295,"time":4,"line":2,"distance":2015},{"station_id":"CKI","transit":false,"is_transit":false,"distance":1750,"time":3,"station_name":"Cikini","i_lat":-6.198556,"i_long":106.840169,"line":2},{"is_transit":true,"i_long":106.84912,"transit":true,"station_id":"MRI","line":2,"station_name":"Manggarai","distance":1590,"i_lat":-6.209883,"time":4},{"time":2,"distance":1275,"station_id":"MTR","is_transit":false,"i_long":106.858896,"line":1,"transit":false,"i_lat":-6.212485,"station_name":"Matraman"},{"is_transit":false,"station_name":"Jatinegara","station_id":"JNG","transit":false,"i_long":106.86807400000001,"line":1,"distance":1377,"time":8,"i_lat":-6.215091},{"time":3,"station_name":"Klender","transit":false,"is_transit":false,"distance":3395,"line":1,"station_id":"KLD","i_long":106.899548,"i_lat":-6.2135},{"time":2,"is_transit":false,"i_long":106.922662,"station_name":"Buaran","distance":3100,"line":1,"i_lat":-6.215568,"transit":false,"station_id":"BUA"},{"station_id":"KLDB","station_name":"Klenderbaru","time":1,"distance":1305,"i_lat":-6.217455,"i_long":106.939679,"transit":false,"line":1,"is_transit":false},{"i_lat":-6.219053,"is_transit":false,"transit":false,"station_name":"Cakung","distance":1385,"line":1,"time":8,"i_long":106.951283,"station_id":"CUK"},{"is_transit":false,"distance":3097,"i_long":106.977657,"transit":false,"line":1,"i_lat":-6.224515,"station_name":"Kranji","time":3,"station_id":"KRI"},{"i_lat":-6.236616,"distance":2520,"is_transit":false,"station_id":"BKS","station_name":"Bekasi","time":4,"line":1,"transit":false,"i_long":106.997013},{"i_lat":-6.248029,"is_transit":false,"i_long":107.016735,"line":1,"station_id":"BKST","distance":2368,"station_name":"Bekasi Timur","transit":false,"time":2},{"i_lat":-6.258864,"distance":4460,"i_long":107.055722,"station_name":"Tambun","transit":false,"is_transit":false,"line":1,"station_id":"TB","time":7},{"transit":false,"i_lat":-6.261877,"station_id":"CIT","is_transit":false,"station_name":"Cibitung","time":3,"distance":3420,"i_long":107.083084,"line":1},{"time":2,"distance":2800,"station_name":"Metland Telaga Murni","i_lat":-6.262938,"line":1,"transit":false,"station_id":"TLM","i_long":107.093313,"is_transit":false},{"transit":false,"line":1,"i_lat":-6.2553149999999995,"station_name":"Cikarang","station_id":"CKR","is_transit":false,"distance":3689,"time":4,"i_long":107.144613}],[{"time":0,"line":5,"i_lat":-6.169933,"distance":0,"station_id":"PI","i_long":106.679458,"is_transit":false,"transit":false,"station_name":"Poris"},{"station_id":"KDS","is_transit":false,"time":3,"distance":2548,"i_long":106.701612,"i_lat":-6.166068,"station_name":"Kalideres","line":5,"transit":false},{"distance":2504,"is_transit":false,"i_long":106.723064,"station_name":"Rawa Buaya","line":5,"transit":false,"station_id":"RW","time":3,"i_lat":-6.162758},{"line":5,"transit":false,"i_long":106.737035,"station_id":"BOI","i_lat":-6.159876,"station_name":"Bojongindah","time":4,"is_transit":false,"distance":1152},{"is_transit":false,"time":2,"distance":2334,"station_id":"TKO","i_lat":-6.1587309999999995,"i_long":106.756522,"line":5,"station_name":"Taman Kota","transit":false},{"transit":false,"time":2,"station_name":"Pesing","is_transit":false,"distance":1614,"i_lat":-6.161433,"line":5,"station_id":"PSG","i_long":106.771379},{"station_name":"Grogol","is_transit":false,"transit":false,"distance":2036,"station_id":"GGL","time":2,"i_lat":-6.162021,"i_long":106.788277,"line":5},{"is_transit":true,"time":3,"distance":1700,"station_name":"Duri","station_id":"DU","i_lat":-6.155215,"transit":true,"i_long":106.800832,"line":1},{"time":8,"i_long":106.811091,"line":1,"is_transit":false,"transit":false,"station_name":"Tanah Abang","i_lat":-6.185545,"distance":3632,"station_id":"THB"},{"time":5,"i_long":106.816351,"line":1,"distance":2029,"i_lat":-6.20132,"station_name":"Karet","is_transit":false,"transit":false,"station_id":"KAT"},{"station_id":"SUDB","transit":false,"is_transit":false,"distance":471,"i_lat":-6.201433,"time":1,"i_long":106.819881,"line":1,"station_name":"Sudirman Baru"},{"transit":false,"station_name":"Sudirman","is_transit":false,"distance":280,"i_lat":-6.202263,"time":1,"i_long":106.822649,"station_id":"SUD","line":1},{"transit":true,"station_id":"MRI","time":4,"i_long":106.84912,"line":2,"is_transit":true,"station_name":"Manggarai","i_lat":-6.209883,"distance":3186},{"distance":1590,"is_transit":false,"line":2,"i_lat":-6.198556,"station_name":"Cikini","time":4,"station_id":"CKI","transit":false,"i_long":106.840169},{"is_transit":false,"time":3,"i_long":106.832183,"station_name":"Gondangdia","station_id":"GDD","line":2,"transit":false,"distance":1750,"i_lat":-6.186295},{"transit":false,"distance":2015,"i_long":106.828284,"line":2,"time":4,"station_name":"Juanda","is_transit":false,"station_id":"JUA","i_lat":-6.166716},{"transit":false,"station_name":"Sawah Besar","station_id":"SW","distance":1149,"i_lat":-6.160725,"is_transit":false,"time":2,"i_long":106.827103,"line":2},{"distance":906,"time":2,"station_id":"MGB","transit":false,"i_long":106.82482,"line":2,"i_lat":-6.149769,"is_transit":false,"station_name":"Manggabesar"},{"i_lat":-6.141205,"i_long":106.820901,"line":2,"is_transit":false,"station_id":"JAY","transit":false,"station_name":"Jayakarta","time":2,"distance":1080},{"distance":1264,"station_id":"JAKK","line":2,"i_lat":-6.137569,"is_transit":true,"transit":true,"time":4,"station_name":"Jakarta Kota","i_long":106.812439},{"line":4,"distance":1364,"i_lat":-6.132549,"station_name":"Kampung Bandan","is_transit":true,"time":3,"transit":true,"i_long":106.826365,"station_id":"KPB"},{"i_lat":-6.14505,"time":3,"i_long":106.836569,"station_name":"Rajawali","line":11,"is_transit":false,"station_id":"RJW","distance":1444,"transit":false},{"is_transit":false,"i_lat":-6.161728,"i_long":106.839204,"line":11,"station_name":"Kemayoran","time":5,"transit":false,"station_id":"KMO","distance":1901},{"distance":1436,"i_long":106.84368,"line":11,"station_name":"Pasar Senen","station_id":"PSE","i_lat":-6.174784,"is_transit":false,"time":4,"transit":false},{"i_long":106.850107,"transit":false,"line":11,"is_transit":false,"distance":1567,"i_lat":-6.185975,"station_name":"Gang Sentiong","time":8,"station_id":"GST"},{"is_transit":false,"i_long":106.855437,"i_lat":-6.193792,"station_id":"KMT","time":1,"line":11,"distance":973,"transit":false,"station_name":"Kramat"},{"station_name":"Pondok Jati","line":11,"i_lat":-6.209188,"transit":false,"station_id":"POK","distance":1829,"i_long":106.861737,"is_transit":false,"time":2},{"i_long":106.86807400000001,"is_transit":true,"station_id":"JNG","transit":true,"station_name":"Jatinegara","time":9,"i_lat":-6.215091,"line":1,"distance":1236},{"transit":false,"i_long":106.899548,"line":1,"station_id":"KLD","station_name":"Klender","time":3,"i_lat":-6.2135,"is_transit":false,"distance":3395},{"i_long":106.922662,"station_id":"BUA","is_transit":false,"distance":3100,"line":1,"time":2,"station_name":"Buaran","transit":false,"i_lat":-6.215568},{"transit":false,"station_name":"Klenderbaru","station_id":"KLDB","i_lat":-6.217455,"i_long":106.939679,"line":1,"time":1,"is_transit":false,"distance":1305},{"distance":1385,"i_long":106.951283,"transit":false,"i_lat":-6.219053,"line":1,"station_name":"Cakung","station_id":"CUK","is_transit":false,"time":8},{"i_lat":-6.224515,"line":1,"i_long":106.977657,"distance":3097,"station_name":"Kranji","station_id":"KRI","transit":false,"is_transit":false,"time":3},{"distance":2520,"time":4,"i_long":106.997013,"is_transit":false,"station_name":"Bekasi","line":1,"station_id":"BKS","i_lat":-6.236616,"transit":false},{"time":2,"i_long":107.016735,"is_transit":false,"line":1,"distance":2368,"transit":false,"station_name":"Bekasi Timur","station_id":"BKST","i_lat":-6.248029},{"line":1,"distance":4460,"is_transit":false,"i_long":107.055722,"station_name":"Tambun","i_lat":-6.258864,"station_id":"TB","time":7,"transit":false},{"station_name":"Cibitung","transit":false,"station_id":"CIT","is_transit":false,"i_lat":-6.261877,"distance":3420,"time":3,"i_long":107.083084,"line":1},{"line":1,"distance":2800,"is_transit":false,"station_name":"Metland Telaga Murni","station_id":"TLM","time":2,"transit":false,"i_long":107.093313,"i_lat":-6.262938},{"distance":3689,"station_name":"Cikarang","station_id":"CKR","is_transit":false,"time":4,"transit":false,"line":1,"i_lat":-6.2553149999999995,"i_long":107.144613}]]}