{"data":[[{"distance":0,"i_long":106.679458,"station_name":"Poris","time":0,"station_id":"PI","line":5,"transit":false,"i_lat":-6.169933,"is_transit":false},{"station_name":"Kalideres","is_transit":false,"i_long":106.701612,"transit":false,"i_lat":-6.166068,"line":5,"distance":2548,"time":3,"station_id":"KDS"},{"line":5,"distance":2504,"transit":false,"station_name":"Rawa Buaya","time":3,"station_id":"RW","is_transit":false,"i_lat":-6.162758,"i_long":106.723064},{"station_name":"Bojongindah","time":4,"is_transit":false,"transit":false,"i_lat":-6.159876,"i_long":106.737035,"station_id":"BOI","line":0,"distance":1152},{"i_long":106.756522,"station_id":"TKO","station_name":"Taman Kota","transit":false,"line":5,"distance":2334,"is_transit":false,"time":2,"i_lat":-6.1587309999999995},{"station_id":"PSG","time":2,"distance":1614,"station_name":"Pesing","transit":false,"i_lat":-6.161433,"i_long":106.771379,"line":5,"is_transit":false},{"i_long":106.788277,"line":5,"distance":2036,"is_transit":false,"station_name":"Grogol","transit":false,"time":2,"i_lat":-6.162021,"station_id":"GGL"},{"i_lat":-6.155215,"is_transit":true,"time":3,"distance":1700,"transit":true,"i_long":106.800832,"line":1,"station_name":"Duri","station_id":"DU"},{"transit":false,"distance":3632,"station_id":"THB","time":8,"i_lat":-6.185545,"is_transit":true,"station_name":"Tanah Abang","i_long":106.811091,"line":1},{"transit":false,"i_long":106.816351,"station_id":"KAT","distance":2029,"is_transit":false,"station_name":"Karet","i_lat":-6.20132,"line":1,"time":5},{"i_lat":-6.201433,"line":1,"station_name":"Sudirman Baru","station_id":"SUDB","i_long":106.819881,"transit":false,"distance":471,"time":1,"is_transit":false},{"time":1,"i_lat":-6.202263,"distance":280,"station_id":"SUD","station_name":"Sudirman","is_transit":false,"line":1,"transit":false,"i_long":106.822649},{"i_long":106.84912,"is_transit":true,"line":0,"station_id":"MRI","time":4,"i_lat":-6.209883,"transit":false,"distance":3186,"station_name":"Manggarai"},{"time":2,"i_lat":-6.212485,"i_long":106.858896,"transit":false,"distance":1275,"station_name":"Matraman","station_id":"MTR","is_transit":false,"line":1},{"i_long":106.86807400000001,"is_transit":true,"transit":false,"station_name":"Jatinegara","i_lat":-6.215091,"time":8,"line":0,"distance":1377,"station_id":"JNG"},{"line":1,"is_transit":false,"time":3,"i_lat":-6.2135,"station_name":"Klender","station_id":"KLD","distance":3395,"transit":false,"i_long":106.899548},{"i_long":106.922662,"line":0,"i_lat":-6.215568,"station_id":"BUA","transit":false,"is_transit":false,"distance":3100,"station_name":"Buaran","time":2},{"station_id":"KLDB","distance":1305,"station_name":"Klenderbaru","transit":false,"is_transit":false,"time":1,"i_long":106.939679,"i_lat":-6.217455,"line":1},{"time":8,"line":0,"is_transit":false,"station_name":"Cakung","station_id":"CUK","transit":false,"i_lat":-6.219053,"i_long":106.951283,"distance":1385},{"time":3,"distance":3097,"station_id":"KRI","transit":false,"is_transit":false,"i_lat":-6.224515,"line":1,"i_long":106.977657,"station_name":"Kranji"},{"distance":2520,"station_name":"Bekasi","is_transit":false,"station_id":"BKS","transit":false,"i_long":106.997013,"time":4,"i_lat":-6.236616,"line":0},{"is_transit":false,"distance":2368,"line":0,"i_long":107.016735,"station_id":"BKST","time":2,"i_lat":-6.248029,"transit":false,"station_name":"Bekasi Timur"},{"station_name":"Tambun","i_lat":-6.258864,"is_transit":false,"time":7,"i_long":107.055722,"line":1,"transit":false,"distance":4460,"station_id":"TB"},{"i_lat":-6.261877,"i_long":107.083084,"line":0,"transit":false,"is_transit":false,"distance":3420,"station_name":"Cibitung","station_id":"CIT","time":3},{"transit":false,"i_lat":-6.262938,"is_transit":false,"distance":2800,"station_id":"TLM","i_long":107.093313,"time":2,"line":1,"station_name":"Metland Telaga Murni"},{"is_transit":false,"station_name":"Cikarang","time":4,"transit":false,"station_id":"CKR","i_lat":-6.2553149999999995,"i_long":107.144613,"line":0,"distance":3689}],[{"is_transit":false,"time":0,"i_long":106.679458,"line":5,"station_id":"PI","transit":false,"distance":0,"station_name":"Poris","i_lat":-6.169933},{"i_lat":-6.166068,"station_id":"KDS","distance":2548,"station_name":"Kalideres","is_transit":false,"time":3,"i_long":106.701612,"transit":false,"line":5},{"transit":false,"i_lat":-6.162758,"line":5,"station_id":"RW","is_transit":false,"distance":2504,"station_name":"Rawa Buaya","i_long":106.723064,"time":3},{"transit":false,"i_lat":-6.159876,"station_id":"BOI","line":0,"i_long":106.737035,"is_transit":false,"time":4,"distance":1152,"station_name":"Bojongindah"},{"distance":2334,"i_long":106.756522,"station_name":"Taman Kota","i_lat":-6.1587309999999995,"station_id":"TKO","transit":false,"is_transit":false,"time":2,"line":5},{"line":5,"is_transit":false,"distance":1614,"i_long":106.771379,"transit":false,"time":2,"station_name":"Pesing","i_lat":-6.161433,"station_id":"PSG"},{"station_id":"GGL","time":2,"line":5,"i_lat":-6.162021,"is_transit":false,"transit":false,"station_name":"Grogol","distance":2036,"i_long":106.788277},{"station_name":"Duri","i_lat":-6.155215,"i_long":106.800832,"line":1,"time":3,"station_id":"DU","distance":1700,"transit":true,"is_transit":true},{"station_id":"AK","distance":1230,"time":4,"line":0,"is_transit":false,"i_long":106.79867,"i_lat":-6.144674,"transit":false,"station_name":"Angke"},{"i_lat":-6.132549,"line":0,"time":9,"transit":true,"i_long":106.826365,"station_id":"KPB","is_transit":true,"distance":4102,"station_name":"Kampung Bandan"},{"time":3,"station_name":"Rajawali","is_transit":false,"station_id":"RJW","line":11,"i_long":106.836569,"transit":false,"distance":1444,"i_lat":-6.14505},{"is_transit":false,"station_name":"Kemayoran","i_long":106.839204,"station_id":"KMO","line":11,"transit":false,"time":5,"i_lat":-6.161728,"distance":1901},{"time":4,"i_long":106.84368,"is_transit":false,"distance":1436,"i_lat":-6.174784,"station_name":"Pasar Senen","line":11,"transit":false,"station_id":"PSE"},{"i_lat":-6.185975,"line":11,"is_transit":false,"time":8,"distance":1567,"i_long":106.850107,"transit":false,"station_id":"GST","station_name":"Gang Sentiong"},{"distance":973,"station_id":"KMT","line":11,"time":1,"i_lat":-6.193792,"station_name":"Kramat","i_long":106.855437,"transit":false,"is_transit":false},{"station_name":"Pondok Jati","distance":1829,"transit":false,"i_lat":-6.209188,"time":2,"line":11,"is_transit":false,"station_id":"POK","i_long":106.861737},{"transit":true,"is_transit":true,"i_lat":-6.215091,"i_long":106.86807400000001,"station_id":"JNG","distance":1236,"time":9,"station_name":"Jatinegara","line":0},{"time":3,"line":1,"station_name":"Klender","transit":false,"distance":3395,"is_transit":false,"i_long":106.899548,"i_lat":-6.2135,"station_id":"KLD"},{"station_name":"Buaran","time":2,"i_long":106.922662,"line":0,"station_id":"BUA","transit":false,"distance":3100,"i_lat":-6.215568,"is_transit":false},{"i_lat":-6.217455,"is_transit":false,"i_long":106.939679,"distance":1305,"line":1,"station_id":"KLDB","transit":false,"time":1,"station_name":"Klenderbaru"},{"station_name":"Cakung","i_lat":-6.219053,"station_id":"CUK","transit":false,"line":0,"i_long":106.951283,"distance":1385,"is_transit":false,"time":8},{"i_lat":-6.224515,"transit":false,"i_long":106.977657,"distance":3097,"station_name":"Kranji","station_id":"KRI","is_transit":false,"line":1,"time":3},{"i_long":106.997013,"is_transit":false,"transit":false,"station_name":"Bekasi","station_id":"BKS","line":0,"distance":2520,"time":4,"i_lat":-6.236616},{"time":2,"transit":false,"is_transit":false,"distance":2368,"i_long":107.016735,"line":0,"i_lat":-6.248029,"station_name":"Bekasi Timur","station_id":"BKST"},{"station_name":"Tambun","station_id":"TB","transit":false,"time":7,"i_lat":-6.258864,"is_transit":false,"line":1,"i_long":107.055722,"distance":4460},{"i_lat":-6.261877,"i_long":107.083084,"station_name":"Cibitung","station_id":"CIT","transit":false,"is_transit":false,"distance":3420,"time":3,"line":0},{"i_long":107.093313,"time":2,"station_id":"TLM","station_name":"Metland Telaga Murni","i_lat":-6.262938,"is_transit":false,"line":1,"transit":false,"distance":2800},{"station_name":"Cikarang","transit":false,"i_lat":-6.2553149999999995,"i_long":107.144613,"line":0,"station_id":"CKR","is_transit":false,"time":4,"distance":3689}],[{"distance":0,"station_name":"Poris","time":0,"i_long":106.679458,"line":5,"i_lat":-6.169933,"transit":false,"station_id":"PI","is_transit":false},{"line":5,"i_lat":-6.166068,"transit":false,"distance":2548,"station_name":"Kalideres","is_transit":false,"time":3,"station_id":"KDS","i_long":106.701612},{"station_name":"Rawa Buaya","i_lat":-6.162758,"transit":false,"time":3,"line":5,"station_id":"RW","i_long":106.723064,"is_transit":false,"distance":2504},{"station_id":"BOI","line":0,"is_transit":false,"i_long":106.737035,"i_lat":-6.159876,"transit":false,"time":4,"distance":1152,"station_name":"Bojongindah"},{"station_id":"TKO","i_lat":-6.1587309999999995,"station_name":"Taman Kota","i_long":106.756522,"time":2,"is_transit":false,"distance":2334,"line":5,"transit":false},{"time":2,"i_lat":-6.161433,"transit":false,"is_transit":false,"station_name":"Pesing","station_id":"PSG","line":5,"i_long":106.771379,"distance":1614},{"is_transit":false,"transit":false,"time":2,"station_name":"Grogol","i_lat":-6.162021,"distance":2036,"i_long":106.788277,"station_id":"GGL","line":5},{"is_transit":true,"station_id":"DU","distance":1700,"transit":true,"station_name":"Duri","time":3,"i_lat":-6.155215,"i_long":106.800832,"line":1},{"line":0,"distance":1230,"station_id":"AK","station_name":"Angke","time":4,"i_lat":-6.144674,"i_long":106.79867,"transit":false,"is_transit":false},{"i_long":106.826365,"line":0,"station_name":"Kampung Bandan","is_transit":true,"distance":4102,"time":9,"i_lat":-6.132549,"transit":false,"station_id":"KPB"},{"transit":true,"time":3,"i_lat":-6.137569,"station_name":"Jakarta Kota","i_long":106.812439,"distance":1364,"line":0,"is_transit":true,"station_id":"JAKK"},{"station_id":"JAY","is_transit":false,"i_long":106.820901,"transit":false,"i_lat":-6.141205,"station_name":"Jayakarta","distance":1264,"time":4,"line":7},{"station_id":"MGB","is_transit":false,"distance":1080,"station_name":"Manggabesar","i_long":106.82482,"line":2,"transit":false,"time":2,"i_lat":-6.149769},{"i_lat":-6.160725,"transit":false,"i_long":106.827103,"distance":906,"line":2,"station_name":"Sawah Besar","station_id":"SW","is_transit":false,"time":2},{"station_name":"Juanda","line":2,"time":2,"i_lat":-6.166716,"station_id":"JUA","transit":false,"is_transit":false,"i_long":106.828284,"distance":1149},{"distance":2015,"is_transit":false,"station_id":"GDD","line":2,"i_lat":-6.186295,"i_long":106.832183,"time":4,"station_name":"Gondangdia","transit":false},{"is_transit":false,"transit":false,"i_lat":-6.198556,"i_long":106.840169,"station_id":"CKI","time":3,"line":0,"station_name":"Cikini","distance":1750},{"i_long":106.84912,"distance":1590,"line":0,"station_name":"Manggarai","is_transit":true,"station_id":"MRI","i_lat":-6.209883,"transit":true,"time":4},{"transit":false,"line":1,"station_name":"Matraman","i_long":106.858896,"is_transit":false,"time":2,"i_lat":-6.212485,"distance":1275,"station_id":"MTR"},{"time":8,"station_name":"Jatinegara","i_long":106.86807400000001,"station_id":"JNG","i_lat":-6.215091,"line":0,"is_transit":true,"transit":false,"distance":1377},{"transit":false,"station_id":"KLD","is_transit":false,"distance":3395,"station_name":"Klender","time":3,"i_lat":-6.2135,"i_long":106.899548,"line":1},{"transit":false,"time":2,"i_long":106.922662,"is_transit":false,"distance":3100,"station_id":"BUA","i_lat":-6.215568,"station_name":"Buaran","line":0},{"is_transit":false,"station_id":"KLDB","distance":1305,"line":1,"transit":false,"i_long":106.939679,"station_name":"Klenderbaru","time":1,"i_lat":-6.217455},{"is_transit":false,"station_name":"Cakung","i_lat":-6.219053,"distance":1385,"station_id":"CUK","transit":false,"line":0,"time":8,"i_long":106.951283},{"station_id":"KRI","distance":3097,"transit":false,"is_transit":false,"line":1,"station_name":"Kranji","i_lat":-6.224515,"time":3,"i_long":106.977657},{"i_long":106.997013,"line":0,"station_id":"BKS","transit":false,"time":4,"i_lat":-6.236616,"is_transit":false,"station_name":"Bekasi","distance":2520},{"i_long":107.016735,"station_id":"BKST","is_transit":false,"station_name":"Bekasi Timur","i_lat":-6.248029,"time":2,"line":0,"distance":2368,"transit":false},{"i_long":107.055722,"distance":4460,"station_name":"Tambun","station_id":"TB","time":7,"transit":false,"is_transit":false,"line":1,"i_lat":-6.258864},{"station_id":"CIT","line":0,"i_long":107.083084,"time":3,"transit":false,"station_name":"Cibitung","is_transit":false,"i_lat":-6.261877,"distance":3420},{"distance":2800,"i_long":107.093313,"time":2,"is_transit":false,"station_name":"Metland Telaga Murni","i_lat":-6.262938,"line":1,"transit":false,"station_id":"TLM"},{"station_id":"CKR","transit":false,"station_name":"Cikarang","i_long":107.144613,"i_lat":-6.2553149999999995,"is_transit":false,"time":4,"line":0,"distance":3689}],[{"station_name":"Poris","line":5,"station_id":"PI","transit":false,"i_lat":-6.169933,"is_transit":false,"distance":0,"time":0,"i_long":106.679458},{"distance":2548,"i_long":106.701612,"line":5,"station_id":"KDS","i_lat":-6.166068,"is_transit":false,"station_name":"Kalideres","transit":false,"time":3},{"line":5,"station_name":"Rawa Buaya","i_lat":-6.162758,"is_transit":false,"station_id":"RW","transit":false,"distance":2504,"i_long":106.723064,"time":3},{"i_lat":-6.159876,"distance":1152,"i_long":106.737035,"transit":false,"is_transit":false,"station_name":"Bojongindah","line":0,"station_id":"BOI","time":4},{"time":2,"line":5,"i_long":106.756522,"station_id":"TKO","i_lat":-6.1587309999999995,"station_name":"Taman Kota","transit":false,"is_transit":false,"distance":2334},{"station_name":"Pesing","time":2,"i_long":106.771379,"line":5,"station_id":"PSG","is_transit":false,"i_lat":-6.161433,"distance":1614,"transit":false},{"i_long":106.788277,"line":5,"is_transit":false,"transit":false,"time":2,"i_lat":-6.162021,"station_name":"Grogol","station_id":"GGL","distance":2036},{"is_transit":true,"i_long":106.800832,"time":3,"station_name":"Duri","transit":true,"i_lat":-6.155215,"line":1,"station_id":"DU","distance":1700},{"line":1,"distance":3632,"station_id":"THB","transit":false,"time":8,"station_name":"Tanah Abang","i_lat":-6.185545,"is_transit":true,"i_long":106.811091},{"is_transit":false,"station_name":"Karet","i_lat":-6.20132,"i_long":106.816351,"time":5,"station_id":"KAT","line":1,"distance":2029,"transit":false},{"station_name":"Sudirman Baru","i_long":106.819881,"transit":false,"time":1,"distance":471,"line":1,"is_transit":false,"i_lat":-6.201433,"station_id":"SUDB"},{"distance":280,"line":1,"station_name":"Sudirman","i_long":106.822649,"transit":false,"station_id":"SUD","is_transit":false,"i_lat":-6.202263,"time":1},{"station_id":"MRI","is_transit":true,"time":4,"line":0,"transit":true,"station_name":"Manggarai","i_lat":-6.209883,"distance":3186,"i_long":106.84912},{"is_transit":false,"distance":1590,"i_long":106.840169,"station_name":"Cikini","line":0,"station_id":"CKI","i_lat":-6.198556,"time":4,"transit":false},{"transit":false,"is_transit":false,"line":2,"station_id":"GDD","station_name":"Gondangdia","distance":1750,"i_lat":-6.186295,"i_long":106.832183,"time":3},{"distance":2015,"line":2,"station_id":"JUA","time":4,"is_transit":false,"i_long":106.828284,"i_lat":-6.166716,"transit":false,"station_name":"Juanda"},{"line":2,"distance":1149,"time":2,"station_id":"SW","i_long":106.827103,"i_lat":-6.160725,"transit":false,"is_transit":false,"station_name":"Sawah Besar"},{"station_id":"MGB","transit":false,"i_lat":-6.149769,"i_long":106.82482,"line":2,"is_transit":false,"time":2,"distance":906,"station_name":"Manggabesar"},{"i_lat":-6.141205,"station_id":"JAY","station_name":"Jayakarta","i_long":106.820901,"time":2,"distance":1080,"is_transit":false,"line":7,"transit":false},{"time":4,"i_lat":-6.137569,"line":0,"is_transit":true,"distance":1264,"station_name":"Jakarta Kota","station_id":"JAKK","i_long":106.812439,"transit":true},{"station_id":"KPB","i_long":106.826365,"i_lat":-6.132549,"is_transit":true,"transit":true,"distance":1364,"station_name":"Kampung Bandan","time":3,"line":0},{"transit":false,"is_transit":false,"station_name":"Rajawali","i_lat":-6.14505,"line":11,"time":3,"distance":1444,"i_long":106.836569,"station_id":"RJW"},{"distance":1901,"transit":false,"time":5,"i_long":106.839204,"station_name":"Kemayoran","line":11,"i_lat":-6.161728,"station_id":"KMO","is_transit":false},{"transit":false,"station_name":"Pasar Senen","line":11,"distance":1436,"time":4,"is_transit":false,"station_id":"PSE","i_long":106.84368,"i_lat":-6.174784},{"transit":false,"station_name":"Gang Sentiong","is_transit":false,"time":8,"line":11,"distance":1567,"i_long":106.850107,"station_id":"GST","i_lat":-6.185975},{"distance":973,"is_transit":false,"i_lat":-6.193792,"transit":false,"station_name":"Kramat","time":1,"i_long":106.855437,"station_id":"KMT","line":11},{"line":11,"time":2,"i_long":106.861737,"is_transit":false,"transit":false,"distance":1829,"i_lat":-6.209188,"station_name":"Pondok Jati","station_id":"POK"},{"station_id":"JNG","station_name":"Jatinegara","line":0,"transit":true,"is_transit":true,"i_lat":-6.215091,"time":9,"i_long":106.86807400000001,"distance":1236},{"is_transit":false,"time":3,"i_lat":-6.2135,"station_name":"Klender","line":1,"i_long":106.899548,"transit":false,"distance":3395,"station_id":"KLD"},{"station_id":"BUA","is_transit":false,"distance":3100,"transit":false,"time":2,"i_long":106.922662,"station_name":"Buaran","line":0,"i_lat":-6.215568},{"i_long":106.939679,"is_transit":false,"station_name":"Klenderbaru","i_lat":-6.217455,"line":1,"distance":1305,"station_id":"KLDB","transit":false,"time":1},{"time":8,"station_name":"Cakung","line":0,"distance":1385,"station_id":"CUK","is_transit":false,"i_long":106.951283,"transit":false,"i_lat":-6.219053},{"transit":false,"station_name":"Kranji","distance":3097,"time":3,"i_long":106.977657,"station_id":"KRI","is_transit":false,"line":1,"i_lat":-6.224515},{"distance":2520,"transit":false,"station_name":"Bekasi","i_lat":-6.236616,"is_transit":false,"i_long":106.997013,"station_id":"BKS","line":0,"time":4},{"station_name":"Bekasi Timur","is_transit":false,"i_long":107.016735,"time":2,"transit":false,"i_lat":-6.248029,"line":0,"station_id":"BKST","distance":2368},{"distance":4460,"is_transit":false,"transit":false,"line":1,"i_long":107.055722,"station_name":"Tambun","time":7,"station_id":"TB","i_lat":-6.258864},{"station_id":"CIT","time":3,"transit":false,"station_name":"Cibitung","distance":3420,"is_transit":false,"i_lat":-6.261877,"i_long":107.083084,"line":0},{"station_id":"TLM","transit":false,"distance":2800,"station_name":"Metland Telaga Murni","i_lat":-6.262938,"i_long":107.093313,"line":1,"time":2,"is_transit":false},{"station_id":"CKR","distance":3689,"line":0,"i_long":107.144613,"station_name":"Cikarang","time":4,"transit":false,"i_lat":-6.2553149999999995,"is_transit":false}]]}