{"data":[[{"distance":0,"station_id":"PI","time":0,"line":5,"i_long":106.679458,"station_name":"Poris","transit":false,"i_lat":-6.169933,"is_transit":false},{"distance":2548,"station_id":"KDS","i_lat":-6.166068,"transit":false,"i_long":106.701612,"station_name":"Kalideres","time":3,"line":5,"is_transit":false},{"is_transit":false,"station_id":"RW","transit":false,"line":5,"station_name":"Rawa Buaya","time":3,"i_lat":-6.162758,"distance":2504,"i_long":106.723064},{"is_transit":false,"i_lat":-6.159876,"line":0,"station_name":"Bojongindah","i_long":106.737035,"distance":1152,"transit":false,"time":4,"station_id":"BOI"},{"distance":2334,"transit":false,"i_lat":-6.1587309999999995,"i_long":106.756522,"station_name":"Taman Kota","time":2,"station_id":"TKO","is_transit":false,"line":5},{"line":5,"station_name":"Pesing","distance":1614,"transit":false,"is_transit":false,"station_id":"PSG","i_long":106.771379,"i_lat":-6.161433,"time":2},{"line":5,"i_lat":-6.162021,"distance":2036,"transit":false,"station_id":"GGL","station_name":"Grogol","time":2,"is_transit":false,"i_long":106.788277},{"is_transit":true,"i_lat":-6.155215,"transit":true,"i_long":106.800832,"time":3,"line":1,"distance":1700,"station_name":"Duri","station_id":"DU"},{"is_transit":true,"i_lat":-6.185545,"line":1,"distance":3632,"station_name":"Tanah Abang","transit":false,"station_id":"THB","i_long":106.811091,"time":8},{"transit":false,"station_name":"Karet","i_lat":-6.20132,"line":1,"station_id":"KAT","is_transit":false,"i_long":106.816351,"distance":2029,"time":5},{"i_lat":-6.201433,"is_transit":false,"station_id":"SUDB","station_name":"Sudirman Baru","i_long":106.819881,"distance":471,"transit":false,"time":1,"line":1},{"distance":280,"is_transit":false,"line":1,"station_id":"SUD","time":1,"station_name":"Sudirman","transit":false,"i_lat":-6.202263,"i_long":106.822649},{"station_name":"Manggarai","station_id":"MRI","i_long":106.84912,"distance":3186,"line":0,"i_lat":-6.209883,"transit":true,"time":4,"is_transit":true},{"transit":false,"station_id":"CKI","time":4,"i_lat":-6.198556,"i_long":106.840169,"line":0,"station_name":"Cikini","distance":1590,"is_transit":false}],[{"time":0,"transit":false,"i_long":106.679458,"is_transit":false,"line":5,"station_id":"PI","i_lat":-6.169933,"station_name":"Poris","distance":0},{"station_name":"Kalideres","time":3,"i_lat":-6.166068,"i_long":106.701612,"line":5,"transit":false,"station_id":"KDS","distance":2548,"is_transit":false},{"transit":false,"distance":2504,"i_lat":-6.162758,"time":3,"station_id":"RW","i_long":106.723064,"is_transit":false,"station_name":"Rawa Buaya","line":5},{"distance":1152,"station_id":"BOI","transit":false,"is_transit":false,"i_long":106.737035,"time":4,"line":0,"i_lat":-6.159876,"station_name":"Bojongindah"},{"time":2,"transit":false,"station_id":"TKO","i_lat":-6.1587309999999995,"is_transit":false,"distance":2334,"line":5,"station_name":"Taman Kota","i_long":106.756522},{"station_id":"PSG","distance":1614,"is_transit":false,"i_lat":-6.161433,"line":5,"time":2,"transit":false,"i_long":106.771379,"station_name":"Pesing"},{"time":2,"i_long":106.788277,"station_id":"GGL","line":5,"i_lat":-6.162021,"is_transit":false,"station_name":"Grogol","distance":2036,"transit":false},{"transit":true,"i_long":106.800832,"line":1,"is_transit":true,"time":3,"distance":1700,"i_lat":-6.155215,"station_name":"Duri","station_id":"DU"},{"time":4,"line":0,"transit":false,"is_transit":false,"station_id":"AK","i_long":106.79867,"distance":1230,"station_name":"Angke","i_lat":-6.144674},{"i_long":106.826365,"station_name":"Kampung Bandan","transit":false,"distance":4102,"i_lat":-6.132549,"is_transit":true,"station_id":"KPB","time":9,"line":0},{"is_transit":true,"distance":1364,"time":3,"i_lat":-6.137569,"transit":true,"line":0,"station_name":"Jakarta Kota","i_long":106.812439,"station_id":"JAKK"},{"time":4,"i_lat":-6.141205,"station_id":"JAY","distance":1264,"is_transit":false,"station_name":"Jayakarta","transit":false,"line":7,"i_long":106.820901},{"time":2,"station_name":"Manggabesar","is_transit":false,"station_id":"MGB","i_lat":-6.149769,"distance":1080,"transit":false,"line":2,"i_long":106.82482},{"distance":906,"i_long":106.827103,"line":2,"is_transit":false,"i_lat":-6.160725,"station_id":"SW","transit":false,"station_name":"Sawah Besar","time":2},{"station_name":"Juanda","i_lat":-6.166716,"i_long":106.828284,"distance":1149,"time":2,"line":2,"is_transit":false,"transit":false,"station_id":"JUA"},{"line":2,"is_transit":false,"distance":2015,"time":4,"transit":false,"station_name":"Gondangdia","station_id":"GDD","i_lat":-6.186295,"i_long":106.832183},{"line":0,"station_id":"CKI","transit":false,"time":3,"i_long":106.840169,"i_lat":-6.198556,"distance":1750,"station_name":"Cikini","is_transit":false}],[{"i_long":106.679458,"line":5,"time":0,"transit":false,"is_transit":false,"i_lat":-6.169933,"station_id":"PI","station_name":"Poris","distance":0},{"i_lat":-6.166068,"station_id":"KDS","line":5,"time":3,"transit":false,"distance":2548,"is_transit":false,"station_name":"Kalideres","i_long":106.701612},{"distance":2504,"station_id":"RW","transit":false,"i_long":106.723064,"i_lat":-6.162758,"station_name":"Rawa Buaya","time":3,"line":5,"is_transit":false},{"time":4,"station_id":"BOI","station_name":"Bojongindah","distance":1152,"is_transit":false,"i_lat":-6.159876,"i_long":106.737035,"line":0,"transit":false},{"is_transit":false,"station_name":"Taman Kota","time":2,"i_long":106.756522,"station_id":"TKO","distance":2334,"i_lat":-6.1587309999999995,"transit":false,"line":5},{"is_transit":false,"time":2,"transit":false,"i_lat":-6.161433,"distance":1614,"i_long":106.771379,"station_id":"PSG","line":5,"station_name":"Pesing"},{"time":2,"station_name":"Grogol","is_transit":false,"distance":2036,"station_id":"GGL","line":5,"transit":false,"i_lat":-6.162021,"i_long":106.788277},{"i_lat":-6.155215,"is_transit":true,"i_long":106.800832,"station_id":"DU","station_name":"Duri","transit":true,"line":1,"distance":1700,"time":3},{"station_id":"AK","station_name":"Angke","distance":1230,"transit":false,"time":4,"i_lat":-6.144674,"i_long":106.79867,"line":0,"is_transit":false},{"i_long":106.826365,"i_lat":-6.132549,"transit":true,"station_id":"KPB","is_transit":true,"line":0,"distance":4102,"time":9,"station_name":"Kampung Bandan"},{"transit":false,"distance":1444,"time":3,"station_name":"Rajawali","line":11,"i_long":106.836569,"is_transit":false,"i_lat":-6.14505,"station_id":"RJW"},{"station_name":"Kemayoran","i_lat":-6.161728,"i_long":106.839204,"distance":1901,"time":5,"transit":false,"line":11,"is_transit":false,"station_id":"KMO"},{"line":11,"transit":false,"station_id":"PSE","time":4,"i_long":106.84368,"distance":1436,"station_name":"Pasar Senen","i_lat":-6.174784,"is_transit":false},{"is_transit":false,"i_lat":-6.185975,"time":8,"transit":false,"distance":1567,"i_long":106.850107,"station_name":"Gang Sentiong","line":11,"station_id":"GST"},{"is_transit":false,"station_name":"Kramat","i_long":106.855437,"time":1,"line":11,"distance":973,"transit":false,"i_lat":-6.193792,"station_id":"KMT"},{"line":11,"time":2,"is_transit":false,"i_long":106.861737,"i_lat":-6.209188,"transit":false,"station_id":"POK","station_name":"Pondok Jati","distance":1829},{"i_long":106.86807400000001,"line":0,"distance":1236,"time":9,"is_transit":true,"station_id":"JNG","transit":true,"station_name":"Jatinegara","i_lat":-6.215091},{"station_name":"Matraman","i_lat":-6.212485,"i_long":106.858896,"transit":false,"line":1,"distance":1377,"time":2,"station_id":"MTR","is_transit":false},{"distance":1275,"transit":true,"i_lat":-6.209883,"station_id":"MRI","is_transit":true,"line":0,"time":2,"i_long":106.84912,"station_name":"Manggarai"},{"station_id":"CKI","is_transit":false,"transit":false,"distance":1590,"i_lat":-6.198556,"i_long":106.840169,"line":0,"station_name":"Cikini","time":4}],[{"distance":0,"time":0,"station_id":"PI","transit":false,"i_lat":-6.169933,"i_long":106.679458,"line":5,"station_name":"Poris","is_transit":false},{"time":3,"station_name":"Kalideres","is_transit":false,"i_lat":-6.166068,"line":5,"i_long":106.701612,"transit":false,"distance":2548,"station_id":"KDS"},{"i_long":106.723064,"station_name":"Rawa Buaya","station_id":"RW","time":3,"line":5,"distance":2504,"is_transit":false,"transit":false,"i_lat":-6.162758},{"i_long":106.737035,"line":0,"station_name":"Bojongindah","is_transit":false,"time":4,"transit":false,"distance":1152,"station_id":"BOI","i_lat":-6.159876},{"i_long":106.756522,"station_name":"Taman Kota","station_id":"TKO","time":2,"line":5,"distance":2334,"transit":false,"is_transit":false,"i_lat":-6.1587309999999995},{"station_name":"Pesing","is_transit":false,"time":2,"transit":false,"station_id":"PSG","i_long":106.771379,"i_lat":-6.161433,"distance":1614,"line":5},{"transit":false,"station_name":"Grogol","distance":2036,"line":5,"is_transit":false,"time":2,"i_lat":-6.162021,"station_id":"GGL","i_long":106.788277},{"i_lat":-6.155215,"is_transit":true,"i_long":106.800832,"time":3,"transit":true,"station_name":"Duri","line":1,"distance":1700,"station_id":"DU"},{"line":1,"transit":false,"station_id":"THB","station_name":"Tanah Abang","time":8,"distance":3632,"i_lat":-6.185545,"is_transit":true,"i_long":106.811091},{"transit":false,"i_lat":-6.20132,"i_long":106.816351,"line":1,"time":5,"station_name":"Karet","is_transit":false,"station_id":"KAT","distance":2029},{"distance":471,"station_id":"SUDB","station_name":"Sudirman Baru","is_transit":false,"time":1,"i_lat":-6.201433,"i_long":106.819881,"transit":false,"line":1},{"i_long":106.822649,"time":1,"station_id":"SUD","i_lat":-6.202263,"line":1,"is_transit":false,"station_name":"Sudirman","transit":false,"distance":280},{"time":4,"is_transit":true,"distance":3186,"i_lat":-6.209883,"transit":false,"i_long":106.84912,"station_name":"Manggarai","station_id":"MRI","line":0},{"is_transit":false,"station_name":"Matraman","transit":false,"i_long":106.858896,"line":1,"time":2,"distance":1275,"i_lat":-6.212485,"station_id":"MTR"},{"distance":1377,"station_name":"Jatinegara","transit":true,"is_transit":true,"time":8,"i_long":106.86807400000001,"line":0,"i_lat":-6.215091,"station_id":"JNG"},{"is_transit":false,"time":2,"i_lat":-6.209188,"station_id":"POK","i_long":106.861737,"transit":false,"line":11,"station_name":"Pondok Jati","distance":1236},{"time":2,"i_lat":-6.193792,"i_long":106.855437,"is_transit":false,"line":11,"station_name":"Kramat","transit":false,"station_id":"KMT","distance":1829},{"distance":973,"i_long":106.850107,"station_id":"GST","i_lat":-6.185975,"time":1,"transit":false,"station_name":"Gang Sentiong","is_transit":false,"line":11},{"time":8,"line":11,"station_name":"Pasar Senen","i_long":106.84368,"i_lat":-6.174784,"station_id":"PSE","transit":false,"distance":1567,"is_transit":false},{"i_long":106.839204,"i_lat":-6.161728,"time":4,"station_name":"Kemayoran","station_id":"KMO","is_transit":false,"line":11,"distance":1436,"transit":false},{"time":5,"i_lat":-6.14505,"distance":1901,"line":11,"transit":false,"is_transit":false,"i_long":106.836569,"station_name":"Rajawali","station_id":"RJW"},{"line":0,"station_name":"Kampung Bandan","i_lat":-6.132549,"transit":true,"is_transit":true,"station_id":"KPB","time":3,"distance":1444,"i_long":106.826365},{"station_id":"JAKK","station_name":"Jakarta Kota","i_long":106.812439,"distance":1364,"i_lat":-6.137569,"time":3,"transit":true,"is_transit":true,"line":0},{"i_lat":-6.141205,"distance":1264,"line":7,"is_transit":false,"time":4,"station_name":"Jayakarta","transit":false,"station_id":"JAY","i_long":106.820901},{"station_name":"Manggabesar","time":2,"transit":false,"distance":1080,"i_lat":-6.149769,"station_id":"MGB","line":2,"is_transit":false,"i_long":106.82482},{"transit":false,"station_id":"SW","i_lat":-6.160725,"i_long":106.827103,"distance":906,"station_name":"Sawah Besar","is_transit":false,"line":2,"time":2},{"station_id":"JUA","i_long":106.828284,"station_name":"Juanda","i_lat":-6.166716,"time":2,"distance":1149,"line":2,"is_transit":false,"transit":false},{"is_transit":false,"distance":2015,"i_lat":-6.186295,"station_id":"GDD","i_long":106.832183,"transit":false,"line":2,"station_name":"Gondangdia","time":4},{"time":3,"is_transit":false,"i_lat":-6.198556,"station_name":"Cikini","line":0,"i_long":106.840169,"transit":false,"distance":1750,"station_id":"CKI"}]]}