{"data":[[{"i_long":106.679458,"transit":false,"station_name":"Poris","time":0,"station_id":"PI","is_transit":false,"i_lat":-6.169933,"distance":0,"line":5},{"station_name":"Kalideres","i_long":106.701612,"i_lat":-6.166068,"line":5,"transit":false,"time":3,"distance":2548,"is_transit":false,"station_id":"KDS"},{"i_long":106.723064,"distance":2504,"i_lat":-6.162758,"line":5,"transit":false,"station_name":"Rawa Buaya","station_id":"RW","is_transit":false,"time":3},{"distance":1152,"transit":false,"station_id":"BOI","i_long":106.737035,"is_transit":false,"i_lat":-6.159876,"time":4,"line":5,"station_name":"Bojongindah"},{"i_long":106.756522,"distance":2334,"i_lat":-6.1587309999999995,"station_id":"TKO","time":2,"is_transit":false,"transit":false,"station_name":"Taman Kota","line":5},{"distance":1614,"transit":false,"line":5,"i_long":106.771379,"is_transit":false,"time":2,"station_id":"PSG","station_name":"Pesing","i_lat":-6.161433},{"transit":false,"line":5,"distance":2036,"i_long":106.788277,"time":2,"station_id":"GRG","i_lat":-6.162021,"station_name":"Grogol","is_transit":false},{"transit":true,"is_transit":true,"station_id":"DU","station_name":"Duri","i_lat":-6.155215,"distance":1700,"line":1,"i_long":106.800832,"time":3},{"i_long":106.811091,"time":8,"line":1,"station_id":"THB","distance":3632,"transit":false,"i_lat":-6.185545,"station_name":"Tanah Abang","is_transit":false},{"is_transit":false,"station_id":"KAT","distance":2029,"station_name":"Karet","transit":false,"i_lat":-6.20132,"time":5,"i_long":106.816351,"line":1},{"station_name":"Sudirman Baru","transit":false,"is_transit":false,"station_id":"SUDB","i_lat":-6.201433,"i_long":106.819881,"line":1,"time":1,"distance":471},{"station_id":"SUD","time":1,"line":1,"is_transit":false,"distance":280,"i_lat":-6.202263,"i_long":106.822649,"station_name":"Sudirman","transit":false},{"is_transit":true,"i_long":106.84912,"distance":3186,"i_lat":-6.209883,"station_id":"MRI","station_name":"Manggarai","line":2,"time":4,"transit":true},{"station_id":"CKI","station_name":"Cikini","i_long":106.840169,"is_transit":false,"transit":false,"line":2,"i_lat":-6.198556,"time":4,"distance":1590}],[{"line":5,"is_transit":false,"time":0,"station_id":"PI","distance":0,"station_name":"Poris","i_long":106.679458,"transit":false,"i_lat":-6.169933},{"station_id":"KDS","distance":2548,"time":3,"i_lat":-6.166068,"is_transit":false,"line":5,"station_name":"Kalideres","i_long":106.701612,"transit":false},{"station_name":"Rawa Buaya","station_id":"RW","i_long":106.723064,"distance":2504,"transit":false,"i_lat":-6.162758,"line":5,"is_transit":false,"time":3},{"station_name":"Bojongindah","i_lat":-6.159876,"i_long":106.737035,"transit":false,"line":5,"is_transit":false,"time":4,"station_id":"BOI","distance":1152},{"station_name":"Taman Kota","time":2,"i_lat":-6.1587309999999995,"i_long":106.756522,"transit":false,"station_id":"TKO","distance":2334,"is_transit":false,"line":5},{"is_transit":false,"line":5,"transit":false,"station_id":"PSG","time":2,"i_lat":-6.161433,"distance":1614,"i_long":106.771379,"station_name":"Pesing"},{"station_id":"GRG","i_long":106.788277,"station_name":"Grogol","time":2,"transit":false,"i_lat":-6.162021,"line":5,"is_transit":false,"distance":2036},{"transit":true,"i_lat":-6.155215,"is_transit":true,"time":3,"distance":1700,"station_id":"DU","station_name":"Duri","i_long":106.800832,"line":1},{"is_transit":false,"i_lat":-6.144674,"time":4,"station_name":"Angke","distance":1230,"transit":false,"station_id":"AK","line":1,"i_long":106.79867},{"distance":4102,"line":4,"time":9,"transit":true,"i_lat":-6.132549,"is_transit":true,"station_name":"Kampung Bandan","station_id":"KPB","i_long":106.826365},{"i_lat":-6.137569,"station_name":"Jakarta Kota","i_long":106.812439,"line":2,"time":3,"is_transit":true,"station_id":"JAKK","distance":1364,"transit":true},{"time":4,"is_transit":false,"station_id":"JAY","transit":false,"i_lat":-6.141205,"line":2,"station_name":"Jayakarta","distance":1264,"i_long":106.820901},{"i_lat":-6.149769,"distance":1080,"transit":false,"station_name":"Manggabesar","i_long":106.82482,"line":2,"station_id":"MGB","is_transit":false,"time":2},{"i_lat":-6.160725,"station_id":"SW","i_long":106.827103,"is_transit":false,"line":2,"distance":906,"station_name":"Sawah Besar","time":2,"transit":false},{"i_lat":-6.166716,"distance":1149,"transit":false,"station_id":"JUA","i_long":106.828284,"line":2,"station_name":"Juanda","time":2,"is_transit":false},{"transit":false,"station_name":"Gondangdia","is_transit":false,"time":4,"i_long":106.832183,"line":2,"distance":2015,"station_id":"GDD","i_lat":-6.186295},{"line":2,"time":3,"transit":false,"station_id":"CKI","i_long":106.840169,"station_name":"Cikini","distance":1750,"is_transit":false,"i_lat":-6.198556}],[{"station_id":"PI","station_name":"Poris","i_lat":-6.169933,"time":0,"is_transit":false,"i_long":106.679458,"distance":0,"transit":false,"line":5},{"i_long":106.701612,"time":3,"station_id":"KDS","is_transit":false,"distance":2548,"transit":false,"station_name":"Kalideres","line":5,"i_lat":-6.166068},{"line":5,"station_name":"Rawa Buaya","i_long":106.723064,"is_transit":false,"time":3,"distance":2504,"transit":false,"station_id":"RW","i_lat":-6.162758},{"is_transit":false,"station_id":"BOI","i_long":106.737035,"time":4,"line":5,"transit":false,"i_lat":-6.159876,"distance":1152,"station_name":"Bojongindah"},{"line":5,"is_transit":false,"distance":2334,"i_lat":-6.1587309999999995,"station_name":"Taman Kota","transit":false,"i_long":106.756522,"time":2,"station_id":"TKO"},{"transit":false,"station_id":"PSG","time":2,"distance":1614,"i_lat":-6.161433,"line":5,"station_name":"Pesing","is_transit":false,"i_long":106.771379},{"is_transit":false,"i_long":106.788277,"transit":false,"i_lat":-6.162021,"time":2,"distance":2036,"station_id":"GRG","line":5,"station_name":"Grogol"},{"line":1,"i_long":106.800832,"station_name":"Duri","time":3,"is_transit":true,"transit":true,"distance":1700,"station_id":"DU","i_lat":-6.155215},{"distance":1230,"transit":false,"station_id":"AK","line":1,"is_transit":false,"station_name":"Angke","i_lat":-6.144674,"time":4,"i_long":106.79867},{"is_transit":true,"station_id":"KPB","distance":4102,"transit":true,"i_lat":-6.132549,"i_long":106.826365,"line":4,"station_name":"Kampung Bandan","time":9},{"station_name":"Rajawali","time":3,"station_id":"RJW","i_long":106.836569,"line":11,"is_transit":false,"distance":1444,"transit":false,"i_lat":-6.14505},{"station_id":"KMO","time":5,"distance":1901,"i_long":106.839204,"line":11,"transit":false,"is_transit":false,"station_name":"Kemayoran","i_lat":-6.161728},{"i_lat":-6.174784,"time":4,"transit":false,"line":11,"i_long":106.84368,"station_name":"Pasar Senen","is_transit":false,"distance":1436,"station_id":"PSE"},{"i_lat":-6.185975,"i_long":106.850107,"transit":false,"is_transit":false,"station_id":"GST","line":11,"time":8,"station_name":"Gang Sentiong","distance":1567},{"transit":false,"i_lat":-6.193792,"i_long":106.855437,"station_id":"KMT","distance":973,"line":11,"station_name":"Kramat","is_transit":false,"time":1},{"line":11,"station_name":"Pondok Jati","i_lat":-6.209188,"time":2,"transit":false,"distance":1829,"is_transit":false,"station_id":"POK","i_long":106.861737},{"i_long":106.86807400000001,"time":9,"distance":1236,"station_name":"Jatinegara","i_lat":-6.215091,"line":1,"transit":true,"station_id":"JNG","is_transit":true},{"station_name":"Matraman","line":1,"time":2,"station_id":"MTR","i_long":106.858896,"is_transit":false,"transit":false,"distance":1377,"i_lat":-6.212485},{"time":2,"station_id":"MRI","station_name":"Manggarai","i_lat":-6.209883,"is_transit":true,"i_long":106.84912,"line":2,"distance":1275,"transit":true},{"station_name":"Cikini","time":4,"distance":1590,"i_lat":-6.198556,"line":2,"i_long":106.840169,"transit":false,"is_transit":false,"station_id":"CKI"}],[{"i_lat":-6.169933,"i_long":106.679458,"line":5,"is_transit":false,"station_name":"Poris","time":0,"distance":0,"transit":false,"station_id":"PI"},{"i_lat":-6.166068,"station_name":"Kalideres","time":3,"transit":false,"station_id":"KDS","line":5,"distance":2548,"i_long":106.701612,"is_transit":false},{"is_transit":false,"line":5,"transit":false,"station_name":"Rawa Buaya","station_id":"RW","time":3,"i_lat":-6.162758,"distance":2504,"i_long":106.723064},{"time":4,"station_id":"BOI","station_name":"Bojongindah","distance":1152,"transit":false,"i_lat":-6.159876,"i_long":106.737035,"line":5,"is_transit":false},{"station_id":"TKO","i_lat":-6.1587309999999995,"i_long":106.756522,"time":2,"transit":false,"line":5,"station_name":"Taman Kota","is_transit":false,"distance":2334},{"i_lat":-6.161433,"line":5,"station_id":"PSG","i_long":106.771379,"distance":1614,"time":2,"station_name":"Pesing","transit":false,"is_transit":false},{"is_transit":false,"distance":2036,"station_name":"Grogol","i_long":106.788277,"line":5,"time":2,"station_id":"GRG","i_lat":-6.162021,"transit":false},{"transit":true,"station_name":"Duri","i_lat":-6.155215,"time":3,"station_id":"DU","i_long":106.800832,"is_transit":true,"distance":1700,"line":1},{"distance":3632,"time":8,"line":1,"station_id":"THB","transit":false,"is_transit":false,"i_lat":-6.185545,"i_long":106.811091,"station_name":"Tanah Abang"},{"transit":false,"time":5,"line":1,"station_id":"KAT","i_lat":-6.20132,"is_transit":false,"distance":2029,"i_long":106.816351,"station_name":"Karet"},{"time":1,"station_id":"SUDB","transit":false,"distance":471,"i_long":106.819881,"is_transit":false,"i_lat":-6.201433,"station_name":"Sudirman Baru","line":1},{"distance":280,"i_long":106.822649,"station_name":"Sudirman","line":1,"i_lat":-6.202263,"station_id":"SUD","is_transit":false,"time":1,"transit":false},{"i_lat":-6.209883,"i_long":106.84912,"transit":false,"station_id":"MRI","station_name":"Manggarai","line":2,"is_transit":false,"time":4,"distance":3186},{"is_transit":false,"distance":1275,"station_id":"MTR","transit":false,"time":2,"station_name":"Matraman","line":1,"i_lat":-6.212485,"i_long":106.858896},{"transit":true,"line":1,"is_transit":true,"station_name":"Jatinegara","time":8,"station_id":"JNG","i_long":106.86807400000001,"distance":1377,"i_lat":-6.215091},{"i_lat":-6.209188,"is_transit":false,"transit":false,"line":11,"distance":1236,"station_name":"Pondok Jati","time":2,"station_id":"POK","i_long":106.861737},{"is_transit":false,"i_lat":-6.193792,"station_id":"KMT","station_name":"Kramat","line":11,"time":2,"i_long":106.855437,"transit":false,"distance":1829},{"time":1,"transit":false,"is_transit":false,"distance":973,"i_lat":-6.185975,"station_id":"GST","station_name":"Gang Sentiong","line":11,"i_long":106.850107},{"line":11,"is_transit":false,"station_name":"Pasar Senen","transit":false,"i_long":106.84368,"time":8,"distance":1567,"i_lat":-6.174784,"station_id":"PSE"},{"time":4,"i_long":106.839204,"line":11,"transit":false,"station_id":"KMO","station_name":"Kemayoran","distance":1436,"i_lat":-6.161728,"is_transit":false},{"line":11,"station_id":"RJW","is_transit":false,"i_long":106.836569,"time":5,"transit":false,"distance":1901,"i_lat":-6.14505,"station_name":"Rajawali"},{"i_lat":-6.132549,"station_name":"Kampung Bandan","i_long":106.826365,"time":3,"is_transit":true,"station_id":"KPB","line":4,"distance":1444,"transit":true},{"distance":1364,"station_id":"JAKK","time":3,"i_long":106.812439,"is_transit":true,"station_name":"Jakarta Kota","i_lat":-6.137569,"transit":true,"line":2},{"is_transit":false,"time":4,"transit":false,"i_long":106.820901,"line":2,"distance":1264,"station_id":"JAY","i_lat":-6.141205,"station_name":"Jayakarta"},{"station_name":"Manggabesar","i_lat":-6.149769,"transit":false,"station_id":"MGB","line":2,"i_long":106.82482,"is_transit":false,"time":2,"distance":1080},{"i_long":106.827103,"line":2,"station_name":"Sawah Besar","is_transit":false,"time":2,"i_lat":-6.160725,"station_id":"SW","distance":906,"transit":false},{"line":2,"is_transit":false,"i_lat":-6.166716,"transit":false,"station_id":"JUA","i_long":106.828284,"time":2,"distance":1149,"station_name":"Juanda"},{"distance":2015,"line":2,"is_transit":false,"i_long":106.832183,"i_lat":-6.186295,"transit":false,"time":4,"station_id":"GDD","station_name":"Gondangdia"},{"is_transit":false,"line":2,"distance":1750,"station_id":"CKI","time":3,"transit":false,"station_name":"Cikini","i_long":106.840169,"i_lat":-6.198556}]]}