{"data":[[{"time":0,"is_transit":false,"transit":false,"i_long":106.679458,"station_name":"Poris","station_id":"PI","i_lat":-6.169933,"distance":0,"line":5},{"i_lat":-6.166068,"time":3,"transit":false,"i_long":106.701612,"distance":2548,"line":5,"station_name":"Kalideres","is_transit":false,"station_id":"KDS"},{"transit":false,"is_transit":false,"i_lat":-6.162758,"station_name":"Rawa Buaya","time":3,"distance":2504,"station_id":"RW","i_long":106.723064,"line":5},{"transit":false,"is_transit":false,"i_long":106.737035,"line":5,"station_id":"BOI","station_name":"Bojongindah","time":4,"i_lat":-6.159876,"distance":1152},{"station_id":"TKO","line":5,"i_lat":-6.1587309999999995,"transit":false,"i_long":106.756522,"is_transit":false,"station_name":"Taman Kota","time":2,"distance":2334},{"station_name":"Pesing","time":2,"line":5,"is_transit":false,"i_long":106.771379,"distance":1614,"station_id":"PSG","transit":false,"i_lat":-6.161433},{"is_transit":false,"i_lat":-6.162021,"station_id":"GGL","line":5,"time":2,"i_long":106.788277,"transit":false,"distance":2036,"station_name":"Grogol"},{"i_lat":-6.155215,"line":1,"i_long":106.800832,"station_name":"Duri","is_transit":true,"station_id":"DU","transit":true,"time":3,"distance":1700},{"time":8,"transit":false,"station_name":"Tanah Abang","line":1,"station_id":"THB","i_lat":-6.185545,"is_transit":false,"distance":3632,"i_long":106.811091},{"station_id":"KAT","transit":false,"time":5,"is_transit":false,"distance":2029,"line":1,"station_name":"Karet","i_long":106.816351,"i_lat":-6.20132},{"station_name":"Sudirman Baru","transit":false,"i_lat":-6.201433,"line":1,"is_transit":false,"i_long":106.819881,"station_id":"SUDB","distance":471,"time":1},{"station_id":"SUD","i_lat":-6.202263,"station_name":"Sudirman","i_long":106.822649,"time":1,"distance":280,"is_transit":false,"transit":false,"line":1},{"station_id":"MRI","distance":3186,"i_lat":-6.209883,"i_long":106.84912,"time":4,"transit":true,"station_name":"Manggarai","line":2,"is_transit":true},{"station_id":"CKI","time":4,"line":2,"i_long":106.840169,"is_transit":false,"distance":1590,"station_name":"Cikini","i_lat":-6.198556,"transit":false}],[{"transit":false,"i_long":106.679458,"station_name":"Poris","i_lat":-6.169933,"line":5,"distance":0,"station_id":"PI","is_transit":false,"time":0},{"is_transit":false,"i_long":106.701612,"distance":2548,"line":5,"i_lat":-6.166068,"station_id":"KDS","transit":false,"time":3,"station_name":"Kalideres"},{"station_name":"Rawa Buaya","i_long":106.723064,"line":5,"i_lat":-6.162758,"is_transit":false,"transit":false,"distance":2504,"time":3,"station_id":"RW"},{"station_name":"Bojongindah","is_transit":false,"i_long":106.737035,"time":4,"transit":false,"line":5,"distance":1152,"i_lat":-6.159876,"station_id":"BOI"},{"time":2,"station_id":"TKO","transit":false,"i_lat":-6.1587309999999995,"line":5,"distance":2334,"station_name":"Taman Kota","i_long":106.756522,"is_transit":false},{"is_transit":false,"line":5,"i_long":106.771379,"station_id":"PSG","transit":false,"time":2,"i_lat":-6.161433,"station_name":"Pesing","distance":1614},{"time":2,"station_id":"GGL","transit":false,"station_name":"Grogol","is_transit":false,"i_long":106.788277,"distance":2036,"line":5,"i_lat":-6.162021},{"time":3,"i_lat":-6.155215,"is_transit":true,"i_long":106.800832,"transit":true,"line":1,"station_id":"DU","distance":1700,"station_name":"Duri"},{"station_id":"AK","station_name":"Angke","i_long":106.79867,"line":1,"is_transit":false,"distance":1230,"time":4,"i_lat":-6.144674,"transit":false},{"station_name":"Kampung Bandan","distance":4102,"i_lat":-6.132549,"transit":true,"station_id":"KPB","time":9,"is_transit":true,"i_long":106.826365,"line":4},{"i_lat":-6.137569,"distance":1364,"is_transit":true,"station_name":"Jakarta Kota","time":3,"transit":true,"i_long":106.812439,"station_id":"JAKK","line":2},{"is_transit":false,"distance":1264,"i_lat":-6.141205,"i_long":106.820901,"transit":false,"time":4,"line":2,"station_name":"Jayakarta","station_id":"JAY"},{"distance":1080,"line":2,"i_lat":-6.149769,"i_long":106.82482,"time":2,"station_id":"MGB","transit":false,"station_name":"Manggabesar","is_transit":false},{"station_id":"SW","station_name":"Sawah Besar","is_transit":false,"distance":906,"transit":false,"i_lat":-6.160725,"i_long":106.827103,"line":2,"time":2},{"transit":false,"distance":1149,"line":2,"time":2,"i_lat":-6.166716,"station_name":"Juanda","station_id":"JUA","i_long":106.828284,"is_transit":false},{"station_name":"Gondangdia","transit":false,"line":2,"i_long":106.832183,"distance":2015,"time":4,"is_transit":false,"i_lat":-6.186295,"station_id":"GDD"},{"station_id":"CKI","line":2,"station_name":"Cikini","i_long":106.840169,"i_lat":-6.198556,"distance":1750,"time":3,"transit":false,"is_transit":false}],[{"station_name":"Poris","station_id":"PI","time":0,"i_lat":-6.169933,"line":5,"distance":0,"transit":false,"i_long":106.679458,"is_transit":false},{"i_lat":-6.166068,"station_name":"Kalideres","time":3,"line":5,"is_transit":false,"distance":2548,"i_long":106.701612,"station_id":"KDS","transit":false},{"is_transit":false,"line":5,"i_long":106.723064,"station_id":"RW","time":3,"i_lat":-6.162758,"transit":false,"station_name":"Rawa Buaya","distance":2504},{"transit":false,"line":5,"i_long":106.737035,"time":4,"station_id":"BOI","distance":1152,"i_lat":-6.159876,"is_transit":false,"station_name":"Bojongindah"},{"transit":false,"line":5,"is_transit":false,"i_long":106.756522,"station_name":"Taman Kota","time":2,"station_id":"TKO","distance":2334,"i_lat":-6.1587309999999995},{"transit":false,"station_name":"Pesing","station_id":"PSG","is_transit":false,"line":5,"i_lat":-6.161433,"i_long":106.771379,"time":2,"distance":1614},{"station_name":"Grogol","distance":2036,"i_lat":-6.162021,"time":2,"station_id":"GGL","i_long":106.788277,"transit":false,"is_transit":false,"line":5},{"is_transit":true,"i_lat":-6.155215,"distance":1700,"time":3,"station_id":"DU","line":1,"transit":true,"i_long":106.800832,"station_name":"Duri"},{"i_long":106.79867,"is_transit":false,"station_name":"Angke","distance":1230,"transit":false,"time":4,"line":1,"station_id":"AK","i_lat":-6.144674},{"i_lat":-6.132549,"station_id":"KPB","transit":true,"station_name":"Kampung Bandan","is_transit":true,"distance":4102,"time":9,"line":4,"i_long":106.826365},{"transit":false,"station_name":"Rajawali","station_id":"RJW","i_lat":-6.14505,"is_transit":false,"time":3,"distance":1444,"i_long":106.836569,"line":11},{"time":5,"station_name":"Kemayoran","station_id":"KMO","i_lat":-6.161728,"i_long":106.839204,"distance":1901,"line":11,"is_transit":false,"transit":false},{"is_transit":false,"station_name":"Pasar Senen","time":4,"station_id":"PSE","distance":1436,"transit":false,"i_lat":-6.174784,"i_long":106.84368,"line":11},{"transit":false,"is_transit":false,"i_lat":-6.185975,"distance":1567,"time":8,"station_id":"GST","i_long":106.850107,"line":11,"station_name":"Gang Sentiong"},{"time":1,"i_lat":-6.193792,"transit":false,"station_name":"Kramat","is_transit":false,"station_id":"KMT","i_long":106.855437,"line":11,"distance":973},{"is_transit":false,"time":2,"i_lat":-6.209188,"station_name":"Pondok Jati","transit":false,"station_id":"POK","i_long":106.861737,"distance":1829,"line":11},{"is_transit":true,"distance":1236,"line":1,"station_name":"Jatinegara","station_id":"JNG","time":9,"i_lat":-6.215091,"transit":true,"i_long":106.86807400000001},{"time":2,"station_id":"MTR","line":1,"station_name":"Matraman","is_transit":false,"i_long":106.858896,"distance":1377,"i_lat":-6.212485,"transit":false},{"is_transit":true,"transit":true,"i_lat":-6.209883,"line":2,"station_name":"Manggarai","distance":1275,"station_id":"MRI","time":2,"i_long":106.84912},{"distance":1590,"transit":false,"i_lat":-6.198556,"line":2,"i_long":106.840169,"time":4,"station_id":"CKI","station_name":"Cikini","is_transit":false}],[{"is_transit":false,"time":0,"station_id":"PI","i_long":106.679458,"station_name":"Poris","line":5,"transit":false,"distance":0,"i_lat":-6.169933},{"is_transit":false,"station_id":"KDS","station_name":"Kalideres","line":5,"i_lat":-6.166068,"i_long":106.701612,"time":3,"distance":2548,"transit":false},{"station_id":"RW","i_lat":-6.162758,"line":5,"distance":2504,"transit":false,"is_transit":false,"i_long":106.723064,"station_name":"Rawa Buaya","time":3},{"i_lat":-6.159876,"line":5,"station_id":"BOI","transit":false,"distance":1152,"i_long":106.737035,"is_transit":false,"time":4,"station_name":"Bojongindah"},{"time":2,"station_name":"Taman Kota","line":5,"distance":2334,"station_id":"TKO","transit":false,"i_lat":-6.1587309999999995,"i_long":106.756522,"is_transit":false},{"line":5,"distance":1614,"station_id":"PSG","station_name":"Pesing","is_transit":false,"transit":false,"i_long":106.771379,"i_lat":-6.161433,"time":2},{"station_id":"GGL","transit":false,"i_long":106.788277,"is_transit":false,"distance":2036,"line":5,"station_name":"Grogol","time":2,"i_lat":-6.162021},{"line":1,"i_lat":-6.155215,"i_long":106.800832,"station_name":"Duri","is_transit":true,"transit":true,"station_id":"DU","distance":1700,"time":3},{"i_lat":-6.185545,"is_transit":false,"station_id":"THB","transit":false,"i_long":106.811091,"station_name":"Tanah Abang","distance":3632,"time":8,"line":1},{"station_id":"KAT","station_name":"Karet","is_transit":false,"i_long":106.816351,"line":1,"distance":2029,"transit":false,"i_lat":-6.20132,"time":5},{"station_name":"Sudirman Baru","station_id":"SUDB","is_transit":false,"i_long":106.819881,"line":1,"time":1,"transit":false,"distance":471,"i_lat":-6.201433},{"transit":false,"time":1,"i_lat":-6.202263,"is_transit":false,"distance":280,"station_id":"SUD","line":1,"station_name":"Sudirman","i_long":106.822649},{"distance":3186,"transit":false,"station_id":"MRI","time":4,"i_lat":-6.209883,"station_name":"Manggarai","is_transit":false,"line":2,"i_long":106.84912},{"i_long":106.858896,"is_transit":false,"station_name":"Matraman","time":2,"i_lat":-6.212485,"line":1,"station_id":"MTR","distance":1275,"transit":false},{"station_name":"Jatinegara","time":8,"station_id":"JNG","line":1,"i_long":106.86807400000001,"is_transit":true,"transit":true,"distance":1377,"i_lat":-6.215091},{"transit":false,"is_transit":false,"station_name":"Pondok Jati","i_lat":-6.209188,"line":11,"time":2,"station_id":"POK","distance":1236,"i_long":106.861737},{"i_lat":-6.193792,"is_transit":false,"i_long":106.855437,"transit":false,"station_id":"KMT","line":11,"station_name":"Kramat","distance":1829,"time":2},{"i_lat":-6.185975,"station_name":"Gang Sentiong","time":1,"i_long":106.850107,"transit":false,"line":11,"distance":973,"is_transit":false,"station_id":"GST"},{"station_name":"Pasar Senen","transit":false,"is_transit":false,"distance":1567,"time":8,"i_long":106.84368,"line":11,"i_lat":-6.174784,"station_id":"PSE"},{"i_long":106.839204,"i_lat":-6.161728,"station_name":"Kemayoran","is_transit":false,"line":11,"time":4,"distance":1436,"station_id":"KMO","transit":false},{"distance":1901,"transit":false,"is_transit":false,"time":5,"i_lat":-6.14505,"station_id":"RJW","i_long":106.836569,"line":11,"station_name":"Rajawali"},{"is_transit":true,"i_lat":-6.132549,"time":3,"distance":1444,"transit":true,"line":4,"station_id":"KPB","station_name":"Kampung Bandan","i_long":106.826365},{"station_name":"Jakarta Kota","line":2,"station_id":"JAKK","distance":1364,"is_transit":true,"time":3,"transit":true,"i_lat":-6.137569,"i_long":106.812439},{"distance":1264,"station_id":"JAY","line":2,"station_name":"Jayakarta","i_long":106.820901,"time":4,"is_transit":false,"transit":false,"i_lat":-6.141205},{"transit":false,"i_long":106.82482,"time":2,"i_lat":-6.149769,"line":2,"station_name":"Manggabesar","is_transit":false,"station_id":"MGB","distance":1080},{"station_name":"Sawah Besar","time":2,"station_id":"SW","distance":906,"transit":false,"i_lat":-6.160725,"i_long":106.827103,"line":2,"is_transit":false},{"distance":1149,"is_transit":false,"transit":false,"line":2,"i_lat":-6.166716,"time":2,"i_long":106.828284,"station_id":"JUA","station_name":"Juanda"},{"time":4,"i_long":106.832183,"line":2,"station_id":"GDD","i_lat":-6.186295,"is_transit":false,"transit":false,"station_name":"Gondangdia","distance":2015},{"line":2,"station_name":"Cikini","is_transit":false,"transit":false,"distance":1750,"i_lat":-6.198556,"i_long":106.840169,"time":3,"station_id":"CKI"}]]}