{"data":[[{"station_id":"PI","is_transit":false,"time":0,"distance":0,"transit":false,"i_lat":-6.169933,"line":5,"i_long":106.679458,"station_name":"Poris"},{"is_transit":false,"line":5,"station_id":"KDS","i_long":106.701612,"transit":false,"time":3,"distance":2548,"i_lat":-6.166068,"station_name":"Kalideres"},{"is_transit":false,"i_long":106.723064,"i_lat":-6.162758,"station_id":"RW","distance":2504,"line":5,"transit":false,"station_name":"Rawa Buaya","time":3},{"is_transit":false,"i_lat":-6.159876,"station_name":"Bojongindah","time":4,"i_long":106.737035,"line":5,"station_id":"BOI","distance":1152,"transit":false},{"is_transit":false,"transit":false,"line":5,"station_name":"Taman Kota","i_lat":-6.1587309999999995,"i_long":106.756522,"time":2,"station_id":"TKO","distance":2334},{"i_long":106.771379,"time":2,"distance":1614,"transit":false,"line":5,"i_lat":-6.161433,"is_transit":false,"station_id":"PSG","station_name":"Pesing"},{"i_lat":-6.162021,"time":2,"line":5,"is_transit":false,"station_name":"Grogol","i_long":106.788277,"station_id":"GRG","distance":2036,"transit":false},{"i_lat":-6.155215,"is_transit":true,"line":1,"station_id":"DU","transit":true,"distance":1700,"station_name":"Duri","i_long":106.800832,"time":3},{"station_id":"THB","station_name":"Tanah Abang","i_lat":-6.185545,"i_long":106.811091,"line":1,"is_transit":false,"transit":false,"time":8,"distance":3632},{"is_transit":false,"time":5,"station_id":"KAT","distance":2029,"transit":false,"line":1,"i_lat":-6.20132,"station_name":"Karet","i_long":106.816351},{"time":1,"distance":471,"i_long":106.819881,"station_id":"SUDB","station_name":"Sudirman Baru","i_lat":-6.201433,"transit":false,"line":1,"is_transit":false},{"time":1,"distance":280,"is_transit":false,"transit":false,"i_long":106.822649,"station_id":"SUD","i_lat":-6.202263,"station_name":"Sudirman","line":1},{"station_name":"Manggarai","transit":false,"station_id":"MRI","i_long":106.84912,"time":4,"i_lat":-6.209883,"is_transit":false,"line":2,"distance":3186},{"station_id":"MTR","distance":1275,"line":1,"i_long":106.858896,"station_name":"Matraman","i_lat":-6.212485,"transit":false,"is_transit":false,"time":2},{"transit":false,"i_lat":-6.215091,"station_name":"Jatinegara","line":1,"is_transit":false,"station_id":"JNG","time":8,"distance":1377,"i_long":106.86807400000001},{"distance":3395,"is_transit":false,"i_lat":-6.2135,"station_id":"KLD","station_name":"Klender","time":3,"i_long":106.899548,"line":1,"transit":false},{"distance":3100,"transit":false,"i_lat":-6.215568,"time":2,"i_long":106.922662,"station_id":"BUA","station_name":"Buaran","is_transit":false,"line":1},{"is_transit":false,"transit":false,"station_name":"Klenderbaru","i_lat":-6.217455,"station_id":"KLDB","distance":1305,"i_long":106.939679,"time":1,"line":1},{"station_id":"CUK","line":1,"i_lat":-6.219053,"i_long":106.951283,"is_transit":false,"transit":false,"distance":1385,"station_name":"Cakung","time":8},{"station_id":"KRI","distance":3097,"is_transit":false,"i_lat":-6.224515,"i_long":106.977657,"transit":false,"time":3,"station_name":"Kranji","line":1},{"distance":2520,"is_transit":false,"station_id":"BKS","i_lat":-6.236616,"transit":false,"time":4,"station_name":"Bekasi","i_long":106.997013,"line":1},{"transit":false,"is_transit":false,"i_lat":-6.248029,"time":2,"line":1,"station_name":"Bekasi Timur","station_id":"BKST","distance":2368,"i_long":107.016735},{"is_transit":false,"transit":false,"station_id":"TB","time":7,"i_lat":-6.258864,"i_long":107.055722,"line":1,"station_name":"Tambun","distance":4460},{"transit":false,"is_transit":false,"i_long":107.083084,"station_id":"CIT","station_name":"Cibitung","i_lat":-6.261877,"distance":3420,"time":3,"line":1},{"i_lat":-6.262938,"distance":2800,"i_long":107.093313,"time":2,"station_name":"Metland Telaga Murni","is_transit":false,"line":1,"transit":false,"station_id":"TLM"},{"i_lat":-6.2553149999999995,"station_id":"CKR","line":1,"station_name":"Cikarang","distance":3689,"i_long":107.144613,"transit":false,"time":4,"is_transit":false}],[{"station_name":"Poris","distance":0,"time":0,"i_lat":-6.169933,"i_long":106.679458,"line":5,"is_transit":false,"station_id":"PI","transit":false},{"i_long":106.701612,"transit":false,"distance":2548,"time":3,"station_name":"Kalideres","is_transit":false,"station_id":"KDS","i_lat":-6.166068,"line":5},{"i_lat":-6.162758,"time":3,"station_id":"RW","transit":false,"is_transit":false,"line":5,"i_long":106.723064,"distance":2504,"station_name":"Rawa Buaya"},{"station_name":"Bojongindah","i_long":106.737035,"line":5,"time":4,"distance":1152,"station_id":"BOI","transit":false,"i_lat":-6.159876,"is_transit":false},{"time":2,"i_long":106.756522,"distance":2334,"station_name":"Taman Kota","is_transit":false,"station_id":"TKO","transit":false,"i_lat":-6.1587309999999995,"line":5},{"line":5,"transit":false,"station_id":"PSG","i_lat":-6.161433,"time":2,"i_long":106.771379,"distance":1614,"station_name":"Pesing","is_transit":false},{"time":2,"line":5,"i_long":106.788277,"station_name":"Grogol","i_lat":-6.162021,"transit":false,"is_transit":false,"station_id":"GRG","distance":2036},{"i_long":106.800832,"line":1,"station_id":"DU","time":3,"station_name":"Duri","is_transit":true,"transit":true,"distance":1700,"i_lat":-6.155215},{"distance":1230,"transit":false,"i_lat":-6.144674,"time":4,"is_transit":false,"i_long":106.79867,"station_id":"AK","station_name":"Angke","line":1},{"transit":true,"station_name":"Kampung Bandan","time":9,"station_id":"KPB","is_transit":true,"i_lat":-6.132549,"i_long":106.826365,"distance":4102,"line":4},{"distance":1444,"time":3,"line":11,"station_id":"RJW","station_name":"Rajawali","i_lat":-6.14505,"transit":false,"is_transit":false,"i_long":106.836569},{"distance":1901,"i_long":106.839204,"station_id":"KMO","station_name":"Kemayoran","i_lat":-6.161728,"is_transit":false,"line":11,"time":5,"transit":false},{"transit":false,"station_id":"PSE","i_long":106.84368,"is_transit":false,"distance":1436,"time":4,"station_name":"Pasar Senen","i_lat":-6.174784,"line":11},{"station_id":"GST","line":11,"station_name":"Gang Sentiong","distance":1567,"is_transit":false,"i_lat":-6.185975,"i_long":106.850107,"transit":false,"time":8},{"distance":973,"i_lat":-6.193792,"i_long":106.855437,"line":11,"station_id":"KMT","time":1,"is_transit":false,"transit":false,"station_name":"Kramat"},{"i_long":106.861737,"station_id":"POK","line":11,"i_lat":-6.209188,"transit":false,"time":2,"is_transit":false,"distance":1829,"station_name":"Pondok Jati"},{"is_transit":true,"transit":true,"station_id":"JNG","distance":1236,"i_long":106.86807400000001,"station_name":"Jatinegara","i_lat":-6.215091,"time":9,"line":1},{"distance":3395,"transit":false,"i_lat":-6.2135,"is_transit":false,"time":3,"line":1,"station_id":"KLD","i_long":106.899548,"station_name":"Klender"},{"is_transit":false,"station_name":"Buaran","i_lat":-6.215568,"i_long":106.922662,"distance":3100,"transit":false,"time":2,"station_id":"BUA","line":1},{"i_long":106.939679,"line":1,"i_lat":-6.217455,"station_id":"KLDB","distance":1305,"transit":false,"time":1,"station_name":"Klenderbaru","is_transit":false},{"transit":false,"distance":1385,"time":8,"station_name":"Cakung","i_lat":-6.219053,"line":1,"station_id":"CUK","i_long":106.951283,"is_transit":false},{"transit":false,"i_long":106.977657,"is_transit":false,"station_id":"KRI","time":3,"line":1,"distance":3097,"station_name":"Kranji","i_lat":-6.224515},{"distance":2520,"transit":false,"line":1,"i_lat":-6.236616,"is_transit":false,"station_id":"BKS","station_name":"Bekasi","time":4,"i_long":106.997013},{"i_lat":-6.248029,"line":1,"time":2,"station_name":"Bekasi Timur","station_id":"BKST","distance":2368,"transit":false,"is_transit":false,"i_long":107.016735},{"is_transit":false,"i_long":107.055722,"line":1,"distance":4460,"station_id":"TB","station_name":"Tambun","transit":false,"time":7,"i_lat":-6.258864},{"transit":false,"distance":3420,"time":3,"is_transit":false,"station_name":"Cibitung","i_lat":-6.261877,"i_long":107.083084,"line":1,"station_id":"CIT"},{"is_transit":false,"time":2,"line":1,"distance":2800,"transit":false,"i_long":107.093313,"station_name":"Metland Telaga Murni","station_id":"TLM","i_lat":-6.262938},{"line":1,"transit":false,"station_name":"Cikarang","time":4,"distance":3689,"station_id":"CKR","is_transit":false,"i_lat":-6.2553149999999995,"i_long":107.144613}],[{"i_lat":-6.169933,"line":5,"i_long":106.679458,"distance":0,"time":0,"station_id":"PI","transit":false,"station_name":"Poris","is_transit":false},{"line":5,"station_id":"KDS","is_transit":false,"distance":2548,"time":3,"transit":false,"station_name":"Kalideres","i_lat":-6.166068,"i_long":106.701612},{"line":5,"i_long":106.723064,"time":3,"distance":2504,"station_id":"RW","is_transit":false,"transit":false,"station_name":"Rawa Buaya","i_lat":-6.162758},{"line":5,"transit":false,"is_transit":false,"station_name":"Bojongindah","i_lat":-6.159876,"time":4,"station_id":"BOI","i_long":106.737035,"distance":1152},{"i_lat":-6.1587309999999995,"distance":2334,"time":2,"is_transit":false,"line":5,"transit":false,"i_long":106.756522,"station_id":"TKO","station_name":"Taman Kota"},{"transit":false,"line":5,"station_id":"PSG","i_long":106.771379,"station_name":"Pesing","time":2,"distance":1614,"is_transit":false,"i_lat":-6.161433},{"i_long":106.788277,"line":5,"time":2,"station_id":"GRG","transit":false,"i_lat":-6.162021,"station_name":"Grogol","distance":2036,"is_transit":false},{"time":3,"is_transit":true,"line":1,"distance":1700,"transit":true,"i_lat":-6.155215,"station_name":"Duri","i_long":106.800832,"station_id":"DU"},{"time":4,"line":1,"distance":1230,"station_name":"Angke","is_transit":false,"transit":false,"i_lat":-6.144674,"station_id":"AK","i_long":106.79867},{"station_name":"Kampung Bandan","line":4,"i_lat":-6.132549,"station_id":"KPB","i_long":106.826365,"time":9,"distance":4102,"transit":true,"is_transit":true},{"line":2,"station_name":"Jakarta Kota","i_lat":-6.137569,"transit":true,"time":3,"station_id":"JAKK","i_long":106.812439,"distance":1364,"is_transit":true},{"is_transit":false,"station_name":"Jayakarta","time":4,"i_lat":-6.141205,"station_id":"JAY","i_long":106.820901,"transit":false,"distance":1264,"line":2},{"station_name":"Manggabesar","i_lat":-6.149769,"i_long":106.82482,"is_transit":false,"distance":1080,"station_id":"MGB","line":2,"time":2,"transit":false},{"i_lat":-6.160725,"station_name":"Sawah Besar","time":2,"transit":false,"line":2,"station_id":"SW","is_transit":false,"i_long":106.827103,"distance":906},{"distance":1149,"station_name":"Juanda","line":2,"i_long":106.828284,"time":2,"i_lat":-6.166716,"transit":false,"is_transit":false,"station_id":"JUA"},{"line":2,"i_long":106.832183,"time":4,"station_id":"GDD","distance":2015,"transit":false,"station_name":"Gondangdia","i_lat":-6.186295,"is_transit":false},{"transit":false,"station_id":"CKI","station_name":"Cikini","distance":1750,"time":3,"line":2,"is_transit":false,"i_long":106.840169,"i_lat":-6.198556},{"is_transit":true,"i_long":106.84912,"station_id":"MRI","distance":1590,"line":2,"time":4,"transit":true,"station_name":"Manggarai","i_lat":-6.209883},{"transit":false,"time":2,"i_lat":-6.212485,"distance":1275,"station_id":"MTR","i_long":106.858896,"line":1,"is_transit":false,"station_name":"Matraman"},{"time":8,"is_transit":false,"station_name":"Jatinegara","station_id":"JNG","i_lat":-6.215091,"i_long":106.86807400000001,"line":1,"transit":false,"distance":1377},{"station_name":"Klender","i_long":106.899548,"is_transit":false,"station_id":"KLD","distance":3395,"transit":false,"line":1,"i_lat":-6.2135,"time":3},{"distance":3100,"i_long":106.922662,"is_transit":false,"i_lat":-6.215568,"station_name":"Buaran","line":1,"time":2,"transit":false,"station_id":"BUA"},{"is_transit":false,"line":1,"time":1,"i_lat":-6.217455,"i_long":106.939679,"station_name":"Klenderbaru","station_id":"KLDB","transit":false,"distance":1305},{"transit":false,"i_lat":-6.219053,"distance":1385,"line":1,"is_transit":false,"i_long":106.951283,"time":8,"station_name":"Cakung","station_id":"CUK"},{"station_name":"Kranji","i_lat":-6.224515,"transit":false,"distance":3097,"line":1,"station_id":"KRI","i_long":106.977657,"is_transit":false,"time":3},{"distance":2520,"line":1,"transit":false,"i_lat":-6.236616,"station_name":"Bekasi","station_id":"BKS","is_transit":false,"time":4,"i_long":106.997013},{"i_lat":-6.248029,"distance":2368,"transit":false,"time":2,"is_transit":false,"i_long":107.016735,"station_id":"BKST","line":1,"station_name":"Bekasi Timur"},{"transit":false,"line":1,"station_name":"Tambun","i_lat":-6.258864,"distance":4460,"is_transit":false,"time":7,"i_long":107.055722,"station_id":"TB"},{"station_name":"Cibitung","transit":false,"i_long":107.083084,"time":3,"i_lat":-6.261877,"station_id":"CIT","is_transit":false,"line":1,"distance":3420},{"station_name":"Metland Telaga Murni","distance":2800,"line":1,"i_lat":-6.262938,"time":2,"transit":false,"station_id":"TLM","i_long":107.093313,"is_transit":false},{"time":4,"i_lat":-6.2553149999999995,"i_long":107.144613,"is_transit":false,"transit":false,"station_name":"Cikarang","station_id":"CKR","line":1,"distance":3689}],[{"i_long":106.679458,"is_transit":false,"distance":0,"i_lat":-6.169933,"transit":false,"line":5,"station_name":"Poris","station_id":"PI","time":0},{"station_id":"KDS","i_lat":-6.166068,"is_transit":false,"transit":false,"time":3,"distance":2548,"station_name":"Kalideres","i_long":106.701612,"line":5},{"distance":2504,"is_transit":false,"i_long":106.723064,"station_name":"Rawa Buaya","transit":false,"time":3,"i_lat":-6.162758,"station_id":"RW","line":5},{"i_lat":-6.159876,"i_long":106.737035,"transit":false,"station_name":"Bojongindah","time":4,"distance":1152,"station_id":"BOI","line":5,"is_transit":false},{"station_id":"TKO","station_name":"Taman Kota","is_transit":false,"distance":2334,"transit":false,"i_lat":-6.1587309999999995,"time":2,"i_long":106.756522,"line":5},{"station_name":"Pesing","distance":1614,"station_id":"PSG","is_transit":false,"time":2,"i_long":106.771379,"i_lat":-6.161433,"transit":false,"line":5},{"distance":2036,"transit":false,"is_transit":false,"station_name":"Grogol","i_long":106.788277,"time":2,"line":5,"i_lat":-6.162021,"station_id":"GRG"},{"i_long":106.800832,"line":1,"i_lat":-6.155215,"station_id":"DU","station_name":"Duri","distance":1700,"transit":true,"time":3,"is_transit":true},{"station_id":"THB","time":8,"line":1,"station_name":"Tanah Abang","is_transit":false,"transit":false,"distance":3632,"i_lat":-6.185545,"i_long":106.811091},{"distance":2029,"station_name":"Karet","line":1,"transit":false,"is_transit":false,"time":5,"station_id":"KAT","i_lat":-6.20132,"i_long":106.816351},{"station_id":"SUDB","time":1,"i_long":106.819881,"station_name":"Sudirman Baru","transit":false,"i_lat":-6.201433,"distance":471,"is_transit":false,"line":1},{"is_transit":false,"station_name":"Sudirman","station_id":"SUD","i_long":106.822649,"line":1,"time":1,"distance":280,"i_lat":-6.202263,"transit":false},{"transit":true,"time":4,"i_lat":-6.209883,"distance":3186,"is_transit":true,"i_long":106.84912,"line":2,"station_name":"Manggarai","station_id":"MRI"},{"is_transit":false,"line":2,"transit":false,"station_id":"CKI","distance":1590,"i_lat":-6.198556,"station_name":"Cikini","i_long":106.840169,"time":4},{"i_lat":-6.186295,"time":3,"station_name":"Gondangdia","i_long":106.832183,"transit":false,"station_id":"GDD","distance":1750,"is_transit":false,"line":2},{"station_name":"Juanda","line":2,"distance":2015,"is_transit":false,"time":4,"i_lat":-6.166716,"i_long":106.828284,"transit":false,"station_id":"JUA"},{"distance":1149,"time":2,"transit":false,"station_name":"Sawah Besar","station_id":"SW","is_transit":false,"i_lat":-6.160725,"line":2,"i_long":106.827103},{"station_id":"MGB","i_long":106.82482,"time":2,"station_name":"Manggabesar","distance":906,"is_transit":false,"i_lat":-6.149769,"line":2,"transit":false},{"station_id":"JAY","station_name":"Jayakarta","line":2,"distance":1080,"is_transit":false,"time":2,"i_long":106.820901,"i_lat":-6.141205,"transit":false},{"i_long":106.812439,"station_id":"JAKK","i_lat":-6.137569,"distance":1264,"time":4,"station_name":"Jakarta Kota","is_transit":true,"line":2,"transit":true},{"time":3,"line":4,"i_lat":-6.132549,"station_name":"Kampung Bandan","station_id":"KPB","i_long":106.826365,"is_transit":true,"distance":1364,"transit":true},{"i_lat":-6.14505,"transit":false,"is_transit":false,"station_name":"Rajawali","station_id":"RJW","distance":1444,"time":3,"line":11,"i_long":106.836569},{"transit":false,"line":11,"station_id":"KMO","is_transit":false,"station_name":"Kemayoran","i_lat":-6.161728,"time":5,"i_long":106.839204,"distance":1901},{"station_name":"Pasar Senen","station_id":"PSE","is_transit":false,"transit":false,"i_lat":-6.174784,"distance":1436,"i_long":106.84368,"line":11,"time":4},{"distance":1567,"line":11,"time":8,"station_name":"Gang Sentiong","transit":false,"station_id":"GST","is_transit":false,"i_lat":-6.185975,"i_long":106.850107},{"distance":973,"is_transit":false,"transit":false,"line":11,"i_lat":-6.193792,"time":1,"station_id":"KMT","station_name":"Kramat","i_long":106.855437},{"i_lat":-6.209188,"time":2,"i_long":106.861737,"station_id":"POK","line":11,"distance":1829,"transit":false,"station_name":"Pondok Jati","is_transit":false},{"distance":1236,"is_transit":true,"station_id":"JNG","transit":true,"time":9,"station_name":"Jatinegara","line":1,"i_lat":-6.215091,"i_long":106.86807400000001},{"is_transit":false,"distance":3395,"station_name":"Klender","transit":false,"i_lat":-6.2135,"station_id":"KLD","line":1,"i_long":106.899548,"time":3},{"transit":false,"time":2,"distance":3100,"line":1,"station_name":"Buaran","station_id":"BUA","i_long":106.922662,"is_transit":false,"i_lat":-6.215568},{"distance":1305,"time":1,"i_long":106.939679,"transit":false,"is_transit":false,"line":1,"station_name":"Klenderbaru","station_id":"KLDB","i_lat":-6.217455},{"station_id":"CUK","is_transit":false,"station_name":"Cakung","transit":false,"i_lat":-6.219053,"line":1,"time":8,"distance":1385,"i_long":106.951283},{"station_name":"Kranji","is_transit":false,"distance":3097,"i_lat":-6.224515,"station_id":"KRI","i_long":106.977657,"line":1,"time":3,"transit":false},{"i_lat":-6.236616,"line":1,"i_long":106.997013,"distance":2520,"transit":false,"time":4,"station_name":"Bekasi","station_id":"BKS","is_transit":false},{"i_lat":-6.248029,"is_transit":false,"time":2,"station_name":"Bekasi Timur","transit":false,"distance":2368,"station_id":"BKST","i_long":107.016735,"line":1},{"station_name":"Tambun","i_lat":-6.258864,"time":7,"station_id":"TB","is_transit":false,"line":1,"distance":4460,"i_long":107.055722,"transit":false},{"line":1,"i_long":107.083084,"transit":false,"distance":3420,"station_id":"CIT","station_name":"Cibitung","time":3,"is_transit":false,"i_lat":-6.261877},{"transit":false,"distance":2800,"time":2,"station_name":"Metland Telaga Murni","i_long":107.093313,"is_transit":false,"station_id":"TLM","line":1,"i_lat":-6.262938},{"i_long":107.144613,"line":1,"distance":3689,"is_transit":false,"transit":false,"time":4,"station_id":"CKR","i_lat":-6.2553149999999995,"station_name":"Cikarang"}]]}