{"data":[[{"i_lat":-6.169933,"station_name":"Poris","line":5,"station_id":"PI","time":0,"i_long":106.679458,"distance":0,"is_transit":false,"transit":false},{"is_transit":false,"time":3,"i_lat":-6.166068,"station_name":"Kalideres","transit":false,"line":5,"station_id":"KDS","distance":2548,"i_long":106.701612},{"line":5,"i_lat":-6.162758,"transit":false,"distance":2504,"station_name":"Rawa Buaya","i_long":106.723064,"station_id":"RW","is_transit":false,"time":3},{"line":5,"time":4,"is_transit":false,"transit":false,"station_id":"BOI","i_long":106.737035,"distance":1152,"i_lat":-6.159876,"station_name":"Bojongindah"},{"station_id":"TKO","is_transit":false,"i_lat":-6.1587309999999995,"distance":2334,"time":2,"i_long":106.756522,"line":5,"station_name":"Taman Kota","transit":false},{"is_transit":false,"transit":false,"i_lat":-6.161433,"distance":1614,"station_name":"Pesing","line":5,"station_id":"PSG","time":2,"i_long":106.771379},{"transit":false,"time":2,"line":5,"is_transit":false,"i_lat":-6.162021,"distance":2036,"station_id":"GGL","i_long":106.788277,"station_name":"Grogol"},{"time":3,"transit":true,"line":1,"is_transit":true,"distance":1700,"i_long":106.800832,"i_lat":-6.155215,"station_name":"Duri","station_id":"DU"},{"distance":3632,"is_transit":false,"i_long":106.811091,"transit":false,"station_name":"Tanah Abang","time":8,"station_id":"THB","line":1,"i_lat":-6.185545},{"i_lat":-6.20132,"line":1,"transit":false,"station_name":"Karet","distance":2029,"i_long":106.816351,"station_id":"KAT","is_transit":false,"time":5},{"i_long":106.819881,"transit":false,"station_id":"SUDB","station_name":"Sudirman Baru","line":1,"time":1,"distance":471,"i_lat":-6.201433,"is_transit":false},{"station_id":"SUD","i_long":106.822649,"is_transit":false,"time":1,"distance":280,"station_name":"Sudirman","transit":false,"i_lat":-6.202263,"line":1},{"i_lat":-6.209883,"is_transit":true,"transit":true,"distance":3186,"station_name":"Manggarai","i_long":106.84912,"station_id":"MRI","time":4,"line":2},{"transit":false,"i_long":106.857948,"line":2,"is_transit":false,"distance":2610,"station_id":"TEB","station_name":"Tebet","i_lat":-6.226659,"time":4},{"station_name":"Cawang","i_lat":-6.242512,"time":2,"line":2,"transit":false,"is_transit":false,"distance":1230,"i_long":106.856607,"station_id":"CW"},{"line":2,"is_transit":false,"distance":1546,"time":3,"i_lat":-6.255332,"station_name":"Duren Kalibata","transit":false,"station_id":"DRN","i_long":106.85449},{"transit":false,"i_long":106.851577,"line":2,"distance":824,"i_lat":-6.263214,"station_name":"Pasar Minggu Baru","time":2,"station_id":"PSMB","is_transit":false},{"line":2,"i_long":106.843999,"is_transit":false,"station_name":"Pasar Minggu","station_id":"PSM","time":2,"transit":false,"distance":2380,"i_lat":-6.2842400000000005},{"line":2,"transit":false,"i_long":106.838896,"distance":2820,"is_transit":false,"station_name":"Tanjung Barat","station_id":"TNT","time":4,"i_lat":-6.3080680000000005},{"line":2,"i_lat":-6.330363,"time":3,"i_long":106.832616,"is_transit":false,"station_id":"LNA","distance":2671,"station_name":"Lenteng Agung","transit":false},{"station_name":"Univ. Pancasila","distance":1029,"i_lat":-6.339291,"i_long":106.834175,"station_id":"UP","transit":false,"time":2,"line":2,"is_transit":false},{"is_transit":false,"i_long":106.831474,"time":3,"station_id":"UI","i_lat":-6.360749,"distance":2264,"line":2,"transit":false,"station_name":"Univ. Indonesia"},{"line":2,"distance":1109,"i_lat":-6.369073,"time":2,"station_name":"Pondok Cina","station_id":"POC","i_long":106.831114,"is_transit":false,"transit":false},{"station_id":"DPB","station_name":"Depokbaru","i_lat":-6.391065,"i_long":106.819451,"line":2,"is_transit":false,"transit":false,"time":4,"distance":2727},{"station_id":"DP","distance":1584,"is_transit":false,"transit":false,"time":3,"station_name":"Depok","i_long":106.816926,"i_lat":-6.405256,"line":2}],[{"distance":0,"station_name":"Poris","time":0,"line":5,"is_transit":false,"station_id":"PI","transit":false,"i_lat":-6.169933,"i_long":106.679458},{"is_transit":false,"station_id":"KDS","line":5,"transit":false,"station_name":"Kalideres","distance":2548,"time":3,"i_long":106.701612,"i_lat":-6.166068},{"transit":false,"is_transit":false,"time":3,"i_lat":-6.162758,"line":5,"station_id":"RW","distance":2504,"station_name":"Rawa Buaya","i_long":106.723064},{"line":5,"transit":false,"station_name":"Bojongindah","distance":1152,"i_long":106.737035,"time":4,"station_id":"BOI","is_transit":false,"i_lat":-6.159876},{"transit":false,"station_id":"TKO","station_name":"Taman Kota","distance":2334,"is_transit":false,"i_lat":-6.1587309999999995,"time":2,"line":5,"i_long":106.756522},{"line":5,"transit":false,"distance":1614,"time":2,"i_long":106.771379,"is_transit":false,"station_name":"Pesing","station_id":"PSG","i_lat":-6.161433},{"time":2,"station_id":"GGL","i_lat":-6.162021,"station_name":"Grogol","is_transit":false,"transit":false,"i_long":106.788277,"distance":2036,"line":5},{"transit":true,"station_name":"Duri","i_lat":-6.155215,"time":3,"distance":1700,"i_long":106.800832,"is_transit":true,"station_id":"DU","line":1},{"line":1,"i_lat":-6.144674,"time":4,"station_id":"AK","transit":false,"distance":1230,"is_transit":false,"i_long":106.79867,"station_name":"Angke"},{"line":4,"transit":true,"is_transit":true,"i_lat":-6.132549,"i_long":106.826365,"distance":4102,"station_name":"Kampung Bandan","time":9,"station_id":"KPB"},{"i_lat":-6.137569,"station_name":"Jakarta Kota","transit":true,"is_transit":true,"station_id":"JAKK","time":3,"distance":1364,"i_long":106.812439,"line":2},{"is_transit":false,"time":4,"station_name":"Jayakarta","distance":1264,"station_id":"JAY","i_lat":-6.141205,"i_long":106.820901,"transit":false,"line":2},{"is_transit":false,"transit":false,"distance":1080,"station_name":"Manggabesar","i_lat":-6.149769,"line":2,"time":2,"i_long":106.82482,"station_id":"MGB"},{"time":2,"distance":906,"is_transit":false,"station_id":"SW","line":2,"station_name":"Sawah Besar","i_long":106.827103,"i_lat":-6.160725,"transit":false},{"distance":1149,"i_lat":-6.166716,"is_transit":false,"station_name":"Juanda","i_long":106.828284,"transit":false,"station_id":"JUA","line":2,"time":2},{"distance":2015,"station_name":"Gondangdia","station_id":"GDD","time":4,"transit":false,"is_transit":false,"i_lat":-6.186295,"i_long":106.832183,"line":2},{"distance":1750,"station_name":"Cikini","time":3,"i_lat":-6.198556,"i_long":106.840169,"station_id":"CKI","is_transit":false,"transit":false,"line":2},{"i_long":106.84912,"station_id":"MRI","time":4,"is_transit":false,"distance":1590,"i_lat":-6.209883,"transit":false,"line":2,"station_name":"Manggarai"},{"station_id":"TEB","time":4,"is_transit":false,"i_long":106.857948,"distance":2610,"station_name":"Tebet","i_lat":-6.226659,"line":2,"transit":false},{"station_id":"CW","time":2,"distance":1230,"line":2,"i_long":106.856607,"i_lat":-6.242512,"is_transit":false,"transit":false,"station_name":"Cawang"},{"transit":false,"line":2,"station_id":"DRN","is_transit":false,"distance":1546,"time":3,"i_lat":-6.255332,"i_long":106.85449,"station_name":"Duren Kalibata"},{"station_name":"Pasar Minggu Baru","time":2,"distance":824,"i_long":106.851577,"station_id":"PSMB","transit":false,"line":2,"is_transit":false,"i_lat":-6.263214},{"i_long":106.843999,"line":2,"is_transit":false,"time":2,"i_lat":-6.2842400000000005,"transit":false,"station_id":"PSM","station_name":"Pasar Minggu","distance":2380},{"time":4,"transit":false,"station_name":"Tanjung Barat","i_long":106.838896,"i_lat":-6.3080680000000005,"station_id":"TNT","distance":2820,"is_transit":false,"line":2},{"i_long":106.832616,"transit":false,"station_name":"Lenteng Agung","distance":2671,"station_id":"LNA","time":3,"i_lat":-6.330363,"line":2,"is_transit":false},{"station_id":"UP","i_lat":-6.339291,"time":2,"i_long":106.834175,"line":2,"transit":false,"distance":1029,"is_transit":false,"station_name":"Univ. Pancasila"},{"i_lat":-6.360749,"i_long":106.831474,"line":2,"time":3,"is_transit":false,"distance":2264,"station_id":"UI","transit":false,"station_name":"Univ. Indonesia"},{"i_long":106.831114,"time":2,"line":2,"station_name":"Pondok Cina","station_id":"POC","is_transit":false,"distance":1109,"transit":false,"i_lat":-6.369073},{"distance":2727,"station_id":"DPB","time":4,"station_name":"Depokbaru","i_long":106.819451,"line":2,"is_transit":false,"i_lat":-6.391065,"transit":false},{"transit":false,"distance":1584,"line":2,"is_transit":false,"time":3,"i_lat":-6.405256,"station_name":"Depok","station_id":"DP","i_long":106.816926}],[{"i_long":106.679458,"station_id":"PI","i_lat":-6.169933,"time":0,"is_transit":false,"line":5,"distance":0,"station_name":"Poris","transit":false},{"station_id":"KDS","line":5,"distance":2548,"i_long":106.701612,"time":3,"i_lat":-6.166068,"transit":false,"is_transit":false,"station_name":"Kalideres"},{"distance":2504,"i_lat":-6.162758,"station_name":"Rawa Buaya","station_id":"RW","transit":false,"line":5,"i_long":106.723064,"is_transit":false,"time":3},{"line":5,"i_long":106.737035,"station_id":"BOI","time":4,"distance":1152,"i_lat":-6.159876,"is_transit":false,"transit":false,"station_name":"Bojongindah"},{"i_lat":-6.1587309999999995,"station_name":"Taman Kota","transit":false,"i_long":106.756522,"distance":2334,"station_id":"TKO","time":2,"line":5,"is_transit":false},{"transit":false,"is_transit":false,"line":5,"station_id":"PSG","distance":1614,"station_name":"Pesing","time":2,"i_lat":-6.161433,"i_long":106.771379},{"i_long":106.788277,"line":5,"distance":2036,"is_transit":false,"transit":false,"station_id":"GGL","station_name":"Grogol","time":2,"i_lat":-6.162021},{"time":3,"line":1,"i_lat":-6.155215,"station_id":"DU","i_long":106.800832,"transit":true,"is_transit":true,"distance":1700,"station_name":"Duri"},{"station_id":"AK","is_transit":false,"line":1,"i_long":106.79867,"transit":false,"station_name":"Angke","time":4,"i_lat":-6.144674,"distance":1230},{"is_transit":true,"station_name":"Kampung Bandan","transit":true,"time":9,"i_long":106.826365,"distance":4102,"i_lat":-6.132549,"station_id":"KPB","line":4},{"distance":1444,"is_transit":false,"time":3,"i_lat":-6.14505,"transit":false,"i_long":106.836569,"line":11,"station_name":"Rajawali","station_id":"RJW"},{"time":5,"i_long":106.839204,"line":11,"is_transit":false,"transit":false,"distance":1901,"station_id":"KMO","station_name":"Kemayoran","i_lat":-6.161728},{"time":4,"i_long":106.84368,"is_transit":false,"station_id":"PSE","i_lat":-6.174784,"transit":false,"distance":1436,"station_name":"Pasar Senen","line":11},{"station_id":"GST","station_name":"Gang Sentiong","transit":false,"time":8,"is_transit":false,"i_long":106.850107,"line":11,"distance":1567,"i_lat":-6.185975},{"transit":false,"i_lat":-6.193792,"station_id":"KMT","station_name":"Kramat","time":1,"line":11,"is_transit":false,"distance":973,"i_long":106.855437},{"line":11,"transit":false,"is_transit":false,"distance":1829,"station_id":"POK","station_name":"Pondok Jati","time":2,"i_long":106.861737,"i_lat":-6.209188},{"line":1,"transit":true,"time":9,"is_transit":true,"distance":1236,"station_id":"JNG","station_name":"Jatinegara","i_lat":-6.215091,"i_long":106.86807400000001},{"transit":false,"distance":1377,"time":2,"i_long":106.858896,"station_id":"MTR","station_name":"Matraman","line":1,"i_lat":-6.212485,"is_transit":false},{"transit":true,"station_id":"MRI","i_lat":-6.209883,"line":2,"station_name":"Manggarai","i_long":106.84912,"distance":1275,"is_transit":true,"time":2},{"time":4,"i_lat":-6.226659,"distance":2610,"transit":false,"station_id":"TEB","station_name":"Tebet","line":2,"is_transit":false,"i_long":106.857948},{"station_id":"CW","station_name":"Cawang","is_transit":false,"i_long":106.856607,"i_lat":-6.242512,"line":2,"distance":1230,"transit":false,"time":2},{"is_transit":false,"distance":1546,"station_name":"Duren Kalibata","transit":false,"station_id":"DRN","i_lat":-6.255332,"i_long":106.85449,"time":3,"line":2},{"i_lat":-6.263214,"line":2,"is_transit":false,"distance":824,"time":2,"i_long":106.851577,"transit":false,"station_id":"PSMB","station_name":"Pasar Minggu Baru"},{"distance":2380,"station_id":"PSM","i_lat":-6.2842400000000005,"transit":false,"line":2,"is_transit":false,"i_long":106.843999,"time":2,"station_name":"Pasar Minggu"},{"line":2,"i_long":106.838896,"distance":2820,"station_id":"TNT","station_name":"Tanjung Barat","time":4,"i_lat":-6.3080680000000005,"is_transit":false,"transit":false},{"transit":false,"station_id":"LNA","i_lat":-6.330363,"distance":2671,"line":2,"station_name":"Lenteng Agung","is_transit":false,"time":3,"i_long":106.832616},{"transit":false,"i_long":106.834175,"time":2,"line":2,"station_name":"Univ. Pancasila","is_transit":false,"distance":1029,"station_id":"UP","i_lat":-6.339291},{"time":3,"line":2,"is_transit":false,"i_long":106.831474,"distance":2264,"transit":false,"station_name":"Univ. Indonesia","i_lat":-6.360749,"station_id":"UI"},{"is_transit":false,"station_name":"Pondok Cina","station_id":"POC","line":2,"transit":false,"distance":1109,"time":2,"i_long":106.831114,"i_lat":-6.369073},{"i_long":106.819451,"distance":2727,"time":4,"i_lat":-6.391065,"station_id":"DPB","line":2,"is_transit":false,"transit":false,"station_name":"Depokbaru"},{"is_transit":false,"line":2,"station_id":"DP","time":3,"i_long":106.816926,"distance":1584,"transit":false,"station_name":"Depok","i_lat":-6.405256}]]}