{"data":[[{"i_lat":-6.169933,"line":5,"transit":false,"time":0,"distance":0,"station_id":"PI","i_long":106.679458,"station_name":"Poris","is_transit":false},{"transit":false,"station_id":"KDS","is_transit":false,"i_long":106.701612,"time":3,"distance":2548,"station_name":"Kalideres","i_lat":-6.166068,"line":5},{"station_name":"Rawa Buaya","transit":false,"station_id":"RW","line":5,"time":3,"distance":2504,"is_transit":false,"i_lat":-6.162758,"i_long":106.723064},{"time":4,"i_long":106.737035,"station_name":"Bojongindah","i_lat":-6.159876,"line":5,"is_transit":false,"station_id":"BOI","transit":false,"distance":1152},{"is_transit":false,"station_name":"Taman Kota","transit":false,"station_id":"TKO","i_long":106.756522,"time":2,"line":5,"i_lat":-6.1587309999999995,"distance":2334},{"transit":false,"time":2,"station_name":"Pesing","i_long":106.771379,"line":5,"is_transit":false,"station_id":"PSG","i_lat":-6.161433,"distance":1614},{"time":2,"transit":false,"station_name":"Grogol","station_id":"GGL","i_long":106.788277,"i_lat":-6.162021,"line":5,"is_transit":false,"distance":2036},{"i_long":106.800832,"distance":1700,"i_lat":-6.155215,"line":1,"is_transit":true,"time":3,"transit":true,"station_name":"Duri","station_id":"DU"},{"station_name":"Tanah Abang","is_transit":false,"station_id":"THB","i_lat":-6.185545,"distance":3632,"time":8,"transit":false,"i_long":106.811091,"line":1},{"time":5,"is_transit":false,"distance":2029,"station_name":"Karet","i_lat":-6.20132,"i_long":106.816351,"line":1,"transit":false,"station_id":"KAT"},{"i_long":106.819881,"station_name":"Sudirman Baru","transit":false,"distance":471,"i_lat":-6.201433,"station_id":"SUDB","line":1,"is_transit":false,"time":1},{"is_transit":false,"i_long":106.822649,"line":1,"time":1,"distance":280,"transit":false,"i_lat":-6.202263,"station_id":"SUD","station_name":"Sudirman"},{"distance":3186,"time":4,"station_id":"MRI","i_lat":-6.209883,"station_name":"Manggarai","i_long":106.84912,"is_transit":true,"line":2,"transit":true},{"station_id":"TEB","line":2,"transit":false,"distance":2610,"station_name":"Tebet","i_lat":-6.226659,"i_long":106.857948,"time":4,"is_transit":false},{"i_lat":-6.242512,"i_long":106.856607,"time":2,"station_id":"CW","distance":1230,"line":2,"station_name":"Cawang","transit":false,"is_transit":false},{"is_transit":false,"transit":false,"station_name":"Duren Kalibata","line":2,"i_lat":-6.255332,"distance":1546,"i_long":106.85449,"station_id":"DRN","time":3}],[{"line":5,"station_name":"Poris","station_id":"PI","is_transit":false,"transit":false,"distance":0,"i_lat":-6.169933,"time":0,"i_long":106.679458},{"i_lat":-6.166068,"distance":2548,"time":3,"station_id":"KDS","i_long":106.701612,"line":5,"station_name":"Kalideres","is_transit":false,"transit":false},{"i_long":106.723064,"station_name":"Rawa Buaya","transit":false,"line":5,"station_id":"RW","is_transit":false,"i_lat":-6.162758,"distance":2504,"time":3},{"station_name":"Bojongindah","time":4,"is_transit":false,"distance":1152,"station_id":"BOI","i_lat":-6.159876,"line":5,"transit":false,"i_long":106.737035},{"station_id":"TKO","line":5,"distance":2334,"time":2,"is_transit":false,"station_name":"Taman Kota","i_lat":-6.1587309999999995,"transit":false,"i_long":106.756522},{"distance":1614,"line":5,"time":2,"transit":false,"station_id":"PSG","i_lat":-6.161433,"i_long":106.771379,"is_transit":false,"station_name":"Pesing"},{"i_long":106.788277,"time":2,"station_id":"GGL","station_name":"Grogol","distance":2036,"transit":false,"line":5,"is_transit":false,"i_lat":-6.162021},{"transit":true,"station_id":"DU","distance":1700,"is_transit":true,"i_long":106.800832,"line":1,"station_name":"Duri","i_lat":-6.155215,"time":3},{"i_long":106.79867,"station_name":"Angke","line":1,"is_transit":false,"distance":1230,"transit":false,"station_id":"AK","i_lat":-6.144674,"time":4},{"distance":4102,"transit":true,"station_name":"Kampung Bandan","station_id":"KPB","i_long":106.826365,"time":9,"line":4,"is_transit":true,"i_lat":-6.132549},{"time":3,"distance":1364,"station_id":"JAKK","i_lat":-6.137569,"i_long":106.812439,"is_transit":true,"line":2,"transit":true,"station_name":"Jakarta Kota"},{"station_id":"JAY","station_name":"Jayakarta","transit":false,"time":4,"distance":1264,"i_lat":-6.141205,"i_long":106.820901,"line":2,"is_transit":false},{"line":2,"station_id":"MGB","station_name":"Manggabesar","transit":false,"time":2,"distance":1080,"is_transit":false,"i_long":106.82482,"i_lat":-6.149769},{"time":2,"station_name":"Sawah Besar","line":2,"i_lat":-6.160725,"station_id":"SW","transit":false,"i_long":106.827103,"is_transit":false,"distance":906},{"is_transit":false,"station_id":"JUA","i_lat":-6.166716,"i_long":106.828284,"distance":1149,"line":2,"station_name":"Juanda","transit":false,"time":2},{"i_lat":-6.186295,"i_long":106.832183,"transit":false,"time":4,"distance":2015,"is_transit":false,"station_id":"GDD","line":2,"station_name":"Gondangdia"},{"station_name":"Cikini","i_long":106.840169,"is_transit":false,"station_id":"CKI","i_lat":-6.198556,"distance":1750,"time":3,"line":2,"transit":false},{"station_name":"Manggarai","line":2,"i_lat":-6.209883,"station_id":"MRI","i_long":106.84912,"time":4,"is_transit":false,"transit":false,"distance":1590},{"distance":2610,"transit":false,"station_name":"Tebet","line":2,"i_lat":-6.226659,"station_id":"TEB","is_transit":false,"time":4,"i_long":106.857948},{"station_name":"Cawang","time":2,"station_id":"CW","i_long":106.856607,"distance":1230,"i_lat":-6.242512,"transit":false,"is_transit":false,"line":2},{"transit":false,"i_long":106.85449,"station_name":"Duren Kalibata","i_lat":-6.255332,"distance":1546,"is_transit":false,"line":2,"time":3,"station_id":"DRN"}],[{"station_name":"Poris","time":0,"transit":false,"station_id":"PI","i_long":106.679458,"line":5,"is_transit":false,"distance":0,"i_lat":-6.169933},{"transit":false,"is_transit":false,"distance":2548,"i_lat":-6.166068,"i_long":106.701612,"station_id":"KDS","station_name":"Kalideres","time":3,"line":5},{"i_lat":-6.162758,"line":5,"station_name":"Rawa Buaya","distance":2504,"station_id":"RW","time":3,"i_long":106.723064,"transit":false,"is_transit":false},{"i_long":106.737035,"is_transit":false,"station_id":"BOI","i_lat":-6.159876,"distance":1152,"time":4,"station_name":"Bojongindah","transit":false,"line":5},{"distance":2334,"transit":false,"time":2,"station_name":"Taman Kota","is_transit":false,"i_lat":-6.1587309999999995,"i_long":106.756522,"station_id":"TKO","line":5},{"is_transit":false,"distance":1614,"transit":false,"station_name":"Pesing","i_long":106.771379,"i_lat":-6.161433,"line":5,"time":2,"station_id":"PSG"},{"i_lat":-6.162021,"station_id":"GGL","i_long":106.788277,"transit":false,"time":2,"is_transit":false,"distance":2036,"line":5,"station_name":"Grogol"},{"i_long":106.800832,"station_name":"Duri","is_transit":true,"distance":1700,"station_id":"DU","i_lat":-6.155215,"transit":true,"time":3,"line":1},{"i_lat":-6.144674,"is_transit":false,"i_long":106.79867,"station_id":"AK","distance":1230,"line":1,"time":4,"transit":false,"station_name":"Angke"},{"distance":4102,"is_transit":true,"time":9,"line":4,"transit":true,"i_long":106.826365,"station_name":"Kampung Bandan","i_lat":-6.132549,"station_id":"KPB"},{"station_id":"RJW","time":3,"distance":1444,"station_name":"Rajawali","i_lat":-6.14505,"is_transit":false,"transit":false,"i_long":106.836569,"line":11},{"i_lat":-6.161728,"transit":false,"line":11,"distance":1901,"is_transit":false,"station_name":"Kemayoran","time":5,"station_id":"KMO","i_long":106.839204},{"is_transit":false,"station_id":"PSE","time":4,"station_name":"Pasar Senen","i_long":106.84368,"distance":1436,"i_lat":-6.174784,"line":11,"transit":false},{"distance":1567,"time":8,"is_transit":false,"station_name":"Gang Sentiong","i_long":106.850107,"transit":false,"station_id":"GST","i_lat":-6.185975,"line":11},{"line":11,"distance":973,"station_name":"Kramat","i_lat":-6.193792,"is_transit":false,"time":1,"i_long":106.855437,"transit":false,"station_id":"KMT"},{"i_long":106.861737,"transit":false,"line":11,"i_lat":-6.209188,"time":2,"is_transit":false,"station_name":"Pondok Jati","station_id":"POK","distance":1829},{"i_long":106.86807400000001,"time":9,"is_transit":true,"transit":true,"i_lat":-6.215091,"line":1,"station_name":"Jatinegara","distance":1236,"station_id":"JNG"},{"distance":1377,"is_transit":false,"station_name":"Matraman","station_id":"MTR","i_lat":-6.212485,"i_long":106.858896,"line":1,"time":2,"transit":false},{"i_long":106.84912,"line":2,"station_id":"MRI","distance":1275,"station_name":"Manggarai","transit":true,"time":2,"is_transit":true,"i_lat":-6.209883},{"line":2,"distance":2610,"transit":false,"time":4,"is_transit":false,"station_name":"Tebet","station_id":"TEB","i_lat":-6.226659,"i_long":106.857948},{"station_name":"Cawang","time":2,"transit":false,"line":2,"i_long":106.856607,"station_id":"CW","is_transit":false,"i_lat":-6.242512,"distance":1230},{"i_lat":-6.255332,"distance":1546,"transit":false,"time":3,"station_name":"Duren Kalibata","i_long":106.85449,"line":2,"is_transit":false,"station_id":"DRN"}]]}