{"data":[[{"i_long":106.679458,"station_id":"PI","i_lat":-6.169933,"station_name":"Poris","line":5,"transit":false,"is_transit":false,"time":0,"distance":0},{"transit":false,"time":3,"station_id":"KDS","is_transit":false,"i_long":106.701612,"station_name":"Kalideres","distance":2548,"i_lat":-6.166068,"line":5},{"station_name":"Rawa Buaya","time":3,"is_transit":false,"transit":false,"i_lat":-6.162758,"i_long":106.723064,"line":5,"distance":2504,"station_id":"RW"},{"distance":1152,"station_id":"BOI","time":4,"station_name":"Bojongindah","i_lat":-6.159876,"i_long":106.737035,"line":5,"transit":false,"is_transit":false},{"is_transit":false,"transit":false,"station_name":"Taman Kota","i_lat":-6.1587309999999995,"i_long":106.756522,"station_id":"TKO","time":2,"line":5,"distance":2334},{"i_lat":-6.161433,"distance":1614,"time":2,"station_name":"Pesing","i_long":106.771379,"line":5,"transit":false,"station_id":"PSG","is_transit":false},{"is_transit":false,"time":2,"i_long":106.788277,"i_lat":-6.162021,"line":5,"station_name":"Grogol","transit":false,"distance":2036,"station_id":"GGL"},{"station_name":"Duri","time":3,"is_transit":true,"transit":true,"line":1,"i_lat":-6.155215,"distance":1700,"i_long":106.800832,"station_id":"DU"},{"transit":false,"station_id":"THB","i_lat":-6.185545,"time":8,"i_long":106.811091,"station_name":"Tanah Abang","is_transit":false,"distance":3632,"line":1},{"i_long":106.816351,"transit":false,"station_id":"KAT","line":1,"i_lat":-6.20132,"time":5,"distance":2029,"is_transit":false,"station_name":"Karet"},{"transit":false,"is_transit":false,"distance":471,"i_long":106.819881,"station_name":"Sudirman Baru","line":1,"time":1,"i_lat":-6.201433,"station_id":"SUDB"},{"station_id":"SUD","is_transit":false,"line":1,"time":1,"transit":false,"i_lat":-6.202263,"i_long":106.822649,"station_name":"Sudirman","distance":280},{"station_name":"Manggarai","station_id":"MRI","distance":3186,"line":2,"transit":true,"i_lat":-6.209883,"time":4,"i_long":106.84912,"is_transit":true},{"time":4,"station_name":"Tebet","station_id":"TEB","is_transit":false,"i_lat":-6.226659,"distance":2610,"line":2,"i_long":106.857948,"transit":false},{"i_long":106.856607,"transit":false,"i_lat":-6.242512,"time":2,"station_name":"Cawang","distance":1230,"line":2,"is_transit":false,"station_id":"CW"},{"station_name":"Duren Kalibata","distance":1546,"line":2,"i_long":106.85449,"time":3,"transit":false,"i_lat":-6.255332,"station_id":"DRN","is_transit":false}],[{"is_transit":false,"time":0,"transit":false,"station_id":"PI","line":5,"station_name":"Poris","distance":0,"i_lat":-6.169933,"i_long":106.679458},{"transit":false,"i_long":106.701612,"time":3,"is_transit":false,"i_lat":-6.166068,"station_name":"Kalideres","station_id":"KDS","distance":2548,"line":5},{"line":5,"is_transit":false,"i_long":106.723064,"station_name":"Rawa Buaya","distance":2504,"time":3,"i_lat":-6.162758,"transit":false,"station_id":"RW"},{"i_lat":-6.159876,"station_id":"BOI","is_transit":false,"i_long":106.737035,"transit":false,"time":4,"line":5,"distance":1152,"station_name":"Bojongindah"},{"transit":false,"is_transit":false,"i_lat":-6.1587309999999995,"line":5,"distance":2334,"time":2,"station_name":"Taman Kota","i_long":106.756522,"station_id":"TKO"},{"i_long":106.771379,"line":5,"time":2,"station_id":"PSG","i_lat":-6.161433,"transit":false,"is_transit":false,"distance":1614,"station_name":"Pesing"},{"time":2,"transit":false,"i_lat":-6.162021,"station_id":"GGL","is_transit":false,"line":5,"station_name":"Grogol","i_long":106.788277,"distance":2036},{"station_id":"DU","i_long":106.800832,"is_transit":true,"distance":1700,"i_lat":-6.155215,"time":3,"transit":true,"line":1,"station_name":"Duri"},{"i_long":106.79867,"transit":false,"time":4,"line":1,"station_name":"Angke","distance":1230,"is_transit":false,"i_lat":-6.144674,"station_id":"AK"},{"is_transit":true,"line":4,"station_name":"Kampung Bandan","distance":4102,"i_lat":-6.132549,"station_id":"KPB","transit":true,"time":9,"i_long":106.826365},{"i_lat":-6.137569,"station_id":"JAKK","time":3,"line":2,"station_name":"Jakarta Kota","is_transit":true,"i_long":106.812439,"distance":1364,"transit":true},{"station_id":"JAY","is_transit":false,"station_name":"Jayakarta","i_long":106.820901,"line":2,"time":4,"i_lat":-6.141205,"transit":false,"distance":1264},{"line":2,"i_lat":-6.149769,"station_id":"MGB","transit":false,"time":2,"i_long":106.82482,"station_name":"Manggabesar","is_transit":false,"distance":1080},{"station_id":"SW","transit":false,"time":2,"i_long":106.827103,"station_name":"Sawah Besar","i_lat":-6.160725,"distance":906,"line":2,"is_transit":false},{"is_transit":false,"station_name":"Juanda","distance":1149,"time":2,"i_long":106.828284,"transit":false,"line":2,"i_lat":-6.166716,"station_id":"JUA"},{"is_transit":false,"transit":false,"time":4,"distance":2015,"station_id":"GDD","line":2,"i_long":106.832183,"station_name":"Gondangdia","i_lat":-6.186295},{"transit":false,"is_transit":false,"station_id":"CKI","distance":1750,"station_name":"Cikini","time":3,"i_lat":-6.198556,"line":2,"i_long":106.840169},{"station_id":"MRI","station_name":"Manggarai","transit":false,"is_transit":false,"time":4,"distance":1590,"i_lat":-6.209883,"i_long":106.84912,"line":2},{"time":4,"distance":2610,"line":2,"is_transit":false,"transit":false,"station_id":"TEB","i_lat":-6.226659,"station_name":"Tebet","i_long":106.857948},{"i_lat":-6.242512,"distance":1230,"is_transit":false,"time":2,"station_id":"CW","transit":false,"line":2,"station_name":"Cawang","i_long":106.856607},{"is_transit":false,"i_long":106.85449,"distance":1546,"transit":false,"i_lat":-6.255332,"station_name":"Duren Kalibata","time":3,"station_id":"DRN","line":2}],[{"distance":0,"time":0,"transit":false,"is_transit":false,"i_lat":-6.169933,"line":5,"station_name":"Poris","i_long":106.679458,"station_id":"PI"},{"station_id":"KDS","time":3,"distance":2548,"i_lat":-6.166068,"station_name":"Kalideres","transit":false,"is_transit":false,"i_long":106.701612,"line":5},{"line":5,"station_id":"RW","transit":false,"station_name":"Rawa Buaya","is_transit":false,"distance":2504,"i_long":106.723064,"time":3,"i_lat":-6.162758},{"i_long":106.737035,"station_name":"Bojongindah","time":4,"is_transit":false,"transit":false,"station_id":"BOI","distance":1152,"line":5,"i_lat":-6.159876},{"station_id":"TKO","time":2,"is_transit":false,"transit":false,"line":5,"i_long":106.756522,"distance":2334,"i_lat":-6.1587309999999995,"station_name":"Taman Kota"},{"station_name":"Pesing","i_lat":-6.161433,"distance":1614,"i_long":106.771379,"time":2,"line":5,"station_id":"PSG","is_transit":false,"transit":false},{"distance":2036,"time":2,"station_name":"Grogol","is_transit":false,"line":5,"i_lat":-6.162021,"station_id":"GGL","transit":false,"i_long":106.788277},{"station_name":"Duri","distance":1700,"line":1,"time":3,"i_lat":-6.155215,"station_id":"DU","transit":true,"is_transit":true,"i_long":106.800832},{"station_name":"Angke","i_long":106.79867,"distance":1230,"transit":false,"time":4,"line":1,"station_id":"AK","i_lat":-6.144674,"is_transit":false},{"i_long":106.826365,"transit":true,"time":9,"line":4,"is_transit":true,"station_name":"Kampung Bandan","station_id":"KPB","distance":4102,"i_lat":-6.132549},{"i_long":106.836569,"station_name":"Rajawali","is_transit":false,"distance":1444,"line":11,"station_id":"RJW","transit":false,"time":3,"i_lat":-6.14505},{"transit":false,"station_id":"KMO","station_name":"Kemayoran","distance":1901,"i_lat":-6.161728,"is_transit":false,"i_long":106.839204,"line":11,"time":5},{"distance":1436,"i_long":106.84368,"is_transit":false,"line":11,"station_name":"Pasar Senen","station_id":"PSE","time":4,"i_lat":-6.174784,"transit":false},{"is_transit":false,"line":11,"time":8,"i_lat":-6.185975,"transit":false,"station_id":"GST","i_long":106.850107,"station_name":"Gang Sentiong","distance":1567},{"station_id":"KMT","transit":false,"distance":973,"is_transit":false,"i_long":106.855437,"time":1,"line":11,"station_name":"Kramat","i_lat":-6.193792},{"is_transit":false,"time":2,"distance":1829,"line":11,"i_lat":-6.209188,"station_name":"Pondok Jati","transit":false,"i_long":106.861737,"station_id":"POK"},{"transit":true,"time":9,"distance":1236,"station_name":"Jatinegara","i_lat":-6.215091,"station_id":"JNG","i_long":106.86807400000001,"line":1,"is_transit":true},{"transit":false,"distance":1377,"time":2,"i_long":106.858896,"station_id":"MTR","line":1,"i_lat":-6.212485,"station_name":"Matraman","is_transit":false},{"is_transit":true,"time":2,"distance":1275,"station_name":"Manggarai","i_lat":-6.209883,"transit":true,"i_long":106.84912,"line":2,"station_id":"MRI"},{"is_transit":false,"transit":false,"station_name":"Tebet","distance":2610,"i_lat":-6.226659,"line":2,"i_long":106.857948,"time":4,"station_id":"TEB"},{"time":2,"station_name":"Cawang","station_id":"CW","distance":1230,"is_transit":false,"transit":false,"i_lat":-6.242512,"i_long":106.856607,"line":2},{"line":2,"is_transit":false,"station_name":"Duren Kalibata","distance":1546,"transit":false,"i_long":106.85449,"i_lat":-6.255332,"station_id":"DRN","time":3}]]}