{"data":[[{"station_id":"PI","station_name":"Poris","distance":0,"i_long":106.679458,"is_transit":false,"time":0,"transit":false,"i_lat":-6.169933,"line":5},{"distance":2548,"line":5,"station_id":"KDS","i_lat":-6.166068,"i_long":106.701612,"transit":false,"time":3,"station_name":"Kalideres","is_transit":false},{"station_id":"RW","distance":2504,"time":3,"station_name":"Rawa Buaya","i_lat":-6.162758,"line":5,"transit":false,"is_transit":false,"i_long":106.723064},{"is_transit":false,"i_lat":-6.159876,"station_id":"BOI","distance":1152,"transit":false,"station_name":"Bojongindah","line":5,"i_long":106.737035,"time":4},{"transit":false,"station_name":"Taman Kota","is_transit":false,"time":2,"station_id":"TKO","i_long":106.756522,"line":5,"distance":2334,"i_lat":-6.1587309999999995},{"distance":1614,"station_name":"Pesing","station_id":"PSG","i_lat":-6.161433,"is_transit":false,"i_long":106.771379,"line":5,"time":2,"transit":false},{"i_lat":-6.162021,"station_id":"GGL","is_transit":false,"line":5,"distance":2036,"i_long":106.788277,"transit":false,"time":2,"station_name":"Grogol"},{"distance":1700,"station_id":"DU","i_lat":-6.155215,"station_name":"Duri","line":1,"i_long":106.800832,"transit":true,"is_transit":true,"time":3},{"station_id":"THB","transit":false,"distance":3632,"station_name":"Tanah Abang","is_transit":false,"time":8,"i_long":106.811091,"i_lat":-6.185545,"line":1},{"is_transit":false,"line":1,"station_name":"Karet","time":5,"distance":2029,"station_id":"KAT","i_lat":-6.20132,"transit":false,"i_long":106.816351},{"station_id":"SUDB","is_transit":false,"station_name":"Sudirman Baru","distance":471,"line":1,"i_lat":-6.201433,"time":1,"i_long":106.819881,"transit":false},{"time":1,"station_id":"SUD","is_transit":false,"i_lat":-6.202263,"distance":280,"i_long":106.822649,"transit":false,"line":1,"station_name":"Sudirman"},{"i_lat":-6.209883,"station_id":"MRI","distance":3186,"time":4,"line":2,"station_name":"Manggarai","is_transit":true,"transit":true,"i_long":106.84912},{"time":4,"i_long":106.857948,"station_name":"Tebet","station_id":"TEB","transit":false,"is_transit":false,"distance":2610,"i_lat":-6.226659,"line":2},{"is_transit":false,"transit":false,"i_lat":-6.242512,"i_long":106.856607,"time":2,"station_id":"CW","station_name":"Cawang","line":2,"distance":1230},{"line":2,"station_id":"DRN","station_name":"Duren Kalibata","transit":false,"i_lat":-6.255332,"is_transit":false,"time":3,"i_long":106.85449,"distance":1546},{"line":2,"distance":824,"station_id":"PSMB","time":2,"i_long":106.851577,"transit":false,"is_transit":false,"station_name":"Pasar Minggu Baru","i_lat":-6.263214},{"time":2,"line":2,"transit":false,"i_long":106.843999,"station_id":"PSM","i_lat":-6.2842400000000005,"distance":2380,"station_name":"Pasar Minggu","is_transit":false},{"is_transit":false,"transit":false,"station_name":"Tanjung Barat","time":4,"i_lat":-6.3080680000000005,"i_long":106.838896,"line":2,"station_id":"TNT","distance":2820},{"i_lat":-6.330363,"i_long":106.832616,"line":2,"station_name":"Lenteng Agung","transit":false,"time":3,"station_id":"LNA","distance":2671,"is_transit":false},{"line":2,"i_long":106.834175,"time":2,"i_lat":-6.339291,"transit":false,"is_transit":false,"station_id":"UP","station_name":"Univ. Pancasila","distance":1029},{"i_long":106.831474,"i_lat":-6.360749,"distance":2264,"line":2,"station_id":"UI","station_name":"Univ. Indonesia","is_transit":false,"time":3,"transit":false},{"station_id":"POC","i_lat":-6.369073,"station_name":"Pondok Cina","is_transit":false,"time":2,"line":2,"i_long":106.831114,"transit":false,"distance":1109},{"station_name":"Depokbaru","distance":2727,"is_transit":false,"line":2,"time":4,"station_id":"DPB","transit":false,"i_lat":-6.391065,"i_long":106.819451},{"station_name":"Depok","line":2,"transit":false,"station_id":"DP","i_long":106.816926,"is_transit":false,"distance":1584,"i_lat":-6.405256,"time":3}],[{"i_lat":-6.169933,"line":5,"distance":0,"station_id":"PI","i_long":106.679458,"transit":false,"time":0,"is_transit":false,"station_name":"Poris"},{"distance":2548,"i_long":106.701612,"time":3,"station_id":"KDS","line":5,"station_name":"Kalideres","i_lat":-6.166068,"is_transit":false,"transit":false},{"distance":2504,"i_long":106.723064,"station_name":"Rawa Buaya","i_lat":-6.162758,"transit":false,"time":3,"is_transit":false,"station_id":"RW","line":5},{"time":4,"distance":1152,"line":5,"transit":false,"is_transit":false,"i_lat":-6.159876,"station_name":"Bojongindah","station_id":"BOI","i_long":106.737035},{"transit":false,"i_lat":-6.1587309999999995,"distance":2334,"station_id":"TKO","line":5,"is_transit":false,"station_name":"Taman Kota","i_long":106.756522,"time":2},{"time":2,"is_transit":false,"transit":false,"i_lat":-6.161433,"station_id":"PSG","station_name":"Pesing","line":5,"i_long":106.771379,"distance":1614},{"i_lat":-6.162021,"is_transit":false,"time":2,"station_name":"Grogol","distance":2036,"i_long":106.788277,"station_id":"GGL","transit":false,"line":5},{"i_long":106.800832,"station_id":"DU","i_lat":-6.155215,"distance":1700,"time":3,"station_name":"Duri","is_transit":true,"line":1,"transit":true},{"distance":1230,"is_transit":false,"station_id":"AK","time":4,"transit":false,"i_lat":-6.144674,"station_name":"Angke","i_long":106.79867,"line":1},{"line":4,"transit":true,"distance":4102,"is_transit":true,"time":9,"station_id":"KPB","i_long":106.826365,"station_name":"Kampung Bandan","i_lat":-6.132549},{"station_id":"JAKK","transit":true,"is_transit":true,"i_long":106.812439,"time":3,"distance":1364,"station_name":"Jakarta Kota","i_lat":-6.137569,"line":2},{"i_long":106.820901,"transit":false,"i_lat":-6.141205,"station_id":"JAY","station_name":"Jayakarta","is_transit":false,"distance":1264,"line":2,"time":4},{"transit":false,"station_id":"MGB","i_lat":-6.149769,"distance":1080,"station_name":"Manggabesar","line":2,"time":2,"is_transit":false,"i_long":106.82482},{"is_transit":false,"transit":false,"i_long":106.827103,"line":2,"station_name":"Sawah Besar","station_id":"SW","distance":906,"time":2,"i_lat":-6.160725},{"station_name":"Juanda","line":2,"time":2,"i_lat":-6.166716,"is_transit":false,"station_id":"JUA","transit":false,"distance":1149,"i_long":106.828284},{"i_long":106.832183,"is_transit":false,"time":4,"station_id":"GDD","line":2,"distance":2015,"station_name":"Gondangdia","transit":false,"i_lat":-6.186295},{"station_name":"Cikini","i_long":106.840169,"station_id":"CKI","line":2,"transit":false,"is_transit":false,"time":3,"distance":1750,"i_lat":-6.198556},{"transit":false,"i_lat":-6.209883,"is_transit":false,"time":4,"station_name":"Manggarai","distance":1590,"station_id":"MRI","i_long":106.84912,"line":2},{"is_transit":false,"station_id":"TEB","station_name":"Tebet","i_lat":-6.226659,"i_long":106.857948,"transit":false,"distance":2610,"line":2,"time":4},{"station_id":"CW","line":2,"i_lat":-6.242512,"station_name":"Cawang","transit":false,"is_transit":false,"time":2,"distance":1230,"i_long":106.856607},{"distance":1546,"i_lat":-6.255332,"i_long":106.85449,"is_transit":false,"station_name":"Duren Kalibata","time":3,"station_id":"DRN","line":2,"transit":false},{"station_name":"Pasar Minggu Baru","distance":824,"transit":false,"is_transit":false,"time":2,"i_lat":-6.263214,"i_long":106.851577,"station_id":"PSMB","line":2},{"time":2,"i_lat":-6.2842400000000005,"station_id":"PSM","distance":2380,"i_long":106.843999,"line":2,"station_name":"Pasar Minggu","transit":false,"is_transit":false},{"i_lat":-6.3080680000000005,"line":2,"i_long":106.838896,"station_name":"Tanjung Barat","transit":false,"distance":2820,"is_transit":false,"time":4,"station_id":"TNT"},{"time":3,"distance":2671,"station_id":"LNA","i_lat":-6.330363,"i_long":106.832616,"transit":false,"line":2,"is_transit":false,"station_name":"Lenteng Agung"},{"is_transit":false,"station_id":"UP","i_lat":-6.339291,"line":2,"time":2,"station_name":"Univ. Pancasila","i_long":106.834175,"distance":1029,"transit":false},{"time":3,"transit":false,"distance":2264,"is_transit":false,"station_name":"Univ. Indonesia","station_id":"UI","i_lat":-6.360749,"line":2,"i_long":106.831474},{"transit":false,"line":2,"is_transit":false,"i_long":106.831114,"i_lat":-6.369073,"distance":1109,"station_name":"Pondok Cina","time":2,"station_id":"POC"},{"distance":2727,"is_transit":false,"i_long":106.819451,"line":2,"station_name":"Depokbaru","transit":false,"station_id":"DPB","i_lat":-6.391065,"time":4},{"line":2,"station_id":"DP","i_long":106.816926,"time":3,"i_lat":-6.405256,"station_name":"Depok","transit":false,"is_transit":false,"distance":1584}],[{"i_lat":-6.169933,"line":5,"distance":0,"time":0,"station_id":"PI","is_transit":false,"transit":false,"station_name":"Poris","i_long":106.679458},{"i_lat":-6.166068,"i_long":106.701612,"station_name":"Kalideres","station_id":"KDS","line":5,"is_transit":false,"transit":false,"time":3,"distance":2548},{"i_lat":-6.162758,"distance":2504,"is_transit":false,"i_long":106.723064,"station_name":"Rawa Buaya","line":5,"transit":false,"time":3,"station_id":"RW"},{"transit":false,"station_name":"Bojongindah","time":4,"i_long":106.737035,"distance":1152,"i_lat":-6.159876,"is_transit":false,"line":5,"station_id":"BOI"},{"time":2,"i_long":106.756522,"i_lat":-6.1587309999999995,"is_transit":false,"station_id":"TKO","transit":false,"line":5,"station_name":"Taman Kota","distance":2334},{"transit":false,"line":5,"i_long":106.771379,"station_name":"Pesing","distance":1614,"time":2,"is_transit":false,"station_id":"PSG","i_lat":-6.161433},{"is_transit":false,"station_name":"Grogol","time":2,"station_id":"GGL","line":5,"transit":false,"i_long":106.788277,"i_lat":-6.162021,"distance":2036},{"station_id":"DU","line":1,"distance":1700,"i_long":106.800832,"transit":true,"station_name":"Duri","time":3,"i_lat":-6.155215,"is_transit":true},{"is_transit":false,"transit":false,"i_long":106.79867,"station_id":"AK","line":1,"station_name":"Angke","time":4,"i_lat":-6.144674,"distance":1230},{"time":9,"station_id":"KPB","station_name":"Kampung Bandan","transit":true,"i_long":106.826365,"distance":4102,"line":4,"is_transit":true,"i_lat":-6.132549},{"i_lat":-6.14505,"i_long":106.836569,"distance":1444,"transit":false,"time":3,"is_transit":false,"station_id":"RJW","line":11,"station_name":"Rajawali"},{"station_name":"Kemayoran","time":5,"line":11,"is_transit":false,"transit":false,"i_lat":-6.161728,"i_long":106.839204,"distance":1901,"station_id":"KMO"},{"time":4,"transit":false,"i_long":106.84368,"i_lat":-6.174784,"line":11,"station_name":"Pasar Senen","is_transit":false,"station_id":"PSE","distance":1436},{"time":8,"station_name":"Gang Sentiong","station_id":"GST","distance":1567,"i_lat":-6.185975,"transit":false,"is_transit":false,"line":11,"i_long":106.850107},{"distance":973,"station_id":"KMT","i_lat":-6.193792,"time":1,"line":11,"transit":false,"i_long":106.855437,"station_name":"Kramat","is_transit":false},{"distance":1829,"time":2,"i_lat":-6.209188,"i_long":106.861737,"station_name":"Pondok Jati","is_transit":false,"transit":false,"station_id":"POK","line":11},{"i_long":106.86807400000001,"line":1,"transit":true,"i_lat":-6.215091,"time":9,"station_name":"Jatinegara","distance":1236,"is_transit":true,"station_id":"JNG"},{"line":1,"transit":false,"distance":1377,"time":2,"i_long":106.858896,"station_name":"Matraman","is_transit":false,"i_lat":-6.212485,"station_id":"MTR"},{"station_name":"Manggarai","is_transit":true,"line":2,"transit":true,"time":2,"distance":1275,"i_lat":-6.209883,"station_id":"MRI","i_long":106.84912},{"station_id":"TEB","distance":2610,"is_transit":false,"i_lat":-6.226659,"time":4,"transit":false,"line":2,"station_name":"Tebet","i_long":106.857948},{"distance":1230,"time":2,"station_id":"CW","station_name":"Cawang","i_lat":-6.242512,"line":2,"transit":false,"i_long":106.856607,"is_transit":false},{"station_name":"Duren Kalibata","is_transit":false,"time":3,"distance":1546,"i_long":106.85449,"line":2,"transit":false,"station_id":"DRN","i_lat":-6.255332},{"transit":false,"station_name":"Pasar Minggu Baru","station_id":"PSMB","i_lat":-6.263214,"i_long":106.851577,"line":2,"is_transit":false,"distance":824,"time":2},{"station_name":"Pasar Minggu","line":2,"time":2,"i_long":106.843999,"i_lat":-6.2842400000000005,"transit":false,"distance":2380,"is_transit":false,"station_id":"PSM"},{"distance":2820,"station_name":"Tanjung Barat","transit":false,"is_transit":false,"i_lat":-6.3080680000000005,"i_long":106.838896,"station_id":"TNT","line":2,"time":4},{"station_name":"Lenteng Agung","transit":false,"distance":2671,"is_transit":false,"i_long":106.832616,"time":3,"station_id":"LNA","i_lat":-6.330363,"line":2},{"distance":1029,"is_transit":false,"station_id":"UP","line":2,"i_lat":-6.339291,"transit":false,"time":2,"station_name":"Univ. Pancasila","i_long":106.834175},{"is_transit":false,"time":3,"transit":false,"station_id":"UI","i_long":106.831474,"line":2,"i_lat":-6.360749,"station_name":"Univ. Indonesia","distance":2264},{"station_id":"POC","is_transit":false,"time":2,"line":2,"station_name":"Pondok Cina","distance":1109,"i_lat":-6.369073,"i_long":106.831114,"transit":false},{"distance":2727,"station_id":"DPB","i_long":106.819451,"line":2,"i_lat":-6.391065,"time":4,"is_transit":false,"transit":false,"station_name":"Depokbaru"},{"station_name":"Depok","distance":1584,"transit":false,"time":3,"i_lat":-6.405256,"i_long":106.816926,"line":2,"station_id":"DP","is_transit":false}]]}