{"data":[[{"i_lat":-6.169933,"distance":0,"line":5,"station_name":"Poris","time":0,"is_transit":false,"i_long":106.679458,"station_id":"PI","transit":false},{"i_lat":-6.166068,"transit":false,"distance":2548,"time":3,"is_transit":false,"station_id":"KDS","station_name":"Kalideres","i_long":106.701612,"line":5},{"station_name":"Rawa Buaya","i_long":106.723064,"i_lat":-6.162758,"distance":2504,"time":3,"transit":false,"line":5,"is_transit":false,"station_id":"RW"},{"station_id":"BOI","time":4,"transit":false,"is_transit":false,"distance":1152,"i_lat":-6.159876,"i_long":106.737035,"station_name":"Bojongindah","line":5},{"station_name":"Taman Kota","distance":2334,"i_lat":-6.1587309999999995,"is_transit":false,"station_id":"TKO","transit":false,"line":5,"time":2,"i_long":106.756522},{"i_long":106.771379,"distance":1614,"is_transit":false,"transit":false,"station_name":"Pesing","time":2,"i_lat":-6.161433,"station_id":"PSG","line":5},{"station_id":"GGL","i_lat":-6.162021,"distance":2036,"i_long":106.788277,"line":5,"is_transit":false,"transit":false,"time":2,"station_name":"Grogol"},{"line":1,"distance":1700,"i_lat":-6.155215,"station_id":"DU","is_transit":true,"time":3,"transit":true,"station_name":"Duri","i_long":106.800832},{"line":1,"station_id":"THB","transit":false,"time":8,"station_name":"Tanah Abang","i_lat":-6.185545,"is_transit":false,"i_long":106.811091,"distance":3632},{"station_name":"Karet","station_id":"KAT","time":5,"distance":2029,"is_transit":false,"transit":false,"i_lat":-6.20132,"i_long":106.816351,"line":1},{"i_lat":-6.201433,"station_name":"Sudirman Baru","is_transit":false,"i_long":106.819881,"line":1,"station_id":"SUDB","transit":false,"distance":471,"time":1},{"distance":280,"transit":false,"station_id":"SUD","is_transit":false,"station_name":"Sudirman","line":1,"time":1,"i_long":106.822649,"i_lat":-6.202263},{"transit":true,"distance":3186,"line":2,"is_transit":true,"station_name":"Manggarai","time":4,"station_id":"MRI","i_long":106.84912,"i_lat":-6.209883},{"station_id":"TEB","station_name":"Tebet","distance":2610,"i_long":106.857948,"transit":false,"line":2,"i_lat":-6.226659,"time":4,"is_transit":false},{"transit":false,"time":2,"station_id":"CW","is_transit":false,"station_name":"Cawang","i_lat":-6.242512,"line":2,"distance":1230,"i_long":106.856607},{"transit":false,"i_lat":-6.255332,"is_transit":false,"time":3,"i_long":106.85449,"station_id":"DRN","station_name":"Duren Kalibata","distance":1546,"line":2}],[{"i_lat":-6.169933,"station_id":"PI","distance":0,"i_long":106.679458,"station_name":"Poris","line":5,"time":0,"is_transit":false,"transit":false},{"transit":false,"i_lat":-6.166068,"station_id":"KDS","i_long":106.701612,"time":3,"line":5,"is_transit":false,"station_name":"Kalideres","distance":2548},{"is_transit":false,"transit":false,"line":5,"distance":2504,"station_id":"RW","station_name":"Rawa Buaya","i_lat":-6.162758,"i_long":106.723064,"time":3},{"station_id":"BOI","transit":false,"i_lat":-6.159876,"station_name":"Bojongindah","is_transit":false,"distance":1152,"i_long":106.737035,"line":5,"time":4},{"time":2,"is_transit":false,"station_name":"Taman Kota","station_id":"TKO","i_long":106.756522,"distance":2334,"transit":false,"i_lat":-6.1587309999999995,"line":5},{"station_name":"Pesing","transit":false,"station_id":"PSG","line":5,"distance":1614,"is_transit":false,"time":2,"i_long":106.771379,"i_lat":-6.161433},{"line":5,"time":2,"station_id":"GGL","i_lat":-6.162021,"i_long":106.788277,"distance":2036,"station_name":"Grogol","is_transit":false,"transit":false},{"i_lat":-6.155215,"distance":1700,"i_long":106.800832,"transit":true,"station_id":"DU","station_name":"Duri","is_transit":true,"time":3,"line":1},{"station_id":"AK","is_transit":false,"i_lat":-6.144674,"transit":false,"line":1,"i_long":106.79867,"distance":1230,"station_name":"Angke","time":4},{"is_transit":true,"station_name":"Kampung Bandan","station_id":"KPB","i_lat":-6.132549,"distance":4102,"i_long":106.826365,"transit":true,"time":9,"line":4},{"i_lat":-6.137569,"station_id":"JAKK","station_name":"Jakarta Kota","is_transit":true,"i_long":106.812439,"line":2,"distance":1364,"transit":true,"time":3},{"station_name":"Jayakarta","station_id":"JAY","time":4,"i_lat":-6.141205,"distance":1264,"transit":false,"i_long":106.820901,"line":2,"is_transit":false},{"time":2,"line":2,"transit":false,"i_lat":-6.149769,"is_transit":false,"i_long":106.82482,"station_id":"MGB","station_name":"Manggabesar","distance":1080},{"line":2,"i_long":106.827103,"station_name":"Sawah Besar","time":2,"i_lat":-6.160725,"transit":false,"distance":906,"is_transit":false,"station_id":"SW"},{"line":2,"time":2,"distance":1149,"i_long":106.828284,"is_transit":false,"station_name":"Juanda","station_id":"JUA","transit":false,"i_lat":-6.166716},{"line":2,"is_transit":false,"station_id":"GDD","distance":2015,"i_long":106.832183,"i_lat":-6.186295,"station_name":"Gondangdia","time":4,"transit":false},{"is_transit":false,"distance":1750,"transit":false,"i_long":106.840169,"line":2,"i_lat":-6.198556,"station_id":"CKI","station_name":"Cikini","time":3},{"i_long":106.84912,"line":2,"transit":false,"is_transit":false,"station_name":"Manggarai","distance":1590,"i_lat":-6.209883,"station_id":"MRI","time":4},{"distance":2610,"i_long":106.857948,"station_name":"Tebet","is_transit":false,"time":4,"i_lat":-6.226659,"station_id":"TEB","line":2,"transit":false},{"time":2,"station_name":"Cawang","is_transit":false,"distance":1230,"line":2,"i_long":106.856607,"station_id":"CW","i_lat":-6.242512,"transit":false},{"is_transit":false,"station_id":"DRN","i_lat":-6.255332,"i_long":106.85449,"line":2,"distance":1546,"time":3,"transit":false,"station_name":"Duren Kalibata"}],[{"is_transit":false,"i_lat":-6.169933,"station_name":"Poris","transit":false,"station_id":"PI","distance":0,"i_long":106.679458,"time":0,"line":5},{"time":3,"distance":2548,"i_lat":-6.166068,"station_name":"Kalideres","station_id":"KDS","is_transit":false,"i_long":106.701612,"transit":false,"line":5},{"distance":2504,"i_lat":-6.162758,"transit":false,"line":5,"station_name":"Rawa Buaya","time":3,"i_long":106.723064,"is_transit":false,"station_id":"RW"},{"time":4,"line":5,"i_long":106.737035,"i_lat":-6.159876,"transit":false,"is_transit":false,"station_name":"Bojongindah","station_id":"BOI","distance":1152},{"time":2,"i_lat":-6.1587309999999995,"i_long":106.756522,"transit":false,"is_transit":false,"station_name":"Taman Kota","line":5,"station_id":"TKO","distance":2334},{"line":5,"time":2,"station_id":"PSG","station_name":"Pesing","is_transit":false,"i_lat":-6.161433,"transit":false,"distance":1614,"i_long":106.771379},{"line":5,"i_lat":-6.162021,"distance":2036,"i_long":106.788277,"station_name":"Grogol","transit":false,"is_transit":false,"station_id":"GGL","time":2},{"station_name":"Duri","is_transit":true,"line":1,"distance":1700,"i_lat":-6.155215,"station_id":"DU","transit":true,"time":3,"i_long":106.800832},{"transit":false,"is_transit":false,"station_id":"AK","i_lat":-6.144674,"i_long":106.79867,"station_name":"Angke","distance":1230,"time":4,"line":1},{"distance":4102,"is_transit":true,"station_name":"Kampung Bandan","line":4,"station_id":"KPB","i_long":106.826365,"time":9,"transit":true,"i_lat":-6.132549},{"is_transit":false,"i_long":106.836569,"transit":false,"line":11,"distance":1444,"time":3,"station_id":"RJW","station_name":"Rajawali","i_lat":-6.14505},{"transit":false,"is_transit":false,"distance":1901,"time":5,"station_name":"Kemayoran","station_id":"KMO","i_long":106.839204,"line":11,"i_lat":-6.161728},{"station_name":"Pasar Senen","is_transit":false,"distance":1436,"transit":false,"i_long":106.84368,"line":11,"time":4,"i_lat":-6.174784,"station_id":"PSE"},{"line":11,"time":8,"station_id":"GST","transit":false,"is_transit":false,"station_name":"Gang Sentiong","i_long":106.850107,"distance":1567,"i_lat":-6.185975},{"station_id":"KMT","station_name":"Kramat","i_long":106.855437,"line":11,"i_lat":-6.193792,"time":1,"is_transit":false,"distance":973,"transit":false},{"i_long":106.861737,"i_lat":-6.209188,"station_id":"POK","distance":1829,"time":2,"transit":false,"is_transit":false,"line":11,"station_name":"Pondok Jati"},{"is_transit":true,"line":1,"i_long":106.86807400000001,"station_name":"Jatinegara","station_id":"JNG","transit":true,"i_lat":-6.215091,"distance":1236,"time":9},{"distance":1377,"station_name":"Matraman","time":2,"i_long":106.858896,"is_transit":false,"transit":false,"line":1,"i_lat":-6.212485,"station_id":"MTR"},{"station_id":"MRI","station_name":"Manggarai","is_transit":true,"distance":1275,"transit":true,"i_lat":-6.209883,"time":2,"i_long":106.84912,"line":2},{"i_long":106.857948,"line":2,"is_transit":false,"station_name":"Tebet","distance":2610,"transit":false,"station_id":"TEB","time":4,"i_lat":-6.226659},{"time":2,"is_transit":false,"i_long":106.856607,"distance":1230,"i_lat":-6.242512,"station_id":"CW","station_name":"Cawang","transit":false,"line":2},{"is_transit":false,"station_id":"DRN","time":3,"line":2,"i_long":106.85449,"station_name":"Duren Kalibata","distance":1546,"transit":false,"i_lat":-6.255332}]]}