{"data":[[{"i_long":106.679458,"time":0,"distance":0,"station_id":"PI","transit":false,"station_name":"Poris","i_lat":-6.169933,"line":5,"is_transit":false},{"transit":false,"is_transit":false,"station_name":"Kalideres","station_id":"KDS","distance":2548,"line":5,"i_lat":-6.166068,"i_long":106.701612,"time":3},{"is_transit":false,"transit":false,"station_name":"Rawa Buaya","station_id":"RW","distance":2504,"i_lat":-6.162758,"i_long":106.723064,"line":5,"time":3},{"i_lat":-6.159876,"line":5,"time":4,"i_long":106.737035,"station_id":"BOI","distance":1152,"transit":false,"station_name":"Bojongindah","is_transit":false},{"transit":false,"time":2,"distance":2334,"i_lat":-6.1587309999999995,"is_transit":false,"station_name":"Taman Kota","line":5,"i_long":106.756522,"station_id":"TKO"},{"distance":1614,"station_name":"Pesing","line":5,"time":2,"is_transit":false,"i_lat":-6.161433,"i_long":106.771379,"transit":false,"station_id":"PSG"},{"i_lat":-6.162021,"time":2,"station_name":"Grogol","transit":false,"station_id":"GGL","line":5,"is_transit":false,"distance":2036,"i_long":106.788277},{"distance":1700,"i_long":106.800832,"transit":true,"line":1,"station_name":"Duri","time":3,"is_transit":true,"i_lat":-6.155215,"station_id":"DU"},{"station_id":"THB","station_name":"Tanah Abang","transit":false,"i_lat":-6.185545,"is_transit":false,"time":8,"i_long":106.811091,"distance":3632,"line":1},{"station_id":"KAT","i_lat":-6.20132,"line":1,"distance":2029,"time":5,"is_transit":false,"station_name":"Karet","i_long":106.816351,"transit":false},{"i_lat":-6.201433,"station_id":"SUDB","distance":471,"is_transit":false,"line":1,"station_name":"Sudirman Baru","time":1,"i_long":106.819881,"transit":false},{"is_transit":false,"time":1,"station_name":"Sudirman","line":1,"i_long":106.822649,"distance":280,"station_id":"SUD","transit":false,"i_lat":-6.202263},{"i_long":106.84912,"is_transit":true,"distance":3186,"transit":true,"line":2,"station_name":"Manggarai","time":4,"station_id":"MRI","i_lat":-6.209883},{"station_name":"Tebet","time":4,"is_transit":false,"i_lat":-6.226659,"line":2,"distance":2610,"transit":false,"station_id":"TEB","i_long":106.857948},{"station_id":"CW","time":2,"i_long":106.856607,"transit":false,"i_lat":-6.242512,"distance":1230,"line":2,"station_name":"Cawang","is_transit":false},{"time":3,"station_name":"Duren Kalibata","i_lat":-6.255332,"distance":1546,"i_long":106.85449,"transit":false,"is_transit":false,"line":2,"station_id":"DRN"},{"station_name":"Pasar Minggu Baru","time":2,"i_long":106.851577,"station_id":"PSMB","distance":824,"is_transit":false,"transit":false,"i_lat":-6.263214,"line":2},{"transit":false,"i_long":106.843999,"station_id":"PSM","time":2,"station_name":"Pasar Minggu","i_lat":-6.2842400000000005,"line":2,"is_transit":false,"distance":2380},{"distance":2820,"transit":false,"i_long":106.838896,"is_transit":false,"station_name":"Tanjung Barat","i_lat":-6.3080680000000005,"line":2,"station_id":"TNT","time":4},{"distance":2671,"time":3,"transit":false,"station_name":"Lenteng Agung","station_id":"LNA","i_lat":-6.330363,"is_transit":false,"i_long":106.832616,"line":2},{"i_long":106.834175,"transit":false,"time":2,"station_id":"UP","is_transit":false,"i_lat":-6.339291,"station_name":"Univ. Pancasila","line":2,"distance":1029},{"time":3,"i_lat":-6.360749,"distance":2264,"i_long":106.831474,"station_id":"UI","station_name":"Univ. Indonesia","line":2,"is_transit":false,"transit":false},{"transit":false,"line":2,"station_id":"POC","is_transit":false,"i_long":106.831114,"i_lat":-6.369073,"distance":1109,"station_name":"Pondok Cina","time":2},{"i_long":106.819451,"line":2,"station_name":"Depokbaru","distance":2727,"is_transit":false,"i_lat":-6.391065,"station_id":"DPB","time":4,"transit":false},{"station_name":"Depok","distance":1584,"line":2,"time":3,"i_long":106.816926,"is_transit":false,"i_lat":-6.405256,"station_id":"DP","transit":false}],[{"i_lat":-6.169933,"transit":false,"is_transit":false,"station_id":"PI","i_long":106.679458,"time":0,"distance":0,"station_name":"Poris","line":5},{"station_id":"KDS","distance":2548,"time":3,"i_long":106.701612,"station_name":"Kalideres","is_transit":false,"i_lat":-6.166068,"transit":false,"line":5},{"time":3,"is_transit":false,"line":5,"station_name":"Rawa Buaya","transit":false,"i_lat":-6.162758,"distance":2504,"station_id":"RW","i_long":106.723064},{"station_id":"BOI","station_name":"Bojongindah","i_long":106.737035,"transit":false,"is_transit":false,"time":4,"distance":1152,"line":5,"i_lat":-6.159876},{"station_id":"TKO","transit":false,"station_name":"Taman Kota","is_transit":false,"time":2,"i_lat":-6.1587309999999995,"i_long":106.756522,"line":5,"distance":2334},{"line":5,"distance":1614,"station_name":"Pesing","time":2,"transit":false,"is_transit":false,"i_long":106.771379,"i_lat":-6.161433,"station_id":"PSG"},{"time":2,"distance":2036,"line":5,"i_long":106.788277,"station_name":"Grogol","transit":false,"station_id":"GGL","is_transit":false,"i_lat":-6.162021},{"is_transit":true,"distance":1700,"i_long":106.800832,"transit":true,"line":1,"time":3,"station_id":"DU","station_name":"Duri","i_lat":-6.155215},{"distance":1230,"is_transit":false,"station_id":"AK","transit":false,"station_name":"Angke","i_long":106.79867,"time":4,"i_lat":-6.144674,"line":1},{"i_lat":-6.132549,"station_id":"KPB","time":9,"distance":4102,"is_transit":true,"i_long":106.826365,"line":4,"station_name":"Kampung Bandan","transit":true},{"time":3,"i_long":106.812439,"line":2,"is_transit":true,"distance":1364,"i_lat":-6.137569,"transit":true,"station_id":"JAKK","station_name":"Jakarta Kota"},{"transit":false,"is_transit":false,"time":4,"line":2,"station_id":"JAY","distance":1264,"i_long":106.820901,"station_name":"Jayakarta","i_lat":-6.141205},{"station_name":"Manggabesar","station_id":"MGB","i_lat":-6.149769,"distance":1080,"line":2,"time":2,"is_transit":false,"i_long":106.82482,"transit":false},{"transit":false,"station_name":"Sawah Besar","is_transit":false,"distance":906,"i_lat":-6.160725,"station_id":"SW","line":2,"i_long":106.827103,"time":2},{"is_transit":false,"i_long":106.828284,"transit":false,"station_id":"JUA","time":2,"station_name":"Juanda","distance":1149,"line":2,"i_lat":-6.166716},{"i_lat":-6.186295,"time":4,"line":2,"distance":2015,"station_id":"GDD","transit":false,"station_name":"Gondangdia","i_long":106.832183,"is_transit":false},{"line":2,"transit":false,"is_transit":false,"time":3,"station_name":"Cikini","station_id":"CKI","distance":1750,"i_lat":-6.198556,"i_long":106.840169},{"i_long":106.84912,"is_transit":false,"i_lat":-6.209883,"station_id":"MRI","station_name":"Manggarai","distance":1590,"time":4,"transit":false,"line":2},{"station_name":"Tebet","i_lat":-6.226659,"distance":2610,"transit":false,"line":2,"station_id":"TEB","is_transit":false,"time":4,"i_long":106.857948},{"station_id":"CW","is_transit":false,"i_lat":-6.242512,"i_long":106.856607,"station_name":"Cawang","distance":1230,"transit":false,"line":2,"time":2},{"i_long":106.85449,"line":2,"station_name":"Duren Kalibata","is_transit":false,"time":3,"distance":1546,"i_lat":-6.255332,"station_id":"DRN","transit":false},{"station_id":"PSMB","transit":false,"station_name":"Pasar Minggu Baru","distance":824,"i_lat":-6.263214,"line":2,"i_long":106.851577,"is_transit":false,"time":2},{"station_name":"Pasar Minggu","station_id":"PSM","is_transit":false,"i_lat":-6.2842400000000005,"i_long":106.843999,"time":2,"line":2,"transit":false,"distance":2380},{"line":2,"transit":false,"station_name":"Tanjung Barat","is_transit":false,"station_id":"TNT","time":4,"i_long":106.838896,"distance":2820,"i_lat":-6.3080680000000005},{"transit":false,"line":2,"time":3,"i_long":106.832616,"is_transit":false,"distance":2671,"i_lat":-6.330363,"station_name":"Lenteng Agung","station_id":"LNA"},{"distance":1029,"time":2,"station_name":"Univ. Pancasila","i_lat":-6.339291,"i_long":106.834175,"line":2,"station_id":"UP","transit":false,"is_transit":false},{"station_id":"UI","i_long":106.831474,"line":2,"is_transit":false,"transit":false,"time":3,"i_lat":-6.360749,"station_name":"Univ. Indonesia","distance":2264},{"station_name":"Pondok Cina","transit":false,"is_transit":false,"i_lat":-6.369073,"i_long":106.831114,"station_id":"POC","distance":1109,"time":2,"line":2},{"line":2,"i_long":106.819451,"station_id":"DPB","is_transit":false,"station_name":"Depokbaru","transit":false,"distance":2727,"i_lat":-6.391065,"time":4},{"transit":false,"station_name":"Depok","i_lat":-6.405256,"time":3,"station_id":"DP","is_transit":false,"distance":1584,"i_long":106.816926,"line":2}],[{"line":5,"time":0,"i_long":106.679458,"transit":false,"distance":0,"station_id":"PI","i_lat":-6.169933,"station_name":"Poris","is_transit":false},{"station_name":"Kalideres","time":3,"is_transit":false,"transit":false,"station_id":"KDS","distance":2548,"i_lat":-6.166068,"i_long":106.701612,"line":5},{"station_name":"Rawa Buaya","distance":2504,"is_transit":false,"i_long":106.723064,"transit":false,"line":5,"time":3,"station_id":"RW","i_lat":-6.162758},{"is_transit":false,"station_id":"BOI","i_lat":-6.159876,"transit":false,"station_name":"Bojongindah","time":4,"distance":1152,"i_long":106.737035,"line":5},{"time":2,"transit":false,"is_transit":false,"distance":2334,"station_id":"TKO","i_lat":-6.1587309999999995,"i_long":106.756522,"line":5,"station_name":"Taman Kota"},{"station_name":"Pesing","distance":1614,"i_long":106.771379,"i_lat":-6.161433,"is_transit":false,"line":5,"time":2,"station_id":"PSG","transit":false},{"time":2,"station_id":"GGL","i_lat":-6.162021,"is_transit":false,"distance":2036,"line":5,"station_name":"Grogol","transit":false,"i_long":106.788277},{"transit":true,"station_name":"Duri","time":3,"station_id":"DU","distance":1700,"i_lat":-6.155215,"is_transit":true,"line":1,"i_long":106.800832},{"line":1,"time":4,"transit":false,"station_id":"AK","is_transit":false,"station_name":"Angke","distance":1230,"i_lat":-6.144674,"i_long":106.79867},{"is_transit":true,"transit":true,"distance":4102,"station_name":"Kampung Bandan","station_id":"KPB","i_lat":-6.132549,"i_long":106.826365,"line":4,"time":9},{"time":3,"is_transit":false,"transit":false,"distance":1444,"i_lat":-6.14505,"i_long":106.836569,"station_id":"RJW","line":11,"station_name":"Rajawali"},{"station_id":"KMO","i_lat":-6.161728,"time":5,"distance":1901,"station_name":"Kemayoran","i_long":106.839204,"transit":false,"is_transit":false,"line":11},{"line":11,"transit":false,"station_name":"Pasar Senen","i_long":106.84368,"distance":1436,"station_id":"PSE","i_lat":-6.174784,"is_transit":false,"time":4},{"station_name":"Gang Sentiong","distance":1567,"time":8,"line":11,"station_id":"GST","is_transit":false,"i_lat":-6.185975,"transit":false,"i_long":106.850107},{"distance":973,"i_long":106.855437,"is_transit":false,"station_id":"KMT","time":1,"line":11,"station_name":"Kramat","i_lat":-6.193792,"transit":false},{"line":11,"station_id":"POK","distance":1829,"time":2,"i_long":106.861737,"station_name":"Pondok Jati","is_transit":false,"transit":false,"i_lat":-6.209188},{"station_name":"Jatinegara","time":9,"i_lat":-6.215091,"line":1,"distance":1236,"is_transit":true,"station_id":"JNG","i_long":106.86807400000001,"transit":true},{"i_long":106.858896,"distance":1377,"line":1,"station_id":"MTR","station_name":"Matraman","time":2,"transit":false,"i_lat":-6.212485,"is_transit":false},{"distance":1275,"i_long":106.84912,"station_name":"Manggarai","station_id":"MRI","is_transit":true,"time":2,"i_lat":-6.209883,"transit":true,"line":2},{"i_long":106.857948,"i_lat":-6.226659,"is_transit":false,"transit":false,"station_name":"Tebet","distance":2610,"station_id":"TEB","time":4,"line":2},{"station_name":"Cawang","is_transit":false,"i_long":106.856607,"time":2,"distance":1230,"transit":false,"i_lat":-6.242512,"station_id":"CW","line":2},{"i_lat":-6.255332,"time":3,"distance":1546,"station_id":"DRN","transit":false,"station_name":"Duren Kalibata","is_transit":false,"line":2,"i_long":106.85449},{"i_lat":-6.263214,"transit":false,"station_id":"PSMB","is_transit":false,"time":2,"distance":824,"line":2,"station_name":"Pasar Minggu Baru","i_long":106.851577},{"station_name":"Pasar Minggu","line":2,"is_transit":false,"station_id":"PSM","distance":2380,"i_long":106.843999,"time":2,"i_lat":-6.2842400000000005,"transit":false},{"i_long":106.838896,"line":2,"station_name":"Tanjung Barat","i_lat":-6.3080680000000005,"time":4,"transit":false,"station_id":"TNT","is_transit":false,"distance":2820},{"station_name":"Lenteng Agung","station_id":"LNA","transit":false,"time":3,"line":2,"is_transit":false,"i_lat":-6.330363,"distance":2671,"i_long":106.832616},{"line":2,"transit":false,"station_name":"Univ. Pancasila","station_id":"UP","time":2,"distance":1029,"i_lat":-6.339291,"i_long":106.834175,"is_transit":false},{"station_id":"UI","i_lat":-6.360749,"i_long":106.831474,"line":2,"is_transit":false,"time":3,"distance":2264,"station_name":"Univ. Indonesia","transit":false},{"line":2,"i_long":106.831114,"i_lat":-6.369073,"station_id":"POC","is_transit":false,"transit":false,"station_name":"Pondok Cina","time":2,"distance":1109},{"distance":2727,"is_transit":false,"transit":false,"i_lat":-6.391065,"station_id":"DPB","i_long":106.819451,"station_name":"Depokbaru","time":4,"line":2},{"station_name":"Depok","is_transit":false,"distance":1584,"i_long":106.816926,"transit":false,"time":3,"i_lat":-6.405256,"line":2,"station_id":"DP"}]]}