{"data":[[{"time":0,"transit":false,"is_transit":false,"i_lat":-6.169933,"distance":0,"station_name":"Poris","station_id":"PI","i_long":106.679458,"line":5},{"transit":false,"is_transit":false,"i_lat":-6.166068,"time":3,"distance":2548,"station_name":"Kalideres","i_long":106.701612,"line":5,"station_id":"KDS"},{"time":3,"is_transit":false,"line":5,"i_lat":-6.162758,"i_long":106.723064,"distance":2504,"station_name":"Rawa Buaya","station_id":"RW","transit":false},{"is_transit":false,"distance":1152,"station_name":"Bojongindah","i_long":106.737035,"time":4,"station_id":"BOI","transit":false,"line":0,"i_lat":-6.159876},{"time":2,"station_id":"TKO","is_transit":false,"transit":false,"line":5,"i_lat":-6.1587309999999995,"distance":2334,"i_long":106.756522,"station_name":"Taman Kota"},{"time":2,"station_id":"PSG","line":5,"distance":1614,"i_lat":-6.161433,"i_long":106.771379,"station_name":"Pesing","is_transit":false,"transit":false},{"is_transit":false,"station_id":"GGL","i_lat":-6.162021,"line":5,"station_name":"Grogol","distance":2036,"time":2,"i_long":106.788277,"transit":false},{"time":3,"station_name":"Duri","station_id":"DU","distance":1700,"i_long":106.800832,"is_transit":true,"line":1,"i_lat":-6.155215,"transit":true},{"is_transit":true,"station_id":"THB","line":1,"i_lat":-6.185545,"i_long":106.811091,"distance":3632,"transit":false,"station_name":"Tanah Abang","time":8},{"time":5,"station_name":"Karet","is_transit":false,"distance":2029,"station_id":"KAT","i_lat":-6.20132,"i_long":106.816351,"line":1,"transit":false},{"time":1,"transit":false,"distance":471,"i_lat":-6.201433,"is_transit":false,"station_name":"Sudirman Baru","station_id":"SUDB","i_long":106.819881,"line":1},{"station_id":"SUD","line":1,"station_name":"Sudirman","transit":false,"is_transit":false,"i_lat":-6.202263,"i_long":106.822649,"distance":280,"time":1},{"time":4,"line":0,"station_name":"Manggarai","is_transit":true,"transit":true,"i_long":106.84912,"station_id":"MRI","distance":3186,"i_lat":-6.209883},{"station_id":"TEB","distance":2610,"line":2,"i_lat":-6.226659,"station_name":"Tebet","time":4,"i_long":106.857948,"is_transit":false,"transit":false},{"station_id":"CW","i_long":106.856607,"is_transit":false,"line":0,"time":2,"transit":false,"i_lat":-6.242512,"distance":1230,"station_name":"Cawang"},{"i_long":106.85449,"line":0,"time":3,"station_id":"DRN","transit":false,"i_lat":-6.255332,"distance":1546,"is_transit":false,"station_name":"Duren Kalibata"},{"time":2,"is_transit":false,"station_id":"PSMB","transit":false,"distance":824,"line":2,"i_lat":-6.263214,"station_name":"Pasar Minggu Baru","i_long":106.851577},{"line":2,"station_id":"PSM","i_lat":-6.2842400000000005,"time":2,"station_name":"Pasar Minggu","distance":2380,"is_transit":false,"i_long":106.843999,"transit":false},{"line":2,"time":4,"transit":false,"distance":2820,"station_name":"Tanjung Barat","station_id":"TNT","i_lat":-6.3080680000000005,"is_transit":false,"i_long":106.838896},{"transit":false,"is_transit":false,"station_name":"Lenteng Agung","station_id":"LNA","line":2,"time":3,"distance":2671,"i_long":106.832616,"i_lat":-6.330363},{"is_transit":false,"time":2,"line":2,"transit":false,"station_name":"Univ. Pancasila","i_long":106.834175,"i_lat":-6.339291,"distance":1029,"station_id":"UP"},{"i_lat":-6.360749,"line":2,"time":3,"is_transit":false,"station_name":"Univ. Indonesia","i_long":106.831474,"station_id":"UI","distance":2264,"transit":false},{"station_id":"POC","distance":1109,"i_long":106.831114,"i_lat":-6.369073,"station_name":"Pondok Cina","is_transit":false,"transit":false,"line":2,"time":2},{"station_name":"Depokbaru","i_lat":-6.391065,"is_transit":false,"line":0,"distance":2727,"i_long":106.819451,"time":4,"station_id":"DPB","transit":false},{"is_transit":false,"line":0,"distance":1584,"time":3,"i_long":106.816926,"station_id":"DP","transit":false,"i_lat":-6.405256,"station_name":"Depok"}],[{"time":0,"distance":0,"is_transit":false,"i_lat":-6.169933,"line":5,"station_name":"Poris","station_id":"PI","transit":false,"i_long":106.679458},{"station_name":"Kalideres","station_id":"KDS","i_lat":-6.166068,"time":3,"transit":false,"is_transit":false,"i_long":106.701612,"distance":2548,"line":5},{"i_lat":-6.162758,"time":3,"distance":2504,"transit":false,"station_name":"Rawa Buaya","line":5,"i_long":106.723064,"is_transit":false,"station_id":"RW"},{"station_name":"Bojongindah","i_long":106.737035,"station_id":"BOI","transit":false,"distance":1152,"time":4,"line":0,"is_transit":false,"i_lat":-6.159876},{"station_id":"TKO","i_long":106.756522,"transit":false,"i_lat":-6.1587309999999995,"time":2,"distance":2334,"station_name":"Taman Kota","is_transit":false,"line":5},{"station_id":"PSG","distance":1614,"time":2,"transit":false,"station_name":"Pesing","i_long":106.771379,"line":5,"is_transit":false,"i_lat":-6.161433},{"is_transit":false,"transit":false,"line":5,"time":2,"distance":2036,"station_name":"Grogol","i_lat":-6.162021,"i_long":106.788277,"station_id":"GGL"},{"time":3,"station_id":"DU","i_long":106.800832,"line":1,"is_transit":true,"transit":true,"i_lat":-6.155215,"distance":1700,"station_name":"Duri"},{"line":0,"time":4,"is_transit":false,"i_long":106.79867,"distance":1230,"i_lat":-6.144674,"station_name":"Angke","transit":false,"station_id":"AK"},{"time":9,"distance":4102,"station_name":"Kampung Bandan","station_id":"KPB","i_lat":-6.132549,"i_long":106.826365,"is_transit":true,"transit":false,"line":0},{"line":0,"station_name":"Jakarta Kota","i_lat":-6.137569,"i_long":106.812439,"distance":1364,"station_id":"JAKK","time":3,"is_transit":true,"transit":true},{"time":4,"transit":false,"i_long":106.820901,"station_id":"JAY","is_transit":false,"station_name":"Jayakarta","line":7,"distance":1264,"i_lat":-6.141205},{"i_lat":-6.149769,"time":2,"station_id":"MGB","line":2,"station_name":"Manggabesar","transit":false,"is_transit":false,"i_long":106.82482,"distance":1080},{"is_transit":false,"i_lat":-6.160725,"line":2,"i_long":106.827103,"distance":906,"transit":false,"station_id":"SW","time":2,"station_name":"Sawah Besar"},{"distance":1149,"i_lat":-6.166716,"transit":false,"i_long":106.828284,"line":2,"station_id":"JUA","time":2,"station_name":"Juanda","is_transit":false},{"station_id":"GDD","is_transit":false,"transit":false,"station_name":"Gondangdia","time":4,"i_lat":-6.186295,"line":2,"distance":2015,"i_long":106.832183},{"is_transit":false,"station_name":"Cikini","i_long":106.840169,"distance":1750,"station_id":"CKI","i_lat":-6.198556,"transit":false,"time":3,"line":0},{"transit":true,"distance":1590,"i_long":106.84912,"line":0,"time":4,"station_id":"MRI","i_lat":-6.209883,"station_name":"Manggarai","is_transit":true},{"i_lat":-6.226659,"distance":2610,"line":2,"transit":false,"i_long":106.857948,"time":4,"station_id":"TEB","is_transit":false,"station_name":"Tebet"},{"station_id":"CW","distance":1230,"i_lat":-6.242512,"i_long":106.856607,"time":2,"station_name":"Cawang","transit":false,"is_transit":false,"line":0},{"i_lat":-6.255332,"line":0,"transit":false,"distance":1546,"i_long":106.85449,"station_id":"DRN","station_name":"Duren Kalibata","is_transit":false,"time":3},{"distance":824,"station_id":"PSMB","transit":false,"i_long":106.851577,"line":2,"time":2,"station_name":"Pasar Minggu Baru","is_transit":false,"i_lat":-6.263214},{"transit":false,"i_long":106.843999,"line":2,"station_name":"Pasar Minggu","station_id":"PSM","time":2,"distance":2380,"is_transit":false,"i_lat":-6.2842400000000005},{"distance":2820,"station_name":"Tanjung Barat","line":2,"transit":false,"time":4,"station_id":"TNT","i_lat":-6.3080680000000005,"is_transit":false,"i_long":106.838896},{"station_name":"Lenteng Agung","is_transit":false,"line":2,"i_lat":-6.330363,"time":3,"distance":2671,"transit":false,"station_id":"LNA","i_long":106.832616},{"line":2,"time":2,"is_transit":false,"i_lat":-6.339291,"station_id":"UP","station_name":"Univ. Pancasila","i_long":106.834175,"transit":false,"distance":1029},{"line":2,"time":3,"i_long":106.831474,"station_name":"Univ. Indonesia","distance":2264,"station_id":"UI","i_lat":-6.360749,"is_transit":false,"transit":false},{"is_transit":false,"station_name":"Pondok Cina","transit":false,"time":2,"distance":1109,"i_lat":-6.369073,"i_long":106.831114,"line":2,"station_id":"POC"},{"i_lat":-6.391065,"time":4,"station_id":"DPB","transit":false,"station_name":"Depokbaru","line":0,"distance":2727,"i_long":106.819451,"is_transit":false},{"time":3,"station_id":"DP","is_transit":false,"i_long":106.816926,"i_lat":-6.405256,"distance":1584,"station_name":"Depok","line":0,"transit":false}],[{"station_id":"PI","distance":0,"i_long":106.679458,"transit":false,"i_lat":-6.169933,"station_name":"Poris","is_transit":false,"time":0,"line":5},{"distance":2548,"is_transit":false,"transit":false,"station_name":"Kalideres","time":3,"station_id":"KDS","i_lat":-6.166068,"line":5,"i_long":106.701612},{"station_name":"Rawa Buaya","line":5,"station_id":"RW","is_transit":false,"time":3,"transit":false,"i_lat":-6.162758,"i_long":106.723064,"distance":2504},{"i_long":106.737035,"station_name":"Bojongindah","station_id":"BOI","is_transit":false,"transit":false,"distance":1152,"time":4,"i_lat":-6.159876,"line":0},{"station_name":"Taman Kota","i_long":106.756522,"time":2,"is_transit":false,"i_lat":-6.1587309999999995,"station_id":"TKO","line":5,"distance":2334,"transit":false},{"is_transit":false,"i_long":106.771379,"time":2,"transit":false,"line":5,"station_name":"Pesing","distance":1614,"i_lat":-6.161433,"station_id":"PSG"},{"distance":2036,"i_lat":-6.162021,"station_id":"GGL","transit":false,"time":2,"i_long":106.788277,"is_transit":false,"station_name":"Grogol","line":5},{"is_transit":true,"i_lat":-6.155215,"time":3,"station_name":"Duri","transit":true,"i_long":106.800832,"line":1,"station_id":"DU","distance":1700},{"transit":false,"i_lat":-6.144674,"i_long":106.79867,"is_transit":false,"station_name":"Angke","time":4,"distance":1230,"station_id":"AK","line":0},{"time":9,"i_long":106.826365,"line":0,"transit":true,"distance":4102,"station_name":"Kampung Bandan","station_id":"KPB","is_transit":true,"i_lat":-6.132549},{"i_long":106.836569,"distance":1444,"line":11,"transit":false,"station_id":"RJW","station_name":"Rajawali","time":3,"is_transit":false,"i_lat":-6.14505},{"station_id":"KMO","i_long":106.839204,"station_name":"Kemayoran","time":5,"i_lat":-6.161728,"transit":false,"line":11,"is_transit":false,"distance":1901},{"i_lat":-6.174784,"is_transit":false,"i_long":106.84368,"line":11,"transit":false,"time":4,"distance":1436,"station_name":"Pasar Senen","station_id":"PSE"},{"station_id":"GST","line":11,"i_lat":-6.185975,"is_transit":false,"station_name":"Gang Sentiong","distance":1567,"time":8,"transit":false,"i_long":106.850107},{"distance":973,"time":1,"is_transit":false,"i_lat":-6.193792,"i_long":106.855437,"line":11,"station_name":"Kramat","station_id":"KMT","transit":false},{"i_long":106.861737,"is_transit":false,"line":11,"time":2,"distance":1829,"station_name":"Pondok Jati","station_id":"POK","transit":false,"i_lat":-6.209188},{"station_id":"JNG","distance":1236,"is_transit":true,"transit":true,"line":0,"i_long":106.86807400000001,"station_name":"Jatinegara","i_lat":-6.215091,"time":9},{"station_id":"MTR","i_long":106.858896,"is_transit":false,"transit":false,"distance":1377,"station_name":"Matraman","line":1,"time":2,"i_lat":-6.212485},{"is_transit":true,"station_name":"Manggarai","transit":true,"i_lat":-6.209883,"i_long":106.84912,"line":0,"station_id":"MRI","time":2,"distance":1275},{"station_name":"Tebet","distance":2610,"time":4,"station_id":"TEB","is_transit":false,"i_long":106.857948,"line":2,"transit":false,"i_lat":-6.226659},{"distance":1230,"is_transit":false,"line":0,"station_name":"Cawang","i_lat":-6.242512,"station_id":"CW","transit":false,"i_long":106.856607,"time":2},{"distance":1546,"is_transit":false,"i_lat":-6.255332,"station_name":"Duren Kalibata","station_id":"DRN","transit":false,"line":0,"i_long":106.85449,"time":3},{"station_name":"Pasar Minggu Baru","is_transit":false,"station_id":"PSMB","transit":false,"i_lat":-6.263214,"i_long":106.851577,"line":2,"time":2,"distance":824},{"line":2,"distance":2380,"i_lat":-6.2842400000000005,"time":2,"station_name":"Pasar Minggu","transit":false,"is_transit":false,"i_long":106.843999,"station_id":"PSM"},{"i_long":106.838896,"station_id":"TNT","i_lat":-6.3080680000000005,"time":4,"station_name":"Tanjung Barat","is_transit":false,"distance":2820,"line":2,"transit":false},{"distance":2671,"time":3,"station_name":"Lenteng Agung","line":2,"is_transit":false,"transit":false,"station_id":"LNA","i_lat":-6.330363,"i_long":106.832616},{"is_transit":false,"transit":false,"distance":1029,"i_lat":-6.339291,"time":2,"line":2,"station_name":"Univ. Pancasila","i_long":106.834175,"station_id":"UP"},{"i_lat":-6.360749,"station_name":"Univ. Indonesia","distance":2264,"station_id":"UI","time":3,"transit":false,"line":2,"i_long":106.831474,"is_transit":false},{"is_transit":false,"line":2,"transit":false,"i_lat":-6.369073,"distance":1109,"station_id":"POC","time":2,"station_name":"Pondok Cina","i_long":106.831114},{"i_lat":-6.391065,"time":4,"is_transit":false,"station_id":"DPB","line":0,"i_long":106.819451,"distance":2727,"transit":false,"station_name":"Depokbaru"},{"distance":1584,"i_lat":-6.405256,"station_name":"Depok","transit":false,"i_long":106.816926,"time":3,"station_id":"DP","line":0,"is_transit":false}]]}