{"data":[[{"i_lat":-6.169933,"transit":false,"distance":0,"is_transit":false,"station_id":"PI","i_long":106.679458,"line":5,"time":0,"station_name":"Poris"},{"i_long":106.701612,"is_transit":false,"station_name":"Kalideres","i_lat":-6.166068,"line":5,"station_id":"KDS","time":3,"transit":false,"distance":2548},{"i_lat":-6.162758,"is_transit":false,"station_name":"Rawa Buaya","time":3,"distance":2504,"i_long":106.723064,"station_id":"RW","line":5,"transit":false},{"station_name":"Bojongindah","i_lat":-6.159876,"transit":false,"i_long":106.737035,"distance":1152,"line":5,"time":4,"is_transit":false,"station_id":"BOI"},{"station_id":"TKO","time":2,"station_name":"Taman Kota","i_long":106.756522,"is_transit":false,"distance":2334,"transit":false,"line":5,"i_lat":-6.1587309999999995},{"is_transit":false,"transit":false,"time":2,"line":5,"i_lat":-6.161433,"distance":1614,"i_long":106.771379,"station_name":"Pesing","station_id":"PSG"},{"line":5,"station_id":"GGL","distance":2036,"station_name":"Grogol","i_long":106.788277,"i_lat":-6.162021,"transit":false,"time":2,"is_transit":false},{"station_id":"DU","station_name":"Duri","line":1,"i_lat":-6.155215,"is_transit":true,"i_long":106.800832,"time":3,"transit":true,"distance":1700},{"transit":false,"station_id":"AK","line":1,"i_long":106.79867,"station_name":"Angke","time":4,"distance":1230,"i_lat":-6.144674,"is_transit":false},{"transit":true,"i_lat":-6.132549,"is_transit":true,"station_id":"KPB","station_name":"Kampung Bandan","distance":4102,"i_long":106.826365,"time":9,"line":4},{"line":2,"is_transit":false,"distance":1364,"i_long":106.812439,"station_name":"Jakarta Kota","transit":false,"station_id":"JAKK","time":3,"i_lat":-6.137569}],[{"transit":false,"distance":0,"i_long":106.679458,"is_transit":false,"time":0,"i_lat":-6.169933,"station_name":"Poris","station_id":"PI","line":5},{"is_transit":false,"time":3,"line":5,"station_name":"Kalideres","station_id":"KDS","i_long":106.701612,"transit":false,"i_lat":-6.166068,"distance":2548},{"line":5,"is_transit":false,"i_lat":-6.162758,"station_id":"RW","station_name":"Rawa Buaya","distance":2504,"transit":false,"i_long":106.723064,"time":3},{"station_name":"Bojongindah","is_transit":false,"distance":1152,"time":4,"i_lat":-6.159876,"transit":false,"line":5,"i_long":106.737035,"station_id":"BOI"},{"i_long":106.756522,"station_name":"Taman Kota","transit":false,"time":2,"is_transit":false,"station_id":"TKO","distance":2334,"i_lat":-6.1587309999999995,"line":5},{"station_id":"PSG","distance":1614,"i_long":106.771379,"transit":false,"i_lat":-6.161433,"is_transit":false,"station_name":"Pesing","line":5,"time":2},{"station_name":"Grogol","distance":2036,"transit":false,"i_lat":-6.162021,"line":5,"is_transit":false,"station_id":"GGL","time":2,"i_long":106.788277},{"distance":1700,"time":3,"is_transit":true,"transit":true,"line":1,"i_lat":-6.155215,"i_long":106.800832,"station_id":"DU","station_name":"Duri"},{"i_long":106.811091,"is_transit":false,"line":1,"i_lat":-6.185545,"transit":false,"time":8,"distance":3632,"station_id":"THB","station_name":"Tanah Abang"},{"transit":false,"time":5,"distance":2029,"station_id":"KAT","i_lat":-6.20132,"i_long":106.816351,"station_name":"Karet","is_transit":false,"line":1},{"time":1,"is_transit":false,"transit":false,"line":1,"station_id":"SUDB","distance":471,"station_name":"Sudirman Baru","i_lat":-6.201433,"i_long":106.819881},{"station_id":"SUD","i_lat":-6.202263,"is_transit":false,"line":1,"time":1,"station_name":"Sudirman","i_long":106.822649,"distance":280,"transit":false},{"transit":true,"line":2,"distance":3186,"time":4,"i_long":106.84912,"station_name":"Manggarai","is_transit":true,"station_id":"MRI","i_lat":-6.209883},{"distance":1590,"line":2,"station_name":"Cikini","station_id":"CKI","time":4,"is_transit":false,"transit":false,"i_lat":-6.198556,"i_long":106.840169},{"i_long":106.832183,"station_name":"Gondangdia","line":2,"distance":1750,"station_id":"GDD","i_lat":-6.186295,"is_transit":false,"time":3,"transit":false},{"transit":false,"station_id":"JUA","station_name":"Juanda","is_transit":false,"time":4,"distance":2015,"i_long":106.828284,"line":2,"i_lat":-6.166716},{"i_lat":-6.160725,"station_name":"Sawah Besar","i_long":106.827103,"line":2,"is_transit":false,"station_id":"SW","transit":false,"time":2,"distance":1149},{"i_long":106.82482,"time":2,"transit":false,"line":2,"i_lat":-6.149769,"is_transit":false,"distance":906,"station_name":"Manggabesar","station_id":"MGB"},{"station_name":"Jayakarta","station_id":"JAY","time":2,"i_long":106.820901,"line":2,"is_transit":false,"distance":1080,"i_lat":-6.141205,"transit":false},{"i_long":106.812439,"transit":false,"station_name":"Jakarta Kota","time":4,"i_lat":-6.137569,"is_transit":false,"distance":1264,"station_id":"JAKK","line":2}],[{"distance":0,"station_name":"Poris","time":0,"is_transit":false,"i_lat":-6.169933,"transit":false,"i_long":106.679458,"station_id":"PI","line":5},{"i_lat":-6.166068,"distance":2548,"i_long":106.701612,"is_transit":false,"time":3,"station_id":"KDS","station_name":"Kalideres","line":5,"transit":false},{"distance":2504,"is_transit":false,"station_name":"Rawa Buaya","line":5,"transit":false,"time":3,"i_lat":-6.162758,"station_id":"RW","i_long":106.723064},{"i_lat":-6.159876,"time":4,"is_transit":false,"station_name":"Bojongindah","transit":false,"line":5,"distance":1152,"station_id":"BOI","i_long":106.737035},{"i_lat":-6.1587309999999995,"i_long":106.756522,"station_id":"TKO","distance":2334,"line":5,"transit":false,"time":2,"is_transit":false,"station_name":"Taman Kota"},{"station_id":"PSG","station_name":"Pesing","i_lat":-6.161433,"transit":false,"time":2,"is_transit":false,"distance":1614,"line":5,"i_long":106.771379},{"distance":2036,"i_long":106.788277,"station_name":"Grogol","i_lat":-6.162021,"is_transit":false,"station_id":"GGL","line":5,"transit":false,"time":2},{"line":1,"station_name":"Duri","time":3,"i_lat":-6.155215,"station_id":"DU","distance":1700,"transit":true,"is_transit":true,"i_long":106.800832},{"i_lat":-6.185545,"transit":false,"line":1,"time":8,"distance":3632,"station_name":"Tanah Abang","i_long":106.811091,"is_transit":false,"station_id":"THB"},{"transit":false,"time":5,"distance":2029,"line":1,"is_transit":false,"i_lat":-6.20132,"station_name":"Karet","station_id":"KAT","i_long":106.816351},{"is_transit":false,"distance":471,"station_id":"SUDB","i_lat":-6.201433,"transit":false,"station_name":"Sudirman Baru","i_long":106.819881,"time":1,"line":1},{"transit":false,"time":1,"is_transit":false,"i_lat":-6.202263,"station_id":"SUD","line":1,"station_name":"Sudirman","i_long":106.822649,"distance":280},{"is_transit":false,"station_id":"MRI","line":2,"transit":false,"time":4,"i_lat":-6.209883,"distance":3186,"station_name":"Manggarai","i_long":106.84912},{"line":1,"transit":false,"i_long":106.858896,"station_id":"MTR","distance":1275,"station_name":"Matraman","time":2,"i_lat":-6.212485,"is_transit":false},{"station_name":"Jatinegara","i_long":106.86807400000001,"i_lat":-6.215091,"transit":true,"line":1,"is_transit":true,"time":8,"distance":1377,"station_id":"JNG"},{"distance":1236,"i_long":106.861737,"time":2,"i_lat":-6.209188,"is_transit":false,"station_name":"Pondok Jati","line":11,"transit":false,"station_id":"POK"},{"time":2,"i_lat":-6.193792,"transit":false,"station_name":"Kramat","station_id":"KMT","distance":1829,"is_transit":false,"line":11,"i_long":106.855437},{"time":1,"line":11,"is_transit":false,"station_id":"GST","i_lat":-6.185975,"station_name":"Gang Sentiong","i_long":106.850107,"transit":false,"distance":973},{"i_long":106.84368,"transit":false,"distance":1567,"station_name":"Pasar Senen","is_transit":false,"time":8,"i_lat":-6.174784,"station_id":"PSE","line":11},{"distance":1436,"i_lat":-6.161728,"i_long":106.839204,"is_transit":false,"line":11,"station_id":"KMO","time":4,"transit":false,"station_name":"Kemayoran"},{"time":5,"i_long":106.836569,"line":11,"i_lat":-6.14505,"is_transit":false,"transit":false,"station_id":"RJW","station_name":"Rajawali","distance":1901},{"station_id":"KPB","station_name":"Kampung Bandan","is_transit":true,"line":4,"i_lat":-6.132549,"distance":1444,"time":3,"transit":true,"i_long":106.826365},{"i_lat":-6.137569,"is_transit":false,"i_long":106.812439,"station_id":"JAKK","time":3,"distance":1364,"transit":false,"line":2,"station_name":"Jakarta Kota"}],[{"time":0,"transit":false,"i_long":106.679458,"station_id":"PI","distance":0,"line":5,"i_lat":-6.169933,"is_transit":false,"station_name":"Poris"},{"transit":false,"line":5,"distance":2548,"is_transit":false,"i_lat":-6.166068,"station_id":"KDS","time":3,"station_name":"Kalideres","i_long":106.701612},{"line":5,"distance":2504,"transit":false,"station_id":"RW","i_lat":-6.162758,"is_transit":false,"time":3,"i_long":106.723064,"station_name":"Rawa Buaya"},{"time":4,"i_long":106.737035,"line":5,"distance":1152,"transit":false,"is_transit":false,"station_id":"BOI","station_name":"Bojongindah","i_lat":-6.159876},{"i_long":106.756522,"time":2,"station_id":"TKO","is_transit":false,"distance":2334,"line":5,"transit":false,"i_lat":-6.1587309999999995,"station_name":"Taman Kota"},{"station_id":"PSG","distance":1614,"time":2,"line":5,"station_name":"Pesing","is_transit":false,"transit":false,"i_lat":-6.161433,"i_long":106.771379},{"i_lat":-6.162021,"station_name":"Grogol","transit":false,"line":5,"i_long":106.788277,"is_transit":false,"station_id":"GGL","time":2,"distance":2036},{"time":3,"line":1,"transit":true,"i_long":106.800832,"station_name":"Duri","is_transit":true,"distance":1700,"i_lat":-6.155215,"station_id":"DU"},{"time":4,"station_id":"AK","i_long":106.79867,"transit":false,"is_transit":false,"distance":1230,"i_lat":-6.144674,"station_name":"Angke","line":1},{"transit":true,"distance":4102,"time":9,"station_id":"KPB","i_long":106.826365,"station_name":"Kampung Bandan","line":4,"i_lat":-6.132549,"is_transit":true},{"station_id":"RJW","station_name":"Rajawali","time":3,"distance":1444,"i_lat":-6.14505,"i_long":106.836569,"transit":false,"is_transit":false,"line":11},{"station_id":"KMO","time":5,"distance":1901,"line":11,"station_name":"Kemayoran","transit":false,"is_transit":false,"i_lat":-6.161728,"i_long":106.839204},{"station_id":"PSE","is_transit":false,"line":11,"transit":false,"station_name":"Pasar Senen","i_long":106.84368,"i_lat":-6.174784,"time":4,"distance":1436},{"distance":1567,"i_long":106.850107,"is_transit":false,"line":11,"transit":false,"time":8,"i_lat":-6.185975,"station_id":"GST","station_name":"Gang Sentiong"},{"transit":false,"is_transit":false,"i_lat":-6.193792,"i_long":106.855437,"time":1,"line":11,"station_id":"KMT","station_name":"Kramat","distance":973},{"transit":false,"time":2,"i_lat":-6.209188,"i_long":106.861737,"station_name":"Pondok Jati","station_id":"POK","is_transit":false,"line":11,"distance":1829},{"i_long":106.86807400000001,"distance":1236,"line":1,"transit":true,"station_id":"JNG","is_transit":true,"station_name":"Jatinegara","time":9,"i_lat":-6.215091},{"i_lat":-6.212485,"transit":false,"i_long":106.858896,"time":2,"line":1,"station_id":"MTR","station_name":"Matraman","distance":1377,"is_transit":false},{"distance":1275,"i_lat":-6.209883,"line":2,"station_id":"MRI","transit":true,"i_long":106.84912,"is_transit":true,"station_name":"Manggarai","time":2},{"station_id":"CKI","station_name":"Cikini","time":4,"distance":1590,"i_long":106.840169,"is_transit":false,"transit":false,"i_lat":-6.198556,"line":2},{"transit":false,"distance":1750,"i_lat":-6.186295,"i_long":106.832183,"time":3,"station_name":"Gondangdia","line":2,"station_id":"GDD","is_transit":false},{"i_lat":-6.166716,"station_id":"JUA","i_long":106.828284,"distance":2015,"line":2,"time":4,"transit":false,"station_name":"Juanda","is_transit":false},{"is_transit":false,"distance":1149,"i_lat":-6.160725,"i_long":106.827103,"transit":false,"time":2,"station_name":"Sawah Besar","line":2,"station_id":"SW"},{"time":2,"transit":false,"line":2,"is_transit":false,"station_name":"Manggabesar","distance":906,"station_id":"MGB","i_lat":-6.149769,"i_long":106.82482},{"distance":1080,"i_lat":-6.141205,"is_transit":false,"line":2,"station_id":"JAY","time":2,"i_long":106.820901,"station_name":"Jayakarta","transit":false},{"distance":1264,"station_name":"Jakarta Kota","i_lat":-6.137569,"is_transit":false,"i_long":106.812439,"transit":false,"line":2,"time":4,"station_id":"JAKK"}]]}