{"data":[[{"time":0,"i_lat":-6.169933,"station_id":"PI","is_transit":false,"line":5,"station_name":"Poris","transit":false,"i_long":106.679458,"distance":0},{"time":3,"distance":2548,"i_lat":-6.166068,"transit":false,"line":5,"station_id":"KDS","is_transit":false,"i_long":106.701612,"station_name":"Kalideres"},{"line":5,"is_transit":false,"time":3,"i_long":106.723064,"station_name":"Rawa Buaya","station_id":"RW","i_lat":-6.162758,"transit":false,"distance":2504},{"transit":false,"distance":1152,"station_id":"BOI","time":4,"station_name":"Bojongindah","i_lat":-6.159876,"is_transit":false,"i_long":106.737035,"line":5},{"station_id":"TKO","transit":false,"line":5,"station_name":"Taman Kota","distance":2334,"i_long":106.756522,"i_lat":-6.1587309999999995,"is_transit":false,"time":2},{"transit":false,"station_name":"Pesing","i_lat":-6.161433,"distance":1614,"time":2,"is_transit":false,"i_long":106.771379,"station_id":"PSG","line":5},{"line":5,"i_long":106.788277,"time":2,"transit":false,"station_name":"Grogol","station_id":"GGL","distance":2036,"is_transit":false,"i_lat":-6.162021},{"line":1,"station_name":"Duri","distance":1700,"i_long":106.800832,"i_lat":-6.155215,"is_transit":true,"station_id":"DU","transit":true,"time":3},{"transit":false,"is_transit":false,"time":4,"distance":1230,"i_long":106.79867,"station_name":"Angke","line":1,"i_lat":-6.144674,"station_id":"AK"},{"i_long":106.826365,"is_transit":true,"line":4,"time":9,"distance":4102,"i_lat":-6.132549,"transit":true,"station_name":"Kampung Bandan","station_id":"KPB"},{"station_id":"JAKK","is_transit":true,"i_lat":-6.137569,"i_long":106.812439,"distance":1364,"line":2,"time":3,"station_name":"Jakarta Kota","transit":true},{"line":2,"station_name":"Jayakarta","station_id":"JAY","distance":1264,"i_lat":-6.141205,"time":4,"i_long":106.820901,"is_transit":false,"transit":false}],[{"distance":0,"is_transit":false,"i_long":106.679458,"line":5,"i_lat":-6.169933,"transit":false,"station_name":"Poris","station_id":"PI","time":0},{"station_name":"Kalideres","time":3,"distance":2548,"line":5,"station_id":"KDS","i_long":106.701612,"transit":false,"is_transit":false,"i_lat":-6.166068},{"transit":false,"is_transit":false,"time":3,"station_name":"Rawa Buaya","i_long":106.723064,"i_lat":-6.162758,"station_id":"RW","line":5,"distance":2504},{"station_id":"BOI","time":4,"i_long":106.737035,"line":5,"distance":1152,"is_transit":false,"transit":false,"station_name":"Bojongindah","i_lat":-6.159876},{"time":2,"transit":false,"i_long":106.756522,"i_lat":-6.1587309999999995,"line":5,"is_transit":false,"distance":2334,"station_name":"Taman Kota","station_id":"TKO"},{"transit":false,"time":2,"line":5,"station_name":"Pesing","i_lat":-6.161433,"station_id":"PSG","i_long":106.771379,"distance":1614,"is_transit":false},{"distance":2036,"i_long":106.788277,"line":5,"i_lat":-6.162021,"is_transit":false,"station_id":"GGL","station_name":"Grogol","transit":false,"time":2},{"transit":true,"station_name":"Duri","distance":1700,"i_long":106.800832,"time":3,"is_transit":true,"i_lat":-6.155215,"station_id":"DU","line":1},{"i_lat":-6.185545,"transit":false,"line":1,"i_long":106.811091,"time":8,"station_id":"THB","station_name":"Tanah Abang","is_transit":false,"distance":3632},{"time":5,"station_name":"Karet","i_lat":-6.20132,"is_transit":false,"line":1,"transit":false,"distance":2029,"i_long":106.816351,"station_id":"KAT"},{"station_name":"Sudirman Baru","distance":471,"is_transit":false,"i_lat":-6.201433,"i_long":106.819881,"time":1,"transit":false,"line":1,"station_id":"SUDB"},{"station_id":"SUD","i_lat":-6.202263,"line":1,"time":1,"transit":false,"station_name":"Sudirman","distance":280,"is_transit":false,"i_long":106.822649},{"line":2,"i_lat":-6.209883,"station_name":"Manggarai","time":4,"distance":3186,"i_long":106.84912,"transit":true,"is_transit":true,"station_id":"MRI"},{"station_name":"Cikini","station_id":"CKI","time":4,"i_lat":-6.198556,"i_long":106.840169,"line":2,"transit":false,"is_transit":false,"distance":1590},{"transit":false,"time":3,"is_transit":false,"station_name":"Gondangdia","station_id":"GDD","distance":1750,"i_long":106.832183,"line":2,"i_lat":-6.186295},{"i_lat":-6.166716,"line":2,"distance":2015,"time":4,"is_transit":false,"station_id":"JUA","transit":false,"station_name":"Juanda","i_long":106.828284},{"station_name":"Sawah Besar","time":2,"i_lat":-6.160725,"i_long":106.827103,"station_id":"SW","is_transit":false,"distance":1149,"line":2,"transit":false},{"time":2,"line":2,"distance":906,"transit":false,"station_id":"MGB","is_transit":false,"i_lat":-6.149769,"i_long":106.82482,"station_name":"Manggabesar"},{"station_id":"JAY","i_lat":-6.141205,"transit":false,"i_long":106.820901,"line":2,"distance":1080,"time":2,"is_transit":false,"station_name":"Jayakarta"}],[{"i_lat":-6.169933,"line":5,"is_transit":false,"i_long":106.679458,"distance":0,"station_name":"Poris","transit":false,"station_id":"PI","time":0},{"i_lat":-6.166068,"transit":false,"is_transit":false,"distance":2548,"station_name":"Kalideres","time":3,"line":5,"station_id":"KDS","i_long":106.701612},{"i_long":106.723064,"line":5,"distance":2504,"time":3,"station_id":"RW","transit":false,"is_transit":false,"station_name":"Rawa Buaya","i_lat":-6.162758},{"line":5,"station_id":"BOI","transit":false,"is_transit":false,"time":4,"distance":1152,"i_long":106.737035,"i_lat":-6.159876,"station_name":"Bojongindah"},{"transit":false,"i_long":106.756522,"is_transit":false,"station_id":"TKO","line":5,"time":2,"station_name":"Taman Kota","i_lat":-6.1587309999999995,"distance":2334},{"time":2,"i_lat":-6.161433,"distance":1614,"transit":false,"station_id":"PSG","i_long":106.771379,"station_name":"Pesing","is_transit":false,"line":5},{"i_long":106.788277,"time":2,"is_transit":false,"station_name":"Grogol","transit":false,"distance":2036,"line":5,"station_id":"GGL","i_lat":-6.162021},{"station_id":"DU","distance":1700,"transit":true,"line":1,"station_name":"Duri","is_transit":true,"i_long":106.800832,"time":3,"i_lat":-6.155215},{"i_lat":-6.185545,"is_transit":false,"time":8,"station_name":"Tanah Abang","transit":false,"station_id":"THB","i_long":106.811091,"line":1,"distance":3632},{"i_long":106.816351,"station_id":"KAT","i_lat":-6.20132,"station_name":"Karet","transit":false,"is_transit":false,"distance":2029,"line":1,"time":5},{"line":1,"time":1,"station_id":"SUDB","is_transit":false,"i_lat":-6.201433,"transit":false,"i_long":106.819881,"distance":471,"station_name":"Sudirman Baru"},{"station_name":"Sudirman","station_id":"SUD","i_long":106.822649,"line":1,"is_transit":false,"time":1,"i_lat":-6.202263,"transit":false,"distance":280},{"time":4,"i_lat":-6.209883,"station_id":"MRI","i_long":106.84912,"line":2,"is_transit":false,"distance":3186,"station_name":"Manggarai","transit":false},{"station_id":"MTR","i_lat":-6.212485,"is_transit":false,"line":1,"station_name":"Matraman","transit":false,"i_long":106.858896,"distance":1275,"time":2},{"is_transit":true,"i_lat":-6.215091,"station_name":"Jatinegara","line":1,"time":8,"station_id":"JNG","distance":1377,"i_long":106.86807400000001,"transit":true},{"line":11,"transit":false,"i_long":106.861737,"time":2,"distance":1236,"i_lat":-6.209188,"station_id":"POK","station_name":"Pondok Jati","is_transit":false},{"time":2,"distance":1829,"i_lat":-6.193792,"line":11,"transit":false,"station_id":"KMT","i_long":106.855437,"is_transit":false,"station_name":"Kramat"},{"is_transit":false,"time":1,"i_long":106.850107,"i_lat":-6.185975,"line":11,"distance":973,"transit":false,"station_id":"GST","station_name":"Gang Sentiong"},{"line":11,"time":8,"transit":false,"station_id":"PSE","distance":1567,"station_name":"Pasar Senen","i_lat":-6.174784,"is_transit":false,"i_long":106.84368},{"line":11,"time":4,"is_transit":false,"distance":1436,"station_name":"Kemayoran","transit":false,"i_lat":-6.161728,"i_long":106.839204,"station_id":"KMO"},{"distance":1901,"transit":false,"i_long":106.836569,"station_id":"RJW","is_transit":false,"i_lat":-6.14505,"line":11,"time":5,"station_name":"Rajawali"},{"i_lat":-6.132549,"time":3,"distance":1444,"i_long":106.826365,"transit":true,"is_transit":true,"station_id":"KPB","station_name":"Kampung Bandan","line":4},{"is_transit":true,"i_long":106.812439,"distance":1364,"time":3,"station_name":"Jakarta Kota","transit":true,"i_lat":-6.137569,"station_id":"JAKK","line":2},{"station_id":"JAY","time":4,"distance":1264,"line":2,"is_transit":false,"i_lat":-6.141205,"i_long":106.820901,"transit":false,"station_name":"Jayakarta"}],[{"i_long":106.679458,"is_transit":false,"time":0,"station_id":"PI","distance":0,"station_name":"Poris","i_lat":-6.169933,"line":5,"transit":false},{"station_id":"KDS","transit":false,"line":5,"i_lat":-6.166068,"distance":2548,"time":3,"i_long":106.701612,"station_name":"Kalideres","is_transit":false},{"station_name":"Rawa Buaya","i_lat":-6.162758,"i_long":106.723064,"line":5,"time":3,"transit":false,"station_id":"RW","is_transit":false,"distance":2504},{"distance":1152,"transit":false,"station_id":"BOI","time":4,"line":5,"is_transit":false,"i_long":106.737035,"station_name":"Bojongindah","i_lat":-6.159876},{"i_long":106.756522,"time":2,"line":5,"distance":2334,"station_id":"TKO","i_lat":-6.1587309999999995,"transit":false,"station_name":"Taman Kota","is_transit":false},{"station_id":"PSG","i_long":106.771379,"transit":false,"line":5,"time":2,"is_transit":false,"distance":1614,"station_name":"Pesing","i_lat":-6.161433},{"station_name":"Grogol","i_long":106.788277,"station_id":"GGL","time":2,"distance":2036,"transit":false,"line":5,"i_lat":-6.162021,"is_transit":false},{"station_id":"DU","i_lat":-6.155215,"line":1,"time":3,"distance":1700,"is_transit":true,"i_long":106.800832,"transit":true,"station_name":"Duri"},{"i_long":106.79867,"station_id":"AK","distance":1230,"i_lat":-6.144674,"transit":false,"is_transit":false,"line":1,"time":4,"station_name":"Angke"},{"i_long":106.826365,"station_id":"KPB","transit":true,"distance":4102,"time":9,"i_lat":-6.132549,"line":4,"station_name":"Kampung Bandan","is_transit":true},{"i_lat":-6.14505,"i_long":106.836569,"line":11,"time":3,"transit":false,"station_id":"RJW","station_name":"Rajawali","is_transit":false,"distance":1444},{"station_id":"KMO","is_transit":false,"i_lat":-6.161728,"time":5,"station_name":"Kemayoran","transit":false,"i_long":106.839204,"distance":1901,"line":11},{"i_long":106.84368,"time":4,"transit":false,"line":11,"is_transit":false,"station_name":"Pasar Senen","station_id":"PSE","distance":1436,"i_lat":-6.174784},{"line":11,"i_long":106.850107,"transit":false,"i_lat":-6.185975,"time":8,"distance":1567,"is_transit":false,"station_name":"Gang Sentiong","station_id":"GST"},{"distance":973,"time":1,"station_id":"KMT","i_long":106.855437,"line":11,"i_lat":-6.193792,"is_transit":false,"transit":false,"station_name":"Kramat"},{"time":2,"distance":1829,"i_long":106.861737,"is_transit":false,"station_id":"POK","transit":false,"line":11,"station_name":"Pondok Jati","i_lat":-6.209188},{"time":9,"transit":true,"is_transit":true,"i_lat":-6.215091,"i_long":106.86807400000001,"station_name":"Jatinegara","line":1,"distance":1236,"station_id":"JNG"},{"station_name":"Matraman","is_transit":false,"station_id":"MTR","transit":false,"i_lat":-6.212485,"i_long":106.858896,"line":1,"distance":1377,"time":2},{"i_long":106.84912,"time":2,"distance":1275,"transit":true,"is_transit":true,"station_id":"MRI","i_lat":-6.209883,"line":2,"station_name":"Manggarai"},{"station_name":"Cikini","time":4,"station_id":"CKI","is_transit":false,"i_lat":-6.198556,"distance":1590,"transit":false,"i_long":106.840169,"line":2},{"i_long":106.832183,"is_transit":false,"time":3,"station_name":"Gondangdia","transit":false,"i_lat":-6.186295,"distance":1750,"station_id":"GDD","line":2},{"time":4,"i_long":106.828284,"is_transit":false,"transit":false,"distance":2015,"station_name":"Juanda","station_id":"JUA","i_lat":-6.166716,"line":2},{"transit":false,"i_long":106.827103,"i_lat":-6.160725,"line":2,"distance":1149,"is_transit":false,"station_name":"Sawah Besar","station_id":"SW","time":2},{"i_lat":-6.149769,"station_id":"MGB","distance":906,"line":2,"time":2,"station_name":"Manggabesar","i_long":106.82482,"transit":false,"is_transit":false},{"line":2,"transit":false,"i_lat":-6.141205,"is_transit":false,"distance":1080,"time":2,"i_long":106.820901,"station_id":"JAY","station_name":"Jayakarta"}]]}