{"data":[[{"i_lat":-6.169933,"is_transit":false,"time":0,"distance":0,"line":5,"transit":false,"station_id":"PI","i_long":106.679458,"station_name":"Poris"},{"is_transit":false,"transit":false,"station_id":"KDS","line":5,"i_long":106.701612,"station_name":"Kalideres","time":3,"i_lat":-6.166068,"distance":2548},{"i_lat":-6.162758,"i_long":106.723064,"transit":false,"station_id":"RW","line":5,"distance":2504,"is_transit":false,"time":3,"station_name":"Rawa Buaya"},{"time":4,"distance":1152,"station_id":"BOI","station_name":"Bojongindah","is_transit":false,"transit":false,"i_lat":-6.159876,"i_long":106.737035,"line":0},{"transit":false,"distance":2334,"line":5,"station_id":"TKO","is_transit":false,"i_lat":-6.1587309999999995,"station_name":"Taman Kota","time":2,"i_long":106.756522},{"station_id":"PSG","distance":1614,"line":5,"station_name":"Pesing","i_lat":-6.161433,"i_long":106.771379,"transit":false,"is_transit":false,"time":2},{"line":5,"station_id":"GGL","time":2,"distance":2036,"is_transit":false,"i_lat":-6.162021,"transit":false,"i_long":106.788277,"station_name":"Grogol"},{"i_long":106.800832,"line":1,"time":3,"station_name":"Duri","i_lat":-6.155215,"is_transit":true,"transit":true,"station_id":"DU","distance":1700},{"line":0,"time":4,"distance":1230,"transit":false,"i_lat":-6.144674,"station_name":"Angke","station_id":"AK","i_long":106.79867,"is_transit":false},{"transit":false,"is_transit":true,"distance":4102,"i_lat":-6.132549,"station_id":"KPB","i_long":106.826365,"line":0,"time":9,"station_name":"Kampung Bandan"},{"station_id":"JAKK","station_name":"Jakarta Kota","i_lat":-6.137569,"time":3,"transit":false,"distance":1364,"is_transit":true,"i_long":106.812439,"line":0}],[{"is_transit":false,"distance":0,"station_name":"Poris","i_lat":-6.169933,"transit":false,"i_long":106.679458,"time":0,"station_id":"PI","line":5},{"station_id":"KDS","distance":2548,"station_name":"Kalideres","is_transit":false,"line":5,"i_long":106.701612,"transit":false,"time":3,"i_lat":-6.166068},{"line":5,"transit":false,"i_long":106.723064,"time":3,"station_id":"RW","is_transit":false,"distance":2504,"station_name":"Rawa Buaya","i_lat":-6.162758},{"line":0,"transit":false,"station_id":"BOI","station_name":"Bojongindah","is_transit":false,"i_lat":-6.159876,"i_long":106.737035,"time":4,"distance":1152},{"distance":2334,"station_id":"TKO","line":5,"station_name":"Taman Kota","time":2,"is_transit":false,"i_lat":-6.1587309999999995,"i_long":106.756522,"transit":false},{"is_transit":false,"transit":false,"i_lat":-6.161433,"distance":1614,"line":5,"i_long":106.771379,"station_id":"PSG","time":2,"station_name":"Pesing"},{"station_id":"GGL","line":5,"i_lat":-6.162021,"time":2,"transit":false,"i_long":106.788277,"station_name":"Grogol","distance":2036,"is_transit":false},{"distance":1700,"line":1,"station_id":"DU","transit":true,"is_transit":true,"i_lat":-6.155215,"station_name":"Duri","i_long":106.800832,"time":3},{"station_name":"Tanah Abang","i_lat":-6.185545,"distance":3632,"time":8,"transit":false,"line":1,"is_transit":true,"i_long":106.811091,"station_id":"THB"},{"line":1,"distance":2029,"time":5,"i_lat":-6.20132,"i_long":106.816351,"station_id":"KAT","is_transit":false,"transit":false,"station_name":"Karet"},{"i_lat":-6.201433,"transit":false,"line":1,"time":1,"i_long":106.819881,"station_id":"SUDB","is_transit":false,"distance":471,"station_name":"Sudirman Baru"},{"station_name":"Sudirman","i_lat":-6.202263,"i_long":106.822649,"transit":false,"line":1,"distance":280,"station_id":"SUD","is_transit":false,"time":1},{"is_transit":true,"i_lat":-6.209883,"station_name":"Manggarai","line":0,"station_id":"MRI","time":4,"distance":3186,"transit":true,"i_long":106.84912},{"is_transit":false,"station_id":"CKI","distance":1590,"i_long":106.840169,"i_lat":-6.198556,"time":4,"line":0,"transit":false,"station_name":"Cikini"},{"station_name":"Gondangdia","distance":1750,"station_id":"GDD","i_lat":-6.186295,"line":2,"time":3,"transit":false,"is_transit":false,"i_long":106.832183},{"time":4,"i_lat":-6.166716,"station_name":"Juanda","i_long":106.828284,"line":2,"distance":2015,"transit":false,"station_id":"JUA","is_transit":false},{"station_id":"SW","station_name":"Sawah Besar","transit":false,"i_lat":-6.160725,"time":2,"is_transit":false,"distance":1149,"i_long":106.827103,"line":2},{"time":2,"station_name":"Manggabesar","station_id":"MGB","is_transit":false,"line":2,"transit":false,"i_lat":-6.149769,"i_long":106.82482,"distance":906},{"distance":1080,"station_name":"Jayakarta","time":2,"transit":false,"station_id":"JAY","i_lat":-6.141205,"is_transit":false,"i_long":106.820901,"line":7},{"station_name":"Jakarta Kota","transit":false,"i_long":106.812439,"time":4,"i_lat":-6.137569,"distance":1264,"is_transit":true,"station_id":"JAKK","line":0}],[{"transit":false,"time":0,"is_transit":false,"line":5,"i_lat":-6.169933,"station_id":"PI","distance":0,"i_long":106.679458,"station_name":"Poris"},{"time":3,"is_transit":false,"station_name":"Kalideres","transit":false,"line":5,"distance":2548,"station_id":"KDS","i_lat":-6.166068,"i_long":106.701612},{"line":5,"is_transit":false,"station_name":"Rawa Buaya","time":3,"distance":2504,"transit":false,"i_long":106.723064,"i_lat":-6.162758,"station_id":"RW"},{"station_id":"BOI","i_lat":-6.159876,"transit":false,"time":4,"i_long":106.737035,"station_name":"Bojongindah","is_transit":false,"distance":1152,"line":0},{"distance":2334,"i_lat":-6.1587309999999995,"station_name":"Taman Kota","time":2,"station_id":"TKO","transit":false,"is_transit":false,"line":5,"i_long":106.756522},{"station_name":"Pesing","line":5,"station_id":"PSG","time":2,"is_transit":false,"distance":1614,"transit":false,"i_lat":-6.161433,"i_long":106.771379},{"i_lat":-6.162021,"is_transit":false,"distance":2036,"station_id":"GGL","i_long":106.788277,"line":5,"transit":false,"time":2,"station_name":"Grogol"},{"i_lat":-6.155215,"distance":1700,"station_id":"DU","time":3,"transit":true,"is_transit":true,"station_name":"Duri","i_long":106.800832,"line":1},{"i_lat":-6.185545,"line":1,"i_long":106.811091,"station_name":"Tanah Abang","transit":false,"station_id":"THB","time":8,"distance":3632,"is_transit":true},{"station_id":"KAT","distance":2029,"station_name":"Karet","i_lat":-6.20132,"time":5,"i_long":106.816351,"is_transit":false,"line":1,"transit":false},{"distance":471,"transit":false,"line":1,"station_name":"Sudirman Baru","station_id":"SUDB","is_transit":false,"time":1,"i_long":106.819881,"i_lat":-6.201433},{"i_long":106.822649,"time":1,"line":1,"i_lat":-6.202263,"is_transit":false,"transit":false,"station_name":"Sudirman","distance":280,"station_id":"SUD"},{"time":4,"transit":false,"distance":3186,"i_lat":-6.209883,"station_name":"Manggarai","is_transit":true,"station_id":"MRI","i_long":106.84912,"line":0},{"i_lat":-6.212485,"station_id":"MTR","i_long":106.858896,"time":2,"is_transit":false,"station_name":"Matraman","line":1,"transit":false,"distance":1275},{"distance":1377,"time":8,"is_transit":true,"line":0,"transit":true,"i_long":106.86807400000001,"station_name":"Jatinegara","i_lat":-6.215091,"station_id":"JNG"},{"transit":false,"i_lat":-6.209188,"i_long":106.861737,"distance":1236,"station_id":"POK","line":11,"time":2,"is_transit":false,"station_name":"Pondok Jati"},{"transit":false,"station_name":"Kramat","is_transit":false,"line":11,"station_id":"KMT","distance":1829,"i_long":106.855437,"time":2,"i_lat":-6.193792},{"i_long":106.850107,"is_transit":false,"distance":973,"station_name":"Gang Sentiong","station_id":"GST","line":11,"i_lat":-6.185975,"time":1,"transit":false},{"i_lat":-6.174784,"station_name":"Pasar Senen","station_id":"PSE","line":11,"i_long":106.84368,"time":8,"transit":false,"is_transit":false,"distance":1567},{"line":11,"time":4,"i_long":106.839204,"station_name":"Kemayoran","transit":false,"distance":1436,"is_transit":false,"station_id":"KMO","i_lat":-6.161728},{"line":11,"i_long":106.836569,"station_name":"Rajawali","time":5,"is_transit":false,"station_id":"RJW","transit":false,"i_lat":-6.14505,"distance":1901},{"line":0,"i_long":106.826365,"station_id":"KPB","distance":1444,"station_name":"Kampung Bandan","time":3,"is_transit":true,"transit":true,"i_lat":-6.132549},{"time":3,"is_transit":true,"transit":false,"station_name":"Jakarta Kota","i_long":106.812439,"line":0,"i_lat":-6.137569,"station_id":"JAKK","distance":1364}],[{"distance":0,"is_transit":false,"transit":false,"i_long":106.679458,"i_lat":-6.169933,"station_id":"PI","time":0,"line":5,"station_name":"Poris"},{"i_long":106.701612,"is_transit":false,"station_id":"KDS","transit":false,"distance":2548,"line":5,"station_name":"Kalideres","time":3,"i_lat":-6.166068},{"time":3,"station_name":"Rawa Buaya","is_transit":false,"i_long":106.723064,"i_lat":-6.162758,"distance":2504,"station_id":"RW","transit":false,"line":5},{"i_long":106.737035,"line":0,"transit":false,"distance":1152,"is_transit":false,"time":4,"station_name":"Bojongindah","i_lat":-6.159876,"station_id":"BOI"},{"station_id":"TKO","i_lat":-6.1587309999999995,"station_name":"Taman Kota","distance":2334,"time":2,"line":5,"transit":false,"i_long":106.756522,"is_transit":false},{"station_name":"Pesing","station_id":"PSG","distance":1614,"transit":false,"i_lat":-6.161433,"time":2,"line":5,"i_long":106.771379,"is_transit":false},{"transit":false,"distance":2036,"i_long":106.788277,"time":2,"station_name":"Grogol","station_id":"GGL","line":5,"i_lat":-6.162021,"is_transit":false},{"distance":1700,"is_transit":true,"station_name":"Duri","time":3,"station_id":"DU","i_lat":-6.155215,"i_long":106.800832,"line":1,"transit":true},{"is_transit":false,"station_id":"AK","station_name":"Angke","transit":false,"i_lat":-6.144674,"line":0,"time":4,"distance":1230,"i_long":106.79867},{"i_lat":-6.132549,"i_long":106.826365,"station_name":"Kampung Bandan","station_id":"KPB","transit":true,"distance":4102,"is_transit":true,"line":0,"time":9},{"transit":false,"station_id":"RJW","is_transit":false,"i_lat":-6.14505,"i_long":106.836569,"line":11,"time":3,"station_name":"Rajawali","distance":1444},{"i_long":106.839204,"line":11,"time":5,"transit":false,"station_id":"KMO","i_lat":-6.161728,"is_transit":false,"station_name":"Kemayoran","distance":1901},{"is_transit":false,"distance":1436,"transit":false,"line":11,"station_id":"PSE","i_lat":-6.174784,"station_name":"Pasar Senen","i_long":106.84368,"time":4},{"distance":1567,"time":8,"is_transit":false,"i_long":106.850107,"station_name":"Gang Sentiong","i_lat":-6.185975,"transit":false,"station_id":"GST","line":11},{"i_long":106.855437,"line":11,"station_name":"Kramat","i_lat":-6.193792,"distance":973,"is_transit":false,"station_id":"KMT","transit":false,"time":1},{"transit":false,"station_id":"POK","i_lat":-6.209188,"time":2,"distance":1829,"is_transit":false,"station_name":"Pondok Jati","i_long":106.861737,"line":11},{"is_transit":true,"i_long":106.86807400000001,"line":0,"distance":1236,"station_name":"Jatinegara","i_lat":-6.215091,"transit":true,"station_id":"JNG","time":9},{"time":2,"transit":false,"is_transit":false,"station_name":"Matraman","station_id":"MTR","line":1,"i_lat":-6.212485,"distance":1377,"i_long":106.858896},{"time":2,"distance":1275,"i_lat":-6.209883,"i_long":106.84912,"is_transit":true,"line":0,"transit":true,"station_id":"MRI","station_name":"Manggarai"},{"time":4,"station_name":"Cikini","is_transit":false,"i_lat":-6.198556,"distance":1590,"i_long":106.840169,"transit":false,"line":0,"station_id":"CKI"},{"i_long":106.832183,"distance":1750,"i_lat":-6.186295,"is_transit":false,"line":2,"transit":false,"station_name":"Gondangdia","time":3,"station_id":"GDD"},{"i_lat":-6.166716,"transit":false,"i_long":106.828284,"time":4,"station_name":"Juanda","line":2,"distance":2015,"station_id":"JUA","is_transit":false},{"transit":false,"distance":1149,"station_id":"SW","is_transit":false,"time":2,"i_lat":-6.160725,"i_long":106.827103,"line":2,"station_name":"Sawah Besar"},{"distance":906,"is_transit":false,"i_long":106.82482,"line":2,"transit":false,"station_id":"MGB","i_lat":-6.149769,"time":2,"station_name":"Manggabesar"},{"distance":1080,"line":7,"station_id":"JAY","is_transit":false,"transit":false,"i_long":106.820901,"i_lat":-6.141205,"station_name":"Jayakarta","time":2},{"i_lat":-6.137569,"i_long":106.812439,"station_name":"Jakarta Kota","distance":1264,"station_id":"JAKK","line":0,"time":4,"is_transit":true,"transit":false}]]}