{"data":[[{"i_lat":-6.169933,"line":5,"time":0,"transit":false,"i_long":106.679458,"station_id":"PI","station_name":"Poris","is_transit":false,"distance":0},{"distance":2548,"line":5,"i_lat":-6.166068,"i_long":106.701612,"transit":false,"station_name":"Kalideres","is_transit":false,"station_id":"KDS","time":3},{"time":3,"i_long":106.723064,"i_lat":-6.162758,"line":5,"station_id":"RW","distance":2504,"transit":false,"is_transit":false,"station_name":"Rawa Buaya"},{"i_lat":-6.159876,"is_transit":false,"i_long":106.737035,"distance":1152,"line":5,"transit":false,"station_id":"BOI","station_name":"Bojongindah","time":4},{"i_long":106.756522,"i_lat":-6.1587309999999995,"station_id":"TKO","distance":2334,"time":2,"is_transit":false,"station_name":"Taman Kota","transit":false,"line":5},{"transit":false,"i_long":106.771379,"is_transit":false,"i_lat":-6.161433,"distance":1614,"station_name":"Pesing","line":5,"time":2,"station_id":"PSG"},{"transit":false,"is_transit":false,"time":2,"station_name":"Grogol","distance":2036,"i_lat":-6.162021,"i_long":106.788277,"station_id":"GGL","line":5},{"transit":true,"line":1,"station_id":"DU","station_name":"Duri","i_long":106.800832,"time":3,"is_transit":true,"distance":1700,"i_lat":-6.155215},{"line":1,"is_transit":false,"station_id":"AK","distance":1230,"transit":false,"i_lat":-6.144674,"i_long":106.79867,"time":4,"station_name":"Angke"},{"station_name":"Kampung Bandan","distance":4102,"i_lat":-6.132549,"time":9,"line":4,"station_id":"KPB","is_transit":true,"i_long":106.826365,"transit":true},{"is_transit":false,"i_long":106.812439,"line":2,"distance":1364,"station_id":"JAKK","transit":false,"time":3,"station_name":"Jakarta Kota","i_lat":-6.137569}],[{"station_id":"PI","line":5,"transit":false,"station_name":"Poris","i_long":106.679458,"is_transit":false,"time":0,"i_lat":-6.169933,"distance":0},{"station_id":"KDS","is_transit":false,"distance":2548,"station_name":"Kalideres","i_long":106.701612,"time":3,"line":5,"transit":false,"i_lat":-6.166068},{"station_id":"RW","distance":2504,"i_long":106.723064,"line":5,"i_lat":-6.162758,"time":3,"transit":false,"is_transit":false,"station_name":"Rawa Buaya"},{"line":5,"time":4,"station_id":"BOI","is_transit":false,"transit":false,"distance":1152,"i_lat":-6.159876,"station_name":"Bojongindah","i_long":106.737035},{"distance":2334,"station_name":"Taman Kota","station_id":"TKO","time":2,"line":5,"transit":false,"i_long":106.756522,"i_lat":-6.1587309999999995,"is_transit":false},{"is_transit":false,"i_lat":-6.161433,"i_long":106.771379,"distance":1614,"transit":false,"station_id":"PSG","line":5,"station_name":"Pesing","time":2},{"i_long":106.788277,"is_transit":false,"distance":2036,"line":5,"station_id":"GGL","transit":false,"i_lat":-6.162021,"time":2,"station_name":"Grogol"},{"transit":true,"station_id":"DU","time":3,"i_long":106.800832,"is_transit":true,"line":1,"i_lat":-6.155215,"distance":1700,"station_name":"Duri"},{"transit":false,"distance":3632,"i_long":106.811091,"i_lat":-6.185545,"station_name":"Tanah Abang","station_id":"THB","time":8,"line":1,"is_transit":false},{"transit":false,"time":5,"i_lat":-6.20132,"station_id":"KAT","is_transit":false,"distance":2029,"line":1,"station_name":"Karet","i_long":106.816351},{"station_id":"SUDB","is_transit":false,"i_lat":-6.201433,"time":1,"distance":471,"i_long":106.819881,"station_name":"Sudirman Baru","transit":false,"line":1},{"transit":false,"distance":280,"time":1,"station_id":"SUD","line":1,"station_name":"Sudirman","i_lat":-6.202263,"is_transit":false,"i_long":106.822649},{"i_lat":-6.209883,"line":2,"is_transit":true,"station_id":"MRI","i_long":106.84912,"station_name":"Manggarai","time":4,"transit":true,"distance":3186},{"i_long":106.840169,"time":4,"station_name":"Cikini","i_lat":-6.198556,"transit":false,"is_transit":false,"station_id":"CKI","distance":1590,"line":2},{"i_lat":-6.186295,"station_id":"GDD","time":3,"line":2,"is_transit":false,"station_name":"Gondangdia","transit":false,"i_long":106.832183,"distance":1750},{"transit":false,"station_name":"Juanda","i_long":106.828284,"distance":2015,"is_transit":false,"time":4,"line":2,"i_lat":-6.166716,"station_id":"JUA"},{"station_id":"SW","transit":false,"station_name":"Sawah Besar","time":2,"is_transit":false,"distance":1149,"line":2,"i_lat":-6.160725,"i_long":106.827103},{"time":2,"i_lat":-6.149769,"i_long":106.82482,"station_name":"Manggabesar","distance":906,"station_id":"MGB","is_transit":false,"line":2,"transit":false},{"distance":1080,"station_name":"Jayakarta","line":2,"time":2,"i_lat":-6.141205,"i_long":106.820901,"station_id":"JAY","transit":false,"is_transit":false},{"distance":1264,"i_lat":-6.137569,"is_transit":false,"line":2,"station_id":"JAKK","station_name":"Jakarta Kota","time":4,"i_long":106.812439,"transit":false}],[{"is_transit":false,"time":0,"i_lat":-6.169933,"distance":0,"line":5,"transit":false,"station_name":"Poris","i_long":106.679458,"station_id":"PI"},{"line":5,"station_id":"KDS","distance":2548,"is_transit":false,"i_long":106.701612,"transit":false,"time":3,"station_name":"Kalideres","i_lat":-6.166068},{"i_long":106.723064,"line":5,"time":3,"station_id":"RW","station_name":"Rawa Buaya","is_transit":false,"transit":false,"i_lat":-6.162758,"distance":2504},{"distance":1152,"i_long":106.737035,"is_transit":false,"station_name":"Bojongindah","line":5,"time":4,"i_lat":-6.159876,"station_id":"BOI","transit":false},{"distance":2334,"station_id":"TKO","line":5,"transit":false,"time":2,"is_transit":false,"station_name":"Taman Kota","i_long":106.756522,"i_lat":-6.1587309999999995},{"is_transit":false,"station_id":"PSG","time":2,"distance":1614,"station_name":"Pesing","i_lat":-6.161433,"transit":false,"i_long":106.771379,"line":5},{"time":2,"i_lat":-6.162021,"distance":2036,"i_long":106.788277,"line":5,"transit":false,"station_id":"GGL","station_name":"Grogol","is_transit":false},{"station_name":"Duri","station_id":"DU","i_lat":-6.155215,"transit":true,"time":3,"i_long":106.800832,"is_transit":true,"line":1,"distance":1700},{"i_lat":-6.185545,"line":1,"i_long":106.811091,"is_transit":false,"station_id":"THB","time":8,"transit":false,"distance":3632,"station_name":"Tanah Abang"},{"i_long":106.816351,"distance":2029,"line":1,"station_id":"KAT","time":5,"station_name":"Karet","i_lat":-6.20132,"transit":false,"is_transit":false},{"i_lat":-6.201433,"transit":false,"distance":471,"station_name":"Sudirman Baru","i_long":106.819881,"time":1,"is_transit":false,"line":1,"station_id":"SUDB"},{"station_id":"SUD","i_lat":-6.202263,"station_name":"Sudirman","distance":280,"line":1,"time":1,"transit":false,"i_long":106.822649,"is_transit":false},{"is_transit":false,"time":4,"station_id":"MRI","distance":3186,"i_long":106.84912,"line":2,"transit":false,"i_lat":-6.209883,"station_name":"Manggarai"},{"time":2,"transit":false,"is_transit":false,"i_long":106.858896,"i_lat":-6.212485,"station_id":"MTR","distance":1275,"station_name":"Matraman","line":1},{"station_id":"JNG","time":8,"i_long":106.86807400000001,"distance":1377,"i_lat":-6.215091,"is_transit":true,"station_name":"Jatinegara","line":1,"transit":true},{"transit":false,"line":11,"i_long":106.861737,"station_id":"POK","station_name":"Pondok Jati","distance":1236,"is_transit":false,"time":2,"i_lat":-6.209188},{"station_id":"KMT","i_lat":-6.193792,"time":2,"transit":false,"is_transit":false,"station_name":"Kramat","i_long":106.855437,"line":11,"distance":1829},{"time":1,"station_id":"GST","i_long":106.850107,"distance":973,"is_transit":false,"line":11,"station_name":"Gang Sentiong","i_lat":-6.185975,"transit":false},{"station_name":"Pasar Senen","line":11,"i_lat":-6.174784,"transit":false,"is_transit":false,"i_long":106.84368,"station_id":"PSE","time":8,"distance":1567},{"transit":false,"time":4,"distance":1436,"is_transit":false,"line":11,"station_id":"KMO","i_lat":-6.161728,"station_name":"Kemayoran","i_long":106.839204},{"is_transit":false,"transit":false,"line":11,"time":5,"distance":1901,"i_long":106.836569,"station_id":"RJW","station_name":"Rajawali","i_lat":-6.14505},{"is_transit":true,"transit":true,"station_id":"KPB","station_name":"Kampung Bandan","i_lat":-6.132549,"i_long":106.826365,"line":4,"time":3,"distance":1444},{"station_id":"JAKK","time":3,"i_lat":-6.137569,"transit":false,"distance":1364,"is_transit":false,"line":2,"station_name":"Jakarta Kota","i_long":106.812439}],[{"i_lat":-6.169933,"distance":0,"i_long":106.679458,"line":5,"time":0,"transit":false,"station_name":"Poris","station_id":"PI","is_transit":false},{"line":5,"is_transit":false,"station_name":"Kalideres","i_lat":-6.166068,"transit":false,"station_id":"KDS","i_long":106.701612,"distance":2548,"time":3},{"i_lat":-6.162758,"time":3,"i_long":106.723064,"line":5,"is_transit":false,"station_id":"RW","distance":2504,"transit":false,"station_name":"Rawa Buaya"},{"i_lat":-6.159876,"transit":false,"line":5,"station_id":"BOI","time":4,"station_name":"Bojongindah","distance":1152,"is_transit":false,"i_long":106.737035},{"station_name":"Taman Kota","is_transit":false,"i_long":106.756522,"station_id":"TKO","i_lat":-6.1587309999999995,"time":2,"transit":false,"distance":2334,"line":5},{"i_long":106.771379,"time":2,"transit":false,"station_name":"Pesing","is_transit":false,"station_id":"PSG","i_lat":-6.161433,"distance":1614,"line":5},{"station_name":"Grogol","i_lat":-6.162021,"is_transit":false,"i_long":106.788277,"time":2,"distance":2036,"transit":false,"station_id":"GGL","line":5},{"time":3,"station_id":"DU","transit":true,"distance":1700,"i_lat":-6.155215,"is_transit":true,"i_long":106.800832,"line":1,"station_name":"Duri"},{"i_long":106.79867,"transit":false,"time":4,"station_name":"Angke","line":1,"is_transit":false,"distance":1230,"i_lat":-6.144674,"station_id":"AK"},{"is_transit":true,"time":9,"i_long":106.826365,"station_id":"KPB","line":4,"transit":true,"i_lat":-6.132549,"station_name":"Kampung Bandan","distance":4102},{"i_long":106.836569,"is_transit":false,"time":3,"line":11,"transit":false,"station_id":"RJW","station_name":"Rajawali","distance":1444,"i_lat":-6.14505},{"time":5,"is_transit":false,"i_lat":-6.161728,"station_name":"Kemayoran","station_id":"KMO","distance":1901,"i_long":106.839204,"line":11,"transit":false},{"i_lat":-6.174784,"distance":1436,"transit":false,"station_id":"PSE","is_transit":false,"i_long":106.84368,"line":11,"time":4,"station_name":"Pasar Senen"},{"is_transit":false,"time":8,"distance":1567,"i_long":106.850107,"station_name":"Gang Sentiong","line":11,"transit":false,"station_id":"GST","i_lat":-6.185975},{"station_name":"Kramat","i_lat":-6.193792,"i_long":106.855437,"line":11,"is_transit":false,"distance":973,"transit":false,"station_id":"KMT","time":1},{"station_name":"Pondok Jati","transit":false,"station_id":"POK","time":2,"i_lat":-6.209188,"is_transit":false,"line":11,"i_long":106.861737,"distance":1829},{"is_transit":true,"time":9,"station_name":"Jatinegara","line":1,"station_id":"JNG","transit":true,"i_lat":-6.215091,"distance":1236,"i_long":106.86807400000001},{"time":2,"station_name":"Matraman","i_lat":-6.212485,"i_long":106.858896,"line":1,"station_id":"MTR","is_transit":false,"transit":false,"distance":1377},{"transit":true,"i_lat":-6.209883,"station_id":"MRI","distance":1275,"time":2,"line":2,"is_transit":true,"i_long":106.84912,"station_name":"Manggarai"},{"time":4,"station_id":"CKI","transit":false,"is_transit":false,"distance":1590,"i_lat":-6.198556,"station_name":"Cikini","i_long":106.840169,"line":2},{"station_name":"Gondangdia","i_lat":-6.186295,"station_id":"GDD","line":2,"is_transit":false,"i_long":106.832183,"transit":false,"distance":1750,"time":3},{"station_name":"Juanda","is_transit":false,"distance":2015,"i_lat":-6.166716,"i_long":106.828284,"transit":false,"time":4,"line":2,"station_id":"JUA"},{"transit":false,"line":2,"i_lat":-6.160725,"i_long":106.827103,"distance":1149,"station_name":"Sawah Besar","station_id":"SW","time":2,"is_transit":false},{"transit":false,"station_id":"MGB","station_name":"Manggabesar","distance":906,"i_long":106.82482,"line":2,"is_transit":false,"time":2,"i_lat":-6.149769},{"line":2,"station_id":"JAY","time":2,"is_transit":false,"i_lat":-6.141205,"distance":1080,"i_long":106.820901,"transit":false,"station_name":"Jayakarta"},{"transit":false,"i_long":106.812439,"station_name":"Jakarta Kota","station_id":"JAKK","distance":1264,"time":4,"line":2,"is_transit":false,"i_lat":-6.137569}]]}