{"data":[[{"line":5,"i_lat":-6.169933,"transit":false,"time":0,"station_id":"PI","station_name":"Poris","is_transit":false,"i_long":106.679458,"distance":0},{"station_name":"Kalideres","is_transit":false,"transit":false,"time":3,"line":5,"distance":2548,"i_long":106.701612,"station_id":"KDS","i_lat":-6.166068},{"is_transit":false,"station_name":"Rawa Buaya","distance":2504,"i_long":106.723064,"station_id":"RW","time":3,"line":5,"transit":false,"i_lat":-6.162758},{"time":4,"transit":false,"line":5,"station_name":"Bojongindah","is_transit":false,"distance":1152,"i_lat":-6.159876,"station_id":"BOI","i_long":106.737035},{"i_lat":-6.1587309999999995,"i_long":106.756522,"line":5,"is_transit":false,"station_id":"TKO","distance":2334,"station_name":"Taman Kota","time":2,"transit":false},{"station_name":"Pesing","time":2,"transit":false,"line":5,"i_long":106.771379,"station_id":"PSG","is_transit":false,"distance":1614,"i_lat":-6.161433},{"distance":2036,"transit":false,"line":5,"station_name":"Grogol","time":2,"i_long":106.788277,"station_id":"GGL","is_transit":false,"i_lat":-6.162021},{"distance":1700,"i_long":106.800832,"i_lat":-6.155215,"time":3,"station_id":"DU","transit":true,"station_name":"Duri","line":1,"is_transit":true},{"station_id":"AK","transit":false,"line":1,"time":4,"is_transit":false,"station_name":"Angke","distance":1230,"i_lat":-6.144674,"i_long":106.79867},{"station_name":"Kampung Bandan","time":9,"distance":4102,"station_id":"KPB","i_lat":-6.132549,"is_transit":true,"i_long":106.826365,"line":4,"transit":true},{"distance":1364,"transit":false,"i_lat":-6.137569,"i_long":106.812439,"is_transit":false,"line":2,"station_name":"Jakarta Kota","time":3,"station_id":"JAKK"}],[{"i_lat":-6.169933,"i_long":106.679458,"station_name":"Poris","time":0,"line":5,"distance":0,"is_transit":false,"transit":false,"station_id":"PI"},{"station_id":"KDS","is_transit":false,"time":3,"distance":2548,"line":5,"i_lat":-6.166068,"transit":false,"station_name":"Kalideres","i_long":106.701612},{"transit":false,"is_transit":false,"distance":2504,"i_long":106.723064,"station_name":"Rawa Buaya","i_lat":-6.162758,"time":3,"line":5,"station_id":"RW"},{"station_id":"BOI","transit":false,"distance":1152,"i_long":106.737035,"is_transit":false,"station_name":"Bojongindah","time":4,"i_lat":-6.159876,"line":5},{"transit":false,"station_name":"Taman Kota","station_id":"TKO","i_lat":-6.1587309999999995,"i_long":106.756522,"time":2,"line":5,"distance":2334,"is_transit":false},{"is_transit":false,"time":2,"station_name":"Pesing","i_lat":-6.161433,"i_long":106.771379,"station_id":"PSG","line":5,"distance":1614,"transit":false},{"distance":2036,"i_long":106.788277,"station_name":"Grogol","i_lat":-6.162021,"station_id":"GGL","is_transit":false,"time":2,"transit":false,"line":5},{"station_id":"DU","is_transit":true,"time":3,"distance":1700,"i_long":106.800832,"i_lat":-6.155215,"line":1,"transit":true,"station_name":"Duri"},{"line":1,"is_transit":false,"distance":3632,"i_lat":-6.185545,"transit":false,"station_id":"THB","time":8,"i_long":106.811091,"station_name":"Tanah Abang"},{"station_id":"KAT","time":5,"station_name":"Karet","i_long":106.816351,"i_lat":-6.20132,"line":1,"is_transit":false,"transit":false,"distance":2029},{"transit":false,"station_id":"SUDB","station_name":"Sudirman Baru","is_transit":false,"distance":471,"i_lat":-6.201433,"i_long":106.819881,"time":1,"line":1},{"station_name":"Sudirman","time":1,"distance":280,"station_id":"SUD","is_transit":false,"i_long":106.822649,"transit":false,"line":1,"i_lat":-6.202263},{"station_id":"MRI","line":2,"transit":true,"distance":3186,"i_lat":-6.209883,"is_transit":true,"time":4,"i_long":106.84912,"station_name":"Manggarai"},{"station_name":"Cikini","distance":1590,"i_lat":-6.198556,"line":2,"transit":false,"station_id":"CKI","is_transit":false,"time":4,"i_long":106.840169},{"i_long":106.832183,"station_name":"Gondangdia","is_transit":false,"time":3,"distance":1750,"station_id":"GDD","line":2,"transit":false,"i_lat":-6.186295},{"transit":false,"i_lat":-6.166716,"i_long":106.828284,"line":2,"station_name":"Juanda","station_id":"JUA","is_transit":false,"time":4,"distance":2015},{"station_name":"Sawah Besar","distance":1149,"is_transit":false,"i_long":106.827103,"transit":false,"station_id":"SW","i_lat":-6.160725,"line":2,"time":2},{"time":2,"i_lat":-6.149769,"line":2,"station_name":"Manggabesar","distance":906,"transit":false,"station_id":"MGB","is_transit":false,"i_long":106.82482},{"time":2,"i_long":106.820901,"transit":false,"station_name":"Jayakarta","i_lat":-6.141205,"station_id":"JAY","line":2,"distance":1080,"is_transit":false},{"is_transit":false,"line":2,"time":4,"distance":1264,"station_name":"Jakarta Kota","i_long":106.812439,"transit":false,"station_id":"JAKK","i_lat":-6.137569}],[{"transit":false,"station_id":"PI","station_name":"Poris","is_transit":false,"i_lat":-6.169933,"i_long":106.679458,"line":5,"time":0,"distance":0},{"station_name":"Kalideres","i_lat":-6.166068,"distance":2548,"transit":false,"i_long":106.701612,"is_transit":false,"time":3,"line":5,"station_id":"KDS"},{"line":5,"i_lat":-6.162758,"transit":false,"is_transit":false,"i_long":106.723064,"station_id":"RW","time":3,"station_name":"Rawa Buaya","distance":2504},{"i_lat":-6.159876,"i_long":106.737035,"is_transit":false,"station_id":"BOI","time":4,"transit":false,"station_name":"Bojongindah","line":5,"distance":1152},{"is_transit":false,"line":5,"i_long":106.756522,"time":2,"distance":2334,"station_id":"TKO","station_name":"Taman Kota","i_lat":-6.1587309999999995,"transit":false},{"station_name":"Pesing","time":2,"i_long":106.771379,"line":5,"i_lat":-6.161433,"transit":false,"station_id":"PSG","is_transit":false,"distance":1614},{"transit":false,"i_long":106.788277,"time":2,"station_id":"GGL","i_lat":-6.162021,"is_transit":false,"station_name":"Grogol","distance":2036,"line":5},{"distance":1700,"is_transit":true,"transit":true,"i_long":106.800832,"i_lat":-6.155215,"line":1,"station_name":"Duri","time":3,"station_id":"DU"},{"transit":false,"is_transit":false,"time":8,"distance":3632,"line":1,"station_id":"THB","i_long":106.811091,"i_lat":-6.185545,"station_name":"Tanah Abang"},{"distance":2029,"transit":false,"station_id":"KAT","time":5,"i_long":106.816351,"station_name":"Karet","line":1,"is_transit":false,"i_lat":-6.20132},{"time":1,"line":1,"station_name":"Sudirman Baru","station_id":"SUDB","transit":false,"distance":471,"i_long":106.819881,"i_lat":-6.201433,"is_transit":false},{"i_long":106.822649,"transit":false,"i_lat":-6.202263,"station_id":"SUD","distance":280,"station_name":"Sudirman","line":1,"time":1,"is_transit":false},{"station_id":"MRI","i_lat":-6.209883,"time":4,"transit":false,"is_transit":false,"distance":3186,"i_long":106.84912,"station_name":"Manggarai","line":2},{"transit":false,"distance":1275,"i_lat":-6.212485,"station_id":"MTR","is_transit":false,"time":2,"i_long":106.858896,"line":1,"station_name":"Matraman"},{"line":1,"station_name":"Jatinegara","i_lat":-6.215091,"i_long":106.86807400000001,"distance":1377,"station_id":"JNG","transit":true,"is_transit":true,"time":8},{"is_transit":false,"i_lat":-6.209188,"time":2,"transit":false,"line":11,"distance":1236,"station_id":"POK","station_name":"Pondok Jati","i_long":106.861737},{"station_name":"Kramat","i_lat":-6.193792,"transit":false,"is_transit":false,"line":11,"distance":1829,"time":2,"i_long":106.855437,"station_id":"KMT"},{"distance":973,"transit":false,"i_long":106.850107,"station_id":"GST","line":11,"station_name":"Gang Sentiong","time":1,"is_transit":false,"i_lat":-6.185975},{"i_lat":-6.174784,"distance":1567,"transit":false,"is_transit":false,"station_name":"Pasar Senen","i_long":106.84368,"time":8,"station_id":"PSE","line":11},{"station_name":"Kemayoran","distance":1436,"i_long":106.839204,"transit":false,"time":4,"i_lat":-6.161728,"is_transit":false,"station_id":"KMO","line":11},{"i_lat":-6.14505,"i_long":106.836569,"time":5,"is_transit":false,"line":11,"distance":1901,"station_name":"Rajawali","transit":false,"station_id":"RJW"},{"transit":true,"i_lat":-6.132549,"i_long":106.826365,"distance":1444,"station_id":"KPB","is_transit":true,"station_name":"Kampung Bandan","time":3,"line":4},{"is_transit":false,"transit":false,"distance":1364,"i_long":106.812439,"line":2,"station_name":"Jakarta Kota","station_id":"JAKK","time":3,"i_lat":-6.137569}],[{"transit":false,"time":0,"i_long":106.679458,"line":5,"i_lat":-6.169933,"distance":0,"station_name":"Poris","station_id":"PI","is_transit":false},{"station_name":"Kalideres","i_lat":-6.166068,"station_id":"KDS","i_long":106.701612,"time":3,"is_transit":false,"distance":2548,"transit":false,"line":5},{"i_lat":-6.162758,"distance":2504,"i_long":106.723064,"time":3,"is_transit":false,"station_name":"Rawa Buaya","line":5,"transit":false,"station_id":"RW"},{"transit":false,"time":4,"is_transit":false,"i_lat":-6.159876,"i_long":106.737035,"station_id":"BOI","distance":1152,"line":5,"station_name":"Bojongindah"},{"time":2,"station_id":"TKO","distance":2334,"is_transit":false,"line":5,"station_name":"Taman Kota","transit":false,"i_lat":-6.1587309999999995,"i_long":106.756522},{"station_name":"Pesing","station_id":"PSG","i_lat":-6.161433,"time":2,"line":5,"distance":1614,"i_long":106.771379,"transit":false,"is_transit":false},{"transit":false,"i_lat":-6.162021,"station_id":"GGL","station_name":"Grogol","is_transit":false,"i_long":106.788277,"line":5,"distance":2036,"time":2},{"station_name":"Duri","i_long":106.800832,"distance":1700,"transit":true,"time":3,"station_id":"DU","line":1,"is_transit":true,"i_lat":-6.155215},{"time":4,"distance":1230,"is_transit":false,"station_id":"AK","i_long":106.79867,"transit":false,"station_name":"Angke","i_lat":-6.144674,"line":1},{"time":9,"line":4,"distance":4102,"i_long":106.826365,"transit":true,"station_name":"Kampung Bandan","station_id":"KPB","is_transit":true,"i_lat":-6.132549},{"station_id":"RJW","distance":1444,"is_transit":false,"time":3,"transit":false,"line":11,"station_name":"Rajawali","i_lat":-6.14505,"i_long":106.836569},{"station_name":"Kemayoran","time":5,"i_lat":-6.161728,"transit":false,"is_transit":false,"station_id":"KMO","distance":1901,"line":11,"i_long":106.839204},{"transit":false,"station_name":"Pasar Senen","station_id":"PSE","time":4,"i_lat":-6.174784,"is_transit":false,"distance":1436,"i_long":106.84368,"line":11},{"is_transit":false,"station_name":"Gang Sentiong","station_id":"GST","time":8,"distance":1567,"i_lat":-6.185975,"i_long":106.850107,"transit":false,"line":11},{"distance":973,"station_name":"Kramat","transit":false,"time":1,"i_long":106.855437,"line":11,"i_lat":-6.193792,"station_id":"KMT","is_transit":false},{"transit":false,"i_lat":-6.209188,"i_long":106.861737,"line":11,"distance":1829,"station_id":"POK","station_name":"Pondok Jati","is_transit":false,"time":2},{"distance":1236,"station_id":"JNG","is_transit":true,"time":9,"line":1,"transit":true,"station_name":"Jatinegara","i_lat":-6.215091,"i_long":106.86807400000001},{"time":2,"station_id":"MTR","station_name":"Matraman","line":1,"i_lat":-6.212485,"transit":false,"is_transit":false,"distance":1377,"i_long":106.858896},{"i_long":106.84912,"line":2,"is_transit":true,"i_lat":-6.209883,"transit":true,"station_name":"Manggarai","station_id":"MRI","distance":1275,"time":2},{"station_name":"Cikini","distance":1590,"transit":false,"is_transit":false,"i_lat":-6.198556,"i_long":106.840169,"line":2,"station_id":"CKI","time":4},{"station_id":"GDD","line":2,"time":3,"i_long":106.832183,"i_lat":-6.186295,"is_transit":false,"distance":1750,"station_name":"Gondangdia","transit":false},{"line":2,"i_lat":-6.166716,"transit":false,"station_name":"Juanda","i_long":106.828284,"time":4,"station_id":"JUA","distance":2015,"is_transit":false},{"station_id":"SW","is_transit":false,"i_long":106.827103,"transit":false,"time":2,"station_name":"Sawah Besar","i_lat":-6.160725,"distance":1149,"line":2},{"station_id":"MGB","line":2,"is_transit":false,"station_name":"Manggabesar","distance":906,"transit":false,"time":2,"i_lat":-6.149769,"i_long":106.82482},{"line":2,"i_long":106.820901,"is_transit":false,"station_name":"Jayakarta","transit":false,"station_id":"JAY","distance":1080,"time":2,"i_lat":-6.141205},{"station_id":"JAKK","i_lat":-6.137569,"time":4,"station_name":"Jakarta Kota","distance":1264,"transit":false,"is_transit":false,"i_long":106.812439,"line":2}]]}