{"data":[[{"transit":false,"station_name":"Poris","is_transit":false,"i_long":106.679458,"distance":0,"line":5,"time":0,"station_id":"PI","i_lat":-6.169933},{"i_long":106.701612,"station_name":"Kalideres","line":5,"i_lat":-6.166068,"is_transit":false,"transit":false,"station_id":"KDS","time":3,"distance":2548},{"transit":false,"station_name":"Rawa Buaya","i_long":106.723064,"distance":2504,"i_lat":-6.162758,"station_id":"RW","time":3,"line":5,"is_transit":false},{"time":4,"station_id":"BOI","transit":false,"distance":1152,"line":5,"i_lat":-6.159876,"i_long":106.737035,"station_name":"Bojongindah","is_transit":false},{"transit":false,"station_id":"TKO","is_transit":false,"time":2,"i_lat":-6.1587309999999995,"distance":2334,"line":5,"station_name":"Taman Kota","i_long":106.756522},{"station_name":"Pesing","i_lat":-6.161433,"transit":false,"station_id":"PSG","time":2,"line":5,"distance":1614,"i_long":106.771379,"is_transit":false},{"i_lat":-6.162021,"line":5,"time":2,"distance":2036,"is_transit":false,"transit":false,"station_name":"Grogol","station_id":"GGL","i_long":106.788277},{"transit":true,"station_name":"Duri","is_transit":true,"time":3,"distance":1700,"i_lat":-6.155215,"i_long":106.800832,"station_id":"DU","line":1},{"i_long":106.79867,"i_lat":-6.144674,"line":1,"transit":false,"station_name":"Angke","distance":1230,"station_id":"AK","is_transit":false,"time":4},{"transit":true,"station_name":"Kampung Bandan","i_lat":-6.132549,"distance":4102,"i_long":106.826365,"station_id":"KPB","line":4,"time":9,"is_transit":true},{"time":3,"is_transit":true,"i_long":106.812439,"distance":1364,"i_lat":-6.137569,"transit":true,"station_id":"JAKK","line":2,"station_name":"Jakarta Kota"},{"i_long":106.820901,"i_lat":-6.141205,"is_transit":false,"line":2,"station_id":"JAY","time":4,"transit":false,"distance":1264,"station_name":"Jayakarta"}],[{"is_transit":false,"station_id":"PI","transit":false,"station_name":"Poris","time":0,"distance":0,"i_lat":-6.169933,"i_long":106.679458,"line":5},{"is_transit":false,"station_id":"KDS","time":3,"distance":2548,"transit":false,"line":5,"i_long":106.701612,"station_name":"Kalideres","i_lat":-6.166068},{"is_transit":false,"station_id":"RW","time":3,"distance":2504,"i_long":106.723064,"line":5,"transit":false,"i_lat":-6.162758,"station_name":"Rawa Buaya"},{"transit":false,"i_long":106.737035,"station_id":"BOI","distance":1152,"station_name":"Bojongindah","i_lat":-6.159876,"line":5,"is_transit":false,"time":4},{"i_long":106.756522,"is_transit":false,"time":2,"transit":false,"distance":2334,"line":5,"i_lat":-6.1587309999999995,"station_id":"TKO","station_name":"Taman Kota"},{"i_long":106.771379,"transit":false,"i_lat":-6.161433,"station_name":"Pesing","is_transit":false,"distance":1614,"time":2,"line":5,"station_id":"PSG"},{"is_transit":false,"distance":2036,"station_name":"Grogol","line":5,"station_id":"GGL","transit":false,"i_lat":-6.162021,"i_long":106.788277,"time":2},{"i_long":106.800832,"line":1,"is_transit":true,"time":3,"station_id":"DU","station_name":"Duri","distance":1700,"i_lat":-6.155215,"transit":true},{"line":1,"time":8,"i_long":106.811091,"station_name":"Tanah Abang","is_transit":false,"distance":3632,"i_lat":-6.185545,"station_id":"THB","transit":false},{"transit":false,"i_lat":-6.20132,"line":1,"is_transit":false,"i_long":106.816351,"distance":2029,"station_name":"Karet","station_id":"KAT","time":5},{"station_id":"SUDB","line":1,"time":1,"i_long":106.819881,"transit":false,"station_name":"Sudirman Baru","distance":471,"is_transit":false,"i_lat":-6.201433},{"is_transit":false,"distance":280,"i_lat":-6.202263,"time":1,"line":1,"i_long":106.822649,"transit":false,"station_id":"SUD","station_name":"Sudirman"},{"transit":true,"distance":3186,"time":4,"i_lat":-6.209883,"is_transit":true,"station_name":"Manggarai","i_long":106.84912,"line":2,"station_id":"MRI"},{"is_transit":false,"station_id":"CKI","i_long":106.840169,"i_lat":-6.198556,"distance":1590,"line":2,"time":4,"station_name":"Cikini","transit":false},{"line":2,"station_id":"GDD","i_lat":-6.186295,"is_transit":false,"time":3,"distance":1750,"station_name":"Gondangdia","transit":false,"i_long":106.832183},{"station_name":"Juanda","station_id":"JUA","line":2,"i_long":106.828284,"transit":false,"distance":2015,"time":4,"i_lat":-6.166716,"is_transit":false},{"transit":false,"station_id":"SW","is_transit":false,"i_lat":-6.160725,"time":2,"i_long":106.827103,"station_name":"Sawah Besar","line":2,"distance":1149},{"station_name":"Manggabesar","is_transit":false,"i_lat":-6.149769,"distance":906,"line":2,"i_long":106.82482,"transit":false,"time":2,"station_id":"MGB"},{"transit":false,"i_long":106.820901,"is_transit":false,"time":2,"station_id":"JAY","station_name":"Jayakarta","line":2,"distance":1080,"i_lat":-6.141205}],[{"time":0,"line":5,"station_id":"PI","distance":0,"i_lat":-6.169933,"transit":false,"is_transit":false,"station_name":"Poris","i_long":106.679458},{"station_name":"Kalideres","is_transit":false,"i_lat":-6.166068,"line":5,"transit":false,"time":3,"i_long":106.701612,"distance":2548,"station_id":"KDS"},{"is_transit":false,"distance":2504,"station_id":"RW","i_long":106.723064,"i_lat":-6.162758,"station_name":"Rawa Buaya","time":3,"line":5,"transit":false},{"i_lat":-6.159876,"transit":false,"is_transit":false,"i_long":106.737035,"line":5,"station_id":"BOI","time":4,"distance":1152,"station_name":"Bojongindah"},{"station_name":"Taman Kota","time":2,"is_transit":false,"distance":2334,"i_lat":-6.1587309999999995,"station_id":"TKO","i_long":106.756522,"line":5,"transit":false},{"is_transit":false,"line":5,"i_long":106.771379,"time":2,"distance":1614,"i_lat":-6.161433,"station_id":"PSG","station_name":"Pesing","transit":false},{"distance":2036,"i_lat":-6.162021,"is_transit":false,"time":2,"transit":false,"station_id":"GGL","line":5,"i_long":106.788277,"station_name":"Grogol"},{"line":1,"distance":1700,"station_name":"Duri","station_id":"DU","is_transit":true,"i_lat":-6.155215,"i_long":106.800832,"transit":true,"time":3},{"station_name":"Tanah Abang","station_id":"THB","time":8,"transit":false,"i_lat":-6.185545,"distance":3632,"i_long":106.811091,"line":1,"is_transit":false},{"distance":2029,"line":1,"i_long":106.816351,"station_id":"KAT","station_name":"Karet","is_transit":false,"i_lat":-6.20132,"transit":false,"time":5},{"line":1,"distance":471,"i_lat":-6.201433,"transit":false,"i_long":106.819881,"is_transit":false,"station_name":"Sudirman Baru","station_id":"SUDB","time":1},{"i_long":106.822649,"distance":280,"line":1,"i_lat":-6.202263,"is_transit":false,"station_name":"Sudirman","transit":false,"time":1,"station_id":"SUD"},{"i_lat":-6.209883,"transit":false,"distance":3186,"station_name":"Manggarai","time":4,"is_transit":false,"station_id":"MRI","i_long":106.84912,"line":2},{"is_transit":false,"time":2,"station_id":"MTR","line":1,"station_name":"Matraman","i_lat":-6.212485,"transit":false,"distance":1275,"i_long":106.858896},{"distance":1377,"station_id":"JNG","line":1,"i_lat":-6.215091,"station_name":"Jatinegara","transit":true,"is_transit":true,"i_long":106.86807400000001,"time":8},{"distance":1236,"station_id":"POK","station_name":"Pondok Jati","is_transit":false,"i_long":106.861737,"line":11,"i_lat":-6.209188,"time":2,"transit":false},{"transit":false,"distance":1829,"i_lat":-6.193792,"station_id":"KMT","line":11,"is_transit":false,"time":2,"i_long":106.855437,"station_name":"Kramat"},{"line":11,"is_transit":false,"transit":false,"time":1,"i_long":106.850107,"distance":973,"i_lat":-6.185975,"station_name":"Gang Sentiong","station_id":"GST"},{"transit":false,"line":11,"i_lat":-6.174784,"distance":1567,"i_long":106.84368,"is_transit":false,"time":8,"station_id":"PSE","station_name":"Pasar Senen"},{"time":4,"distance":1436,"i_lat":-6.161728,"station_id":"KMO","station_name":"Kemayoran","transit":false,"i_long":106.839204,"is_transit":false,"line":11},{"station_name":"Rajawali","distance":1901,"station_id":"RJW","i_long":106.836569,"transit":false,"line":11,"is_transit":false,"time":5,"i_lat":-6.14505},{"distance":1444,"station_name":"Kampung Bandan","i_long":106.826365,"line":4,"is_transit":true,"transit":true,"station_id":"KPB","i_lat":-6.132549,"time":3},{"is_transit":true,"station_id":"JAKK","transit":true,"i_lat":-6.137569,"line":2,"distance":1364,"time":3,"i_long":106.812439,"station_name":"Jakarta Kota"},{"station_id":"JAY","line":2,"is_transit":false,"distance":1264,"transit":false,"i_lat":-6.141205,"i_long":106.820901,"time":4,"station_name":"Jayakarta"}],[{"station_name":"Poris","transit":false,"distance":0,"is_transit":false,"i_lat":-6.169933,"station_id":"PI","i_long":106.679458,"line":5,"time":0},{"line":5,"is_transit":false,"station_name":"Kalideres","transit":false,"time":3,"distance":2548,"station_id":"KDS","i_lat":-6.166068,"i_long":106.701612},{"transit":false,"is_transit":false,"station_id":"RW","i_lat":-6.162758,"station_name":"Rawa Buaya","time":3,"i_long":106.723064,"distance":2504,"line":5},{"is_transit":false,"i_lat":-6.159876,"distance":1152,"transit":false,"station_id":"BOI","station_name":"Bojongindah","i_long":106.737035,"line":5,"time":4},{"i_long":106.756522,"line":5,"station_id":"TKO","distance":2334,"transit":false,"is_transit":false,"time":2,"i_lat":-6.1587309999999995,"station_name":"Taman Kota"},{"distance":1614,"station_name":"Pesing","is_transit":false,"time":2,"i_lat":-6.161433,"line":5,"station_id":"PSG","i_long":106.771379,"transit":false},{"station_id":"GGL","time":2,"is_transit":false,"i_long":106.788277,"line":5,"station_name":"Grogol","i_lat":-6.162021,"transit":false,"distance":2036},{"is_transit":true,"time":3,"station_name":"Duri","i_lat":-6.155215,"station_id":"DU","i_long":106.800832,"line":1,"transit":true,"distance":1700},{"i_long":106.79867,"line":1,"is_transit":false,"distance":1230,"station_id":"AK","i_lat":-6.144674,"transit":false,"time":4,"station_name":"Angke"},{"station_name":"Kampung Bandan","transit":true,"time":9,"distance":4102,"is_transit":true,"line":4,"i_long":106.826365,"i_lat":-6.132549,"station_id":"KPB"},{"line":11,"i_long":106.836569,"is_transit":false,"transit":false,"station_name":"Rajawali","station_id":"RJW","time":3,"distance":1444,"i_lat":-6.14505},{"i_lat":-6.161728,"transit":false,"station_name":"Kemayoran","time":5,"station_id":"KMO","distance":1901,"i_long":106.839204,"is_transit":false,"line":11},{"time":4,"is_transit":false,"station_id":"PSE","i_long":106.84368,"distance":1436,"i_lat":-6.174784,"station_name":"Pasar Senen","line":11,"transit":false},{"time":8,"line":11,"transit":false,"station_name":"Gang Sentiong","i_lat":-6.185975,"distance":1567,"i_long":106.850107,"station_id":"GST","is_transit":false},{"line":11,"is_transit":false,"i_lat":-6.193792,"i_long":106.855437,"transit":false,"station_name":"Kramat","station_id":"KMT","distance":973,"time":1},{"i_lat":-6.209188,"line":11,"distance":1829,"i_long":106.861737,"is_transit":false,"station_name":"Pondok Jati","transit":false,"time":2,"station_id":"POK"},{"time":9,"i_long":106.86807400000001,"is_transit":true,"station_name":"Jatinegara","station_id":"JNG","transit":true,"distance":1236,"i_lat":-6.215091,"line":1},{"is_transit":false,"transit":false,"time":2,"station_id":"MTR","station_name":"Matraman","i_lat":-6.212485,"distance":1377,"line":1,"i_long":106.858896},{"time":2,"distance":1275,"i_lat":-6.209883,"station_id":"MRI","is_transit":true,"i_long":106.84912,"station_name":"Manggarai","transit":true,"line":2},{"i_long":106.840169,"is_transit":false,"transit":false,"time":4,"station_name":"Cikini","distance":1590,"i_lat":-6.198556,"station_id":"CKI","line":2},{"distance":1750,"i_long":106.832183,"transit":false,"station_id":"GDD","is_transit":false,"line":2,"time":3,"station_name":"Gondangdia","i_lat":-6.186295},{"i_long":106.828284,"is_transit":false,"line":2,"station_id":"JUA","time":4,"i_lat":-6.166716,"distance":2015,"station_name":"Juanda","transit":false},{"i_lat":-6.160725,"station_id":"SW","is_transit":false,"time":2,"distance":1149,"transit":false,"line":2,"station_name":"Sawah Besar","i_long":106.827103},{"transit":false,"station_id":"MGB","i_lat":-6.149769,"is_transit":false,"line":2,"distance":906,"time":2,"station_name":"Manggabesar","i_long":106.82482},{"line":2,"station_name":"Jayakarta","station_id":"JAY","time":2,"transit":false,"distance":1080,"i_long":106.820901,"i_lat":-6.141205,"is_transit":false}]]}