{"data":[[{"time":0,"station_name":"Poris","line":5,"distance":0,"transit":false,"station_id":"PI","i_long":106.679458,"is_transit":false,"i_lat":-6.169933},{"distance":2548,"station_name":"Kalideres","station_id":"KDS","is_transit":false,"transit":false,"i_lat":-6.166068,"line":5,"i_long":106.701612,"time":3},{"station_id":"RW","i_lat":-6.162758,"time":3,"line":5,"distance":2504,"station_name":"Rawa Buaya","is_transit":false,"i_long":106.723064,"transit":false},{"i_long":106.737035,"time":4,"distance":1152,"transit":false,"line":0,"i_lat":-6.159876,"station_id":"BOI","is_transit":false,"station_name":"Bojongindah"},{"distance":2334,"time":2,"station_name":"Taman Kota","line":5,"i_long":106.756522,"transit":false,"i_lat":-6.1587309999999995,"is_transit":false,"station_id":"TKO"},{"i_lat":-6.161433,"i_long":106.771379,"transit":false,"time":2,"station_name":"Pesing","line":5,"station_id":"PSG","is_transit":false,"distance":1614},{"distance":2036,"station_id":"GGL","is_transit":false,"station_name":"Grogol","transit":false,"i_long":106.788277,"i_lat":-6.162021,"time":2,"line":5},{"i_lat":-6.155215,"station_id":"DU","i_long":106.800832,"line":1,"transit":true,"distance":1700,"is_transit":true,"station_name":"Duri","time":3},{"station_name":"Angke","distance":1230,"transit":false,"i_lat":-6.144674,"i_long":106.79867,"time":4,"station_id":"AK","line":0,"is_transit":false},{"is_transit":true,"transit":false,"i_lat":-6.132549,"time":9,"distance":4102,"line":0,"station_name":"Kampung Bandan","i_long":106.826365,"station_id":"KPB"},{"time":3,"line":0,"distance":1364,"station_id":"JAKK","station_name":"Jakarta Kota","i_long":106.812439,"is_transit":true,"transit":true,"i_lat":-6.137569},{"station_id":"JAY","i_long":106.820901,"line":7,"distance":1264,"is_transit":false,"transit":false,"time":4,"i_lat":-6.141205,"station_name":"Jayakarta"}],[{"i_lat":-6.169933,"station_name":"Poris","transit":false,"i_long":106.679458,"line":5,"station_id":"PI","is_transit":false,"time":0,"distance":0},{"station_id":"KDS","time":3,"is_transit":false,"transit":false,"i_lat":-6.166068,"line":5,"distance":2548,"station_name":"Kalideres","i_long":106.701612},{"distance":2504,"station_id":"RW","station_name":"Rawa Buaya","transit":false,"is_transit":false,"i_lat":-6.162758,"time":3,"i_long":106.723064,"line":5},{"line":0,"station_name":"Bojongindah","distance":1152,"i_lat":-6.159876,"station_id":"BOI","is_transit":false,"i_long":106.737035,"transit":false,"time":4},{"station_id":"TKO","is_transit":false,"time":2,"distance":2334,"station_name":"Taman Kota","transit":false,"line":5,"i_long":106.756522,"i_lat":-6.1587309999999995},{"i_lat":-6.161433,"station_name":"Pesing","line":5,"i_long":106.771379,"is_transit":false,"transit":false,"distance":1614,"station_id":"PSG","time":2},{"is_transit":false,"station_id":"GGL","i_lat":-6.162021,"i_long":106.788277,"transit":false,"station_name":"Grogol","time":2,"distance":2036,"line":5},{"station_name":"Duri","i_long":106.800832,"transit":true,"i_lat":-6.155215,"is_transit":true,"line":1,"time":3,"distance":1700,"station_id":"DU"},{"station_name":"Tanah Abang","i_long":106.811091,"distance":3632,"line":1,"is_transit":true,"i_lat":-6.185545,"time":8,"transit":false,"station_id":"THB"},{"i_long":106.816351,"distance":2029,"station_id":"KAT","transit":false,"i_lat":-6.20132,"line":1,"time":5,"station_name":"Karet","is_transit":false},{"transit":false,"i_long":106.819881,"line":1,"distance":471,"station_id":"SUDB","time":1,"station_name":"Sudirman Baru","i_lat":-6.201433,"is_transit":false},{"station_name":"Sudirman","station_id":"SUD","i_lat":-6.202263,"time":1,"i_long":106.822649,"is_transit":false,"transit":false,"line":1,"distance":280},{"line":0,"i_lat":-6.209883,"time":4,"station_name":"Manggarai","station_id":"MRI","is_transit":true,"distance":3186,"transit":true,"i_long":106.84912},{"distance":1590,"station_name":"Cikini","station_id":"CKI","is_transit":false,"time":4,"transit":false,"i_long":106.840169,"i_lat":-6.198556,"line":0},{"station_name":"Gondangdia","time":3,"i_lat":-6.186295,"line":2,"transit":false,"is_transit":false,"station_id":"GDD","i_long":106.832183,"distance":1750},{"time":4,"i_lat":-6.166716,"station_name":"Juanda","station_id":"JUA","transit":false,"i_long":106.828284,"line":2,"distance":2015,"is_transit":false},{"distance":1149,"transit":false,"is_transit":false,"i_long":106.827103,"line":2,"time":2,"station_name":"Sawah Besar","i_lat":-6.160725,"station_id":"SW"},{"station_id":"MGB","i_lat":-6.149769,"i_long":106.82482,"transit":false,"distance":906,"station_name":"Manggabesar","is_transit":false,"line":2,"time":2},{"is_transit":false,"transit":false,"line":7,"distance":1080,"station_name":"Jayakarta","i_lat":-6.141205,"station_id":"JAY","i_long":106.820901,"time":2}],[{"station_name":"Poris","station_id":"PI","i_lat":-6.169933,"time":0,"i_long":106.679458,"transit":false,"line":5,"is_transit":false,"distance":0},{"distance":2548,"station_id":"KDS","i_lat":-6.166068,"transit":false,"station_name":"Kalideres","time":3,"is_transit":false,"i_long":106.701612,"line":5},{"i_lat":-6.162758,"i_long":106.723064,"station_id":"RW","is_transit":false,"time":3,"transit":false,"station_name":"Rawa Buaya","line":5,"distance":2504},{"is_transit":false,"distance":1152,"transit":false,"i_long":106.737035,"line":0,"i_lat":-6.159876,"station_name":"Bojongindah","time":4,"station_id":"BOI"},{"time":2,"i_long":106.756522,"is_transit":false,"transit":false,"i_lat":-6.1587309999999995,"distance":2334,"station_id":"TKO","line":5,"station_name":"Taman Kota"},{"time":2,"distance":1614,"is_transit":false,"station_name":"Pesing","transit":false,"i_lat":-6.161433,"i_long":106.771379,"line":5,"station_id":"PSG"},{"station_name":"Grogol","is_transit":false,"transit":false,"i_long":106.788277,"line":5,"time":2,"station_id":"GGL","i_lat":-6.162021,"distance":2036},{"transit":true,"is_transit":true,"time":3,"station_name":"Duri","line":1,"distance":1700,"i_lat":-6.155215,"station_id":"DU","i_long":106.800832},{"is_transit":true,"line":1,"station_id":"THB","i_long":106.811091,"time":8,"distance":3632,"station_name":"Tanah Abang","i_lat":-6.185545,"transit":false},{"transit":false,"time":5,"distance":2029,"i_lat":-6.20132,"is_transit":false,"i_long":106.816351,"station_id":"KAT","line":1,"station_name":"Karet"},{"is_transit":false,"i_long":106.819881,"transit":false,"line":1,"station_id":"SUDB","time":1,"distance":471,"i_lat":-6.201433,"station_name":"Sudirman Baru"},{"line":1,"distance":280,"station_id":"SUD","transit":false,"time":1,"is_transit":false,"i_lat":-6.202263,"i_long":106.822649,"station_name":"Sudirman"},{"distance":3186,"is_transit":true,"line":0,"time":4,"i_long":106.84912,"i_lat":-6.209883,"station_name":"Manggarai","station_id":"MRI","transit":false},{"station_name":"Matraman","distance":1275,"i_long":106.858896,"station_id":"MTR","time":2,"is_transit":false,"transit":false,"i_lat":-6.212485,"line":1},{"station_id":"JNG","distance":1377,"i_long":106.86807400000001,"transit":true,"line":0,"time":8,"is_transit":true,"i_lat":-6.215091,"station_name":"Jatinegara"},{"station_name":"Pondok Jati","is_transit":false,"transit":false,"time":2,"station_id":"POK","distance":1236,"i_lat":-6.209188,"i_long":106.861737,"line":11},{"time":2,"line":11,"i_lat":-6.193792,"is_transit":false,"distance":1829,"station_name":"Kramat","station_id":"KMT","transit":false,"i_long":106.855437},{"i_lat":-6.185975,"time":1,"line":11,"transit":false,"i_long":106.850107,"station_name":"Gang Sentiong","distance":973,"station_id":"GST","is_transit":false},{"transit":false,"i_lat":-6.174784,"distance":1567,"station_name":"Pasar Senen","is_transit":false,"line":11,"i_long":106.84368,"time":8,"station_id":"PSE"},{"time":4,"distance":1436,"station_name":"Kemayoran","transit":false,"i_long":106.839204,"is_transit":false,"line":11,"station_id":"KMO","i_lat":-6.161728},{"station_name":"Rajawali","time":5,"line":11,"i_lat":-6.14505,"distance":1901,"station_id":"RJW","is_transit":false,"transit":false,"i_long":106.836569},{"station_name":"Kampung Bandan","is_transit":true,"transit":true,"i_long":106.826365,"distance":1444,"time":3,"line":0,"i_lat":-6.132549,"station_id":"KPB"},{"i_long":106.812439,"time":3,"distance":1364,"transit":true,"i_lat":-6.137569,"line":0,"is_transit":true,"station_id":"JAKK","station_name":"Jakarta Kota"},{"i_long":106.820901,"station_name":"Jayakarta","transit":false,"i_lat":-6.141205,"station_id":"JAY","distance":1264,"line":7,"time":4,"is_transit":false}],[{"is_transit":false,"time":0,"transit":false,"distance":0,"station_id":"PI","line":5,"i_long":106.679458,"station_name":"Poris","i_lat":-6.169933},{"distance":2548,"line":5,"transit":false,"i_lat":-6.166068,"time":3,"i_long":106.701612,"station_id":"KDS","station_name":"Kalideres","is_transit":false},{"i_long":106.723064,"station_name":"Rawa Buaya","station_id":"RW","i_lat":-6.162758,"time":3,"distance":2504,"is_transit":false,"line":5,"transit":false},{"time":4,"i_long":106.737035,"distance":1152,"line":0,"transit":false,"station_id":"BOI","station_name":"Bojongindah","is_transit":false,"i_lat":-6.159876},{"i_lat":-6.1587309999999995,"line":5,"distance":2334,"i_long":106.756522,"station_id":"TKO","transit":false,"station_name":"Taman Kota","is_transit":false,"time":2},{"i_lat":-6.161433,"is_transit":false,"i_long":106.771379,"transit":false,"time":2,"station_name":"Pesing","station_id":"PSG","line":5,"distance":1614},{"distance":2036,"is_transit":false,"i_long":106.788277,"station_name":"Grogol","transit":false,"time":2,"i_lat":-6.162021,"station_id":"GGL","line":5},{"time":3,"is_transit":true,"i_long":106.800832,"station_id":"DU","line":1,"station_name":"Duri","transit":true,"distance":1700,"i_lat":-6.155215},{"i_lat":-6.144674,"time":4,"is_transit":false,"line":0,"station_name":"Angke","i_long":106.79867,"transit":false,"distance":1230,"station_id":"AK"},{"line":0,"transit":true,"time":9,"station_id":"KPB","station_name":"Kampung Bandan","is_transit":true,"i_lat":-6.132549,"i_long":106.826365,"distance":4102},{"transit":false,"station_name":"Rajawali","distance":1444,"time":3,"is_transit":false,"station_id":"RJW","i_lat":-6.14505,"i_long":106.836569,"line":11},{"station_name":"Kemayoran","i_lat":-6.161728,"distance":1901,"time":5,"station_id":"KMO","transit":false,"i_long":106.839204,"is_transit":false,"line":11},{"time":4,"station_id":"PSE","line":11,"is_transit":false,"i_lat":-6.174784,"distance":1436,"transit":false,"station_name":"Pasar Senen","i_long":106.84368},{"station_name":"Gang Sentiong","station_id":"GST","time":8,"transit":false,"line":11,"i_lat":-6.185975,"i_long":106.850107,"is_transit":false,"distance":1567},{"time":1,"station_id":"KMT","i_lat":-6.193792,"line":11,"transit":false,"i_long":106.855437,"is_transit":false,"distance":973,"station_name":"Kramat"},{"transit":false,"time":2,"is_transit":false,"line":11,"station_id":"POK","i_lat":-6.209188,"i_long":106.861737,"station_name":"Pondok Jati","distance":1829},{"is_transit":true,"time":9,"station_id":"JNG","distance":1236,"station_name":"Jatinegara","transit":true,"i_lat":-6.215091,"i_long":106.86807400000001,"line":0},{"i_long":106.858896,"time":2,"distance":1377,"transit":false,"line":1,"i_lat":-6.212485,"is_transit":false,"station_id":"MTR","station_name":"Matraman"},{"station_name":"Manggarai","time":2,"line":0,"is_transit":true,"i_long":106.84912,"station_id":"MRI","distance":1275,"transit":true,"i_lat":-6.209883},{"station_name":"Cikini","transit":false,"line":0,"station_id":"CKI","time":4,"distance":1590,"i_lat":-6.198556,"i_long":106.840169,"is_transit":false},{"line":2,"station_id":"GDD","is_transit":false,"time":3,"transit":false,"distance":1750,"i_lat":-6.186295,"station_name":"Gondangdia","i_long":106.832183},{"i_long":106.828284,"transit":false,"i_lat":-6.166716,"station_id":"JUA","distance":2015,"line":2,"is_transit":false,"station_name":"Juanda","time":4},{"distance":1149,"i_lat":-6.160725,"transit":false,"station_name":"Sawah Besar","station_id":"SW","i_long":106.827103,"line":2,"is_transit":false,"time":2},{"i_long":106.82482,"station_id":"MGB","time":2,"station_name":"Manggabesar","transit":false,"distance":906,"i_lat":-6.149769,"line":2,"is_transit":false},{"line":7,"time":2,"is_transit":false,"transit":false,"i_lat":-6.141205,"i_long":106.820901,"station_name":"Jayakarta","distance":1080,"station_id":"JAY"}]]}