{"data":[[{"time":0,"is_transit":false,"i_long":106.679458,"i_lat":-6.169933,"transit":false,"distance":0,"station_id":"PI","station_name":"Poris","line":5},{"distance":2548,"i_long":106.701612,"line":5,"is_transit":false,"transit":false,"station_name":"Kalideres","station_id":"KDS","time":3,"i_lat":-6.166068},{"line":5,"i_lat":-6.162758,"time":3,"is_transit":false,"transit":false,"distance":2504,"i_long":106.723064,"station_name":"Rawa Buaya","station_id":"RW"},{"distance":1152,"station_name":"Bojongindah","is_transit":false,"transit":false,"time":4,"i_lat":-6.159876,"i_long":106.737035,"station_id":"BOI","line":5},{"distance":2334,"is_transit":false,"station_name":"Taman Kota","station_id":"TKO","i_lat":-6.1587309999999995,"i_long":106.756522,"time":2,"transit":false,"line":5},{"i_lat":-6.161433,"station_id":"PSG","i_long":106.771379,"line":5,"transit":false,"is_transit":false,"station_name":"Pesing","distance":1614,"time":2},{"time":2,"station_id":"GGL","transit":false,"is_transit":false,"line":5,"i_long":106.788277,"i_lat":-6.162021,"station_name":"Grogol","distance":2036},{"line":1,"station_id":"DU","distance":1700,"station_name":"Duri","time":3,"transit":true,"is_transit":true,"i_long":106.800832,"i_lat":-6.155215},{"station_name":"Tanah Abang","time":8,"distance":3632,"i_lat":-6.185545,"is_transit":false,"station_id":"THB","line":1,"transit":false,"i_long":106.811091},{"time":5,"i_lat":-6.20132,"station_name":"Karet","i_long":106.816351,"line":1,"distance":2029,"transit":false,"is_transit":false,"station_id":"KAT"},{"line":1,"is_transit":false,"station_name":"Sudirman Baru","i_long":106.819881,"transit":false,"distance":471,"station_id":"SUDB","time":1,"i_lat":-6.201433},{"i_long":106.822649,"station_name":"Sudirman","station_id":"SUD","time":1,"is_transit":false,"distance":280,"line":1,"transit":false,"i_lat":-6.202263},{"line":2,"is_transit":false,"transit":false,"time":4,"station_name":"Manggarai","distance":3186,"station_id":"MRI","i_lat":-6.209883,"i_long":106.84912},{"distance":1275,"time":2,"station_id":"MTR","station_name":"Matraman","i_lat":-6.212485,"i_long":106.858896,"line":1,"transit":false,"is_transit":false},{"is_transit":false,"transit":false,"station_id":"JNG","distance":1377,"time":8,"station_name":"Jatinegara","i_lat":-6.215091,"line":1,"i_long":106.86807400000001},{"line":1,"station_id":"KLD","station_name":"Klender","time":3,"i_long":106.899548,"distance":3395,"is_transit":false,"i_lat":-6.2135,"transit":false},{"transit":false,"i_long":106.922662,"station_id":"BUA","station_name":"Buaran","distance":3100,"is_transit":false,"time":2,"line":1,"i_lat":-6.215568},{"i_long":106.939679,"distance":1305,"station_id":"KLDB","is_transit":false,"transit":false,"time":1,"i_lat":-6.217455,"line":1,"station_name":"Klenderbaru"},{"line":1,"i_lat":-6.219053,"transit":false,"station_name":"Cakung","is_transit":false,"i_long":106.951283,"distance":1385,"station_id":"CUK","time":8},{"line":1,"is_transit":false,"station_id":"KRI","transit":false,"distance":3097,"station_name":"Kranji","i_lat":-6.224515,"time":3,"i_long":106.977657}],[{"transit":false,"station_id":"PI","i_long":106.679458,"time":0,"i_lat":-6.169933,"line":5,"distance":0,"is_transit":false,"station_name":"Poris"},{"time":3,"line":5,"distance":2548,"is_transit":false,"transit":false,"station_id":"KDS","station_name":"Kalideres","i_lat":-6.166068,"i_long":106.701612},{"station_id":"RW","i_lat":-6.162758,"time":3,"i_long":106.723064,"line":5,"transit":false,"is_transit":false,"distance":2504,"station_name":"Rawa Buaya"},{"time":4,"i_long":106.737035,"transit":false,"is_transit":false,"distance":1152,"line":5,"i_lat":-6.159876,"station_name":"Bojongindah","station_id":"BOI"},{"transit":false,"i_long":106.756522,"is_transit":false,"line":5,"station_name":"Taman Kota","distance":2334,"i_lat":-6.1587309999999995,"station_id":"TKO","time":2},{"is_transit":false,"station_id":"PSG","transit":false,"time":2,"i_long":106.771379,"station_name":"Pesing","line":5,"i_lat":-6.161433,"distance":1614},{"transit":false,"is_transit":false,"station_id":"GGL","distance":2036,"i_long":106.788277,"i_lat":-6.162021,"line":5,"station_name":"Grogol","time":2},{"time":3,"station_name":"Duri","distance":1700,"i_long":106.800832,"line":1,"transit":true,"is_transit":true,"i_lat":-6.155215,"station_id":"DU"},{"transit":false,"is_transit":false,"distance":1230,"station_id":"AK","station_name":"Angke","i_lat":-6.144674,"line":1,"i_long":106.79867,"time":4},{"is_transit":true,"line":4,"distance":4102,"time":9,"transit":true,"station_id":"KPB","i_lat":-6.132549,"i_long":106.826365,"station_name":"Kampung Bandan"},{"transit":false,"station_name":"Rajawali","line":11,"distance":1444,"i_long":106.836569,"time":3,"i_lat":-6.14505,"is_transit":false,"station_id":"RJW"},{"transit":false,"station_name":"Kemayoran","time":5,"is_transit":false,"i_lat":-6.161728,"i_long":106.839204,"distance":1901,"line":11,"station_id":"KMO"},{"line":11,"transit":false,"is_transit":false,"i_long":106.84368,"station_id":"PSE","i_lat":-6.174784,"distance":1436,"station_name":"Pasar Senen","time":4},{"is_transit":false,"distance":1567,"station_name":"Gang Sentiong","station_id":"GST","time":8,"i_long":106.850107,"line":11,"transit":false,"i_lat":-6.185975},{"time":1,"is_transit":false,"station_id":"KMT","line":11,"distance":973,"i_long":106.855437,"transit":false,"i_lat":-6.193792,"station_name":"Kramat"},{"is_transit":false,"i_lat":-6.209188,"station_id":"POK","station_name":"Pondok Jati","time":2,"line":11,"i_long":106.861737,"transit":false,"distance":1829},{"is_transit":true,"station_id":"JNG","line":1,"time":9,"distance":1236,"i_lat":-6.215091,"station_name":"Jatinegara","i_long":106.86807400000001,"transit":true},{"time":3,"i_long":106.899548,"i_lat":-6.2135,"station_id":"KLD","line":1,"is_transit":false,"distance":3395,"station_name":"Klender","transit":false},{"distance":3100,"station_name":"Buaran","station_id":"BUA","i_lat":-6.215568,"is_transit":false,"line":1,"time":2,"transit":false,"i_long":106.922662},{"i_long":106.939679,"transit":false,"station_name":"Klenderbaru","distance":1305,"is_transit":false,"i_lat":-6.217455,"line":1,"time":1,"station_id":"KLDB"},{"i_lat":-6.219053,"station_id":"CUK","distance":1385,"time":8,"i_long":106.951283,"line":1,"station_name":"Cakung","is_transit":false,"transit":false},{"transit":false,"i_long":106.977657,"station_id":"KRI","line":1,"distance":3097,"is_transit":false,"station_name":"Kranji","time":3,"i_lat":-6.224515}],[{"line":5,"i_lat":-6.169933,"distance":0,"i_long":106.679458,"station_name":"Poris","station_id":"PI","time":0,"transit":false,"is_transit":false},{"transit":false,"is_transit":false,"station_id":"KDS","i_lat":-6.166068,"distance":2548,"station_name":"Kalideres","i_long":106.701612,"line":5,"time":3},{"is_transit":false,"station_id":"RW","line":5,"i_lat":-6.162758,"distance":2504,"station_name":"Rawa Buaya","transit":false,"time":3,"i_long":106.723064},{"i_lat":-6.159876,"i_long":106.737035,"distance":1152,"station_id":"BOI","station_name":"Bojongindah","time":4,"transit":false,"line":5,"is_transit":false},{"station_name":"Taman Kota","transit":false,"i_lat":-6.1587309999999995,"i_long":106.756522,"station_id":"TKO","distance":2334,"time":2,"line":5,"is_transit":false},{"line":5,"transit":false,"distance":1614,"station_id":"PSG","is_transit":false,"i_lat":-6.161433,"station_name":"Pesing","time":2,"i_long":106.771379},{"station_id":"GGL","i_lat":-6.162021,"time":2,"i_long":106.788277,"transit":false,"station_name":"Grogol","distance":2036,"line":5,"is_transit":false},{"station_id":"DU","i_lat":-6.155215,"is_transit":true,"time":3,"station_name":"Duri","i_long":106.800832,"distance":1700,"line":1,"transit":true},{"distance":1230,"is_transit":false,"station_id":"AK","station_name":"Angke","i_lat":-6.144674,"i_long":106.79867,"line":1,"transit":false,"time":4},{"i_lat":-6.132549,"is_transit":true,"distance":4102,"line":4,"station_id":"KPB","i_long":106.826365,"time":9,"station_name":"Kampung Bandan","transit":true},{"is_transit":true,"station_id":"JAKK","station_name":"Jakarta Kota","i_lat":-6.137569,"time":3,"line":2,"i_long":106.812439,"distance":1364,"transit":true},{"line":2,"transit":false,"distance":1264,"is_transit":false,"station_id":"JAY","time":4,"station_name":"Jayakarta","i_lat":-6.141205,"i_long":106.820901},{"time":2,"transit":false,"i_lat":-6.149769,"is_transit":false,"station_id":"MGB","line":2,"i_long":106.82482,"distance":1080,"station_name":"Manggabesar"},{"is_transit":false,"time":2,"station_id":"SW","i_lat":-6.160725,"line":2,"distance":906,"transit":false,"station_name":"Sawah Besar","i_long":106.827103},{"i_lat":-6.166716,"time":2,"is_transit":false,"station_id":"JUA","transit":false,"i_long":106.828284,"line":2,"station_name":"Juanda","distance":1149},{"i_lat":-6.186295,"line":2,"i_long":106.832183,"time":4,"transit":false,"station_id":"GDD","distance":2015,"is_transit":false,"station_name":"Gondangdia"},{"distance":1750,"station_id":"CKI","time":3,"i_lat":-6.198556,"i_long":106.840169,"is_transit":false,"transit":false,"station_name":"Cikini","line":2},{"station_id":"MRI","is_transit":true,"time":4,"transit":true,"i_lat":-6.209883,"distance":1590,"line":2,"station_name":"Manggarai","i_long":106.84912},{"i_lat":-6.212485,"is_transit":false,"station_id":"MTR","i_long":106.858896,"line":1,"time":2,"transit":false,"distance":1275,"station_name":"Matraman"},{"distance":1377,"line":1,"transit":false,"i_lat":-6.215091,"i_long":106.86807400000001,"station_name":"Jatinegara","time":8,"station_id":"JNG","is_transit":false},{"station_id":"KLD","i_long":106.899548,"distance":3395,"transit":false,"station_name":"Klender","time":3,"line":1,"is_transit":false,"i_lat":-6.2135},{"station_id":"BUA","station_name":"Buaran","transit":false,"is_transit":false,"line":1,"distance":3100,"time":2,"i_long":106.922662,"i_lat":-6.215568},{"station_name":"Klenderbaru","line":1,"station_id":"KLDB","i_lat":-6.217455,"i_long":106.939679,"distance":1305,"time":1,"transit":false,"is_transit":false},{"time":8,"i_long":106.951283,"i_lat":-6.219053,"is_transit":false,"station_name":"Cakung","line":1,"distance":1385,"station_id":"CUK","transit":false},{"station_name":"Kranji","station_id":"KRI","time":3,"transit":false,"is_transit":false,"line":1,"i_lat":-6.224515,"i_long":106.977657,"distance":3097}],[{"i_lat":-6.169933,"i_long":106.679458,"line":5,"station_id":"PI","is_transit":false,"transit":false,"time":0,"distance":0,"station_name":"Poris"},{"distance":2548,"i_long":106.701612,"station_name":"Kalideres","station_id":"KDS","i_lat":-6.166068,"transit":false,"line":5,"is_transit":false,"time":3},{"i_lat":-6.162758,"line":5,"station_name":"Rawa Buaya","transit":false,"distance":2504,"station_id":"RW","is_transit":false,"time":3,"i_long":106.723064},{"is_transit":false,"time":4,"station_id":"BOI","line":5,"station_name":"Bojongindah","i_long":106.737035,"transit":false,"i_lat":-6.159876,"distance":1152},{"transit":false,"distance":2334,"station_name":"Taman Kota","is_transit":false,"station_id":"TKO","line":5,"time":2,"i_lat":-6.1587309999999995,"i_long":106.756522},{"transit":false,"station_id":"PSG","is_transit":false,"station_name":"Pesing","i_lat":-6.161433,"time":2,"i_long":106.771379,"distance":1614,"line":5},{"station_id":"GGL","time":2,"station_name":"Grogol","i_lat":-6.162021,"i_long":106.788277,"line":5,"is_transit":false,"transit":false,"distance":2036},{"i_lat":-6.155215,"distance":1700,"line":1,"is_transit":true,"i_long":106.800832,"station_id":"DU","transit":true,"time":3,"station_name":"Duri"},{"station_name":"Tanah Abang","transit":false,"station_id":"THB","time":8,"line":1,"distance":3632,"is_transit":false,"i_long":106.811091,"i_lat":-6.185545},{"is_transit":false,"time":5,"transit":false,"distance":2029,"station_id":"KAT","i_long":106.816351,"station_name":"Karet","line":1,"i_lat":-6.20132},{"line":1,"is_transit":false,"transit":false,"time":1,"i_lat":-6.201433,"distance":471,"station_id":"SUDB","station_name":"Sudirman Baru","i_long":106.819881},{"i_long":106.822649,"line":1,"is_transit":false,"time":1,"station_name":"Sudirman","transit":false,"distance":280,"station_id":"SUD","i_lat":-6.202263},{"line":2,"station_name":"Manggarai","is_transit":true,"time":4,"transit":true,"i_long":106.84912,"station_id":"MRI","distance":3186,"i_lat":-6.209883},{"line":2,"station_name":"Cikini","distance":1590,"time":4,"i_lat":-6.198556,"is_transit":false,"station_id":"CKI","transit":false,"i_long":106.840169},{"line":2,"is_transit":false,"station_id":"GDD","time":3,"i_long":106.832183,"transit":false,"distance":1750,"station_name":"Gondangdia","i_lat":-6.186295},{"station_id":"JUA","is_transit":false,"transit":false,"i_lat":-6.166716,"station_name":"Juanda","line":2,"time":4,"i_long":106.828284,"distance":2015},{"distance":1149,"station_name":"Sawah Besar","i_long":106.827103,"time":2,"transit":false,"is_transit":false,"station_id":"SW","i_lat":-6.160725,"line":2},{"time":2,"i_long":106.82482,"transit":false,"station_name":"Manggabesar","line":2,"i_lat":-6.149769,"is_transit":false,"station_id":"MGB","distance":906},{"i_lat":-6.141205,"distance":1080,"i_long":106.820901,"station_name":"Jayakarta","transit":false,"station_id":"JAY","is_transit":false,"line":2,"time":2},{"line":2,"station_id":"JAKK","is_transit":true,"station_name":"Jakarta Kota","i_lat":-6.137569,"distance":1264,"transit":true,"i_long":106.812439,"time":4},{"station_name":"Kampung Bandan","station_id":"KPB","time":3,"distance":1364,"i_long":106.826365,"i_lat":-6.132549,"transit":true,"is_transit":true,"line":4},{"i_long":106.836569,"line":11,"time":3,"is_transit":false,"station_id":"RJW","i_lat":-6.14505,"station_name":"Rajawali","distance":1444,"transit":false},{"station_id":"KMO","time":5,"distance":1901,"transit":false,"i_lat":-6.161728,"station_name":"Kemayoran","line":11,"i_long":106.839204,"is_transit":false},{"station_name":"Pasar Senen","is_transit":false,"i_long":106.84368,"line":11,"station_id":"PSE","i_lat":-6.174784,"time":4,"transit":false,"distance":1436},{"transit":false,"station_name":"Gang Sentiong","is_transit":false,"distance":1567,"line":11,"time":8,"i_lat":-6.185975,"i_long":106.850107,"station_id":"GST"},{"is_transit":false,"i_lat":-6.193792,"station_id":"KMT","line":11,"transit":false,"distance":973,"time":1,"i_long":106.855437,"station_name":"Kramat"},{"time":2,"distance":1829,"i_long":106.861737,"i_lat":-6.209188,"transit":false,"line":11,"station_name":"Pondok Jati","is_transit":false,"station_id":"POK"},{"station_id":"JNG","station_name":"Jatinegara","transit":true,"line":1,"time":9,"i_long":106.86807400000001,"distance":1236,"i_lat":-6.215091,"is_transit":true},{"is_transit":false,"station_id":"KLD","transit":false,"distance":3395,"i_lat":-6.2135,"i_long":106.899548,"station_name":"Klender","line":1,"time":3},{"station_name":"Buaran","station_id":"BUA","is_transit":false,"i_long":106.922662,"line":1,"transit":false,"i_lat":-6.215568,"distance":3100,"time":2},{"time":1,"is_transit":false,"transit":false,"station_name":"Klenderbaru","distance":1305,"line":1,"i_long":106.939679,"i_lat":-6.217455,"station_id":"KLDB"},{"transit":false,"i_long":106.951283,"station_name":"Cakung","time":8,"distance":1385,"station_id":"CUK","is_transit":false,"line":1,"i_lat":-6.219053},{"i_lat":-6.224515,"transit":false,"distance":3097,"is_transit":false,"station_id":"KRI","station_name":"Kranji","time":3,"line":1,"i_long":106.977657}]]}