{"data":[[{"is_transit":false,"i_long":106.679458,"line":5,"station_name":"Poris","distance":0,"time":0,"station_id":"PI","transit":false,"i_lat":-6.169933},{"line":5,"distance":2548,"transit":false,"time":3,"i_long":106.701612,"station_name":"Kalideres","is_transit":false,"station_id":"KDS","i_lat":-6.166068},{"time":3,"distance":2504,"is_transit":false,"station_id":"RW","transit":false,"line":5,"station_name":"Rawa Buaya","i_lat":-6.162758,"i_long":106.723064},{"distance":1152,"is_transit":false,"station_name":"Bojongindah","line":5,"i_lat":-6.159876,"time":4,"transit":false,"i_long":106.737035,"station_id":"BOI"},{"station_name":"Taman Kota","time":2,"station_id":"TKO","distance":2334,"transit":false,"i_long":106.756522,"i_lat":-6.1587309999999995,"is_transit":false,"line":5},{"distance":1614,"transit":false,"is_transit":false,"line":5,"i_long":106.771379,"time":2,"station_id":"PSG","station_name":"Pesing","i_lat":-6.161433},{"time":2,"line":5,"station_id":"GGL","is_transit":false,"i_lat":-6.162021,"i_long":106.788277,"station_name":"Grogol","distance":2036,"transit":false},{"i_lat":-6.155215,"is_transit":true,"line":1,"transit":true,"station_name":"Duri","station_id":"DU","i_long":106.800832,"distance":1700,"time":3},{"time":8,"distance":3632,"station_name":"Tanah Abang","station_id":"THB","i_long":106.811091,"is_transit":false,"transit":false,"i_lat":-6.185545,"line":1},{"time":5,"is_transit":false,"station_id":"KAT","distance":2029,"transit":false,"station_name":"Karet","i_long":106.816351,"i_lat":-6.20132,"line":1},{"station_id":"SUDB","is_transit":false,"time":1,"i_lat":-6.201433,"i_long":106.819881,"line":1,"distance":471,"station_name":"Sudirman Baru","transit":false},{"time":1,"line":1,"i_long":106.822649,"is_transit":false,"station_id":"SUD","transit":false,"distance":280,"station_name":"Sudirman","i_lat":-6.202263},{"time":4,"is_transit":false,"station_id":"MRI","i_lat":-6.209883,"transit":false,"station_name":"Manggarai","i_long":106.84912,"distance":3186,"line":2},{"transit":false,"time":2,"is_transit":false,"station_name":"Matraman","i_long":106.858896,"i_lat":-6.212485,"station_id":"MTR","distance":1275,"line":1},{"time":8,"i_lat":-6.215091,"station_name":"Jatinegara","distance":1377,"station_id":"JNG","i_long":106.86807400000001,"line":1,"transit":false,"is_transit":false},{"distance":3395,"i_long":106.899548,"i_lat":-6.2135,"station_name":"Klender","time":3,"station_id":"KLD","is_transit":false,"transit":false,"line":1},{"is_transit":false,"line":1,"station_name":"Buaran","time":2,"station_id":"BUA","transit":false,"i_lat":-6.215568,"i_long":106.922662,"distance":3100},{"time":1,"is_transit":false,"transit":false,"i_long":106.939679,"line":1,"i_lat":-6.217455,"station_id":"KLDB","distance":1305,"station_name":"Klenderbaru"},{"station_id":"CUK","i_lat":-6.219053,"time":8,"line":1,"station_name":"Cakung","transit":false,"distance":1385,"i_long":106.951283,"is_transit":false},{"station_name":"Kranji","transit":false,"i_lat":-6.224515,"i_long":106.977657,"line":1,"distance":3097,"station_id":"KRI","is_transit":false,"time":3}],[{"station_id":"PI","distance":0,"station_name":"Poris","transit":false,"i_long":106.679458,"i_lat":-6.169933,"line":5,"time":0,"is_transit":false},{"is_transit":false,"station_name":"Kalideres","station_id":"KDS","i_lat":-6.166068,"distance":2548,"time":3,"transit":false,"i_long":106.701612,"line":5},{"station_id":"RW","i_lat":-6.162758,"distance":2504,"time":3,"line":5,"transit":false,"is_transit":false,"i_long":106.723064,"station_name":"Rawa Buaya"},{"station_id":"BOI","time":4,"transit":false,"station_name":"Bojongindah","is_transit":false,"i_lat":-6.159876,"i_long":106.737035,"line":5,"distance":1152},{"time":2,"station_id":"TKO","transit":false,"line":5,"i_lat":-6.1587309999999995,"distance":2334,"is_transit":false,"i_long":106.756522,"station_name":"Taman Kota"},{"distance":1614,"line":5,"time":2,"station_name":"Pesing","station_id":"PSG","is_transit":false,"transit":false,"i_lat":-6.161433,"i_long":106.771379},{"time":2,"i_long":106.788277,"station_id":"GGL","station_name":"Grogol","transit":false,"is_transit":false,"i_lat":-6.162021,"line":5,"distance":2036},{"transit":true,"station_name":"Duri","distance":1700,"station_id":"DU","is_transit":true,"line":1,"i_lat":-6.155215,"i_long":106.800832,"time":3},{"station_name":"Angke","time":4,"i_long":106.79867,"distance":1230,"line":1,"i_lat":-6.144674,"is_transit":false,"station_id":"AK","transit":false},{"i_long":106.826365,"station_id":"KPB","distance":4102,"is_transit":true,"time":9,"transit":true,"station_name":"Kampung Bandan","i_lat":-6.132549,"line":4},{"distance":1444,"station_name":"Rajawali","time":3,"line":11,"station_id":"RJW","i_long":106.836569,"is_transit":false,"transit":false,"i_lat":-6.14505},{"transit":false,"i_long":106.839204,"time":5,"is_transit":false,"line":11,"station_id":"KMO","distance":1901,"station_name":"Kemayoran","i_lat":-6.161728},{"i_long":106.84368,"transit":false,"time":4,"line":11,"distance":1436,"station_name":"Pasar Senen","station_id":"PSE","i_lat":-6.174784,"is_transit":false},{"i_lat":-6.185975,"line":11,"station_name":"Gang Sentiong","time":8,"distance":1567,"station_id":"GST","is_transit":false,"transit":false,"i_long":106.850107},{"transit":false,"i_lat":-6.193792,"station_name":"Kramat","time":1,"station_id":"KMT","line":11,"is_transit":false,"distance":973,"i_long":106.855437},{"line":11,"i_long":106.861737,"time":2,"distance":1829,"transit":false,"station_name":"Pondok Jati","is_transit":false,"station_id":"POK","i_lat":-6.209188},{"station_name":"Jatinegara","i_lat":-6.215091,"transit":true,"station_id":"JNG","line":1,"is_transit":true,"distance":1236,"time":9,"i_long":106.86807400000001},{"i_lat":-6.2135,"is_transit":false,"distance":3395,"transit":false,"station_name":"Klender","line":1,"station_id":"KLD","i_long":106.899548,"time":3},{"station_name":"Buaran","i_lat":-6.215568,"i_long":106.922662,"distance":3100,"line":1,"station_id":"BUA","is_transit":false,"time":2,"transit":false},{"i_long":106.939679,"time":1,"distance":1305,"is_transit":false,"station_name":"Klenderbaru","transit":false,"line":1,"i_lat":-6.217455,"station_id":"KLDB"},{"time":8,"i_lat":-6.219053,"is_transit":false,"station_id":"CUK","line":1,"station_name":"Cakung","distance":1385,"transit":false,"i_long":106.951283},{"line":1,"station_id":"KRI","distance":3097,"transit":false,"i_lat":-6.224515,"station_name":"Kranji","i_long":106.977657,"time":3,"is_transit":false}],[{"time":0,"i_long":106.679458,"distance":0,"is_transit":false,"station_id":"PI","i_lat":-6.169933,"line":5,"station_name":"Poris","transit":false},{"is_transit":false,"i_lat":-6.166068,"distance":2548,"line":5,"i_long":106.701612,"station_name":"Kalideres","time":3,"station_id":"KDS","transit":false},{"station_id":"RW","distance":2504,"i_lat":-6.162758,"transit":false,"i_long":106.723064,"time":3,"line":5,"is_transit":false,"station_name":"Rawa Buaya"},{"station_name":"Bojongindah","transit":false,"is_transit":false,"i_lat":-6.159876,"line":5,"time":4,"station_id":"BOI","i_long":106.737035,"distance":1152},{"i_long":106.756522,"station_id":"TKO","i_lat":-6.1587309999999995,"station_name":"Taman Kota","transit":false,"is_transit":false,"distance":2334,"time":2,"line":5},{"station_name":"Pesing","is_transit":false,"transit":false,"line":5,"station_id":"PSG","distance":1614,"i_lat":-6.161433,"i_long":106.771379,"time":2},{"is_transit":false,"time":2,"line":5,"station_id":"GGL","i_long":106.788277,"i_lat":-6.162021,"distance":2036,"station_name":"Grogol","transit":false},{"station_id":"DU","time":3,"i_lat":-6.155215,"i_long":106.800832,"transit":true,"line":1,"station_name":"Duri","is_transit":true,"distance":1700},{"i_lat":-6.144674,"station_id":"AK","station_name":"Angke","is_transit":false,"i_long":106.79867,"distance":1230,"transit":false,"time":4,"line":1},{"i_lat":-6.132549,"station_name":"Kampung Bandan","station_id":"KPB","is_transit":true,"time":9,"i_long":106.826365,"distance":4102,"transit":true,"line":4},{"line":2,"time":3,"distance":1364,"is_transit":true,"i_lat":-6.137569,"i_long":106.812439,"station_id":"JAKK","station_name":"Jakarta Kota","transit":true},{"station_id":"JAY","line":2,"distance":1264,"i_lat":-6.141205,"transit":false,"station_name":"Jayakarta","i_long":106.820901,"is_transit":false,"time":4},{"time":2,"i_lat":-6.149769,"line":2,"station_id":"MGB","station_name":"Manggabesar","i_long":106.82482,"transit":false,"distance":1080,"is_transit":false},{"line":2,"time":2,"station_name":"Sawah Besar","is_transit":false,"distance":906,"i_long":106.827103,"i_lat":-6.160725,"station_id":"SW","transit":false},{"distance":1149,"station_name":"Juanda","time":2,"station_id":"JUA","transit":false,"i_lat":-6.166716,"line":2,"i_long":106.828284,"is_transit":false},{"distance":2015,"station_id":"GDD","transit":false,"i_lat":-6.186295,"i_long":106.832183,"is_transit":false,"line":2,"time":4,"station_name":"Gondangdia"},{"time":3,"line":2,"station_id":"CKI","i_long":106.840169,"station_name":"Cikini","transit":false,"i_lat":-6.198556,"is_transit":false,"distance":1750},{"distance":1590,"station_id":"MRI","transit":true,"is_transit":true,"station_name":"Manggarai","time":4,"i_lat":-6.209883,"i_long":106.84912,"line":2},{"station_name":"Matraman","distance":1275,"time":2,"transit":false,"i_long":106.858896,"is_transit":false,"station_id":"MTR","i_lat":-6.212485,"line":1},{"station_id":"JNG","i_lat":-6.215091,"time":8,"is_transit":false,"distance":1377,"line":1,"transit":false,"i_long":106.86807400000001,"station_name":"Jatinegara"},{"line":1,"station_name":"Klender","station_id":"KLD","transit":false,"i_long":106.899548,"is_transit":false,"distance":3395,"time":3,"i_lat":-6.2135},{"i_lat":-6.215568,"distance":3100,"time":2,"transit":false,"i_long":106.922662,"station_name":"Buaran","station_id":"BUA","is_transit":false,"line":1},{"station_id":"KLDB","station_name":"Klenderbaru","is_transit":false,"time":1,"distance":1305,"line":1,"transit":false,"i_lat":-6.217455,"i_long":106.939679},{"i_long":106.951283,"line":1,"station_name":"Cakung","transit":false,"i_lat":-6.219053,"distance":1385,"station_id":"CUK","time":8,"is_transit":false},{"transit":false,"i_long":106.977657,"distance":3097,"station_id":"KRI","line":1,"i_lat":-6.224515,"station_name":"Kranji","is_transit":false,"time":3}],[{"station_name":"Poris","transit":false,"is_transit":false,"i_long":106.679458,"distance":0,"time":0,"station_id":"PI","i_lat":-6.169933,"line":5},{"is_transit":false,"station_id":"KDS","i_lat":-6.166068,"line":5,"transit":false,"distance":2548,"station_name":"Kalideres","time":3,"i_long":106.701612},{"i_lat":-6.162758,"i_long":106.723064,"line":5,"distance":2504,"time":3,"transit":false,"station_id":"RW","is_transit":false,"station_name":"Rawa Buaya"},{"distance":1152,"is_transit":false,"transit":false,"i_lat":-6.159876,"station_name":"Bojongindah","i_long":106.737035,"line":5,"station_id":"BOI","time":4},{"distance":2334,"transit":false,"station_name":"Taman Kota","line":5,"time":2,"is_transit":false,"station_id":"TKO","i_long":106.756522,"i_lat":-6.1587309999999995},{"station_id":"PSG","is_transit":false,"i_lat":-6.161433,"time":2,"i_long":106.771379,"transit":false,"line":5,"station_name":"Pesing","distance":1614},{"time":2,"station_name":"Grogol","i_lat":-6.162021,"transit":false,"is_transit":false,"i_long":106.788277,"station_id":"GGL","line":5,"distance":2036},{"station_name":"Duri","line":1,"i_long":106.800832,"transit":true,"i_lat":-6.155215,"time":3,"is_transit":true,"distance":1700,"station_id":"DU"},{"station_name":"Tanah Abang","is_transit":false,"station_id":"THB","transit":false,"distance":3632,"i_long":106.811091,"i_lat":-6.185545,"time":8,"line":1},{"i_long":106.816351,"time":5,"is_transit":false,"station_name":"Karet","distance":2029,"transit":false,"line":1,"station_id":"KAT","i_lat":-6.20132},{"i_long":106.819881,"time":1,"is_transit":false,"station_id":"SUDB","i_lat":-6.201433,"line":1,"transit":false,"distance":471,"station_name":"Sudirman Baru"},{"line":1,"i_lat":-6.202263,"station_name":"Sudirman","is_transit":false,"time":1,"i_long":106.822649,"station_id":"SUD","distance":280,"transit":false},{"line":2,"time":4,"station_id":"MRI","i_lat":-6.209883,"distance":3186,"is_transit":true,"transit":true,"i_long":106.84912,"station_name":"Manggarai"},{"station_id":"CKI","transit":false,"i_long":106.840169,"distance":1590,"station_name":"Cikini","is_transit":false,"i_lat":-6.198556,"line":2,"time":4},{"i_lat":-6.186295,"transit":false,"i_long":106.832183,"station_name":"Gondangdia","line":2,"station_id":"GDD","time":3,"is_transit":false,"distance":1750},{"station_id":"JUA","i_lat":-6.166716,"is_transit":false,"transit":false,"distance":2015,"i_long":106.828284,"time":4,"station_name":"Juanda","line":2},{"distance":1149,"i_lat":-6.160725,"transit":false,"station_name":"Sawah Besar","is_transit":false,"time":2,"station_id":"SW","i_long":106.827103,"line":2},{"transit":false,"is_transit":false,"station_id":"MGB","line":2,"distance":906,"station_name":"Manggabesar","i_lat":-6.149769,"i_long":106.82482,"time":2},{"time":2,"i_lat":-6.141205,"station_name":"Jayakarta","line":2,"distance":1080,"i_long":106.820901,"is_transit":false,"transit":false,"station_id":"JAY"},{"distance":1264,"station_name":"Jakarta Kota","station_id":"JAKK","i_long":106.812439,"line":2,"is_transit":true,"time":4,"transit":true,"i_lat":-6.137569},{"distance":1364,"station_id":"KPB","i_lat":-6.132549,"i_long":106.826365,"is_transit":true,"line":4,"station_name":"Kampung Bandan","transit":true,"time":3},{"station_name":"Rajawali","station_id":"RJW","transit":false,"i_lat":-6.14505,"i_long":106.836569,"is_transit":false,"distance":1444,"time":3,"line":11},{"transit":false,"line":11,"time":5,"station_id":"KMO","i_lat":-6.161728,"distance":1901,"station_name":"Kemayoran","is_transit":false,"i_long":106.839204},{"transit":false,"i_lat":-6.174784,"time":4,"station_id":"PSE","i_long":106.84368,"is_transit":false,"line":11,"distance":1436,"station_name":"Pasar Senen"},{"station_name":"Gang Sentiong","is_transit":false,"i_long":106.850107,"station_id":"GST","distance":1567,"transit":false,"line":11,"time":8,"i_lat":-6.185975},{"is_transit":false,"transit":false,"i_long":106.855437,"distance":973,"time":1,"line":11,"i_lat":-6.193792,"station_id":"KMT","station_name":"Kramat"},{"is_transit":false,"i_long":106.861737,"station_id":"POK","distance":1829,"transit":false,"station_name":"Pondok Jati","i_lat":-6.209188,"time":2,"line":11},{"i_lat":-6.215091,"transit":true,"line":1,"is_transit":true,"time":9,"station_id":"JNG","distance":1236,"station_name":"Jatinegara","i_long":106.86807400000001},{"i_lat":-6.2135,"transit":false,"is_transit":false,"distance":3395,"time":3,"station_name":"Klender","station_id":"KLD","i_long":106.899548,"line":1},{"is_transit":false,"time":2,"i_lat":-6.215568,"station_name":"Buaran","transit":false,"i_long":106.922662,"line":1,"station_id":"BUA","distance":3100},{"station_name":"Klenderbaru","i_lat":-6.217455,"time":1,"transit":false,"line":1,"i_long":106.939679,"station_id":"KLDB","is_transit":false,"distance":1305},{"transit":false,"is_transit":false,"time":8,"i_long":106.951283,"line":1,"station_name":"Cakung","distance":1385,"station_id":"CUK","i_lat":-6.219053},{"station_name":"Kranji","time":3,"transit":false,"is_transit":false,"i_long":106.977657,"i_lat":-6.224515,"line":1,"station_id":"KRI","distance":3097}]]}