{"data":[[{"distance":0,"line":5,"station_name":"Poris","transit":false,"i_lat":-6.169933,"i_long":106.679458,"time":0,"station_id":"PI","is_transit":false},{"distance":2548,"station_id":"KDS","time":3,"i_lat":-6.166068,"station_name":"Kalideres","line":5,"is_transit":false,"transit":false,"i_long":106.701612},{"line":5,"i_lat":-6.162758,"station_id":"RW","is_transit":false,"station_name":"Rawa Buaya","time":3,"i_long":106.723064,"distance":2504,"transit":false},{"transit":false,"station_name":"Bojongindah","station_id":"BOI","time":4,"is_transit":false,"i_long":106.737035,"line":0,"i_lat":-6.159876,"distance":1152},{"time":2,"transit":false,"i_lat":-6.1587309999999995,"station_id":"TKO","distance":2334,"line":5,"i_long":106.756522,"is_transit":false,"station_name":"Taman Kota"},{"time":2,"is_transit":false,"transit":false,"i_long":106.771379,"distance":1614,"station_name":"Pesing","i_lat":-6.161433,"line":5,"station_id":"PSG"},{"station_id":"GGL","transit":false,"time":2,"line":5,"is_transit":false,"distance":2036,"i_long":106.788277,"i_lat":-6.162021,"station_name":"Grogol"},{"is_transit":true,"i_long":106.800832,"station_name":"Duri","station_id":"DU","transit":true,"distance":1700,"i_lat":-6.155215,"time":3,"line":1},{"line":1,"transit":false,"is_transit":true,"time":8,"i_lat":-6.185545,"distance":3632,"station_name":"Tanah Abang","i_long":106.811091,"station_id":"THB"},{"station_id":"KAT","time":5,"transit":false,"i_lat":-6.20132,"i_long":106.816351,"is_transit":false,"line":1,"distance":2029,"station_name":"Karet"},{"distance":471,"station_name":"Sudirman Baru","transit":false,"station_id":"SUDB","is_transit":false,"i_lat":-6.201433,"line":1,"time":1,"i_long":106.819881},{"station_id":"SUD","i_long":106.822649,"line":1,"transit":false,"i_lat":-6.202263,"time":1,"station_name":"Sudirman","is_transit":false,"distance":280},{"is_transit":true,"transit":false,"time":4,"distance":3186,"line":0,"station_id":"MRI","i_long":106.84912,"i_lat":-6.209883,"station_name":"Manggarai"},{"i_lat":-6.212485,"transit":false,"line":1,"station_name":"Matraman","i_long":106.858896,"time":2,"distance":1275,"is_transit":false,"station_id":"MTR"},{"transit":false,"time":8,"distance":1377,"is_transit":true,"i_lat":-6.215091,"line":0,"i_long":106.86807400000001,"station_id":"JNG","station_name":"Jatinegara"},{"station_id":"KLD","i_lat":-6.2135,"station_name":"Klender","distance":3395,"transit":false,"is_transit":false,"time":3,"i_long":106.899548,"line":1},{"station_name":"Buaran","is_transit":false,"distance":3100,"station_id":"BUA","i_long":106.922662,"time":2,"transit":false,"i_lat":-6.215568,"line":0},{"station_id":"KLDB","is_transit":false,"i_lat":-6.217455,"line":1,"distance":1305,"transit":false,"station_name":"Klenderbaru","time":1,"i_long":106.939679},{"is_transit":false,"distance":1385,"line":0,"time":8,"i_long":106.951283,"transit":false,"station_id":"CUK","station_name":"Cakung","i_lat":-6.219053},{"transit":false,"i_lat":-6.224515,"distance":3097,"time":3,"station_id":"KRI","line":1,"station_name":"Kranji","i_long":106.977657,"is_transit":false}],[{"station_id":"PI","i_lat":-6.169933,"is_transit":false,"transit":false,"i_long":106.679458,"time":0,"line":5,"station_name":"Poris","distance":0},{"distance":2548,"transit":false,"station_name":"Kalideres","station_id":"KDS","is_transit":false,"i_lat":-6.166068,"time":3,"line":5,"i_long":106.701612},{"transit":false,"station_name":"Rawa Buaya","is_transit":false,"line":5,"i_lat":-6.162758,"station_id":"RW","time":3,"i_long":106.723064,"distance":2504},{"time":4,"station_name":"Bojongindah","transit":false,"i_lat":-6.159876,"i_long":106.737035,"is_transit":false,"station_id":"BOI","distance":1152,"line":0},{"station_name":"Taman Kota","is_transit":false,"time":2,"line":5,"distance":2334,"i_lat":-6.1587309999999995,"i_long":106.756522,"station_id":"TKO","transit":false},{"station_id":"PSG","line":5,"i_long":106.771379,"is_transit":false,"time":2,"distance":1614,"i_lat":-6.161433,"transit":false,"station_name":"Pesing"},{"distance":2036,"is_transit":false,"i_long":106.788277,"line":5,"i_lat":-6.162021,"time":2,"station_name":"Grogol","transit":false,"station_id":"GGL"},{"time":3,"distance":1700,"i_long":106.800832,"is_transit":true,"line":1,"transit":true,"i_lat":-6.155215,"station_id":"DU","station_name":"Duri"},{"i_lat":-6.144674,"i_long":106.79867,"station_name":"Angke","time":4,"distance":1230,"is_transit":false,"line":0,"station_id":"AK","transit":false},{"i_long":106.826365,"line":0,"station_name":"Kampung Bandan","time":9,"distance":4102,"station_id":"KPB","i_lat":-6.132549,"transit":true,"is_transit":true},{"station_id":"RJW","i_lat":-6.14505,"i_long":106.836569,"time":3,"distance":1444,"station_name":"Rajawali","transit":false,"line":11,"is_transit":false},{"is_transit":false,"transit":false,"station_id":"KMO","i_lat":-6.161728,"line":11,"i_long":106.839204,"distance":1901,"time":5,"station_name":"Kemayoran"},{"i_long":106.84368,"time":4,"distance":1436,"line":11,"transit":false,"station_name":"Pasar Senen","station_id":"PSE","is_transit":false,"i_lat":-6.174784},{"i_long":106.850107,"time":8,"station_id":"GST","transit":false,"distance":1567,"station_name":"Gang Sentiong","line":11,"is_transit":false,"i_lat":-6.185975},{"distance":973,"station_name":"Kramat","station_id":"KMT","transit":false,"i_long":106.855437,"i_lat":-6.193792,"time":1,"is_transit":false,"line":11},{"time":2,"is_transit":false,"i_long":106.861737,"station_name":"Pondok Jati","station_id":"POK","i_lat":-6.209188,"distance":1829,"transit":false,"line":11},{"station_name":"Jatinegara","station_id":"JNG","transit":true,"i_long":106.86807400000001,"line":0,"distance":1236,"is_transit":true,"i_lat":-6.215091,"time":9},{"station_id":"KLD","station_name":"Klender","transit":false,"i_lat":-6.2135,"distance":3395,"time":3,"line":1,"is_transit":false,"i_long":106.899548},{"distance":3100,"line":0,"station_id":"BUA","i_long":106.922662,"transit":false,"time":2,"station_name":"Buaran","is_transit":false,"i_lat":-6.215568},{"line":1,"i_long":106.939679,"station_name":"Klenderbaru","time":1,"station_id":"KLDB","i_lat":-6.217455,"distance":1305,"transit":false,"is_transit":false},{"time":8,"station_id":"CUK","i_lat":-6.219053,"i_long":106.951283,"line":0,"distance":1385,"is_transit":false,"transit":false,"station_name":"Cakung"},{"transit":false,"is_transit":false,"station_name":"Kranji","i_long":106.977657,"station_id":"KRI","time":3,"line":1,"distance":3097,"i_lat":-6.224515}],[{"i_long":106.679458,"is_transit":false,"transit":false,"station_name":"Poris","time":0,"i_lat":-6.169933,"station_id":"PI","distance":0,"line":5},{"station_id":"KDS","distance":2548,"station_name":"Kalideres","transit":false,"i_lat":-6.166068,"line":5,"time":3,"i_long":106.701612,"is_transit":false},{"distance":2504,"time":3,"i_long":106.723064,"line":5,"station_id":"RW","station_name":"Rawa Buaya","is_transit":false,"i_lat":-6.162758,"transit":false},{"is_transit":false,"i_long":106.737035,"transit":false,"distance":1152,"line":0,"station_name":"Bojongindah","i_lat":-6.159876,"time":4,"station_id":"BOI"},{"time":2,"station_name":"Taman Kota","transit":false,"i_lat":-6.1587309999999995,"distance":2334,"i_long":106.756522,"is_transit":false,"station_id":"TKO","line":5},{"distance":1614,"station_name":"Pesing","i_lat":-6.161433,"is_transit":false,"i_long":106.771379,"time":2,"transit":false,"line":5,"station_id":"PSG"},{"station_id":"GGL","distance":2036,"time":2,"transit":false,"i_long":106.788277,"is_transit":false,"station_name":"Grogol","i_lat":-6.162021,"line":5},{"distance":1700,"station_name":"Duri","transit":true,"station_id":"DU","i_lat":-6.155215,"i_long":106.800832,"line":1,"is_transit":true,"time":3},{"station_name":"Angke","station_id":"AK","time":4,"distance":1230,"transit":false,"i_long":106.79867,"is_transit":false,"line":0,"i_lat":-6.144674},{"distance":4102,"line":0,"i_lat":-6.132549,"time":9,"station_name":"Kampung Bandan","is_transit":true,"station_id":"KPB","i_long":106.826365,"transit":false},{"i_lat":-6.137569,"i_long":106.812439,"station_id":"JAKK","line":0,"station_name":"Jakarta Kota","is_transit":true,"time":3,"distance":1364,"transit":true},{"distance":1264,"station_id":"JAY","station_name":"Jayakarta","line":7,"is_transit":false,"i_lat":-6.141205,"time":4,"i_long":106.820901,"transit":false},{"is_transit":false,"i_long":106.82482,"transit":false,"station_name":"Manggabesar","i_lat":-6.149769,"line":2,"distance":1080,"station_id":"MGB","time":2},{"line":2,"station_name":"Sawah Besar","is_transit":false,"transit":false,"time":2,"station_id":"SW","distance":906,"i_long":106.827103,"i_lat":-6.160725},{"transit":false,"station_name":"Juanda","i_lat":-6.166716,"time":2,"distance":1149,"is_transit":false,"station_id":"JUA","line":2,"i_long":106.828284},{"distance":2015,"i_long":106.832183,"transit":false,"i_lat":-6.186295,"time":4,"station_id":"GDD","is_transit":false,"line":2,"station_name":"Gondangdia"},{"station_name":"Cikini","transit":false,"is_transit":false,"line":0,"station_id":"CKI","distance":1750,"i_long":106.840169,"i_lat":-6.198556,"time":3},{"station_id":"MRI","time":4,"i_lat":-6.209883,"station_name":"Manggarai","is_transit":true,"distance":1590,"i_long":106.84912,"line":0,"transit":true},{"time":2,"distance":1275,"station_id":"MTR","i_lat":-6.212485,"transit":false,"i_long":106.858896,"is_transit":false,"station_name":"Matraman","line":1},{"line":0,"distance":1377,"is_transit":true,"transit":false,"station_id":"JNG","time":8,"station_name":"Jatinegara","i_long":106.86807400000001,"i_lat":-6.215091},{"transit":false,"time":3,"line":1,"station_name":"Klender","is_transit":false,"i_long":106.899548,"i_lat":-6.2135,"distance":3395,"station_id":"KLD"},{"distance":3100,"station_name":"Buaran","transit":false,"i_lat":-6.215568,"time":2,"i_long":106.922662,"is_transit":false,"line":0,"station_id":"BUA"},{"i_long":106.939679,"time":1,"line":1,"distance":1305,"station_id":"KLDB","station_name":"Klenderbaru","i_lat":-6.217455,"is_transit":false,"transit":false},{"line":0,"i_lat":-6.219053,"i_long":106.951283,"distance":1385,"time":8,"station_id":"CUK","transit":false,"station_name":"Cakung","is_transit":false},{"line":1,"station_id":"KRI","is_transit":false,"i_long":106.977657,"station_name":"Kranji","time":3,"transit":false,"distance":3097,"i_lat":-6.224515}],[{"station_id":"PI","transit":false,"time":0,"is_transit":false,"distance":0,"i_long":106.679458,"station_name":"Poris","i_lat":-6.169933,"line":5},{"time":3,"distance":2548,"station_id":"KDS","transit":false,"is_transit":false,"line":5,"station_name":"Kalideres","i_long":106.701612,"i_lat":-6.166068},{"transit":false,"i_lat":-6.162758,"line":5,"station_name":"Rawa Buaya","station_id":"RW","time":3,"distance":2504,"i_long":106.723064,"is_transit":false},{"station_id":"BOI","is_transit":false,"distance":1152,"transit":false,"i_lat":-6.159876,"time":4,"i_long":106.737035,"station_name":"Bojongindah","line":0},{"transit":false,"i_lat":-6.1587309999999995,"i_long":106.756522,"line":5,"station_id":"TKO","time":2,"distance":2334,"station_name":"Taman Kota","is_transit":false},{"transit":false,"i_lat":-6.161433,"is_transit":false,"i_long":106.771379,"line":5,"station_id":"PSG","distance":1614,"station_name":"Pesing","time":2},{"time":2,"i_lat":-6.162021,"transit":false,"station_id":"GGL","is_transit":false,"i_long":106.788277,"line":5,"distance":2036,"station_name":"Grogol"},{"distance":1700,"i_lat":-6.155215,"time":3,"is_transit":true,"station_name":"Duri","station_id":"DU","line":1,"transit":true,"i_long":106.800832},{"transit":false,"i_lat":-6.185545,"distance":3632,"i_long":106.811091,"line":1,"time":8,"station_name":"Tanah Abang","station_id":"THB","is_transit":true},{"station_name":"Karet","i_long":106.816351,"distance":2029,"transit":false,"station_id":"KAT","i_lat":-6.20132,"is_transit":false,"time":5,"line":1},{"i_lat":-6.201433,"time":1,"distance":471,"transit":false,"line":1,"station_name":"Sudirman Baru","i_long":106.819881,"is_transit":false,"station_id":"SUDB"},{"i_long":106.822649,"station_id":"SUD","transit":false,"station_name":"Sudirman","distance":280,"i_lat":-6.202263,"time":1,"is_transit":false,"line":1},{"time":4,"is_transit":true,"line":0,"station_id":"MRI","i_long":106.84912,"station_name":"Manggarai","transit":true,"distance":3186,"i_lat":-6.209883},{"station_id":"CKI","station_name":"Cikini","is_transit":false,"transit":false,"time":4,"i_lat":-6.198556,"i_long":106.840169,"line":0,"distance":1590},{"station_name":"Gondangdia","time":3,"is_transit":false,"i_long":106.832183,"transit":false,"distance":1750,"station_id":"GDD","i_lat":-6.186295,"line":2},{"station_id":"JUA","is_transit":false,"i_lat":-6.166716,"line":2,"transit":false,"time":4,"i_long":106.828284,"distance":2015,"station_name":"Juanda"},{"distance":1149,"time":2,"i_lat":-6.160725,"transit":false,"line":2,"is_transit":false,"i_long":106.827103,"station_name":"Sawah Besar","station_id":"SW"},{"transit":false,"i_long":106.82482,"time":2,"station_name":"Manggabesar","line":2,"i_lat":-6.149769,"station_id":"MGB","distance":906,"is_transit":false},{"line":7,"is_transit":false,"distance":1080,"station_name":"Jayakarta","station_id":"JAY","i_lat":-6.141205,"i_long":106.820901,"transit":false,"time":2},{"station_id":"JAKK","station_name":"Jakarta Kota","distance":1264,"transit":true,"i_long":106.812439,"i_lat":-6.137569,"line":0,"is_transit":true,"time":4},{"is_transit":true,"station_name":"Kampung Bandan","transit":true,"i_lat":-6.132549,"distance":1364,"line":0,"time":3,"station_id":"KPB","i_long":106.826365},{"i_lat":-6.14505,"transit":false,"is_transit":false,"station_name":"Rajawali","i_long":106.836569,"line":11,"time":3,"distance":1444,"station_id":"RJW"},{"time":5,"station_id":"KMO","station_name":"Kemayoran","is_transit":false,"i_long":106.839204,"i_lat":-6.161728,"line":11,"transit":false,"distance":1901},{"station_name":"Pasar Senen","i_lat":-6.174784,"line":11,"transit":false,"time":4,"station_id":"PSE","i_long":106.84368,"distance":1436,"is_transit":false},{"transit":false,"line":11,"i_long":106.850107,"station_name":"Gang Sentiong","station_id":"GST","is_transit":false,"i_lat":-6.185975,"time":8,"distance":1567},{"distance":973,"is_transit":false,"time":1,"station_name":"Kramat","station_id":"KMT","transit":false,"i_long":106.855437,"line":11,"i_lat":-6.193792},{"is_transit":false,"i_long":106.861737,"i_lat":-6.209188,"station_id":"POK","distance":1829,"line":11,"time":2,"transit":false,"station_name":"Pondok Jati"},{"is_transit":true,"transit":true,"station_name":"Jatinegara","i_lat":-6.215091,"station_id":"JNG","time":9,"distance":1236,"i_long":106.86807400000001,"line":0},{"distance":3395,"station_name":"Klender","time":3,"is_transit":false,"station_id":"KLD","i_lat":-6.2135,"line":1,"i_long":106.899548,"transit":false},{"station_id":"BUA","station_name":"Buaran","line":0,"transit":false,"is_transit":false,"time":2,"i_lat":-6.215568,"i_long":106.922662,"distance":3100},{"i_lat":-6.217455,"transit":false,"line":1,"time":1,"station_name":"Klenderbaru","distance":1305,"i_long":106.939679,"is_transit":false,"station_id":"KLDB"},{"station_id":"CUK","i_long":106.951283,"time":8,"is_transit":false,"station_name":"Cakung","line":0,"i_lat":-6.219053,"transit":false,"distance":1385},{"i_long":106.977657,"station_id":"KRI","transit":false,"time":3,"distance":3097,"i_lat":-6.224515,"line":1,"station_name":"Kranji","is_transit":false}]]}