{"data":[[{"station_name":"Poris","transit":false,"is_transit":false,"station_id":"PI","distance":0,"i_lat":-6.169933,"i_long":106.679458,"time":0,"line":5},{"i_long":106.701612,"transit":false,"station_name":"Kalideres","i_lat":-6.166068,"line":5,"is_transit":false,"station_id":"KDS","distance":2548,"time":3},{"transit":false,"time":3,"i_lat":-6.162758,"station_id":"RW","is_transit":false,"distance":2504,"station_name":"Rawa Buaya","i_long":106.723064,"line":5},{"distance":1152,"transit":false,"i_long":106.737035,"is_transit":false,"station_name":"Bojongindah","i_lat":-6.159876,"station_id":"BOI","time":4,"line":5},{"time":2,"line":5,"station_name":"Taman Kota","distance":2334,"i_lat":-6.1587309999999995,"station_id":"TKO","is_transit":false,"i_long":106.756522,"transit":false},{"line":5,"station_id":"PSG","i_lat":-6.161433,"transit":false,"station_name":"Pesing","time":2,"is_transit":false,"distance":1614,"i_long":106.771379},{"i_lat":-6.162021,"line":5,"station_id":"GGL","is_transit":false,"transit":false,"time":2,"station_name":"Grogol","i_long":106.788277,"distance":2036},{"line":1,"station_name":"Duri","i_long":106.800832,"distance":1700,"time":3,"station_id":"DU","transit":true,"is_transit":true,"i_lat":-6.155215},{"transit":false,"time":8,"line":1,"station_id":"THB","is_transit":false,"station_name":"Tanah Abang","distance":3632,"i_lat":-6.185545,"i_long":106.811091},{"station_name":"Karet","is_transit":false,"i_lat":-6.20132,"line":1,"station_id":"KAT","distance":2029,"i_long":106.816351,"time":5,"transit":false},{"distance":471,"station_name":"Sudirman Baru","line":1,"transit":false,"is_transit":false,"i_long":106.819881,"i_lat":-6.201433,"time":1,"station_id":"SUDB"},{"transit":false,"station_id":"SUD","is_transit":false,"station_name":"Sudirman","time":1,"i_lat":-6.202263,"line":1,"distance":280,"i_long":106.822649},{"transit":true,"is_transit":true,"distance":3186,"i_lat":-6.209883,"time":4,"i_long":106.84912,"station_name":"Manggarai","station_id":"MRI","line":2},{"station_id":"TEB","i_lat":-6.226659,"station_name":"Tebet","time":4,"line":2,"is_transit":false,"distance":2610,"i_long":106.857948,"transit":false},{"i_lat":-6.242512,"station_id":"CW","line":2,"distance":1230,"is_transit":false,"time":2,"station_name":"Cawang","i_long":106.856607,"transit":false},{"line":2,"time":3,"station_id":"DRN","is_transit":false,"distance":1546,"station_name":"Duren Kalibata","i_lat":-6.255332,"i_long":106.85449,"transit":false},{"time":2,"line":2,"station_id":"PSMB","i_long":106.851577,"transit":false,"distance":824,"station_name":"Pasar Minggu Baru","is_transit":false,"i_lat":-6.263214},{"i_long":106.843999,"transit":false,"is_transit":false,"station_id":"PSM","distance":2380,"station_name":"Pasar Minggu","i_lat":-6.2842400000000005,"time":2,"line":2},{"is_transit":false,"line":2,"i_long":106.838896,"station_name":"Tanjung Barat","distance":2820,"station_id":"TNT","time":4,"i_lat":-6.3080680000000005,"transit":false},{"station_name":"Lenteng Agung","i_long":106.832616,"station_id":"LNA","i_lat":-6.330363,"time":3,"distance":2671,"is_transit":false,"line":2,"transit":false}],[{"i_lat":-6.169933,"i_long":106.679458,"line":5,"station_id":"PI","transit":false,"is_transit":false,"distance":0,"station_name":"Poris","time":0},{"station_name":"Kalideres","i_long":106.701612,"line":5,"is_transit":false,"time":3,"station_id":"KDS","transit":false,"i_lat":-6.166068,"distance":2548},{"station_id":"RW","transit":false,"distance":2504,"station_name":"Rawa Buaya","i_lat":-6.162758,"line":5,"is_transit":false,"i_long":106.723064,"time":3},{"line":5,"distance":1152,"station_id":"BOI","time":4,"station_name":"Bojongindah","i_long":106.737035,"is_transit":false,"i_lat":-6.159876,"transit":false},{"time":2,"i_lat":-6.1587309999999995,"i_long":106.756522,"line":5,"station_id":"TKO","station_name":"Taman Kota","is_transit":false,"distance":2334,"transit":false},{"is_transit":false,"time":2,"i_lat":-6.161433,"line":5,"transit":false,"station_name":"Pesing","i_long":106.771379,"distance":1614,"station_id":"PSG"},{"is_transit":false,"transit":false,"station_id":"GGL","distance":2036,"time":2,"i_lat":-6.162021,"line":5,"station_name":"Grogol","i_long":106.788277},{"station_name":"Duri","is_transit":true,"distance":1700,"i_long":106.800832,"transit":true,"time":3,"line":1,"i_lat":-6.155215,"station_id":"DU"},{"station_id":"AK","station_name":"Angke","i_long":106.79867,"line":1,"i_lat":-6.144674,"is_transit":false,"distance":1230,"time":4,"transit":false},{"transit":true,"distance":4102,"line":4,"time":9,"station_name":"Kampung Bandan","i_long":106.826365,"is_transit":true,"i_lat":-6.132549,"station_id":"KPB"},{"distance":1364,"station_name":"Jakarta Kota","transit":true,"is_transit":true,"i_lat":-6.137569,"line":2,"time":3,"i_long":106.812439,"station_id":"JAKK"},{"distance":1264,"line":2,"time":4,"i_lat":-6.141205,"is_transit":false,"station_name":"Jayakarta","i_long":106.820901,"transit":false,"station_id":"JAY"},{"station_id":"MGB","station_name":"Manggabesar","is_transit":false,"transit":false,"time":2,"i_lat":-6.149769,"distance":1080,"i_long":106.82482,"line":2},{"station_name":"Sawah Besar","i_long":106.827103,"line":2,"station_id":"SW","time":2,"is_transit":false,"i_lat":-6.160725,"distance":906,"transit":false},{"station_name":"Juanda","time":2,"line":2,"is_transit":false,"transit":false,"distance":1149,"i_long":106.828284,"i_lat":-6.166716,"station_id":"JUA"},{"is_transit":false,"station_name":"Gondangdia","line":2,"time":4,"distance":2015,"i_long":106.832183,"transit":false,"station_id":"GDD","i_lat":-6.186295},{"i_lat":-6.198556,"i_long":106.840169,"transit":false,"distance":1750,"station_name":"Cikini","time":3,"is_transit":false,"station_id":"CKI","line":2},{"transit":false,"is_transit":false,"time":4,"station_name":"Manggarai","line":2,"distance":1590,"i_lat":-6.209883,"station_id":"MRI","i_long":106.84912},{"i_lat":-6.226659,"i_long":106.857948,"transit":false,"station_id":"TEB","distance":2610,"line":2,"station_name":"Tebet","is_transit":false,"time":4},{"transit":false,"is_transit":false,"distance":1230,"line":2,"i_long":106.856607,"i_lat":-6.242512,"time":2,"station_id":"CW","station_name":"Cawang"},{"i_lat":-6.255332,"is_transit":false,"distance":1546,"i_long":106.85449,"station_name":"Duren Kalibata","time":3,"line":2,"transit":false,"station_id":"DRN"},{"line":2,"distance":824,"transit":false,"station_id":"PSMB","time":2,"is_transit":false,"i_long":106.851577,"i_lat":-6.263214,"station_name":"Pasar Minggu Baru"},{"distance":2380,"station_id":"PSM","line":2,"i_long":106.843999,"is_transit":false,"time":2,"station_name":"Pasar Minggu","transit":false,"i_lat":-6.2842400000000005},{"i_lat":-6.3080680000000005,"transit":false,"station_id":"TNT","distance":2820,"station_name":"Tanjung Barat","time":4,"i_long":106.838896,"line":2,"is_transit":false},{"is_transit":false,"transit":false,"i_lat":-6.330363,"time":3,"station_id":"LNA","station_name":"Lenteng Agung","i_long":106.832616,"distance":2671,"line":2}],[{"station_name":"Poris","line":5,"station_id":"PI","transit":false,"time":0,"i_lat":-6.169933,"is_transit":false,"distance":0,"i_long":106.679458},{"i_lat":-6.166068,"i_long":106.701612,"is_transit":false,"station_id":"KDS","station_name":"Kalideres","line":5,"transit":false,"time":3,"distance":2548},{"station_name":"Rawa Buaya","line":5,"is_transit":false,"distance":2504,"station_id":"RW","i_lat":-6.162758,"i_long":106.723064,"transit":false,"time":3},{"transit":false,"i_long":106.737035,"i_lat":-6.159876,"is_transit":false,"station_id":"BOI","distance":1152,"time":4,"line":5,"station_name":"Bojongindah"},{"is_transit":false,"station_id":"TKO","time":2,"distance":2334,"i_long":106.756522,"station_name":"Taman Kota","transit":false,"i_lat":-6.1587309999999995,"line":5},{"station_name":"Pesing","i_long":106.771379,"transit":false,"distance":1614,"time":2,"is_transit":false,"i_lat":-6.161433,"station_id":"PSG","line":5},{"i_long":106.788277,"transit":false,"time":2,"station_name":"Grogol","i_lat":-6.162021,"station_id":"GGL","distance":2036,"line":5,"is_transit":false},{"i_lat":-6.155215,"station_name":"Duri","transit":true,"time":3,"is_transit":true,"distance":1700,"i_long":106.800832,"line":1,"station_id":"DU"},{"is_transit":false,"distance":1230,"i_long":106.79867,"i_lat":-6.144674,"line":1,"station_id":"AK","station_name":"Angke","time":4,"transit":false},{"is_transit":true,"i_lat":-6.132549,"line":4,"transit":true,"distance":4102,"time":9,"i_long":106.826365,"station_id":"KPB","station_name":"Kampung Bandan"},{"station_name":"Rajawali","station_id":"RJW","transit":false,"time":3,"i_long":106.836569,"distance":1444,"i_lat":-6.14505,"line":11,"is_transit":false},{"station_id":"KMO","station_name":"Kemayoran","transit":false,"distance":1901,"line":11,"is_transit":false,"i_lat":-6.161728,"time":5,"i_long":106.839204},{"i_lat":-6.174784,"station_name":"Pasar Senen","is_transit":false,"distance":1436,"i_long":106.84368,"line":11,"transit":false,"station_id":"PSE","time":4},{"distance":1567,"time":8,"i_lat":-6.185975,"station_id":"GST","transit":false,"line":11,"i_long":106.850107,"station_name":"Gang Sentiong","is_transit":false},{"i_long":106.855437,"line":11,"station_id":"KMT","station_name":"Kramat","is_transit":false,"time":1,"i_lat":-6.193792,"distance":973,"transit":false},{"transit":false,"line":11,"station_name":"Pondok Jati","i_long":106.861737,"distance":1829,"station_id":"POK","time":2,"is_transit":false,"i_lat":-6.209188},{"time":9,"i_long":106.86807400000001,"i_lat":-6.215091,"transit":true,"station_id":"JNG","line":1,"is_transit":true,"distance":1236,"station_name":"Jatinegara"},{"i_lat":-6.212485,"station_name":"Matraman","i_long":106.858896,"transit":false,"is_transit":false,"time":2,"line":1,"station_id":"MTR","distance":1377},{"distance":1275,"time":2,"transit":true,"station_id":"MRI","i_long":106.84912,"line":2,"is_transit":true,"i_lat":-6.209883,"station_name":"Manggarai"},{"line":2,"transit":false,"is_transit":false,"i_lat":-6.226659,"station_id":"TEB","distance":2610,"time":4,"i_long":106.857948,"station_name":"Tebet"},{"transit":false,"time":2,"station_id":"CW","station_name":"Cawang","i_long":106.856607,"is_transit":false,"distance":1230,"line":2,"i_lat":-6.242512},{"station_name":"Duren Kalibata","is_transit":false,"line":2,"distance":1546,"time":3,"transit":false,"i_long":106.85449,"i_lat":-6.255332,"station_id":"DRN"},{"line":2,"transit":false,"station_id":"PSMB","distance":824,"time":2,"is_transit":false,"i_lat":-6.263214,"i_long":106.851577,"station_name":"Pasar Minggu Baru"},{"is_transit":false,"station_name":"Pasar Minggu","i_long":106.843999,"transit":false,"station_id":"PSM","i_lat":-6.2842400000000005,"line":2,"distance":2380,"time":2},{"transit":false,"is_transit":false,"i_long":106.838896,"station_id":"TNT","distance":2820,"station_name":"Tanjung Barat","time":4,"i_lat":-6.3080680000000005,"line":2},{"line":2,"station_id":"LNA","is_transit":false,"distance":2671,"transit":false,"station_name":"Lenteng Agung","time":3,"i_lat":-6.330363,"i_long":106.832616}]]}