{"data":[[{"line":5,"time":0,"is_transit":false,"distance":0,"transit":false,"station_name":"Poris","i_lat":-6.169933,"station_id":"PI","i_long":106.679458},{"station_name":"Kalideres","transit":false,"station_id":"KDS","i_long":106.701612,"i_lat":-6.166068,"distance":2548,"is_transit":false,"line":5,"time":3},{"i_long":106.723064,"i_lat":-6.162758,"station_name":"Rawa Buaya","time":3,"line":5,"transit":false,"station_id":"RW","is_transit":false,"distance":2504},{"i_lat":-6.159876,"station_id":"BOI","transit":false,"station_name":"Bojongindah","distance":1152,"is_transit":false,"i_long":106.737035,"time":4,"line":5},{"station_id":"TKO","i_lat":-6.1587309999999995,"is_transit":false,"line":5,"transit":false,"time":2,"distance":2334,"i_long":106.756522,"station_name":"Taman Kota"},{"station_id":"PSG","distance":1614,"transit":false,"i_long":106.771379,"time":2,"is_transit":false,"station_name":"Pesing","i_lat":-6.161433,"line":5},{"is_transit":false,"transit":false,"station_name":"Grogol","i_long":106.788277,"station_id":"GGL","distance":2036,"time":2,"i_lat":-6.162021,"line":5},{"i_long":106.800832,"i_lat":-6.155215,"line":1,"station_name":"Duri","transit":true,"distance":1700,"station_id":"DU","is_transit":true,"time":3},{"i_lat":-6.185545,"distance":3632,"i_long":106.811091,"station_id":"THB","station_name":"Tanah Abang","transit":false,"time":8,"is_transit":false,"line":1},{"distance":2029,"is_transit":false,"station_name":"Karet","transit":false,"time":5,"i_long":106.816351,"i_lat":-6.20132,"station_id":"KAT","line":1},{"i_lat":-6.201433,"distance":471,"station_name":"Sudirman Baru","is_transit":false,"transit":false,"station_id":"SUDB","time":1,"i_long":106.819881,"line":1},{"station_name":"Sudirman","station_id":"SUD","distance":280,"is_transit":false,"time":1,"i_lat":-6.202263,"i_long":106.822649,"transit":false,"line":1},{"station_id":"MRI","time":4,"i_lat":-6.209883,"is_transit":true,"station_name":"Manggarai","line":2,"transit":true,"i_long":106.84912,"distance":3186},{"distance":2610,"station_id":"TEB","transit":false,"is_transit":false,"i_long":106.857948,"station_name":"Tebet","time":4,"line":2,"i_lat":-6.226659},{"station_name":"Cawang","line":2,"distance":1230,"i_long":106.856607,"i_lat":-6.242512,"time":2,"station_id":"CW","transit":false,"is_transit":false},{"time":3,"station_name":"Duren Kalibata","i_lat":-6.255332,"i_long":106.85449,"station_id":"DRN","distance":1546,"line":2,"transit":false,"is_transit":false},{"time":2,"distance":824,"i_lat":-6.263214,"i_long":106.851577,"is_transit":false,"line":2,"transit":false,"station_name":"Pasar Minggu Baru","station_id":"PSMB"},{"i_lat":-6.2842400000000005,"distance":2380,"station_id":"PSM","is_transit":false,"time":2,"transit":false,"line":2,"i_long":106.843999,"station_name":"Pasar Minggu"},{"is_transit":false,"i_long":106.838896,"transit":false,"distance":2820,"station_id":"TNT","line":2,"station_name":"Tanjung Barat","time":4,"i_lat":-6.3080680000000005},{"distance":2671,"i_lat":-6.330363,"i_long":106.832616,"line":2,"station_id":"LNA","time":3,"transit":false,"station_name":"Lenteng Agung","is_transit":false}],[{"distance":0,"i_lat":-6.169933,"transit":false,"is_transit":false,"station_id":"PI","time":0,"i_long":106.679458,"line":5,"station_name":"Poris"},{"time":3,"station_name":"Kalideres","station_id":"KDS","transit":false,"is_transit":false,"line":5,"distance":2548,"i_lat":-6.166068,"i_long":106.701612},{"i_long":106.723064,"line":5,"station_id":"RW","distance":2504,"is_transit":false,"i_lat":-6.162758,"station_name":"Rawa Buaya","transit":false,"time":3},{"transit":false,"station_name":"Bojongindah","distance":1152,"station_id":"BOI","i_lat":-6.159876,"is_transit":false,"time":4,"line":5,"i_long":106.737035},{"distance":2334,"i_lat":-6.1587309999999995,"is_transit":false,"line":5,"station_name":"Taman Kota","station_id":"TKO","time":2,"i_long":106.756522,"transit":false},{"station_id":"PSG","time":2,"is_transit":false,"line":5,"station_name":"Pesing","i_long":106.771379,"i_lat":-6.161433,"transit":false,"distance":1614},{"station_name":"Grogol","transit":false,"line":5,"is_transit":false,"i_long":106.788277,"distance":2036,"station_id":"GGL","time":2,"i_lat":-6.162021},{"time":3,"is_transit":true,"i_long":106.800832,"station_name":"Duri","transit":true,"i_lat":-6.155215,"station_id":"DU","distance":1700,"line":1},{"time":4,"distance":1230,"i_lat":-6.144674,"i_long":106.79867,"station_name":"Angke","is_transit":false,"line":1,"transit":false,"station_id":"AK"},{"i_lat":-6.132549,"i_long":106.826365,"station_id":"KPB","distance":4102,"station_name":"Kampung Bandan","time":9,"transit":true,"line":4,"is_transit":true},{"i_long":106.812439,"station_id":"JAKK","time":3,"line":2,"distance":1364,"station_name":"Jakarta Kota","transit":true,"is_transit":true,"i_lat":-6.137569},{"distance":1264,"station_name":"Jayakarta","station_id":"JAY","is_transit":false,"i_long":106.820901,"transit":false,"i_lat":-6.141205,"line":2,"time":4},{"time":2,"station_id":"MGB","is_transit":false,"transit":false,"i_long":106.82482,"distance":1080,"line":2,"i_lat":-6.149769,"station_name":"Manggabesar"},{"i_lat":-6.160725,"distance":906,"i_long":106.827103,"line":2,"transit":false,"time":2,"station_id":"SW","is_transit":false,"station_name":"Sawah Besar"},{"station_name":"Juanda","is_transit":false,"distance":1149,"station_id":"JUA","i_lat":-6.166716,"transit":false,"time":2,"line":2,"i_long":106.828284},{"i_lat":-6.186295,"station_id":"GDD","distance":2015,"is_transit":false,"line":2,"time":4,"transit":false,"i_long":106.832183,"station_name":"Gondangdia"},{"distance":1750,"line":2,"station_id":"CKI","time":3,"transit":false,"station_name":"Cikini","i_lat":-6.198556,"is_transit":false,"i_long":106.840169},{"station_id":"MRI","time":4,"line":2,"transit":false,"i_lat":-6.209883,"is_transit":false,"distance":1590,"i_long":106.84912,"station_name":"Manggarai"},{"transit":false,"distance":2610,"i_long":106.857948,"time":4,"i_lat":-6.226659,"line":2,"station_id":"TEB","station_name":"Tebet","is_transit":false},{"transit":false,"distance":1230,"station_id":"CW","is_transit":false,"time":2,"station_name":"Cawang","line":2,"i_lat":-6.242512,"i_long":106.856607},{"time":3,"transit":false,"distance":1546,"line":2,"station_id":"DRN","i_lat":-6.255332,"station_name":"Duren Kalibata","is_transit":false,"i_long":106.85449},{"i_lat":-6.263214,"transit":false,"station_name":"Pasar Minggu Baru","is_transit":false,"line":2,"distance":824,"station_id":"PSMB","time":2,"i_long":106.851577},{"line":2,"i_long":106.843999,"i_lat":-6.2842400000000005,"station_id":"PSM","time":2,"station_name":"Pasar Minggu","distance":2380,"transit":false,"is_transit":false},{"line":2,"distance":2820,"i_long":106.838896,"transit":false,"i_lat":-6.3080680000000005,"is_transit":false,"station_name":"Tanjung Barat","station_id":"TNT","time":4},{"station_id":"LNA","distance":2671,"i_lat":-6.330363,"station_name":"Lenteng Agung","is_transit":false,"time":3,"i_long":106.832616,"line":2,"transit":false}],[{"line":5,"i_lat":-6.169933,"station_name":"Poris","transit":false,"i_long":106.679458,"distance":0,"station_id":"PI","time":0,"is_transit":false},{"i_lat":-6.166068,"station_name":"Kalideres","distance":2548,"i_long":106.701612,"transit":false,"station_id":"KDS","time":3,"line":5,"is_transit":false},{"station_name":"Rawa Buaya","is_transit":false,"i_lat":-6.162758,"i_long":106.723064,"line":5,"distance":2504,"transit":false,"station_id":"RW","time":3},{"transit":false,"distance":1152,"line":5,"is_transit":false,"time":4,"station_name":"Bojongindah","i_lat":-6.159876,"station_id":"BOI","i_long":106.737035},{"station_name":"Taman Kota","time":2,"distance":2334,"i_lat":-6.1587309999999995,"is_transit":false,"transit":false,"i_long":106.756522,"line":5,"station_id":"TKO"},{"i_lat":-6.161433,"is_transit":false,"i_long":106.771379,"station_id":"PSG","line":5,"time":2,"distance":1614,"station_name":"Pesing","transit":false},{"is_transit":false,"i_long":106.788277,"line":5,"time":2,"station_name":"Grogol","distance":2036,"station_id":"GGL","i_lat":-6.162021,"transit":false},{"line":1,"is_transit":true,"station_name":"Duri","distance":1700,"station_id":"DU","i_lat":-6.155215,"time":3,"transit":true,"i_long":106.800832},{"transit":false,"is_transit":false,"time":4,"i_long":106.79867,"line":1,"station_name":"Angke","station_id":"AK","distance":1230,"i_lat":-6.144674},{"line":4,"distance":4102,"station_name":"Kampung Bandan","transit":true,"station_id":"KPB","is_transit":true,"time":9,"i_lat":-6.132549,"i_long":106.826365},{"distance":1444,"station_id":"RJW","time":3,"station_name":"Rajawali","i_long":106.836569,"line":11,"is_transit":false,"transit":false,"i_lat":-6.14505},{"distance":1901,"is_transit":false,"time":5,"station_name":"Kemayoran","transit":false,"i_lat":-6.161728,"i_long":106.839204,"line":11,"station_id":"KMO"},{"station_id":"PSE","is_transit":false,"distance":1436,"i_lat":-6.174784,"transit":false,"time":4,"line":11,"station_name":"Pasar Senen","i_long":106.84368},{"i_long":106.850107,"distance":1567,"time":8,"station_id":"GST","transit":false,"is_transit":false,"line":11,"i_lat":-6.185975,"station_name":"Gang Sentiong"},{"i_lat":-6.193792,"distance":973,"i_long":106.855437,"station_id":"KMT","is_transit":false,"time":1,"line":11,"transit":false,"station_name":"Kramat"},{"distance":1829,"station_id":"POK","transit":false,"time":2,"i_lat":-6.209188,"i_long":106.861737,"line":11,"is_transit":false,"station_name":"Pondok Jati"},{"time":9,"i_lat":-6.215091,"is_transit":true,"station_id":"JNG","i_long":106.86807400000001,"station_name":"Jatinegara","line":1,"transit":true,"distance":1236},{"i_lat":-6.212485,"is_transit":false,"i_long":106.858896,"transit":false,"line":1,"time":2,"distance":1377,"station_id":"MTR","station_name":"Matraman"},{"distance":1275,"line":2,"i_lat":-6.209883,"time":2,"transit":true,"station_id":"MRI","is_transit":true,"i_long":106.84912,"station_name":"Manggarai"},{"line":2,"i_lat":-6.226659,"distance":2610,"station_id":"TEB","is_transit":false,"i_long":106.857948,"station_name":"Tebet","transit":false,"time":4},{"station_name":"Cawang","i_lat":-6.242512,"i_long":106.856607,"time":2,"line":2,"station_id":"CW","transit":false,"is_transit":false,"distance":1230},{"line":2,"station_id":"DRN","station_name":"Duren Kalibata","distance":1546,"transit":false,"i_long":106.85449,"time":3,"i_lat":-6.255332,"is_transit":false},{"transit":false,"distance":824,"is_transit":false,"station_name":"Pasar Minggu Baru","line":2,"time":2,"station_id":"PSMB","i_long":106.851577,"i_lat":-6.263214},{"station_name":"Pasar Minggu","i_long":106.843999,"is_transit":false,"distance":2380,"transit":false,"line":2,"station_id":"PSM","time":2,"i_lat":-6.2842400000000005},{"distance":2820,"transit":false,"is_transit":false,"time":4,"i_lat":-6.3080680000000005,"line":2,"station_id":"TNT","i_long":106.838896,"station_name":"Tanjung Barat"},{"line":2,"transit":false,"distance":2671,"station_id":"LNA","i_long":106.832616,"station_name":"Lenteng Agung","time":3,"i_lat":-6.330363,"is_transit":false}]]}