{"data":[[{"line":5,"station_id":"PI","i_long":106.679458,"time":0,"transit":false,"i_lat":-6.169933,"station_name":"Poris","is_transit":false,"distance":0},{"transit":false,"is_transit":false,"line":5,"time":3,"station_id":"KDS","station_name":"Kalideres","i_long":106.701612,"i_lat":-6.166068,"distance":2548},{"line":5,"station_id":"RW","is_transit":false,"i_lat":-6.162758,"station_name":"Rawa Buaya","i_long":106.723064,"distance":2504,"time":3,"transit":false},{"station_name":"Bojongindah","distance":1152,"transit":false,"i_long":106.737035,"i_lat":-6.159876,"station_id":"BOI","line":5,"time":4,"is_transit":false},{"distance":2334,"station_name":"Taman Kota","i_long":106.756522,"line":5,"transit":false,"time":2,"station_id":"TKO","is_transit":false,"i_lat":-6.1587309999999995},{"line":5,"station_name":"Pesing","i_lat":-6.161433,"time":2,"transit":false,"is_transit":false,"station_id":"PSG","distance":1614,"i_long":106.771379},{"i_long":106.788277,"transit":false,"distance":2036,"station_name":"Grogol","line":5,"station_id":"GGL","time":2,"is_transit":false,"i_lat":-6.162021},{"transit":true,"distance":1700,"is_transit":true,"i_lat":-6.155215,"i_long":106.800832,"station_name":"Duri","station_id":"DU","time":3,"line":1},{"distance":3632,"i_lat":-6.185545,"transit":false,"station_name":"Tanah Abang","station_id":"THB","time":8,"line":1,"is_transit":false,"i_long":106.811091},{"distance":2029,"station_id":"KAT","i_lat":-6.20132,"i_long":106.816351,"is_transit":false,"station_name":"Karet","transit":false,"line":1,"time":5},{"line":1,"station_name":"Sudirman Baru","transit":false,"time":1,"station_id":"SUDB","i_lat":-6.201433,"distance":471,"i_long":106.819881,"is_transit":false},{"station_id":"SUD","transit":false,"station_name":"Sudirman","distance":280,"i_lat":-6.202263,"line":1,"is_transit":false,"i_long":106.822649,"time":1},{"distance":3186,"line":2,"is_transit":true,"time":4,"i_long":106.84912,"station_id":"MRI","i_lat":-6.209883,"transit":true,"station_name":"Manggarai"},{"i_lat":-6.226659,"distance":2610,"station_id":"TEB","is_transit":false,"time":4,"i_long":106.857948,"line":2,"transit":false,"station_name":"Tebet"},{"transit":false,"i_lat":-6.242512,"is_transit":false,"time":2,"station_name":"Cawang","i_long":106.856607,"distance":1230,"station_id":"CW","line":2},{"is_transit":false,"time":3,"i_long":106.85449,"station_name":"Duren Kalibata","line":2,"station_id":"DRN","transit":false,"distance":1546,"i_lat":-6.255332},{"time":2,"station_name":"Pasar Minggu Baru","i_long":106.851577,"line":2,"station_id":"PSMB","is_transit":false,"transit":false,"distance":824,"i_lat":-6.263214},{"line":2,"is_transit":false,"station_name":"Pasar Minggu","i_long":106.843999,"i_lat":-6.2842400000000005,"distance":2380,"transit":false,"time":2,"station_id":"PSM"},{"line":2,"transit":false,"station_name":"Tanjung Barat","time":4,"station_id":"TNT","i_lat":-6.3080680000000005,"is_transit":false,"i_long":106.838896,"distance":2820},{"transit":false,"station_name":"Lenteng Agung","time":3,"distance":2671,"i_long":106.832616,"is_transit":false,"station_id":"LNA","line":2,"i_lat":-6.330363}],[{"line":5,"distance":0,"transit":false,"station_id":"PI","is_transit":false,"i_lat":-6.169933,"i_long":106.679458,"time":0,"station_name":"Poris"},{"station_id":"KDS","distance":2548,"station_name":"Kalideres","time":3,"i_lat":-6.166068,"i_long":106.701612,"transit":false,"is_transit":false,"line":5},{"station_id":"RW","line":5,"i_long":106.723064,"transit":false,"i_lat":-6.162758,"station_name":"Rawa Buaya","is_transit":false,"distance":2504,"time":3},{"transit":false,"i_long":106.737035,"station_id":"BOI","station_name":"Bojongindah","time":4,"distance":1152,"is_transit":false,"line":5,"i_lat":-6.159876},{"transit":false,"station_name":"Taman Kota","station_id":"TKO","is_transit":false,"time":2,"distance":2334,"i_lat":-6.1587309999999995,"line":5,"i_long":106.756522},{"i_long":106.771379,"time":2,"transit":false,"station_id":"PSG","station_name":"Pesing","line":5,"i_lat":-6.161433,"distance":1614,"is_transit":false},{"i_long":106.788277,"station_name":"Grogol","distance":2036,"station_id":"GGL","transit":false,"time":2,"line":5,"is_transit":false,"i_lat":-6.162021},{"distance":1700,"line":1,"time":3,"transit":true,"station_name":"Duri","i_long":106.800832,"i_lat":-6.155215,"is_transit":true,"station_id":"DU"},{"time":4,"i_lat":-6.144674,"i_long":106.79867,"distance":1230,"is_transit":false,"station_name":"Angke","transit":false,"line":1,"station_id":"AK"},{"station_id":"KPB","time":9,"i_lat":-6.132549,"i_long":106.826365,"line":4,"transit":true,"is_transit":true,"station_name":"Kampung Bandan","distance":4102},{"station_id":"JAKK","transit":true,"time":3,"i_lat":-6.137569,"station_name":"Jakarta Kota","line":2,"is_transit":true,"distance":1364,"i_long":106.812439},{"i_lat":-6.141205,"transit":false,"station_name":"Jayakarta","i_long":106.820901,"station_id":"JAY","time":4,"distance":1264,"line":2,"is_transit":false},{"time":2,"transit":false,"station_id":"MGB","is_transit":false,"distance":1080,"i_lat":-6.149769,"station_name":"Manggabesar","i_long":106.82482,"line":2},{"line":2,"transit":false,"i_lat":-6.160725,"distance":906,"is_transit":false,"time":2,"station_name":"Sawah Besar","station_id":"SW","i_long":106.827103},{"time":2,"transit":false,"distance":1149,"is_transit":false,"i_long":106.828284,"i_lat":-6.166716,"station_name":"Juanda","station_id":"JUA","line":2},{"station_name":"Gondangdia","i_lat":-6.186295,"station_id":"GDD","i_long":106.832183,"line":2,"is_transit":false,"transit":false,"time":4,"distance":2015},{"i_lat":-6.198556,"distance":1750,"station_name":"Cikini","i_long":106.840169,"station_id":"CKI","is_transit":false,"time":3,"line":2,"transit":false},{"station_name":"Manggarai","is_transit":false,"station_id":"MRI","transit":false,"time":4,"distance":1590,"i_lat":-6.209883,"i_long":106.84912,"line":2},{"station_name":"Tebet","distance":2610,"is_transit":false,"i_long":106.857948,"station_id":"TEB","time":4,"i_lat":-6.226659,"line":2,"transit":false},{"line":2,"i_long":106.856607,"distance":1230,"i_lat":-6.242512,"station_name":"Cawang","is_transit":false,"transit":false,"station_id":"CW","time":2},{"distance":1546,"is_transit":false,"line":2,"time":3,"i_lat":-6.255332,"i_long":106.85449,"station_id":"DRN","station_name":"Duren Kalibata","transit":false},{"distance":824,"i_lat":-6.263214,"transit":false,"line":2,"time":2,"station_name":"Pasar Minggu Baru","station_id":"PSMB","i_long":106.851577,"is_transit":false},{"distance":2380,"line":2,"is_transit":false,"station_name":"Pasar Minggu","time":2,"i_lat":-6.2842400000000005,"i_long":106.843999,"transit":false,"station_id":"PSM"},{"i_lat":-6.3080680000000005,"i_long":106.838896,"transit":false,"station_id":"TNT","time":4,"line":2,"distance":2820,"station_name":"Tanjung Barat","is_transit":false},{"station_id":"LNA","time":3,"transit":false,"distance":2671,"is_transit":false,"station_name":"Lenteng Agung","i_long":106.832616,"line":2,"i_lat":-6.330363}],[{"i_long":106.679458,"is_transit":false,"time":0,"distance":0,"i_lat":-6.169933,"station_name":"Poris","transit":false,"line":5,"station_id":"PI"},{"transit":false,"i_lat":-6.166068,"station_id":"KDS","distance":2548,"i_long":106.701612,"is_transit":false,"station_name":"Kalideres","line":5,"time":3},{"transit":false,"station_name":"Rawa Buaya","i_lat":-6.162758,"i_long":106.723064,"distance":2504,"time":3,"is_transit":false,"station_id":"RW","line":5},{"distance":1152,"is_transit":false,"station_id":"BOI","i_long":106.737035,"line":5,"station_name":"Bojongindah","time":4,"transit":false,"i_lat":-6.159876},{"station_id":"TKO","transit":false,"line":5,"i_long":106.756522,"is_transit":false,"distance":2334,"i_lat":-6.1587309999999995,"time":2,"station_name":"Taman Kota"},{"station_id":"PSG","i_long":106.771379,"is_transit":false,"station_name":"Pesing","i_lat":-6.161433,"line":5,"time":2,"transit":false,"distance":1614},{"station_id":"GGL","time":2,"distance":2036,"line":5,"is_transit":false,"transit":false,"station_name":"Grogol","i_long":106.788277,"i_lat":-6.162021},{"is_transit":true,"i_long":106.800832,"station_name":"Duri","time":3,"transit":true,"station_id":"DU","i_lat":-6.155215,"distance":1700,"line":1},{"station_name":"Angke","station_id":"AK","i_lat":-6.144674,"is_transit":false,"time":4,"transit":false,"distance":1230,"i_long":106.79867,"line":1},{"time":9,"transit":true,"is_transit":true,"distance":4102,"i_lat":-6.132549,"station_id":"KPB","station_name":"Kampung Bandan","i_long":106.826365,"line":4},{"i_lat":-6.14505,"distance":1444,"line":11,"station_name":"Rajawali","time":3,"i_long":106.836569,"station_id":"RJW","transit":false,"is_transit":false},{"i_lat":-6.161728,"station_id":"KMO","distance":1901,"time":5,"station_name":"Kemayoran","transit":false,"i_long":106.839204,"line":11,"is_transit":false},{"station_name":"Pasar Senen","distance":1436,"station_id":"PSE","is_transit":false,"time":4,"line":11,"i_long":106.84368,"i_lat":-6.174784,"transit":false},{"distance":1567,"line":11,"station_name":"Gang Sentiong","time":8,"i_lat":-6.185975,"station_id":"GST","is_transit":false,"transit":false,"i_long":106.850107},{"station_id":"KMT","i_lat":-6.193792,"transit":false,"distance":973,"i_long":106.855437,"is_transit":false,"station_name":"Kramat","line":11,"time":1},{"station_name":"Pondok Jati","time":2,"is_transit":false,"distance":1829,"i_lat":-6.209188,"i_long":106.861737,"line":11,"station_id":"POK","transit":false},{"is_transit":true,"line":1,"distance":1236,"transit":true,"station_name":"Jatinegara","i_lat":-6.215091,"time":9,"i_long":106.86807400000001,"station_id":"JNG"},{"line":1,"transit":false,"station_name":"Matraman","i_lat":-6.212485,"time":2,"is_transit":false,"i_long":106.858896,"station_id":"MTR","distance":1377},{"transit":true,"is_transit":true,"distance":1275,"i_long":106.84912,"line":2,"i_lat":-6.209883,"time":2,"station_id":"MRI","station_name":"Manggarai"},{"i_long":106.857948,"line":2,"time":4,"distance":2610,"station_name":"Tebet","i_lat":-6.226659,"transit":false,"is_transit":false,"station_id":"TEB"},{"line":2,"is_transit":false,"i_long":106.856607,"distance":1230,"transit":false,"time":2,"station_name":"Cawang","station_id":"CW","i_lat":-6.242512},{"time":3,"station_name":"Duren Kalibata","station_id":"DRN","transit":false,"is_transit":false,"distance":1546,"i_lat":-6.255332,"line":2,"i_long":106.85449},{"transit":false,"i_lat":-6.263214,"i_long":106.851577,"station_id":"PSMB","station_name":"Pasar Minggu Baru","time":2,"is_transit":false,"distance":824,"line":2},{"time":2,"i_lat":-6.2842400000000005,"i_long":106.843999,"transit":false,"line":2,"distance":2380,"station_name":"Pasar Minggu","station_id":"PSM","is_transit":false},{"distance":2820,"is_transit":false,"i_long":106.838896,"transit":false,"station_name":"Tanjung Barat","time":4,"station_id":"TNT","i_lat":-6.3080680000000005,"line":2},{"line":2,"distance":2671,"station_name":"Lenteng Agung","is_transit":false,"i_long":106.832616,"time":3,"transit":false,"station_id":"LNA","i_lat":-6.330363}]]}