{"data":[[{"station_name":"Poris","is_transit":false,"i_long":106.679458,"distance":0,"line":5,"transit":false,"i_lat":-6.169933,"time":0,"station_id":"PI"},{"distance":2548,"transit":false,"i_lat":-6.166068,"time":3,"station_name":"Kalideres","station_id":"KDS","i_long":106.701612,"line":5,"is_transit":false},{"i_lat":-6.162758,"i_long":106.723064,"time":3,"station_id":"RW","station_name":"Rawa Buaya","is_transit":false,"transit":false,"line":5,"distance":2504},{"time":4,"is_transit":false,"station_id":"BOI","transit":false,"distance":1152,"i_long":106.737035,"line":0,"station_name":"Bojongindah","i_lat":-6.159876},{"is_transit":false,"station_name":"Taman Kota","i_long":106.756522,"i_lat":-6.1587309999999995,"line":5,"distance":2334,"time":2,"transit":false,"station_id":"TKO"},{"i_long":106.771379,"line":5,"station_id":"PSG","time":2,"is_transit":false,"i_lat":-6.161433,"station_name":"Pesing","distance":1614,"transit":false},{"distance":2036,"i_long":106.788277,"transit":false,"line":5,"is_transit":false,"i_lat":-6.162021,"time":2,"station_name":"Grogol","station_id":"GGL"},{"distance":1700,"transit":true,"station_id":"DU","i_long":106.800832,"line":1,"i_lat":-6.155215,"is_transit":true,"time":3,"station_name":"Duri"},{"i_long":106.811091,"line":1,"distance":3632,"is_transit":true,"i_lat":-6.185545,"time":8,"station_name":"Tanah Abang","station_id":"THB","transit":false},{"time":5,"station_id":"KAT","transit":false,"station_name":"Karet","i_long":106.816351,"i_lat":-6.20132,"line":1,"distance":2029,"is_transit":false},{"is_transit":false,"line":1,"i_lat":-6.201433,"time":1,"i_long":106.819881,"station_id":"SUDB","distance":471,"station_name":"Sudirman Baru","transit":false},{"is_transit":false,"time":1,"station_id":"SUD","distance":280,"line":1,"station_name":"Sudirman","transit":false,"i_lat":-6.202263,"i_long":106.822649},{"station_id":"MRI","station_name":"Manggarai","transit":true,"distance":3186,"i_lat":-6.209883,"time":4,"i_long":106.84912,"is_transit":true,"line":0},{"is_transit":false,"i_long":106.857948,"station_name":"Tebet","time":4,"i_lat":-6.226659,"distance":2610,"station_id":"TEB","line":2,"transit":false},{"time":2,"is_transit":false,"line":0,"i_lat":-6.242512,"transit":false,"distance":1230,"station_id":"CW","i_long":106.856607,"station_name":"Cawang"},{"time":3,"station_name":"Duren Kalibata","station_id":"DRN","is_transit":false,"line":0,"i_long":106.85449,"i_lat":-6.255332,"distance":1546,"transit":false},{"i_lat":-6.263214,"transit":false,"station_name":"Pasar Minggu Baru","station_id":"PSMB","i_long":106.851577,"distance":824,"line":2,"time":2,"is_transit":false},{"is_transit":false,"i_long":106.843999,"line":2,"time":2,"distance":2380,"i_lat":-6.2842400000000005,"station_name":"Pasar Minggu","transit":false,"station_id":"PSM"},{"i_long":106.838896,"time":4,"station_id":"TNT","line":2,"distance":2820,"station_name":"Tanjung Barat","is_transit":false,"i_lat":-6.3080680000000005,"transit":false},{"station_name":"Lenteng Agung","distance":2671,"time":3,"station_id":"LNA","line":2,"transit":false,"i_lat":-6.330363,"is_transit":false,"i_long":106.832616}],[{"station_id":"PI","station_name":"Poris","i_long":106.679458,"line":5,"time":0,"transit":false,"is_transit":false,"i_lat":-6.169933,"distance":0},{"is_transit":false,"i_long":106.701612,"distance":2548,"i_lat":-6.166068,"line":5,"station_name":"Kalideres","station_id":"KDS","transit":false,"time":3},{"i_long":106.723064,"line":5,"distance":2504,"i_lat":-6.162758,"time":3,"station_name":"Rawa Buaya","station_id":"RW","is_transit":false,"transit":false},{"is_transit":false,"i_long":106.737035,"transit":false,"station_id":"BOI","line":0,"station_name":"Bojongindah","time":4,"distance":1152,"i_lat":-6.159876},{"is_transit":false,"i_lat":-6.1587309999999995,"line":5,"transit":false,"time":2,"station_name":"Taman Kota","station_id":"TKO","i_long":106.756522,"distance":2334},{"station_id":"PSG","time":2,"distance":1614,"i_long":106.771379,"line":5,"is_transit":false,"station_name":"Pesing","transit":false,"i_lat":-6.161433},{"distance":2036,"line":5,"time":2,"is_transit":false,"station_id":"GGL","transit":false,"i_long":106.788277,"i_lat":-6.162021,"station_name":"Grogol"},{"i_lat":-6.155215,"line":1,"time":3,"is_transit":true,"i_long":106.800832,"station_name":"Duri","station_id":"DU","distance":1700,"transit":true},{"is_transit":false,"time":4,"station_id":"AK","line":0,"station_name":"Angke","transit":false,"distance":1230,"i_lat":-6.144674,"i_long":106.79867},{"time":9,"station_name":"Kampung Bandan","is_transit":true,"line":0,"i_long":106.826365,"station_id":"KPB","distance":4102,"transit":false,"i_lat":-6.132549},{"time":3,"transit":true,"distance":1364,"station_name":"Jakarta Kota","station_id":"JAKK","is_transit":true,"i_lat":-6.137569,"i_long":106.812439,"line":0},{"station_id":"JAY","i_long":106.820901,"time":4,"distance":1264,"i_lat":-6.141205,"is_transit":false,"station_name":"Jayakarta","line":7,"transit":false},{"distance":1080,"station_name":"Manggabesar","i_lat":-6.149769,"is_transit":false,"station_id":"MGB","i_long":106.82482,"transit":false,"line":2,"time":2},{"is_transit":false,"i_lat":-6.160725,"distance":906,"station_id":"SW","time":2,"transit":false,"station_name":"Sawah Besar","i_long":106.827103,"line":2},{"i_long":106.828284,"time":2,"i_lat":-6.166716,"station_id":"JUA","distance":1149,"station_name":"Juanda","transit":false,"is_transit":false,"line":2},{"transit":false,"i_long":106.832183,"i_lat":-6.186295,"line":2,"station_id":"GDD","is_transit":false,"station_name":"Gondangdia","time":4,"distance":2015},{"station_id":"CKI","distance":1750,"station_name":"Cikini","is_transit":false,"transit":false,"i_lat":-6.198556,"i_long":106.840169,"line":0,"time":3},{"station_id":"MRI","station_name":"Manggarai","time":4,"transit":true,"is_transit":true,"i_lat":-6.209883,"i_long":106.84912,"distance":1590,"line":0},{"line":2,"i_long":106.857948,"time":4,"station_name":"Tebet","is_transit":false,"transit":false,"i_lat":-6.226659,"distance":2610,"station_id":"TEB"},{"i_lat":-6.242512,"distance":1230,"station_id":"CW","i_long":106.856607,"line":0,"time":2,"transit":false,"station_name":"Cawang","is_transit":false},{"i_lat":-6.255332,"station_name":"Duren Kalibata","station_id":"DRN","i_long":106.85449,"transit":false,"is_transit":false,"distance":1546,"line":0,"time":3},{"is_transit":false,"transit":false,"station_name":"Pasar Minggu Baru","station_id":"PSMB","time":2,"i_lat":-6.263214,"line":2,"i_long":106.851577,"distance":824},{"is_transit":false,"transit":false,"station_name":"Pasar Minggu","i_lat":-6.2842400000000005,"line":2,"time":2,"station_id":"PSM","i_long":106.843999,"distance":2380},{"station_id":"TNT","station_name":"Tanjung Barat","is_transit":false,"distance":2820,"transit":false,"i_lat":-6.3080680000000005,"i_long":106.838896,"time":4,"line":2},{"time":3,"distance":2671,"line":2,"station_name":"Lenteng Agung","station_id":"LNA","transit":false,"i_lat":-6.330363,"is_transit":false,"i_long":106.832616}],[{"is_transit":false,"transit":false,"station_name":"Poris","line":5,"time":0,"station_id":"PI","distance":0,"i_lat":-6.169933,"i_long":106.679458},{"i_long":106.701612,"line":5,"distance":2548,"station_name":"Kalideres","station_id":"KDS","transit":false,"i_lat":-6.166068,"is_transit":false,"time":3},{"line":5,"time":3,"distance":2504,"station_name":"Rawa Buaya","station_id":"RW","is_transit":false,"i_lat":-6.162758,"i_long":106.723064,"transit":false},{"i_long":106.737035,"time":4,"distance":1152,"station_name":"Bojongindah","transit":false,"station_id":"BOI","line":0,"i_lat":-6.159876,"is_transit":false},{"is_transit":false,"station_name":"Taman Kota","i_long":106.756522,"time":2,"transit":false,"distance":2334,"station_id":"TKO","i_lat":-6.1587309999999995,"line":5},{"time":2,"transit":false,"line":5,"station_id":"PSG","distance":1614,"station_name":"Pesing","is_transit":false,"i_lat":-6.161433,"i_long":106.771379},{"transit":false,"i_long":106.788277,"distance":2036,"station_name":"Grogol","i_lat":-6.162021,"station_id":"GGL","line":5,"time":2,"is_transit":false},{"is_transit":true,"station_id":"DU","i_lat":-6.155215,"distance":1700,"station_name":"Duri","time":3,"transit":true,"i_long":106.800832,"line":1},{"is_transit":false,"line":0,"station_name":"Angke","i_long":106.79867,"station_id":"AK","i_lat":-6.144674,"distance":1230,"transit":false,"time":4},{"time":9,"line":0,"i_lat":-6.132549,"i_long":106.826365,"transit":true,"distance":4102,"station_id":"KPB","is_transit":true,"station_name":"Kampung Bandan"},{"i_lat":-6.14505,"is_transit":false,"i_long":106.836569,"station_name":"Rajawali","station_id":"RJW","time":3,"line":11,"transit":false,"distance":1444},{"i_long":106.839204,"distance":1901,"time":5,"station_name":"Kemayoran","is_transit":false,"line":11,"i_lat":-6.161728,"station_id":"KMO","transit":false},{"i_long":106.84368,"distance":1436,"line":11,"is_transit":false,"time":4,"transit":false,"station_name":"Pasar Senen","station_id":"PSE","i_lat":-6.174784},{"line":11,"i_long":106.850107,"station_id":"GST","is_transit":false,"transit":false,"i_lat":-6.185975,"station_name":"Gang Sentiong","distance":1567,"time":8},{"line":11,"time":1,"is_transit":false,"transit":false,"i_lat":-6.193792,"i_long":106.855437,"distance":973,"station_name":"Kramat","station_id":"KMT"},{"transit":false,"time":2,"station_name":"Pondok Jati","distance":1829,"station_id":"POK","is_transit":false,"i_long":106.861737,"line":11,"i_lat":-6.209188},{"transit":true,"line":0,"station_id":"JNG","i_lat":-6.215091,"is_transit":true,"i_long":106.86807400000001,"distance":1236,"station_name":"Jatinegara","time":9},{"time":2,"line":1,"i_lat":-6.212485,"is_transit":false,"transit":false,"station_id":"MTR","station_name":"Matraman","distance":1377,"i_long":106.858896},{"is_transit":true,"line":0,"distance":1275,"transit":true,"i_lat":-6.209883,"i_long":106.84912,"time":2,"station_id":"MRI","station_name":"Manggarai"},{"station_name":"Tebet","i_long":106.857948,"line":2,"time":4,"distance":2610,"transit":false,"station_id":"TEB","is_transit":false,"i_lat":-6.226659},{"station_id":"CW","i_long":106.856607,"i_lat":-6.242512,"is_transit":false,"line":0,"station_name":"Cawang","transit":false,"time":2,"distance":1230},{"station_id":"DRN","transit":false,"line":0,"is_transit":false,"distance":1546,"time":3,"i_long":106.85449,"i_lat":-6.255332,"station_name":"Duren Kalibata"},{"is_transit":false,"distance":824,"station_id":"PSMB","i_lat":-6.263214,"time":2,"transit":false,"line":2,"station_name":"Pasar Minggu Baru","i_long":106.851577},{"i_lat":-6.2842400000000005,"distance":2380,"transit":false,"is_transit":false,"time":2,"i_long":106.843999,"station_name":"Pasar Minggu","line":2,"station_id":"PSM"},{"transit":false,"time":4,"i_long":106.838896,"i_lat":-6.3080680000000005,"line":2,"station_name":"Tanjung Barat","is_transit":false,"station_id":"TNT","distance":2820},{"station_name":"Lenteng Agung","distance":2671,"transit":false,"i_lat":-6.330363,"line":2,"is_transit":false,"station_id":"LNA","time":3,"i_long":106.832616}]]}