{"data":[[{"line":5,"station_id":"PI","time":0,"distance":0,"is_transit":false,"i_lat":-6.169933,"transit":false,"i_long":106.679458,"station_name":"Poris"},{"i_long":106.701612,"line":5,"time":3,"station_name":"Kalideres","i_lat":-6.166068,"is_transit":false,"transit":false,"station_id":"KDS","distance":2548},{"line":5,"time":3,"distance":2504,"transit":false,"i_lat":-6.162758,"station_name":"Rawa Buaya","station_id":"RW","i_long":106.723064,"is_transit":false},{"transit":false,"is_transit":false,"distance":1152,"i_lat":-6.159876,"station_id":"BOI","i_long":106.737035,"line":0,"time":4,"station_name":"Bojongindah"},{"station_id":"TKO","station_name":"Taman Kota","i_lat":-6.1587309999999995,"time":2,"transit":false,"distance":2334,"is_transit":false,"i_long":106.756522,"line":5},{"is_transit":false,"distance":1614,"station_name":"Pesing","i_lat":-6.161433,"transit":false,"i_long":106.771379,"time":2,"station_id":"PSG","line":5},{"station_id":"GGL","distance":2036,"station_name":"Grogol","is_transit":false,"line":5,"i_long":106.788277,"transit":false,"time":2,"i_lat":-6.162021},{"line":1,"transit":true,"i_long":106.800832,"time":3,"station_id":"DU","is_transit":true,"distance":1700,"station_name":"Duri","i_lat":-6.155215},{"line":1,"transit":false,"station_id":"THB","station_name":"Tanah Abang","is_transit":true,"i_lat":-6.185545,"i_long":106.811091,"time":8,"distance":3632},{"distance":2029,"station_id":"KAT","line":1,"station_name":"Karet","time":5,"is_transit":false,"i_lat":-6.20132,"i_long":106.816351,"transit":false},{"is_transit":false,"transit":false,"i_lat":-6.201433,"distance":471,"line":1,"i_long":106.819881,"station_id":"SUDB","time":1,"station_name":"Sudirman Baru"},{"station_id":"SUD","line":1,"i_lat":-6.202263,"time":1,"transit":false,"i_long":106.822649,"station_name":"Sudirman","distance":280,"is_transit":false},{"distance":3186,"line":0,"station_id":"MRI","transit":true,"is_transit":true,"i_lat":-6.209883,"station_name":"Manggarai","i_long":106.84912,"time":4},{"station_name":"Tebet","i_lat":-6.226659,"distance":2610,"time":4,"transit":false,"line":2,"is_transit":false,"i_long":106.857948,"station_id":"TEB"},{"line":0,"distance":1230,"time":2,"i_lat":-6.242512,"i_long":106.856607,"station_id":"CW","is_transit":false,"transit":false,"station_name":"Cawang"},{"i_lat":-6.255332,"transit":false,"line":0,"time":3,"i_long":106.85449,"station_id":"DRN","is_transit":false,"distance":1546,"station_name":"Duren Kalibata"},{"station_name":"Pasar Minggu Baru","i_lat":-6.263214,"i_long":106.851577,"transit":false,"line":2,"distance":824,"station_id":"PSMB","is_transit":false,"time":2},{"station_name":"Pasar Minggu","i_long":106.843999,"time":2,"station_id":"PSM","transit":false,"i_lat":-6.2842400000000005,"line":2,"is_transit":false,"distance":2380},{"station_name":"Tanjung Barat","i_lat":-6.3080680000000005,"is_transit":false,"time":4,"station_id":"TNT","distance":2820,"i_long":106.838896,"line":2,"transit":false},{"time":3,"station_name":"Lenteng Agung","transit":false,"i_long":106.832616,"i_lat":-6.330363,"is_transit":false,"distance":2671,"station_id":"LNA","line":2},{"transit":false,"time":2,"distance":1029,"is_transit":false,"i_long":106.834175,"station_id":"UP","station_name":"Univ. Pancasila","i_lat":-6.339291,"line":2},{"is_transit":false,"station_name":"Univ. Indonesia","transit":false,"line":2,"station_id":"UI","i_long":106.831474,"time":3,"i_lat":-6.360749,"distance":2264},{"time":2,"station_name":"Pondok Cina","station_id":"POC","is_transit":false,"line":2,"transit":false,"i_lat":-6.369073,"i_long":106.831114,"distance":1109}],[{"distance":0,"station_name":"Poris","time":0,"transit":false,"station_id":"PI","i_lat":-6.169933,"is_transit":false,"i_long":106.679458,"line":5},{"station_name":"Kalideres","transit":false,"i_long":106.701612,"time":3,"i_lat":-6.166068,"is_transit":false,"distance":2548,"station_id":"KDS","line":5},{"transit":false,"time":3,"is_transit":false,"line":5,"i_lat":-6.162758,"station_id":"RW","distance":2504,"i_long":106.723064,"station_name":"Rawa Buaya"},{"is_transit":false,"time":4,"station_name":"Bojongindah","transit":false,"line":0,"distance":1152,"station_id":"BOI","i_lat":-6.159876,"i_long":106.737035},{"line":5,"is_transit":false,"station_name":"Taman Kota","distance":2334,"time":2,"transit":false,"i_long":106.756522,"i_lat":-6.1587309999999995,"station_id":"TKO"},{"station_id":"PSG","i_lat":-6.161433,"transit":false,"time":2,"i_long":106.771379,"station_name":"Pesing","is_transit":false,"distance":1614,"line":5},{"distance":2036,"i_lat":-6.162021,"station_name":"Grogol","time":2,"station_id":"GGL","transit":false,"is_transit":false,"line":5,"i_long":106.788277},{"station_name":"Duri","line":1,"station_id":"DU","time":3,"is_transit":true,"distance":1700,"transit":true,"i_lat":-6.155215,"i_long":106.800832},{"i_lat":-6.144674,"is_transit":false,"distance":1230,"station_id":"AK","i_long":106.79867,"line":0,"transit":false,"time":4,"station_name":"Angke"},{"i_lat":-6.132549,"distance":4102,"station_id":"KPB","time":9,"transit":false,"is_transit":true,"station_name":"Kampung Bandan","i_long":106.826365,"line":0},{"i_lat":-6.137569,"line":0,"i_long":106.812439,"station_name":"Jakarta Kota","transit":true,"station_id":"JAKK","time":3,"is_transit":true,"distance":1364},{"station_id":"JAY","distance":1264,"station_name":"Jayakarta","i_lat":-6.141205,"time":4,"i_long":106.820901,"is_transit":false,"line":7,"transit":false},{"distance":1080,"transit":false,"line":2,"station_name":"Manggabesar","station_id":"MGB","is_transit":false,"time":2,"i_long":106.82482,"i_lat":-6.149769},{"i_long":106.827103,"time":2,"line":2,"i_lat":-6.160725,"is_transit":false,"transit":false,"distance":906,"station_name":"Sawah Besar","station_id":"SW"},{"time":2,"transit":false,"distance":1149,"i_lat":-6.166716,"station_name":"Juanda","is_transit":false,"station_id":"JUA","i_long":106.828284,"line":2},{"i_lat":-6.186295,"station_id":"GDD","i_long":106.832183,"time":4,"is_transit":false,"station_name":"Gondangdia","line":2,"transit":false,"distance":2015},{"distance":1750,"is_transit":false,"time":3,"line":0,"transit":false,"i_long":106.840169,"station_name":"Cikini","i_lat":-6.198556,"station_id":"CKI"},{"is_transit":true,"i_lat":-6.209883,"transit":true,"time":4,"station_id":"MRI","distance":1590,"station_name":"Manggarai","i_long":106.84912,"line":0},{"distance":2610,"transit":false,"i_long":106.857948,"line":2,"time":4,"station_id":"TEB","station_name":"Tebet","is_transit":false,"i_lat":-6.226659},{"i_long":106.856607,"is_transit":false,"distance":1230,"station_name":"Cawang","station_id":"CW","line":0,"i_lat":-6.242512,"time":2,"transit":false},{"i_lat":-6.255332,"station_name":"Duren Kalibata","station_id":"DRN","line":0,"i_long":106.85449,"time":3,"transit":false,"is_transit":false,"distance":1546},{"line":2,"time":2,"i_long":106.851577,"station_name":"Pasar Minggu Baru","transit":false,"distance":824,"is_transit":false,"station_id":"PSMB","i_lat":-6.263214},{"line":2,"i_long":106.843999,"station_name":"Pasar Minggu","time":2,"is_transit":false,"station_id":"PSM","transit":false,"i_lat":-6.2842400000000005,"distance":2380},{"line":2,"i_long":106.838896,"station_id":"TNT","distance":2820,"station_name":"Tanjung Barat","time":4,"is_transit":false,"transit":false,"i_lat":-6.3080680000000005},{"time":3,"is_transit":false,"transit":false,"station_name":"Lenteng Agung","i_long":106.832616,"line":2,"i_lat":-6.330363,"station_id":"LNA","distance":2671},{"distance":1029,"is_transit":false,"transit":false,"i_long":106.834175,"i_lat":-6.339291,"station_id":"UP","time":2,"line":2,"station_name":"Univ. Pancasila"},{"i_long":106.831474,"is_transit":false,"station_id":"UI","transit":false,"distance":2264,"line":2,"station_name":"Univ. Indonesia","time":3,"i_lat":-6.360749},{"time":2,"station_name":"Pondok Cina","is_transit":false,"i_long":106.831114,"i_lat":-6.369073,"distance":1109,"station_id":"POC","transit":false,"line":2}],[{"i_long":106.679458,"line":5,"transit":false,"is_transit":false,"distance":0,"time":0,"station_name":"Poris","i_lat":-6.169933,"station_id":"PI"},{"station_id":"KDS","i_lat":-6.166068,"distance":2548,"station_name":"Kalideres","time":3,"line":5,"transit":false,"i_long":106.701612,"is_transit":false},{"station_name":"Rawa Buaya","station_id":"RW","distance":2504,"transit":false,"i_lat":-6.162758,"time":3,"line":5,"i_long":106.723064,"is_transit":false},{"transit":false,"distance":1152,"i_long":106.737035,"time":4,"station_name":"Bojongindah","station_id":"BOI","line":0,"i_lat":-6.159876,"is_transit":false},{"is_transit":false,"distance":2334,"station_name":"Taman Kota","time":2,"station_id":"TKO","i_lat":-6.1587309999999995,"i_long":106.756522,"line":5,"transit":false},{"is_transit":false,"station_id":"PSG","station_name":"Pesing","transit":false,"i_lat":-6.161433,"line":5,"time":2,"distance":1614,"i_long":106.771379},{"i_lat":-6.162021,"i_long":106.788277,"station_name":"Grogol","station_id":"GGL","transit":false,"is_transit":false,"distance":2036,"line":5,"time":2},{"transit":true,"station_id":"DU","is_transit":true,"i_lat":-6.155215,"i_long":106.800832,"line":1,"time":3,"station_name":"Duri","distance":1700},{"i_long":106.79867,"line":0,"time":4,"transit":false,"station_id":"AK","i_lat":-6.144674,"is_transit":false,"station_name":"Angke","distance":1230},{"time":9,"distance":4102,"transit":true,"line":0,"station_id":"KPB","i_lat":-6.132549,"station_name":"Kampung Bandan","i_long":106.826365,"is_transit":true},{"is_transit":false,"distance":1444,"time":3,"i_long":106.836569,"station_name":"Rajawali","i_lat":-6.14505,"transit":false,"station_id":"RJW","line":11},{"i_long":106.839204,"line":11,"station_name":"Kemayoran","i_lat":-6.161728,"is_transit":false,"distance":1901,"station_id":"KMO","transit":false,"time":5},{"transit":false,"station_id":"PSE","i_lat":-6.174784,"time":4,"is_transit":false,"distance":1436,"station_name":"Pasar Senen","i_long":106.84368,"line":11},{"is_transit":false,"i_long":106.850107,"line":11,"distance":1567,"station_name":"Gang Sentiong","i_lat":-6.185975,"transit":false,"station_id":"GST","time":8},{"line":11,"station_name":"Kramat","station_id":"KMT","i_lat":-6.193792,"time":1,"i_long":106.855437,"transit":false,"is_transit":false,"distance":973},{"distance":1829,"station_name":"Pondok Jati","transit":false,"i_long":106.861737,"time":2,"line":11,"station_id":"POK","i_lat":-6.209188,"is_transit":false},{"transit":true,"distance":1236,"time":9,"line":0,"station_id":"JNG","station_name":"Jatinegara","i_lat":-6.215091,"i_long":106.86807400000001,"is_transit":true},{"i_long":106.858896,"distance":1377,"i_lat":-6.212485,"is_transit":false,"line":1,"transit":false,"station_name":"Matraman","time":2,"station_id":"MTR"},{"i_lat":-6.209883,"transit":true,"i_long":106.84912,"time":2,"station_name":"Manggarai","line":0,"distance":1275,"station_id":"MRI","is_transit":true},{"transit":false,"distance":2610,"station_id":"TEB","is_transit":false,"time":4,"i_lat":-6.226659,"i_long":106.857948,"line":2,"station_name":"Tebet"},{"distance":1230,"is_transit":false,"i_long":106.856607,"line":0,"transit":false,"station_id":"CW","i_lat":-6.242512,"time":2,"station_name":"Cawang"},{"distance":1546,"line":0,"station_id":"DRN","is_transit":false,"transit":false,"i_long":106.85449,"i_lat":-6.255332,"station_name":"Duren Kalibata","time":3},{"i_lat":-6.263214,"i_long":106.851577,"station_name":"Pasar Minggu Baru","distance":824,"station_id":"PSMB","line":2,"time":2,"is_transit":false,"transit":false},{"transit":false,"station_name":"Pasar Minggu","line":2,"station_id":"PSM","distance":2380,"i_long":106.843999,"time":2,"is_transit":false,"i_lat":-6.2842400000000005},{"station_id":"TNT","line":2,"i_long":106.838896,"i_lat":-6.3080680000000005,"station_name":"Tanjung Barat","transit":false,"is_transit":false,"time":4,"distance":2820},{"station_id":"LNA","i_long":106.832616,"transit":false,"i_lat":-6.330363,"distance":2671,"is_transit":false,"line":2,"time":3,"station_name":"Lenteng Agung"},{"transit":false,"time":2,"is_transit":false,"distance":1029,"station_name":"Univ. Pancasila","i_lat":-6.339291,"station_id":"UP","line":2,"i_long":106.834175},{"i_long":106.831474,"distance":2264,"time":3,"station_name":"Univ. Indonesia","i_lat":-6.360749,"is_transit":false,"line":2,"transit":false,"station_id":"UI"},{"transit":false,"station_id":"POC","line":2,"distance":1109,"i_lat":-6.369073,"is_transit":false,"i_long":106.831114,"time":2,"station_name":"Pondok Cina"}]]}