{"data":[[{"station_id":"PI","line":5,"station_name":"Poris","i_lat":-6.169933,"i_long":106.679458,"time":0,"is_transit":false,"transit":false,"distance":0},{"time":3,"station_name":"Kalideres","line":5,"i_lat":-6.166068,"station_id":"KDS","i_long":106.701612,"is_transit":false,"distance":2548,"transit":false},{"transit":false,"is_transit":false,"time":3,"distance":2504,"station_id":"RW","i_lat":-6.162758,"station_name":"Rawa Buaya","line":5,"i_long":106.723064},{"is_transit":false,"line":5,"station_id":"BOI","i_lat":-6.159876,"i_long":106.737035,"transit":false,"time":4,"distance":1152,"station_name":"Bojongindah"},{"i_lat":-6.1587309999999995,"line":5,"distance":2334,"transit":false,"station_name":"Taman Kota","is_transit":false,"i_long":106.756522,"station_id":"TKO","time":2},{"distance":1614,"time":2,"transit":false,"i_long":106.771379,"line":5,"is_transit":false,"i_lat":-6.161433,"station_name":"Pesing","station_id":"PSG"},{"i_lat":-6.162021,"distance":2036,"line":5,"station_id":"GRG","time":2,"i_long":106.788277,"transit":false,"station_name":"Grogol","is_transit":false},{"station_name":"Duri","distance":1700,"transit":true,"is_transit":true,"time":3,"station_id":"DU","line":1,"i_long":106.800832,"i_lat":-6.155215},{"station_name":"Tanah Abang","is_transit":true,"distance":3632,"i_long":106.811091,"line":1,"time":8,"station_id":"THB","transit":true,"i_lat":-6.185545},{"distance":3191,"station_name":"Palmerah","is_transit":false,"time":6,"station_id":"PLM","i_lat":-6.207404,"i_long":106.79689,"line":6,"transit":false}],[{"i_long":106.679458,"station_id":"PI","station_name":"Poris","transit":false,"line":5,"distance":0,"i_lat":-6.169933,"is_transit":false,"time":0},{"i_lat":-6.166068,"station_id":"KDS","is_transit":false,"time":3,"line":5,"i_long":106.701612,"distance":2548,"transit":false,"station_name":"Kalideres"},{"i_lat":-6.162758,"is_transit":false,"time":3,"i_long":106.723064,"transit":false,"distance":2504,"station_name":"Rawa Buaya","line":5,"station_id":"RW"},{"station_name":"Bojongindah","i_long":106.737035,"transit":false,"station_id":"BOI","i_lat":-6.159876,"is_transit":false,"distance":1152,"time":4,"line":5},{"i_long":106.756522,"transit":false,"i_lat":-6.1587309999999995,"station_name":"Taman Kota","time":2,"station_id":"TKO","line":5,"is_transit":false,"distance":2334},{"station_name":"Pesing","i_lat":-6.161433,"time":2,"distance":1614,"line":5,"transit":false,"i_long":106.771379,"is_transit":false,"station_id":"PSG"},{"i_lat":-6.162021,"i_long":106.788277,"distance":2036,"transit":false,"station_name":"Grogol","is_transit":false,"time":2,"line":5,"station_id":"GRG"},{"distance":1700,"transit":true,"line":1,"station_name":"Duri","i_long":106.800832,"time":3,"station_id":"DU","i_lat":-6.155215,"is_transit":true},{"distance":1230,"is_transit":false,"transit":false,"i_lat":-6.144674,"i_long":106.79867,"line":1,"time":4,"station_name":"Angke","station_id":"AK"},{"station_name":"Kampung Bandan","station_id":"KPB","time":9,"i_lat":-6.132549,"distance":4102,"transit":true,"i_long":106.826365,"is_transit":true,"line":4},{"station_name":"Jakarta Kota","time":3,"transit":true,"i_lat":-6.137569,"line":2,"i_long":106.812439,"distance":1364,"is_transit":true,"station_id":"JAKK"},{"transit":false,"station_id":"JAY","i_lat":-6.141205,"distance":1264,"is_transit":false,"line":2,"time":4,"station_name":"Jayakarta","i_long":106.820901},{"distance":1080,"is_transit":false,"line":2,"time":2,"i_lat":-6.149769,"station_name":"Manggabesar","i_long":106.82482,"station_id":"MGB","transit":false},{"i_long":106.827103,"is_transit":false,"distance":906,"line":2,"transit":false,"station_name":"Sawah Besar","i_lat":-6.160725,"time":2,"station_id":"SW"},{"i_long":106.828284,"distance":1149,"is_transit":false,"line":2,"station_name":"Juanda","time":2,"i_lat":-6.166716,"station_id":"JUA","transit":false},{"distance":2015,"transit":false,"station_name":"Gondangdia","is_transit":false,"time":4,"i_lat":-6.186295,"i_long":106.832183,"line":2,"station_id":"GDD"},{"distance":1750,"station_id":"CKI","station_name":"Cikini","time":3,"line":2,"transit":false,"i_long":106.840169,"is_transit":false,"i_lat":-6.198556},{"i_long":106.84912,"is_transit":true,"transit":true,"distance":1590,"line":2,"station_name":"Manggarai","time":4,"station_id":"MRI","i_lat":-6.209883},{"transit":false,"is_transit":false,"time":4,"station_id":"SUD","i_lat":-6.202263,"i_long":106.822649,"line":1,"station_name":"Sudirman","distance":3186},{"i_lat":-6.201433,"time":1,"is_transit":false,"i_long":106.819881,"line":1,"station_id":"SUDB","transit":false,"station_name":"Sudirman Baru","distance":280},{"transit":false,"station_name":"Karet","time":1,"is_transit":false,"i_long":106.816351,"station_id":"KAT","distance":471,"i_lat":-6.20132,"line":1},{"time":5,"i_long":106.811091,"distance":2029,"i_lat":-6.185545,"transit":true,"station_id":"THB","is_transit":true,"line":1,"station_name":"Tanah Abang"},{"line":6,"i_lat":-6.207404,"i_long":106.79689,"station_id":"PLM","distance":3191,"transit":false,"is_transit":false,"station_name":"Palmerah","time":6}],[{"station_name":"Poris","i_long":106.679458,"is_transit":false,"time":0,"i_lat":-6.169933,"distance":0,"station_id":"PI","line":5,"transit":false},{"distance":2548,"i_lat":-6.166068,"station_name":"Kalideres","i_long":106.701612,"line":5,"time":3,"is_transit":false,"station_id":"KDS","transit":false},{"is_transit":false,"station_id":"RW","station_name":"Rawa Buaya","i_lat":-6.162758,"line":5,"distance":2504,"i_long":106.723064,"transit":false,"time":3},{"i_long":106.737035,"i_lat":-6.159876,"line":5,"transit":false,"time":4,"distance":1152,"station_name":"Bojongindah","is_transit":false,"station_id":"BOI"},{"i_lat":-6.1587309999999995,"transit":false,"i_long":106.756522,"station_id":"TKO","distance":2334,"station_name":"Taman Kota","line":5,"time":2,"is_transit":false},{"distance":1614,"time":2,"station_id":"PSG","i_lat":-6.161433,"transit":false,"line":5,"is_transit":false,"station_name":"Pesing","i_long":106.771379},{"transit":false,"is_transit":false,"time":2,"station_id":"GRG","i_long":106.788277,"station_name":"Grogol","distance":2036,"i_lat":-6.162021,"line":5},{"transit":true,"station_name":"Duri","is_transit":true,"line":1,"station_id":"DU","i_long":106.800832,"time":3,"i_lat":-6.155215,"distance":1700},{"i_lat":-6.144674,"line":1,"transit":false,"station_name":"Angke","station_id":"AK","distance":1230,"i_long":106.79867,"time":4,"is_transit":false},{"transit":true,"i_long":106.826365,"station_name":"Kampung Bandan","line":4,"distance":4102,"time":9,"station_id":"KPB","is_transit":true,"i_lat":-6.132549},{"transit":false,"i_lat":-6.14505,"line":11,"station_name":"Rajawali","distance":1444,"is_transit":false,"time":3,"station_id":"RJW","i_long":106.836569},{"is_transit":false,"time":5,"i_long":106.839204,"station_name":"Kemayoran","distance":1901,"line":11,"transit":false,"i_lat":-6.161728,"station_id":"KMO"},{"distance":1436,"station_name":"Pasar Senen","line":11,"i_lat":-6.174784,"station_id":"PSE","time":4,"transit":false,"is_transit":false,"i_long":106.84368},{"line":11,"distance":1567,"transit":false,"is_transit":false,"i_lat":-6.185975,"i_long":106.850107,"station_id":"GST","station_name":"Gang Sentiong","time":8},{"distance":973,"station_name":"Kramat","time":1,"is_transit":false,"i_lat":-6.193792,"transit":false,"station_id":"KMT","line":11,"i_long":106.855437},{"distance":1829,"i_lat":-6.209188,"i_long":106.861737,"line":11,"station_name":"Pondok Jati","time":2,"transit":false,"is_transit":false,"station_id":"POK"},{"distance":1236,"i_lat":-6.215091,"station_name":"Jatinegara","is_transit":true,"transit":true,"time":9,"station_id":"JNG","i_long":106.86807400000001,"line":1},{"distance":1377,"i_long":106.858896,"station_id":"MTR","transit":false,"station_name":"Matraman","time":2,"i_lat":-6.212485,"is_transit":false,"line":1},{"i_long":106.84912,"is_transit":false,"transit":false,"i_lat":-6.209883,"distance":1275,"station_name":"Manggarai","time":2,"station_id":"MRI","line":2},{"i_lat":-6.202263,"time":4,"is_transit":false,"line":1,"station_name":"Sudirman","distance":3186,"station_id":"SUD","i_long":106.822649,"transit":false},{"distance":280,"line":1,"is_transit":false,"i_lat":-6.201433,"transit":false,"station_id":"SUDB","time":1,"i_long":106.819881,"station_name":"Sudirman Baru"},{"i_lat":-6.20132,"i_long":106.816351,"line":1,"is_transit":false,"time":1,"station_id":"KAT","station_name":"Karet","distance":471,"transit":false},{"line":1,"time":5,"transit":true,"i_long":106.811091,"station_name":"Tanah Abang","is_transit":true,"station_id":"THB","i_lat":-6.185545,"distance":2029},{"i_long":106.79689,"i_lat":-6.207404,"distance":3191,"line":6,"is_transit":false,"transit":false,"station_name":"Palmerah","time":6,"station_id":"PLM"}]]}