{"data":[[{"is_transit":false,"transit":false,"i_lat":-6.169933,"station_name":"Poris","i_long":106.679458,"station_id":"PI","time":0,"line":5,"distance":0},{"is_transit":false,"transit":false,"time":3,"line":5,"i_lat":-6.166068,"station_id":"KDS","distance":2548,"station_name":"Kalideres","i_long":106.701612},{"station_name":"Rawa Buaya","line":5,"i_lat":-6.162758,"station_id":"RW","is_transit":false,"i_long":106.723064,"distance":2504,"time":3,"transit":false},{"station_name":"Bojongindah","line":5,"i_lat":-6.159876,"time":4,"station_id":"BOI","is_transit":false,"transit":false,"i_long":106.737035,"distance":1152},{"i_long":106.756522,"line":5,"time":2,"transit":false,"station_name":"Taman Kota","i_lat":-6.1587309999999995,"distance":2334,"station_id":"TKO","is_transit":false},{"i_long":106.771379,"i_lat":-6.161433,"time":2,"station_id":"PSG","is_transit":false,"station_name":"Pesing","distance":1614,"transit":false,"line":5},{"line":5,"distance":2036,"time":2,"station_id":"GRG","i_lat":-6.162021,"station_name":"Grogol","is_transit":false,"i_long":106.788277,"transit":false},{"station_id":"DU","is_transit":true,"line":1,"distance":1700,"station_name":"Duri","i_long":106.800832,"time":3,"i_lat":-6.155215,"transit":true},{"station_name":"Tanah Abang","distance":3632,"is_transit":false,"time":8,"transit":false,"station_id":"THB","i_long":106.811091,"i_lat":-6.185545,"line":1},{"i_long":106.816351,"is_transit":false,"station_id":"KAT","transit":false,"station_name":"Karet","i_lat":-6.20132,"line":1,"time":5,"distance":2029},{"is_transit":false,"distance":471,"station_name":"Sudirman Baru","station_id":"SUDB","time":1,"transit":false,"i_lat":-6.201433,"i_long":106.819881,"line":1},{"station_id":"SUD","distance":280,"is_transit":false,"time":1,"transit":false,"station_name":"Sudirman","i_long":106.822649,"i_lat":-6.202263,"line":1},{"transit":true,"line":2,"distance":3186,"station_id":"MRI","i_long":106.84912,"i_lat":-6.209883,"time":4,"is_transit":true,"station_name":"Manggarai"},{"distance":2610,"is_transit":false,"station_name":"Tebet","station_id":"TEB","time":4,"i_lat":-6.226659,"transit":false,"line":2,"i_long":106.857948},{"line":2,"i_long":106.856607,"time":2,"i_lat":-6.242512,"transit":false,"station_name":"Cawang","station_id":"CW","distance":1230,"is_transit":false},{"station_id":"DRN","distance":1546,"time":3,"transit":false,"i_lat":-6.255332,"is_transit":false,"i_long":106.85449,"line":2,"station_name":"Duren Kalibata"},{"transit":false,"is_transit":false,"station_name":"Pasar Minggu Baru","i_lat":-6.263214,"time":2,"i_long":106.851577,"distance":824,"line":2,"station_id":"PSMB"},{"i_lat":-6.2842400000000005,"line":2,"station_id":"PSM","i_long":106.843999,"time":2,"is_transit":false,"transit":false,"station_name":"Pasar Minggu","distance":2380}],[{"is_transit":false,"station_name":"Poris","line":5,"station_id":"PI","time":0,"transit":false,"distance":0,"i_long":106.679458,"i_lat":-6.169933},{"station_name":"Kalideres","station_id":"KDS","transit":false,"is_transit":false,"distance":2548,"time":3,"i_lat":-6.166068,"i_long":106.701612,"line":5},{"distance":2504,"station_id":"RW","is_transit":false,"station_name":"Rawa Buaya","line":5,"transit":false,"i_lat":-6.162758,"time":3,"i_long":106.723064},{"station_name":"Bojongindah","time":4,"i_long":106.737035,"station_id":"BOI","i_lat":-6.159876,"line":5,"is_transit":false,"distance":1152,"transit":false},{"transit":false,"is_transit":false,"station_name":"Taman Kota","i_lat":-6.1587309999999995,"line":5,"i_long":106.756522,"time":2,"station_id":"TKO","distance":2334},{"station_id":"PSG","i_long":106.771379,"transit":false,"is_transit":false,"distance":1614,"line":5,"station_name":"Pesing","time":2,"i_lat":-6.161433},{"time":2,"station_id":"GRG","is_transit":false,"station_name":"Grogol","transit":false,"i_long":106.788277,"i_lat":-6.162021,"distance":2036,"line":5},{"transit":true,"distance":1700,"time":3,"i_lat":-6.155215,"station_id":"DU","station_name":"Duri","i_long":106.800832,"line":1,"is_transit":true},{"distance":1230,"line":1,"station_id":"AK","transit":false,"station_name":"Angke","is_transit":false,"i_lat":-6.144674,"i_long":106.79867,"time":4},{"i_long":106.826365,"transit":true,"station_name":"Kampung Bandan","time":9,"distance":4102,"is_transit":true,"station_id":"KPB","line":4,"i_lat":-6.132549},{"station_name":"Jakarta Kota","is_transit":true,"distance":1364,"line":2,"station_id":"JAKK","i_lat":-6.137569,"transit":true,"time":3,"i_long":106.812439},{"line":2,"transit":false,"time":4,"distance":1264,"station_name":"Jayakarta","i_lat":-6.141205,"station_id":"JAY","i_long":106.820901,"is_transit":false},{"station_name":"Manggabesar","time":2,"is_transit":false,"i_lat":-6.149769,"line":2,"distance":1080,"transit":false,"station_id":"MGB","i_long":106.82482},{"station_name":"Sawah Besar","distance":906,"line":2,"i_lat":-6.160725,"time":2,"transit":false,"is_transit":false,"station_id":"SW","i_long":106.827103},{"distance":1149,"station_id":"JUA","station_name":"Juanda","is_transit":false,"transit":false,"i_lat":-6.166716,"line":2,"i_long":106.828284,"time":2},{"distance":2015,"is_transit":false,"time":4,"line":2,"station_name":"Gondangdia","transit":false,"station_id":"GDD","i_lat":-6.186295,"i_long":106.832183},{"time":3,"station_name":"Cikini","i_lat":-6.198556,"distance":1750,"station_id":"CKI","transit":false,"is_transit":false,"i_long":106.840169,"line":2},{"i_lat":-6.209883,"line":2,"time":4,"transit":false,"is_transit":false,"i_long":106.84912,"station_name":"Manggarai","station_id":"MRI","distance":1590},{"station_id":"TEB","i_long":106.857948,"is_transit":false,"time":4,"line":2,"station_name":"Tebet","transit":false,"distance":2610,"i_lat":-6.226659},{"distance":1230,"station_name":"Cawang","i_long":106.856607,"time":2,"transit":false,"i_lat":-6.242512,"is_transit":false,"line":2,"station_id":"CW"},{"station_id":"DRN","transit":false,"is_transit":false,"station_name":"Duren Kalibata","i_lat":-6.255332,"line":2,"distance":1546,"time":3,"i_long":106.85449},{"i_long":106.851577,"line":2,"station_id":"PSMB","transit":false,"is_transit":false,"distance":824,"station_name":"Pasar Minggu Baru","time":2,"i_lat":-6.263214},{"is_transit":false,"transit":false,"line":2,"station_name":"Pasar Minggu","time":2,"station_id":"PSM","distance":2380,"i_lat":-6.2842400000000005,"i_long":106.843999}],[{"is_transit":false,"i_long":106.679458,"distance":0,"station_name":"Poris","transit":false,"time":0,"line":5,"i_lat":-6.169933,"station_id":"PI"},{"distance":2548,"station_id":"KDS","transit":false,"i_long":106.701612,"line":5,"time":3,"is_transit":false,"station_name":"Kalideres","i_lat":-6.166068},{"distance":2504,"i_lat":-6.162758,"station_id":"RW","time":3,"line":5,"station_name":"Rawa Buaya","i_long":106.723064,"transit":false,"is_transit":false},{"station_id":"BOI","is_transit":false,"i_long":106.737035,"station_name":"Bojongindah","time":4,"transit":false,"i_lat":-6.159876,"distance":1152,"line":5},{"transit":false,"i_lat":-6.1587309999999995,"station_name":"Taman Kota","time":2,"is_transit":false,"distance":2334,"i_long":106.756522,"line":5,"station_id":"TKO"},{"i_lat":-6.161433,"i_long":106.771379,"transit":false,"station_name":"Pesing","station_id":"PSG","time":2,"is_transit":false,"distance":1614,"line":5},{"station_name":"Grogol","station_id":"GRG","transit":false,"distance":2036,"i_long":106.788277,"line":5,"time":2,"is_transit":false,"i_lat":-6.162021},{"is_transit":true,"time":3,"distance":1700,"i_lat":-6.155215,"line":1,"i_long":106.800832,"station_name":"Duri","station_id":"DU","transit":true},{"station_name":"Angke","i_long":106.79867,"station_id":"AK","transit":false,"distance":1230,"time":4,"i_lat":-6.144674,"line":1,"is_transit":false},{"i_long":106.826365,"transit":true,"i_lat":-6.132549,"line":4,"distance":4102,"is_transit":true,"station_id":"KPB","time":9,"station_name":"Kampung Bandan"},{"distance":1444,"line":11,"station_id":"RJW","station_name":"Rajawali","i_lat":-6.14505,"is_transit":false,"time":3,"transit":false,"i_long":106.836569},{"time":5,"station_name":"Kemayoran","line":11,"station_id":"KMO","transit":false,"distance":1901,"i_lat":-6.161728,"i_long":106.839204,"is_transit":false},{"time":4,"i_long":106.84368,"line":11,"station_id":"PSE","station_name":"Pasar Senen","transit":false,"distance":1436,"i_lat":-6.174784,"is_transit":false},{"is_transit":false,"time":8,"line":11,"i_long":106.850107,"distance":1567,"i_lat":-6.185975,"station_name":"Gang Sentiong","transit":false,"station_id":"GST"},{"transit":false,"line":11,"station_name":"Kramat","i_lat":-6.193792,"station_id":"KMT","is_transit":false,"distance":973,"time":1,"i_long":106.855437},{"i_long":106.861737,"time":2,"i_lat":-6.209188,"transit":false,"is_transit":false,"distance":1829,"line":11,"station_name":"Pondok Jati","station_id":"POK"},{"station_id":"JNG","i_long":106.86807400000001,"time":9,"transit":true,"i_lat":-6.215091,"station_name":"Jatinegara","is_transit":true,"distance":1236,"line":1},{"is_transit":false,"i_lat":-6.212485,"i_long":106.858896,"line":1,"distance":1377,"transit":false,"station_id":"MTR","station_name":"Matraman","time":2},{"distance":1275,"line":2,"i_lat":-6.209883,"station_id":"MRI","is_transit":true,"i_long":106.84912,"transit":true,"station_name":"Manggarai","time":2},{"i_lat":-6.226659,"time":4,"station_id":"TEB","distance":2610,"i_long":106.857948,"line":2,"transit":false,"station_name":"Tebet","is_transit":false},{"station_name":"Cawang","station_id":"CW","distance":1230,"i_lat":-6.242512,"i_long":106.856607,"is_transit":false,"time":2,"transit":false,"line":2},{"i_long":106.85449,"distance":1546,"i_lat":-6.255332,"line":2,"station_name":"Duren Kalibata","transit":false,"time":3,"station_id":"DRN","is_transit":false},{"time":2,"transit":false,"distance":824,"station_name":"Pasar Minggu Baru","is_transit":false,"i_lat":-6.263214,"i_long":106.851577,"station_id":"PSMB","line":2},{"transit":false,"station_name":"Pasar Minggu","time":2,"line":2,"is_transit":false,"i_long":106.843999,"station_id":"PSM","distance":2380,"i_lat":-6.2842400000000005}]]}