{"data":[[{"i_long":106.679458,"time":0,"is_transit":false,"line":5,"station_id":"PI","distance":0,"i_lat":-6.169933,"transit":false,"station_name":"Poris"},{"transit":false,"distance":2548,"station_name":"Kalideres","station_id":"KDS","time":3,"i_lat":-6.166068,"is_transit":false,"line":5,"i_long":106.701612},{"time":3,"station_id":"RW","line":5,"transit":false,"is_transit":false,"distance":2504,"i_lat":-6.162758,"i_long":106.723064,"station_name":"Rawa Buaya"},{"is_transit":false,"line":5,"transit":false,"station_id":"BOI","station_name":"Bojongindah","time":4,"i_lat":-6.159876,"distance":1152,"i_long":106.737035},{"i_long":106.756522,"is_transit":false,"time":2,"distance":2334,"i_lat":-6.1587309999999995,"transit":false,"station_id":"TKO","station_name":"Taman Kota","line":5},{"station_id":"PSG","i_lat":-6.161433,"distance":1614,"is_transit":false,"station_name":"Pesing","i_long":106.771379,"transit":false,"time":2,"line":5},{"station_id":"GGL","transit":false,"distance":2036,"time":2,"line":5,"station_name":"Grogol","i_long":106.788277,"is_transit":false,"i_lat":-6.162021},{"time":3,"is_transit":true,"i_long":106.800832,"i_lat":-6.155215,"distance":1700,"line":1,"station_name":"Duri","station_id":"DU","transit":true},{"i_long":106.811091,"is_transit":false,"station_id":"THB","time":8,"i_lat":-6.185545,"transit":false,"station_name":"Tanah Abang","line":1,"distance":3632},{"i_long":106.816351,"distance":2029,"time":5,"line":1,"station_name":"Karet","is_transit":false,"transit":false,"i_lat":-6.20132,"station_id":"KAT"},{"i_lat":-6.201433,"line":1,"station_id":"SUDB","is_transit":false,"distance":471,"transit":false,"time":1,"i_long":106.819881,"station_name":"Sudirman Baru"},{"station_name":"Sudirman","i_lat":-6.202263,"transit":false,"distance":280,"i_long":106.822649,"time":1,"station_id":"SUD","is_transit":false,"line":1},{"station_name":"Manggarai","i_lat":-6.209883,"i_long":106.84912,"is_transit":true,"time":4,"line":2,"transit":true,"distance":3186,"station_id":"MRI"},{"station_id":"TEB","i_lat":-6.226659,"station_name":"Tebet","distance":2610,"is_transit":false,"i_long":106.857948,"transit":false,"time":4,"line":2},{"station_name":"Cawang","station_id":"CW","is_transit":false,"time":2,"i_long":106.856607,"distance":1230,"i_lat":-6.242512,"line":2,"transit":false},{"is_transit":false,"station_name":"Duren Kalibata","i_long":106.85449,"i_lat":-6.255332,"line":2,"time":3,"distance":1546,"station_id":"DRN","transit":false},{"transit":false,"is_transit":false,"station_name":"Pasar Minggu Baru","i_lat":-6.263214,"time":2,"distance":824,"station_id":"PSMB","i_long":106.851577,"line":2},{"station_id":"PSM","station_name":"Pasar Minggu","i_long":106.843999,"is_transit":false,"i_lat":-6.2842400000000005,"distance":2380,"line":2,"transit":false,"time":2},{"time":4,"line":2,"i_lat":-6.3080680000000005,"station_id":"TNT","station_name":"Tanjung Barat","i_long":106.838896,"is_transit":false,"transit":false,"distance":2820},{"distance":2671,"station_name":"Lenteng Agung","line":2,"i_long":106.832616,"transit":false,"i_lat":-6.330363,"is_transit":false,"station_id":"LNA","time":3},{"is_transit":false,"station_name":"Univ. Pancasila","distance":1029,"i_long":106.834175,"station_id":"UP","i_lat":-6.339291,"line":2,"time":2,"transit":false},{"transit":false,"distance":2264,"station_id":"UI","line":2,"station_name":"Univ. Indonesia","is_transit":false,"time":3,"i_lat":-6.360749,"i_long":106.831474},{"station_name":"Pondok Cina","line":2,"transit":false,"is_transit":false,"distance":1109,"time":2,"i_lat":-6.369073,"station_id":"POC","i_long":106.831114}],[{"distance":0,"i_lat":-6.169933,"time":0,"transit":false,"station_id":"PI","i_long":106.679458,"station_name":"Poris","line":5,"is_transit":false},{"is_transit":false,"i_long":106.701612,"line":5,"time":3,"station_name":"Kalideres","station_id":"KDS","i_lat":-6.166068,"transit":false,"distance":2548},{"station_name":"Rawa Buaya","station_id":"RW","is_transit":false,"i_long":106.723064,"time":3,"transit":false,"distance":2504,"i_lat":-6.162758,"line":5},{"transit":false,"is_transit":false,"line":5,"time":4,"i_long":106.737035,"station_name":"Bojongindah","i_lat":-6.159876,"distance":1152,"station_id":"BOI"},{"is_transit":false,"time":2,"i_lat":-6.1587309999999995,"line":5,"i_long":106.756522,"station_id":"TKO","station_name":"Taman Kota","distance":2334,"transit":false},{"i_lat":-6.161433,"line":5,"is_transit":false,"i_long":106.771379,"station_name":"Pesing","transit":false,"distance":1614,"station_id":"PSG","time":2},{"station_name":"Grogol","i_lat":-6.162021,"time":2,"i_long":106.788277,"line":5,"transit":false,"station_id":"GGL","is_transit":false,"distance":2036},{"distance":1700,"i_long":106.800832,"station_name":"Duri","i_lat":-6.155215,"time":3,"line":1,"station_id":"DU","transit":true,"is_transit":true},{"station_name":"Angke","i_long":106.79867,"is_transit":false,"transit":false,"time":4,"i_lat":-6.144674,"station_id":"AK","distance":1230,"line":1},{"time":9,"station_name":"Kampung Bandan","i_long":106.826365,"i_lat":-6.132549,"distance":4102,"transit":true,"is_transit":true,"line":4,"station_id":"KPB"},{"time":3,"transit":true,"distance":1364,"i_lat":-6.137569,"station_id":"JAKK","station_name":"Jakarta Kota","is_transit":true,"line":2,"i_long":106.812439},{"is_transit":false,"distance":1264,"station_name":"Jayakarta","station_id":"JAY","i_lat":-6.141205,"time":4,"line":2,"transit":false,"i_long":106.820901},{"is_transit":false,"i_long":106.82482,"transit":false,"station_id":"MGB","line":2,"station_name":"Manggabesar","distance":1080,"i_lat":-6.149769,"time":2},{"time":2,"distance":906,"station_id":"SW","is_transit":false,"i_long":106.827103,"line":2,"transit":false,"i_lat":-6.160725,"station_name":"Sawah Besar"},{"is_transit":false,"station_name":"Juanda","station_id":"JUA","transit":false,"i_long":106.828284,"line":2,"distance":1149,"time":2,"i_lat":-6.166716},{"time":4,"station_name":"Gondangdia","transit":false,"is_transit":false,"distance":2015,"line":2,"station_id":"GDD","i_long":106.832183,"i_lat":-6.186295},{"time":3,"is_transit":false,"i_long":106.840169,"station_name":"Cikini","distance":1750,"line":2,"i_lat":-6.198556,"transit":false,"station_id":"CKI"},{"transit":false,"time":4,"station_id":"MRI","is_transit":false,"distance":1590,"i_lat":-6.209883,"station_name":"Manggarai","i_long":106.84912,"line":2},{"i_lat":-6.226659,"transit":false,"is_transit":false,"station_id":"TEB","i_long":106.857948,"station_name":"Tebet","time":4,"distance":2610,"line":2},{"distance":1230,"i_long":106.856607,"station_name":"Cawang","line":2,"i_lat":-6.242512,"station_id":"CW","transit":false,"is_transit":false,"time":2},{"transit":false,"station_name":"Duren Kalibata","is_transit":false,"station_id":"DRN","time":3,"line":2,"i_lat":-6.255332,"i_long":106.85449,"distance":1546},{"is_transit":false,"station_name":"Pasar Minggu Baru","i_long":106.851577,"station_id":"PSMB","distance":824,"time":2,"i_lat":-6.263214,"line":2,"transit":false},{"station_name":"Pasar Minggu","i_long":106.843999,"is_transit":false,"line":2,"transit":false,"time":2,"station_id":"PSM","distance":2380,"i_lat":-6.2842400000000005},{"station_id":"TNT","station_name":"Tanjung Barat","transit":false,"i_lat":-6.3080680000000005,"time":4,"distance":2820,"is_transit":false,"i_long":106.838896,"line":2},{"distance":2671,"is_transit":false,"transit":false,"time":3,"line":2,"station_name":"Lenteng Agung","i_long":106.832616,"station_id":"LNA","i_lat":-6.330363},{"time":2,"distance":1029,"station_id":"UP","line":2,"i_lat":-6.339291,"transit":false,"station_name":"Univ. Pancasila","is_transit":false,"i_long":106.834175},{"line":2,"i_lat":-6.360749,"i_long":106.831474,"station_id":"UI","is_transit":false,"time":3,"transit":false,"station_name":"Univ. Indonesia","distance":2264},{"station_id":"POC","transit":false,"distance":1109,"station_name":"Pondok Cina","i_lat":-6.369073,"is_transit":false,"time":2,"line":2,"i_long":106.831114}],[{"station_name":"Poris","i_lat":-6.169933,"time":0,"distance":0,"i_long":106.679458,"line":5,"transit":false,"is_transit":false,"station_id":"PI"},{"line":5,"is_transit":false,"distance":2548,"time":3,"i_long":106.701612,"station_id":"KDS","transit":false,"station_name":"Kalideres","i_lat":-6.166068},{"station_id":"RW","i_lat":-6.162758,"distance":2504,"transit":false,"station_name":"Rawa Buaya","line":5,"is_transit":false,"i_long":106.723064,"time":3},{"station_id":"BOI","is_transit":false,"i_lat":-6.159876,"station_name":"Bojongindah","distance":1152,"transit":false,"line":5,"time":4,"i_long":106.737035},{"station_name":"Taman Kota","i_lat":-6.1587309999999995,"time":2,"i_long":106.756522,"distance":2334,"line":5,"station_id":"TKO","transit":false,"is_transit":false},{"station_id":"PSG","station_name":"Pesing","transit":false,"is_transit":false,"time":2,"line":5,"i_lat":-6.161433,"distance":1614,"i_long":106.771379},{"station_name":"Grogol","i_lat":-6.162021,"i_long":106.788277,"station_id":"GGL","transit":false,"distance":2036,"time":2,"line":5,"is_transit":false},{"i_lat":-6.155215,"line":1,"station_name":"Duri","time":3,"i_long":106.800832,"transit":true,"station_id":"DU","is_transit":true,"distance":1700},{"is_transit":false,"distance":1230,"line":1,"transit":false,"station_id":"AK","time":4,"i_lat":-6.144674,"station_name":"Angke","i_long":106.79867},{"line":4,"station_name":"Kampung Bandan","i_lat":-6.132549,"station_id":"KPB","i_long":106.826365,"is_transit":true,"time":9,"distance":4102,"transit":true},{"station_id":"RJW","i_long":106.836569,"transit":false,"i_lat":-6.14505,"time":3,"is_transit":false,"distance":1444,"line":11,"station_name":"Rajawali"},{"line":11,"time":5,"i_long":106.839204,"station_name":"Kemayoran","is_transit":false,"distance":1901,"station_id":"KMO","transit":false,"i_lat":-6.161728},{"station_name":"Pasar Senen","line":11,"is_transit":false,"distance":1436,"i_long":106.84368,"time":4,"station_id":"PSE","i_lat":-6.174784,"transit":false},{"i_lat":-6.185975,"transit":false,"line":11,"station_name":"Gang Sentiong","is_transit":false,"time":8,"distance":1567,"station_id":"GST","i_long":106.850107},{"line":11,"distance":973,"is_transit":false,"transit":false,"i_long":106.855437,"i_lat":-6.193792,"station_id":"KMT","station_name":"Kramat","time":1},{"distance":1829,"time":2,"station_id":"POK","transit":false,"i_long":106.861737,"line":11,"i_lat":-6.209188,"is_transit":false,"station_name":"Pondok Jati"},{"i_lat":-6.215091,"i_long":106.86807400000001,"line":1,"is_transit":true,"station_id":"JNG","transit":true,"station_name":"Jatinegara","time":9,"distance":1236},{"station_id":"MTR","i_lat":-6.212485,"time":2,"line":1,"station_name":"Matraman","transit":false,"distance":1377,"is_transit":false,"i_long":106.858896},{"is_transit":true,"station_name":"Manggarai","transit":true,"i_long":106.84912,"line":2,"time":2,"distance":1275,"station_id":"MRI","i_lat":-6.209883},{"station_id":"TEB","transit":false,"time":4,"line":2,"is_transit":false,"i_long":106.857948,"station_name":"Tebet","distance":2610,"i_lat":-6.226659},{"transit":false,"station_id":"CW","time":2,"distance":1230,"i_lat":-6.242512,"station_name":"Cawang","is_transit":false,"i_long":106.856607,"line":2},{"transit":false,"station_id":"DRN","is_transit":false,"i_long":106.85449,"station_name":"Duren Kalibata","distance":1546,"time":3,"i_lat":-6.255332,"line":2},{"time":2,"line":2,"distance":824,"i_long":106.851577,"transit":false,"i_lat":-6.263214,"station_name":"Pasar Minggu Baru","station_id":"PSMB","is_transit":false},{"i_lat":-6.2842400000000005,"is_transit":false,"time":2,"transit":false,"line":2,"i_long":106.843999,"station_id":"PSM","distance":2380,"station_name":"Pasar Minggu"},{"station_id":"TNT","transit":false,"is_transit":false,"distance":2820,"station_name":"Tanjung Barat","i_long":106.838896,"time":4,"i_lat":-6.3080680000000005,"line":2},{"line":2,"station_id":"LNA","i_long":106.832616,"i_lat":-6.330363,"time":3,"station_name":"Lenteng Agung","is_transit":false,"transit":false,"distance":2671},{"is_transit":false,"station_name":"Univ. Pancasila","station_id":"UP","distance":1029,"line":2,"transit":false,"i_long":106.834175,"time":2,"i_lat":-6.339291},{"line":2,"time":3,"is_transit":false,"station_name":"Univ. Indonesia","distance":2264,"transit":false,"station_id":"UI","i_lat":-6.360749,"i_long":106.831474},{"i_long":106.831114,"station_name":"Pondok Cina","transit":false,"station_id":"POC","i_lat":-6.369073,"is_transit":false,"time":2,"distance":1109,"line":2}]]}