{"data":[[{"distance":0,"is_transit":false,"station_name":"Poris","line":5,"transit":false,"time":0,"i_lat":-6.169933,"station_id":"PI","i_long":106.679458},{"i_lat":-6.166068,"time":3,"is_transit":false,"station_name":"Kalideres","transit":false,"line":5,"distance":2548,"station_id":"KDS","i_long":106.701612},{"i_lat":-6.162758,"i_long":106.723064,"station_id":"RW","distance":2504,"line":5,"transit":false,"time":3,"station_name":"Rawa Buaya","is_transit":false},{"station_id":"BOI","station_name":"Bojongindah","i_lat":-6.159876,"transit":false,"time":4,"is_transit":false,"distance":1152,"line":5,"i_long":106.737035},{"time":2,"i_long":106.756522,"station_name":"Taman Kota","i_lat":-6.1587309999999995,"is_transit":false,"station_id":"TKO","line":5,"transit":false,"distance":2334},{"line":5,"station_name":"Pesing","time":2,"i_lat":-6.161433,"station_id":"PSG","distance":1614,"transit":false,"is_transit":false,"i_long":106.771379},{"i_lat":-6.162021,"transit":false,"line":5,"time":2,"distance":2036,"station_name":"Grogol","i_long":106.788277,"is_transit":false,"station_id":"GGL"},{"transit":true,"time":3,"distance":1700,"line":1,"is_transit":true,"i_lat":-6.155215,"station_name":"Duri","station_id":"DU","i_long":106.800832},{"distance":3632,"is_transit":false,"station_id":"THB","i_lat":-6.185545,"station_name":"Tanah Abang","transit":false,"i_long":106.811091,"time":8,"line":1},{"transit":false,"time":5,"is_transit":false,"i_lat":-6.20132,"station_id":"KAT","line":1,"station_name":"Karet","i_long":106.816351,"distance":2029},{"is_transit":false,"station_id":"SUDB","line":1,"transit":false,"time":1,"i_lat":-6.201433,"distance":471,"station_name":"Sudirman Baru","i_long":106.819881},{"line":1,"transit":false,"i_long":106.822649,"station_id":"SUD","distance":280,"station_name":"Sudirman","time":1,"i_lat":-6.202263,"is_transit":false},{"station_name":"Manggarai","i_long":106.84912,"i_lat":-6.209883,"transit":true,"line":2,"distance":3186,"is_transit":true,"time":4,"station_id":"MRI"},{"transit":false,"i_long":106.857948,"time":4,"i_lat":-6.226659,"is_transit":false,"station_name":"Tebet","line":2,"station_id":"TEB","distance":2610},{"time":2,"i_lat":-6.242512,"station_name":"Cawang","transit":false,"station_id":"CW","distance":1230,"is_transit":false,"line":2,"i_long":106.856607},{"i_long":106.85449,"i_lat":-6.255332,"line":2,"station_name":"Duren Kalibata","transit":false,"time":3,"station_id":"DRN","distance":1546,"is_transit":false},{"time":2,"is_transit":false,"station_id":"PSMB","distance":824,"line":2,"i_lat":-6.263214,"station_name":"Pasar Minggu Baru","transit":false,"i_long":106.851577},{"distance":2380,"i_lat":-6.2842400000000005,"i_long":106.843999,"is_transit":false,"line":2,"station_id":"PSM","time":2,"station_name":"Pasar Minggu","transit":false}],[{"time":0,"i_long":106.679458,"line":5,"i_lat":-6.169933,"is_transit":false,"transit":false,"station_id":"PI","station_name":"Poris","distance":0},{"station_id":"KDS","station_name":"Kalideres","is_transit":false,"line":5,"i_lat":-6.166068,"distance":2548,"time":3,"transit":false,"i_long":106.701612},{"i_lat":-6.162758,"is_transit":false,"i_long":106.723064,"station_id":"RW","time":3,"distance":2504,"transit":false,"line":5,"station_name":"Rawa Buaya"},{"time":4,"transit":false,"i_long":106.737035,"station_id":"BOI","distance":1152,"line":5,"i_lat":-6.159876,"station_name":"Bojongindah","is_transit":false},{"transit":false,"line":5,"distance":2334,"is_transit":false,"i_lat":-6.1587309999999995,"station_id":"TKO","time":2,"station_name":"Taman Kota","i_long":106.756522},{"line":5,"distance":1614,"station_id":"PSG","transit":false,"i_lat":-6.161433,"is_transit":false,"time":2,"i_long":106.771379,"station_name":"Pesing"},{"time":2,"i_long":106.788277,"line":5,"distance":2036,"transit":false,"is_transit":false,"station_id":"GGL","station_name":"Grogol","i_lat":-6.162021},{"i_long":106.800832,"time":3,"station_id":"DU","distance":1700,"is_transit":true,"line":1,"transit":true,"i_lat":-6.155215,"station_name":"Duri"},{"station_id":"AK","distance":1230,"time":4,"line":1,"station_name":"Angke","is_transit":false,"transit":false,"i_lat":-6.144674,"i_long":106.79867},{"i_lat":-6.132549,"station_name":"Kampung Bandan","transit":true,"line":4,"i_long":106.826365,"is_transit":true,"station_id":"KPB","time":9,"distance":4102},{"time":3,"line":2,"transit":true,"i_long":106.812439,"station_name":"Jakarta Kota","is_transit":true,"distance":1364,"i_lat":-6.137569,"station_id":"JAKK"},{"time":4,"station_id":"JAY","i_long":106.820901,"transit":false,"distance":1264,"is_transit":false,"i_lat":-6.141205,"station_name":"Jayakarta","line":2},{"distance":1080,"transit":false,"time":2,"station_id":"MGB","i_long":106.82482,"station_name":"Manggabesar","line":2,"i_lat":-6.149769,"is_transit":false},{"station_id":"SW","station_name":"Sawah Besar","time":2,"distance":906,"i_lat":-6.160725,"i_long":106.827103,"transit":false,"is_transit":false,"line":2},{"station_id":"JUA","distance":1149,"time":2,"line":2,"station_name":"Juanda","transit":false,"is_transit":false,"i_lat":-6.166716,"i_long":106.828284},{"station_id":"GDD","is_transit":false,"line":2,"station_name":"Gondangdia","transit":false,"i_long":106.832183,"i_lat":-6.186295,"distance":2015,"time":4},{"station_name":"Cikini","i_long":106.840169,"is_transit":false,"line":2,"transit":false,"time":3,"i_lat":-6.198556,"station_id":"CKI","distance":1750},{"distance":1590,"station_id":"MRI","station_name":"Manggarai","i_lat":-6.209883,"transit":false,"time":4,"i_long":106.84912,"is_transit":false,"line":2},{"i_long":106.857948,"i_lat":-6.226659,"time":4,"distance":2610,"transit":false,"is_transit":false,"line":2,"station_id":"TEB","station_name":"Tebet"},{"line":2,"station_name":"Cawang","i_lat":-6.242512,"transit":false,"i_long":106.856607,"station_id":"CW","distance":1230,"is_transit":false,"time":2},{"i_lat":-6.255332,"transit":false,"i_long":106.85449,"time":3,"line":2,"station_id":"DRN","distance":1546,"station_name":"Duren Kalibata","is_transit":false},{"distance":824,"i_lat":-6.263214,"line":2,"station_id":"PSMB","transit":false,"i_long":106.851577,"is_transit":false,"station_name":"Pasar Minggu Baru","time":2},{"station_id":"PSM","station_name":"Pasar Minggu","distance":2380,"time":2,"i_long":106.843999,"is_transit":false,"transit":false,"i_lat":-6.2842400000000005,"line":2}],[{"distance":0,"transit":false,"i_lat":-6.169933,"i_long":106.679458,"time":0,"station_name":"Poris","line":5,"station_id":"PI","is_transit":false},{"i_lat":-6.166068,"station_id":"KDS","i_long":106.701612,"distance":2548,"line":5,"time":3,"station_name":"Kalideres","transit":false,"is_transit":false},{"distance":2504,"is_transit":false,"i_lat":-6.162758,"i_long":106.723064,"transit":false,"time":3,"station_name":"Rawa Buaya","line":5,"station_id":"RW"},{"time":4,"transit":false,"line":5,"distance":1152,"station_name":"Bojongindah","is_transit":false,"station_id":"BOI","i_lat":-6.159876,"i_long":106.737035},{"distance":2334,"i_lat":-6.1587309999999995,"is_transit":false,"line":5,"station_id":"TKO","time":2,"i_long":106.756522,"station_name":"Taman Kota","transit":false},{"distance":1614,"station_name":"Pesing","i_lat":-6.161433,"is_transit":false,"i_long":106.771379,"transit":false,"line":5,"time":2,"station_id":"PSG"},{"station_name":"Grogol","transit":false,"time":2,"i_lat":-6.162021,"station_id":"GGL","i_long":106.788277,"is_transit":false,"line":5,"distance":2036},{"i_long":106.800832,"is_transit":true,"station_name":"Duri","station_id":"DU","distance":1700,"line":1,"time":3,"i_lat":-6.155215,"transit":true},{"station_name":"Angke","distance":1230,"is_transit":false,"i_lat":-6.144674,"line":1,"time":4,"i_long":106.79867,"transit":false,"station_id":"AK"},{"is_transit":true,"i_long":106.826365,"i_lat":-6.132549,"distance":4102,"time":9,"station_id":"KPB","transit":true,"station_name":"Kampung Bandan","line":4},{"station_name":"Rajawali","station_id":"RJW","transit":false,"time":3,"is_transit":false,"distance":1444,"i_lat":-6.14505,"line":11,"i_long":106.836569},{"i_long":106.839204,"station_id":"KMO","distance":1901,"station_name":"Kemayoran","transit":false,"time":5,"is_transit":false,"i_lat":-6.161728,"line":11},{"i_long":106.84368,"i_lat":-6.174784,"is_transit":false,"station_id":"PSE","transit":false,"station_name":"Pasar Senen","time":4,"distance":1436,"line":11},{"station_id":"GST","line":11,"station_name":"Gang Sentiong","transit":false,"time":8,"i_long":106.850107,"i_lat":-6.185975,"distance":1567,"is_transit":false},{"time":1,"line":11,"station_name":"Kramat","distance":973,"transit":false,"i_long":106.855437,"is_transit":false,"station_id":"KMT","i_lat":-6.193792},{"transit":false,"i_lat":-6.209188,"station_name":"Pondok Jati","time":2,"distance":1829,"i_long":106.861737,"line":11,"station_id":"POK","is_transit":false},{"station_id":"JNG","i_long":106.86807400000001,"is_transit":true,"transit":true,"time":9,"i_lat":-6.215091,"station_name":"Jatinegara","line":1,"distance":1236},{"i_lat":-6.212485,"station_name":"Matraman","is_transit":false,"line":1,"transit":false,"distance":1377,"i_long":106.858896,"time":2,"station_id":"MTR"},{"transit":true,"i_lat":-6.209883,"line":2,"is_transit":true,"i_long":106.84912,"distance":1275,"station_name":"Manggarai","station_id":"MRI","time":2},{"distance":2610,"station_name":"Tebet","i_lat":-6.226659,"is_transit":false,"station_id":"TEB","i_long":106.857948,"line":2,"time":4,"transit":false},{"distance":1230,"station_name":"Cawang","station_id":"CW","is_transit":false,"time":2,"line":2,"transit":false,"i_lat":-6.242512,"i_long":106.856607},{"i_lat":-6.255332,"i_long":106.85449,"station_id":"DRN","transit":false,"time":3,"is_transit":false,"line":2,"distance":1546,"station_name":"Duren Kalibata"},{"station_name":"Pasar Minggu Baru","line":2,"station_id":"PSMB","distance":824,"i_lat":-6.263214,"is_transit":false,"transit":false,"time":2,"i_long":106.851577},{"i_lat":-6.2842400000000005,"line":2,"distance":2380,"transit":false,"time":2,"i_long":106.843999,"station_id":"PSM","is_transit":false,"station_name":"Pasar Minggu"}]]}