{"data":[[{"line":5,"i_lat":-6.169933,"i_long":106.679458,"is_transit":false,"time":0,"station_id":"PI","transit":false,"station_name":"Poris","distance":0},{"i_lat":-6.166068,"i_long":106.701612,"distance":2548,"time":3,"line":5,"station_name":"Kalideres","transit":false,"is_transit":false,"station_id":"KDS"},{"time":3,"station_name":"Rawa Buaya","i_long":106.723064,"line":5,"distance":2504,"i_lat":-6.162758,"transit":false,"station_id":"RW","is_transit":false},{"station_id":"BOI","i_long":106.737035,"station_name":"Bojongindah","i_lat":-6.159876,"line":5,"transit":false,"distance":1152,"is_transit":false,"time":4},{"i_long":106.756522,"i_lat":-6.1587309999999995,"station_name":"Taman Kota","station_id":"TKO","transit":false,"is_transit":false,"line":5,"time":2,"distance":2334},{"station_id":"PSG","time":2,"distance":1614,"station_name":"Pesing","line":5,"i_lat":-6.161433,"transit":false,"is_transit":false,"i_long":106.771379},{"line":5,"time":2,"i_long":106.788277,"distance":2036,"transit":false,"station_id":"GGL","station_name":"Grogol","is_transit":false,"i_lat":-6.162021},{"station_id":"DU","is_transit":true,"transit":true,"station_name":"Duri","time":3,"distance":1700,"i_lat":-6.155215,"i_long":106.800832,"line":1},{"line":1,"transit":false,"distance":3632,"i_lat":-6.185545,"i_long":106.811091,"time":8,"station_id":"THB","is_transit":false,"station_name":"Tanah Abang"},{"transit":false,"i_long":106.816351,"station_id":"KAT","time":5,"i_lat":-6.20132,"line":1,"is_transit":false,"station_name":"Karet","distance":2029},{"station_id":"SUDB","transit":false,"is_transit":false,"time":1,"station_name":"Sudirman Baru","i_long":106.819881,"i_lat":-6.201433,"line":1,"distance":471},{"station_name":"Sudirman","is_transit":false,"time":1,"i_lat":-6.202263,"line":1,"station_id":"SUD","i_long":106.822649,"transit":false,"distance":280},{"i_lat":-6.209883,"line":2,"i_long":106.84912,"transit":true,"is_transit":true,"distance":3186,"station_name":"Manggarai","station_id":"MRI","time":4},{"station_name":"Tebet","distance":2610,"is_transit":false,"i_long":106.857948,"i_lat":-6.226659,"transit":false,"station_id":"TEB","line":2,"time":4},{"i_long":106.856607,"line":2,"is_transit":false,"time":2,"station_name":"Cawang","distance":1230,"i_lat":-6.242512,"transit":false,"station_id":"CW"},{"i_long":106.85449,"station_name":"Duren Kalibata","station_id":"DRN","transit":false,"is_transit":false,"i_lat":-6.255332,"time":3,"line":2,"distance":1546},{"distance":824,"i_lat":-6.263214,"time":2,"transit":false,"station_name":"Pasar Minggu Baru","i_long":106.851577,"line":2,"is_transit":false,"station_id":"PSMB"},{"line":2,"is_transit":false,"time":2,"transit":false,"station_id":"PSM","i_lat":-6.2842400000000005,"i_long":106.843999,"distance":2380,"station_name":"Pasar Minggu"}],[{"time":0,"transit":false,"is_transit":false,"i_long":106.679458,"station_name":"Poris","station_id":"PI","distance":0,"i_lat":-6.169933,"line":5},{"i_long":106.701612,"line":5,"transit":false,"i_lat":-6.166068,"station_name":"Kalideres","is_transit":false,"time":3,"station_id":"KDS","distance":2548},{"i_long":106.723064,"line":5,"time":3,"transit":false,"distance":2504,"station_id":"RW","is_transit":false,"i_lat":-6.162758,"station_name":"Rawa Buaya"},{"time":4,"distance":1152,"i_lat":-6.159876,"transit":false,"line":5,"i_long":106.737035,"station_name":"Bojongindah","is_transit":false,"station_id":"BOI"},{"time":2,"is_transit":false,"line":5,"distance":2334,"station_id":"TKO","station_name":"Taman Kota","i_lat":-6.1587309999999995,"transit":false,"i_long":106.756522},{"is_transit":false,"transit":false,"distance":1614,"time":2,"station_name":"Pesing","i_lat":-6.161433,"i_long":106.771379,"station_id":"PSG","line":5},{"time":2,"transit":false,"station_name":"Grogol","i_long":106.788277,"line":5,"distance":2036,"station_id":"GGL","is_transit":false,"i_lat":-6.162021},{"is_transit":true,"i_long":106.800832,"station_name":"Duri","line":1,"station_id":"DU","transit":true,"time":3,"distance":1700,"i_lat":-6.155215},{"distance":1230,"station_name":"Angke","time":4,"is_transit":false,"line":1,"station_id":"AK","transit":false,"i_long":106.79867,"i_lat":-6.144674},{"time":9,"station_id":"KPB","distance":4102,"is_transit":true,"station_name":"Kampung Bandan","i_long":106.826365,"line":4,"i_lat":-6.132549,"transit":true},{"i_lat":-6.137569,"i_long":106.812439,"line":2,"station_id":"JAKK","transit":true,"distance":1364,"is_transit":true,"station_name":"Jakarta Kota","time":3},{"transit":false,"station_name":"Jayakarta","i_lat":-6.141205,"i_long":106.820901,"line":2,"time":4,"is_transit":false,"station_id":"JAY","distance":1264},{"station_id":"MGB","line":2,"transit":false,"is_transit":false,"i_lat":-6.149769,"time":2,"station_name":"Manggabesar","distance":1080,"i_long":106.82482},{"station_id":"SW","distance":906,"is_transit":false,"line":2,"transit":false,"i_lat":-6.160725,"station_name":"Sawah Besar","time":2,"i_long":106.827103},{"time":2,"transit":false,"distance":1149,"i_lat":-6.166716,"station_name":"Juanda","is_transit":false,"i_long":106.828284,"line":2,"station_id":"JUA"},{"is_transit":false,"transit":false,"station_name":"Gondangdia","i_lat":-6.186295,"station_id":"GDD","line":2,"i_long":106.832183,"distance":2015,"time":4},{"is_transit":false,"i_long":106.840169,"time":3,"distance":1750,"line":2,"station_id":"CKI","transit":false,"i_lat":-6.198556,"station_name":"Cikini"},{"distance":1590,"is_transit":false,"station_id":"MRI","time":4,"i_lat":-6.209883,"line":2,"station_name":"Manggarai","i_long":106.84912,"transit":false},{"distance":2610,"i_long":106.857948,"time":4,"station_id":"TEB","transit":false,"i_lat":-6.226659,"station_name":"Tebet","is_transit":false,"line":2},{"i_long":106.856607,"transit":false,"station_id":"CW","distance":1230,"time":2,"is_transit":false,"station_name":"Cawang","i_lat":-6.242512,"line":2},{"station_name":"Duren Kalibata","line":2,"is_transit":false,"station_id":"DRN","i_lat":-6.255332,"i_long":106.85449,"distance":1546,"time":3,"transit":false},{"is_transit":false,"distance":824,"station_name":"Pasar Minggu Baru","station_id":"PSMB","i_lat":-6.263214,"time":2,"transit":false,"i_long":106.851577,"line":2},{"station_id":"PSM","transit":false,"is_transit":false,"distance":2380,"i_lat":-6.2842400000000005,"station_name":"Pasar Minggu","time":2,"i_long":106.843999,"line":2}],[{"station_name":"Poris","transit":false,"is_transit":false,"line":5,"i_long":106.679458,"distance":0,"i_lat":-6.169933,"station_id":"PI","time":0},{"distance":2548,"time":3,"i_long":106.701612,"transit":false,"line":5,"i_lat":-6.166068,"station_name":"Kalideres","is_transit":false,"station_id":"KDS"},{"transit":false,"i_lat":-6.162758,"station_id":"RW","i_long":106.723064,"time":3,"line":5,"distance":2504,"station_name":"Rawa Buaya","is_transit":false},{"time":4,"i_lat":-6.159876,"station_id":"BOI","station_name":"Bojongindah","line":5,"is_transit":false,"distance":1152,"transit":false,"i_long":106.737035},{"is_transit":false,"time":2,"i_lat":-6.1587309999999995,"transit":false,"station_id":"TKO","i_long":106.756522,"distance":2334,"station_name":"Taman Kota","line":5},{"is_transit":false,"time":2,"i_long":106.771379,"transit":false,"distance":1614,"station_id":"PSG","line":5,"i_lat":-6.161433,"station_name":"Pesing"},{"transit":false,"station_id":"GGL","time":2,"line":5,"distance":2036,"is_transit":false,"station_name":"Grogol","i_lat":-6.162021,"i_long":106.788277},{"time":3,"line":1,"is_transit":true,"i_lat":-6.155215,"transit":true,"i_long":106.800832,"station_name":"Duri","distance":1700,"station_id":"DU"},{"station_id":"AK","distance":1230,"time":4,"i_lat":-6.144674,"is_transit":false,"line":1,"transit":false,"i_long":106.79867,"station_name":"Angke"},{"station_id":"KPB","i_lat":-6.132549,"distance":4102,"is_transit":true,"line":4,"time":9,"i_long":106.826365,"transit":true,"station_name":"Kampung Bandan"},{"station_id":"RJW","is_transit":false,"time":3,"transit":false,"station_name":"Rajawali","distance":1444,"i_lat":-6.14505,"line":11,"i_long":106.836569},{"i_long":106.839204,"transit":false,"distance":1901,"station_id":"KMO","station_name":"Kemayoran","i_lat":-6.161728,"time":5,"line":11,"is_transit":false},{"distance":1436,"i_lat":-6.174784,"i_long":106.84368,"transit":false,"station_name":"Pasar Senen","station_id":"PSE","line":11,"is_transit":false,"time":4},{"station_name":"Gang Sentiong","is_transit":false,"time":8,"transit":false,"station_id":"GST","i_lat":-6.185975,"line":11,"distance":1567,"i_long":106.850107},{"i_long":106.855437,"station_id":"KMT","station_name":"Kramat","i_lat":-6.193792,"line":11,"is_transit":false,"transit":false,"distance":973,"time":1},{"distance":1829,"transit":false,"station_id":"POK","station_name":"Pondok Jati","time":2,"i_lat":-6.209188,"is_transit":false,"i_long":106.861737,"line":11},{"station_id":"JNG","transit":true,"line":1,"distance":1236,"station_name":"Jatinegara","i_long":106.86807400000001,"is_transit":true,"time":9,"i_lat":-6.215091},{"i_lat":-6.212485,"transit":false,"station_id":"MTR","station_name":"Matraman","i_long":106.858896,"time":2,"distance":1377,"is_transit":false,"line":1},{"station_id":"MRI","i_long":106.84912,"time":2,"is_transit":true,"distance":1275,"line":2,"station_name":"Manggarai","i_lat":-6.209883,"transit":true},{"line":2,"is_transit":false,"i_long":106.857948,"distance":2610,"station_id":"TEB","station_name":"Tebet","time":4,"i_lat":-6.226659,"transit":false},{"station_id":"CW","is_transit":false,"time":2,"station_name":"Cawang","i_lat":-6.242512,"transit":false,"distance":1230,"i_long":106.856607,"line":2},{"i_lat":-6.255332,"transit":false,"station_name":"Duren Kalibata","line":2,"time":3,"is_transit":false,"station_id":"DRN","i_long":106.85449,"distance":1546},{"time":2,"station_name":"Pasar Minggu Baru","is_transit":false,"i_long":106.851577,"station_id":"PSMB","distance":824,"line":2,"transit":false,"i_lat":-6.263214},{"station_id":"PSM","is_transit":false,"i_lat":-6.2842400000000005,"station_name":"Pasar Minggu","time":2,"distance":2380,"line":2,"i_long":106.843999,"transit":false}]]}