{"data":[[{"i_long":106.679458,"line":5,"station_id":"PI","distance":0,"i_lat":-6.169933,"is_transit":false,"station_name":"Poris","transit":false,"time":0},{"distance":2548,"time":3,"is_transit":false,"transit":false,"line":5,"station_id":"KDS","i_lat":-6.166068,"station_name":"Kalideres","i_long":106.701612},{"transit":false,"station_id":"RW","distance":2504,"line":5,"i_long":106.723064,"i_lat":-6.162758,"station_name":"Rawa Buaya","time":3,"is_transit":false},{"i_lat":-6.159876,"line":5,"station_name":"Bojongindah","is_transit":false,"transit":false,"i_long":106.737035,"station_id":"BOI","distance":1152,"time":4},{"transit":false,"distance":2334,"station_name":"Taman Kota","is_transit":false,"station_id":"TKO","time":2,"i_long":106.756522,"line":5,"i_lat":-6.1587309999999995},{"station_name":"Pesing","station_id":"PSG","i_lat":-6.161433,"line":5,"time":2,"i_long":106.771379,"transit":false,"distance":1614,"is_transit":false},{"station_id":"GGL","distance":2036,"transit":false,"time":2,"i_long":106.788277,"station_name":"Grogol","i_lat":-6.162021,"is_transit":false,"line":5},{"line":1,"station_id":"DU","is_transit":true,"station_name":"Duri","distance":1700,"i_lat":-6.155215,"i_long":106.800832,"transit":true,"time":3},{"time":8,"i_lat":-6.185545,"transit":false,"station_name":"Tanah Abang","is_transit":false,"station_id":"THB","i_long":106.811091,"distance":3632,"line":1},{"distance":2029,"i_long":106.816351,"line":1,"transit":false,"station_name":"Karet","time":5,"is_transit":false,"station_id":"KAT","i_lat":-6.20132},{"distance":471,"i_long":106.819881,"line":1,"station_name":"Sudirman Baru","i_lat":-6.201433,"transit":false,"is_transit":false,"time":1,"station_id":"SUDB"},{"time":1,"i_long":106.822649,"line":1,"station_id":"SUD","i_lat":-6.202263,"transit":false,"distance":280,"is_transit":false,"station_name":"Sudirman"},{"line":2,"is_transit":true,"station_id":"MRI","distance":3186,"station_name":"Manggarai","i_lat":-6.209883,"transit":true,"time":4,"i_long":106.84912},{"is_transit":false,"i_lat":-6.226659,"time":4,"station_id":"TEB","transit":false,"station_name":"Tebet","i_long":106.857948,"line":2,"distance":2610},{"transit":false,"i_long":106.856607,"line":2,"distance":1230,"is_transit":false,"station_id":"CW","time":2,"i_lat":-6.242512,"station_name":"Cawang"},{"time":3,"i_long":106.85449,"line":2,"station_name":"Duren Kalibata","station_id":"DRN","i_lat":-6.255332,"transit":false,"is_transit":false,"distance":1546},{"i_long":106.851577,"i_lat":-6.263214,"distance":824,"transit":false,"station_id":"PSMB","is_transit":false,"time":2,"line":2,"station_name":"Pasar Minggu Baru"}],[{"distance":0,"is_transit":false,"i_lat":-6.169933,"station_name":"Poris","i_long":106.679458,"transit":false,"station_id":"PI","line":5,"time":0},{"station_name":"Kalideres","time":3,"i_lat":-6.166068,"line":5,"transit":false,"is_transit":false,"i_long":106.701612,"distance":2548,"station_id":"KDS"},{"station_name":"Rawa Buaya","is_transit":false,"i_long":106.723064,"distance":2504,"time":3,"transit":false,"line":5,"i_lat":-6.162758,"station_id":"RW"},{"line":5,"station_id":"BOI","time":4,"transit":false,"i_lat":-6.159876,"is_transit":false,"station_name":"Bojongindah","distance":1152,"i_long":106.737035},{"station_name":"Taman Kota","time":2,"i_long":106.756522,"transit":false,"station_id":"TKO","line":5,"is_transit":false,"distance":2334,"i_lat":-6.1587309999999995},{"line":5,"station_id":"PSG","station_name":"Pesing","is_transit":false,"i_long":106.771379,"i_lat":-6.161433,"transit":false,"time":2,"distance":1614},{"i_lat":-6.162021,"line":5,"transit":false,"distance":2036,"i_long":106.788277,"time":2,"station_id":"GGL","station_name":"Grogol","is_transit":false},{"transit":true,"is_transit":true,"station_id":"DU","station_name":"Duri","distance":1700,"i_long":106.800832,"time":3,"line":1,"i_lat":-6.155215},{"line":1,"station_name":"Angke","distance":1230,"is_transit":false,"i_lat":-6.144674,"time":4,"station_id":"AK","i_long":106.79867,"transit":false},{"i_long":106.826365,"station_id":"KPB","is_transit":true,"station_name":"Kampung Bandan","time":9,"transit":true,"i_lat":-6.132549,"line":4,"distance":4102},{"line":2,"i_lat":-6.137569,"transit":true,"distance":1364,"station_id":"JAKK","is_transit":true,"station_name":"Jakarta Kota","time":3,"i_long":106.812439},{"distance":1264,"transit":false,"station_name":"Jayakarta","i_lat":-6.141205,"is_transit":false,"i_long":106.820901,"station_id":"JAY","line":2,"time":4},{"transit":false,"station_id":"MGB","station_name":"Manggabesar","i_lat":-6.149769,"is_transit":false,"i_long":106.82482,"distance":1080,"line":2,"time":2},{"i_lat":-6.160725,"i_long":106.827103,"distance":906,"line":2,"station_id":"SW","station_name":"Sawah Besar","is_transit":false,"transit":false,"time":2},{"transit":false,"station_name":"Juanda","distance":1149,"line":2,"i_long":106.828284,"station_id":"JUA","time":2,"i_lat":-6.166716,"is_transit":false},{"transit":false,"is_transit":false,"station_id":"GDD","distance":2015,"station_name":"Gondangdia","i_long":106.832183,"i_lat":-6.186295,"time":4,"line":2},{"i_lat":-6.198556,"distance":1750,"transit":false,"station_id":"CKI","line":2,"time":3,"station_name":"Cikini","is_transit":false,"i_long":106.840169},{"is_transit":false,"station_name":"Manggarai","distance":1590,"line":2,"time":4,"station_id":"MRI","i_lat":-6.209883,"i_long":106.84912,"transit":false},{"station_id":"TEB","time":4,"station_name":"Tebet","transit":false,"is_transit":false,"line":2,"distance":2610,"i_lat":-6.226659,"i_long":106.857948},{"time":2,"line":2,"is_transit":false,"transit":false,"distance":1230,"station_id":"CW","station_name":"Cawang","i_lat":-6.242512,"i_long":106.856607},{"station_name":"Duren Kalibata","transit":false,"line":2,"i_lat":-6.255332,"i_long":106.85449,"distance":1546,"is_transit":false,"time":3,"station_id":"DRN"},{"is_transit":false,"distance":824,"i_lat":-6.263214,"time":2,"i_long":106.851577,"line":2,"station_id":"PSMB","transit":false,"station_name":"Pasar Minggu Baru"}],[{"transit":false,"is_transit":false,"station_id":"PI","station_name":"Poris","time":0,"distance":0,"i_long":106.679458,"line":5,"i_lat":-6.169933},{"is_transit":false,"distance":2548,"station_name":"Kalideres","station_id":"KDS","i_long":106.701612,"time":3,"i_lat":-6.166068,"line":5,"transit":false},{"is_transit":false,"distance":2504,"i_lat":-6.162758,"i_long":106.723064,"station_id":"RW","time":3,"transit":false,"line":5,"station_name":"Rawa Buaya"},{"station_id":"BOI","time":4,"distance":1152,"transit":false,"i_lat":-6.159876,"station_name":"Bojongindah","is_transit":false,"i_long":106.737035,"line":5},{"is_transit":false,"transit":false,"station_name":"Taman Kota","distance":2334,"line":5,"station_id":"TKO","i_lat":-6.1587309999999995,"i_long":106.756522,"time":2},{"transit":false,"i_lat":-6.161433,"line":5,"station_name":"Pesing","distance":1614,"is_transit":false,"i_long":106.771379,"time":2,"station_id":"PSG"},{"station_id":"GGL","station_name":"Grogol","i_lat":-6.162021,"i_long":106.788277,"line":5,"is_transit":false,"transit":false,"distance":2036,"time":2},{"transit":true,"station_id":"DU","is_transit":true,"distance":1700,"i_long":106.800832,"time":3,"station_name":"Duri","i_lat":-6.155215,"line":1},{"i_long":106.79867,"line":1,"station_name":"Angke","time":4,"is_transit":false,"station_id":"AK","distance":1230,"transit":false,"i_lat":-6.144674},{"transit":true,"i_lat":-6.132549,"distance":4102,"i_long":106.826365,"line":4,"is_transit":true,"time":9,"station_id":"KPB","station_name":"Kampung Bandan"},{"i_long":106.836569,"i_lat":-6.14505,"station_name":"Rajawali","transit":false,"station_id":"RJW","is_transit":false,"time":3,"line":11,"distance":1444},{"line":11,"station_name":"Kemayoran","time":5,"distance":1901,"station_id":"KMO","i_long":106.839204,"transit":false,"i_lat":-6.161728,"is_transit":false},{"station_name":"Pasar Senen","i_lat":-6.174784,"i_long":106.84368,"station_id":"PSE","transit":false,"distance":1436,"is_transit":false,"time":4,"line":11},{"is_transit":false,"station_name":"Gang Sentiong","station_id":"GST","i_long":106.850107,"time":8,"line":11,"i_lat":-6.185975,"distance":1567,"transit":false},{"transit":false,"time":1,"i_long":106.855437,"is_transit":false,"station_name":"Kramat","distance":973,"station_id":"KMT","i_lat":-6.193792,"line":11},{"is_transit":false,"station_id":"POK","station_name":"Pondok Jati","line":11,"i_lat":-6.209188,"transit":false,"distance":1829,"time":2,"i_long":106.861737},{"i_long":106.86807400000001,"transit":true,"is_transit":true,"i_lat":-6.215091,"line":1,"station_name":"Jatinegara","distance":1236,"time":9,"station_id":"JNG"},{"station_name":"Matraman","i_lat":-6.212485,"transit":false,"i_long":106.858896,"line":1,"is_transit":false,"time":2,"station_id":"MTR","distance":1377},{"i_lat":-6.209883,"line":2,"i_long":106.84912,"station_id":"MRI","distance":1275,"is_transit":true,"transit":true,"station_name":"Manggarai","time":2},{"i_lat":-6.226659,"transit":false,"station_name":"Tebet","is_transit":false,"station_id":"TEB","line":2,"distance":2610,"time":4,"i_long":106.857948},{"i_lat":-6.242512,"transit":false,"distance":1230,"line":2,"time":2,"station_name":"Cawang","station_id":"CW","is_transit":false,"i_long":106.856607},{"station_id":"DRN","time":3,"is_transit":false,"station_name":"Duren Kalibata","i_long":106.85449,"line":2,"transit":false,"distance":1546,"i_lat":-6.255332},{"time":2,"is_transit":false,"station_name":"Pasar Minggu Baru","station_id":"PSMB","distance":824,"i_long":106.851577,"line":2,"transit":false,"i_lat":-6.263214}]]}