{"data":[[{"i_long":106.679458,"line":5,"distance":0,"station_id":"PI","is_transit":false,"transit":false,"station_name":"Poris","time":0,"i_lat":-6.169933},{"transit":false,"is_transit":false,"station_id":"KDS","i_long":106.701612,"line":5,"i_lat":-6.166068,"time":3,"distance":2548,"station_name":"Kalideres"},{"transit":false,"is_transit":false,"distance":2504,"line":5,"time":3,"i_long":106.723064,"station_id":"RW","station_name":"Rawa Buaya","i_lat":-6.162758},{"station_name":"Bojongindah","distance":1152,"i_long":106.737035,"station_id":"BOI","time":4,"line":5,"i_lat":-6.159876,"transit":false,"is_transit":false},{"distance":2334,"is_transit":false,"i_long":106.756522,"station_name":"Taman Kota","line":5,"station_id":"TKO","transit":false,"i_lat":-6.1587309999999995,"time":2},{"station_id":"PSG","is_transit":false,"i_lat":-6.161433,"i_long":106.771379,"transit":false,"line":5,"distance":1614,"time":2,"station_name":"Pesing"},{"i_long":106.788277,"time":2,"station_name":"Grogol","i_lat":-6.162021,"transit":false,"distance":2036,"is_transit":false,"station_id":"GGL","line":5},{"transit":true,"station_name":"Duri","time":3,"distance":1700,"i_long":106.800832,"i_lat":-6.155215,"is_transit":true,"line":1,"station_id":"DU"},{"i_lat":-6.185545,"is_transit":true,"station_name":"Tanah Abang","i_long":106.811091,"line":1,"transit":true,"station_id":"THB","time":8,"distance":3632},{"transit":false,"is_transit":false,"i_lat":-6.207404,"i_long":106.79689,"station_id":"PLM","station_name":"Palmerah","time":6,"distance":3191,"line":6}],[{"station_name":"Poris","time":0,"station_id":"PI","i_long":106.679458,"distance":0,"i_lat":-6.169933,"is_transit":false,"line":5,"transit":false},{"time":3,"line":5,"distance":2548,"transit":false,"station_id":"KDS","is_transit":false,"i_lat":-6.166068,"i_long":106.701612,"station_name":"Kalideres"},{"station_id":"RW","i_lat":-6.162758,"transit":false,"i_long":106.723064,"line":5,"distance":2504,"time":3,"is_transit":false,"station_name":"Rawa Buaya"},{"i_lat":-6.159876,"line":5,"is_transit":false,"i_long":106.737035,"distance":1152,"station_name":"Bojongindah","transit":false,"station_id":"BOI","time":4},{"i_lat":-6.1587309999999995,"transit":false,"is_transit":false,"distance":2334,"station_name":"Taman Kota","time":2,"line":5,"station_id":"TKO","i_long":106.756522},{"i_long":106.771379,"line":5,"distance":1614,"time":2,"station_id":"PSG","transit":false,"is_transit":false,"station_name":"Pesing","i_lat":-6.161433},{"line":5,"station_id":"GGL","transit":false,"is_transit":false,"time":2,"distance":2036,"i_long":106.788277,"i_lat":-6.162021,"station_name":"Grogol"},{"transit":true,"i_long":106.800832,"is_transit":true,"station_id":"DU","line":1,"time":3,"station_name":"Duri","i_lat":-6.155215,"distance":1700},{"time":4,"i_lat":-6.144674,"distance":1230,"transit":false,"station_id":"AK","i_long":106.79867,"station_name":"Angke","is_transit":false,"line":1},{"i_long":106.826365,"time":9,"is_transit":true,"station_name":"Kampung Bandan","transit":true,"distance":4102,"line":4,"station_id":"KPB","i_lat":-6.132549},{"station_id":"JAKK","distance":1364,"transit":true,"line":2,"station_name":"Jakarta Kota","is_transit":true,"i_long":106.812439,"time":3,"i_lat":-6.137569},{"i_lat":-6.141205,"is_transit":false,"time":4,"station_name":"Jayakarta","transit":false,"station_id":"JAY","i_long":106.820901,"line":2,"distance":1264},{"i_long":106.82482,"station_id":"MGB","i_lat":-6.149769,"station_name":"Manggabesar","transit":false,"is_transit":false,"distance":1080,"line":2,"time":2},{"line":2,"time":2,"station_id":"SW","is_transit":false,"i_lat":-6.160725,"transit":false,"i_long":106.827103,"distance":906,"station_name":"Sawah Besar"},{"station_name":"Juanda","station_id":"JUA","i_long":106.828284,"line":2,"is_transit":false,"time":2,"i_lat":-6.166716,"transit":false,"distance":1149},{"time":4,"i_lat":-6.186295,"station_id":"GDD","i_long":106.832183,"line":2,"is_transit":false,"distance":2015,"station_name":"Gondangdia","transit":false},{"station_id":"CKI","i_lat":-6.198556,"is_transit":false,"line":2,"station_name":"Cikini","transit":false,"i_long":106.840169,"distance":1750,"time":3},{"station_id":"MRI","transit":true,"station_name":"Manggarai","time":4,"distance":1590,"line":2,"is_transit":true,"i_long":106.84912,"i_lat":-6.209883},{"transit":false,"station_name":"Sudirman","is_transit":false,"station_id":"SUD","i_long":106.822649,"distance":3186,"line":1,"i_lat":-6.202263,"time":4},{"is_transit":false,"station_name":"Sudirman Baru","line":1,"station_id":"SUDB","distance":280,"transit":false,"time":1,"i_lat":-6.201433,"i_long":106.819881},{"is_transit":false,"time":1,"i_long":106.816351,"i_lat":-6.20132,"line":1,"distance":471,"transit":false,"station_id":"KAT","station_name":"Karet"},{"line":1,"time":5,"transit":true,"station_id":"THB","distance":2029,"station_name":"Tanah Abang","i_lat":-6.185545,"is_transit":true,"i_long":106.811091},{"line":6,"time":6,"is_transit":false,"distance":3191,"station_name":"Palmerah","transit":false,"i_lat":-6.207404,"i_long":106.79689,"station_id":"PLM"}],[{"distance":0,"transit":false,"i_long":106.679458,"station_id":"PI","is_transit":false,"i_lat":-6.169933,"line":5,"time":0,"station_name":"Poris"},{"i_lat":-6.166068,"time":3,"distance":2548,"i_long":106.701612,"transit":false,"is_transit":false,"station_id":"KDS","station_name":"Kalideres","line":5},{"is_transit":false,"i_long":106.723064,"distance":2504,"time":3,"station_name":"Rawa Buaya","transit":false,"i_lat":-6.162758,"station_id":"RW","line":5},{"station_id":"BOI","time":4,"distance":1152,"line":5,"is_transit":false,"i_lat":-6.159876,"i_long":106.737035,"transit":false,"station_name":"Bojongindah"},{"i_long":106.756522,"is_transit":false,"time":2,"station_id":"TKO","distance":2334,"station_name":"Taman Kota","i_lat":-6.1587309999999995,"line":5,"transit":false},{"station_id":"PSG","transit":false,"line":5,"i_lat":-6.161433,"distance":1614,"time":2,"i_long":106.771379,"station_name":"Pesing","is_transit":false},{"station_name":"Grogol","i_lat":-6.162021,"i_long":106.788277,"line":5,"time":2,"transit":false,"station_id":"GGL","is_transit":false,"distance":2036},{"distance":1700,"transit":true,"station_id":"DU","time":3,"line":1,"is_transit":true,"i_long":106.800832,"station_name":"Duri","i_lat":-6.155215},{"i_long":106.79867,"time":4,"line":1,"distance":1230,"station_id":"AK","i_lat":-6.144674,"transit":false,"station_name":"Angke","is_transit":false},{"station_id":"KPB","i_long":106.826365,"transit":true,"line":4,"time":9,"is_transit":true,"distance":4102,"station_name":"Kampung Bandan","i_lat":-6.132549},{"station_name":"Rajawali","i_long":106.836569,"station_id":"RJW","time":3,"distance":1444,"transit":false,"line":11,"i_lat":-6.14505,"is_transit":false},{"station_id":"KMO","i_lat":-6.161728,"line":11,"time":5,"distance":1901,"is_transit":false,"i_long":106.839204,"transit":false,"station_name":"Kemayoran"},{"i_long":106.84368,"station_id":"PSE","distance":1436,"i_lat":-6.174784,"transit":false,"is_transit":false,"line":11,"time":4,"station_name":"Pasar Senen"},{"i_long":106.850107,"station_id":"GST","transit":false,"distance":1567,"time":8,"i_lat":-6.185975,"line":11,"station_name":"Gang Sentiong","is_transit":false},{"i_lat":-6.193792,"i_long":106.855437,"line":11,"time":1,"transit":false,"station_id":"KMT","station_name":"Kramat","is_transit":false,"distance":973},{"station_id":"POK","is_transit":false,"i_lat":-6.209188,"time":2,"station_name":"Pondok Jati","transit":false,"i_long":106.861737,"distance":1829,"line":11},{"i_long":106.86807400000001,"time":9,"transit":true,"line":1,"is_transit":true,"station_name":"Jatinegara","station_id":"JNG","distance":1236,"i_lat":-6.215091},{"station_id":"MTR","station_name":"Matraman","i_lat":-6.212485,"line":1,"i_long":106.858896,"transit":false,"time":2,"is_transit":false,"distance":1377},{"distance":1275,"station_name":"Manggarai","transit":false,"i_lat":-6.209883,"station_id":"MRI","is_transit":false,"i_long":106.84912,"line":2,"time":2},{"station_id":"SUD","transit":false,"time":4,"i_lat":-6.202263,"distance":3186,"line":1,"i_long":106.822649,"station_name":"Sudirman","is_transit":false},{"i_long":106.819881,"is_transit":false,"distance":280,"line":1,"station_name":"Sudirman Baru","station_id":"SUDB","transit":false,"time":1,"i_lat":-6.201433},{"station_name":"Karet","is_transit":false,"station_id":"KAT","transit":false,"i_lat":-6.20132,"i_long":106.816351,"line":1,"distance":471,"time":1},{"i_long":106.811091,"time":5,"distance":2029,"transit":true,"is_transit":true,"station_id":"THB","i_lat":-6.185545,"line":1,"station_name":"Tanah Abang"},{"station_name":"Palmerah","time":6,"station_id":"PLM","is_transit":false,"i_lat":-6.207404,"distance":3191,"transit":false,"i_long":106.79689,"line":6}]]}