{"data":[[{"time":0,"distance":0,"line":5,"i_lat":-6.169933,"transit":false,"i_long":106.679458,"station_id":"PI","station_name":"Poris","is_transit":false},{"time":3,"distance":2548,"transit":false,"is_transit":false,"station_name":"Kalideres","i_lat":-6.166068,"i_long":106.701612,"station_id":"KDS","line":5},{"line":5,"station_id":"RW","distance":2504,"i_long":106.723064,"transit":false,"station_name":"Rawa Buaya","is_transit":false,"i_lat":-6.162758,"time":3},{"line":0,"is_transit":false,"station_id":"BOI","i_long":106.737035,"distance":1152,"station_name":"Bojongindah","time":4,"transit":false,"i_lat":-6.159876},{"distance":2334,"station_id":"TKO","time":2,"is_transit":false,"transit":false,"i_long":106.756522,"station_name":"Taman Kota","line":5,"i_lat":-6.1587309999999995},{"distance":1614,"time":2,"transit":false,"is_transit":false,"i_long":106.771379,"station_id":"PSG","line":5,"i_lat":-6.161433,"station_name":"Pesing"},{"i_long":106.788277,"transit":false,"line":5,"is_transit":false,"distance":2036,"station_name":"Grogol","station_id":"GGL","time":2,"i_lat":-6.162021},{"distance":1700,"time":3,"i_long":106.800832,"is_transit":true,"i_lat":-6.155215,"line":1,"station_name":"Duri","transit":true,"station_id":"DU"},{"line":1,"distance":3632,"is_transit":true,"station_name":"Tanah Abang","transit":false,"i_long":106.811091,"time":8,"station_id":"THB","i_lat":-6.185545},{"station_id":"KAT","station_name":"Karet","i_long":106.816351,"line":1,"is_transit":false,"time":5,"distance":2029,"transit":false,"i_lat":-6.20132},{"is_transit":false,"time":1,"i_lat":-6.201433,"line":1,"transit":false,"i_long":106.819881,"station_id":"SUDB","station_name":"Sudirman Baru","distance":471},{"station_id":"SUD","i_long":106.822649,"is_transit":false,"distance":280,"time":1,"transit":false,"station_name":"Sudirman","i_lat":-6.202263,"line":1},{"distance":3186,"time":4,"station_id":"MRI","is_transit":true,"transit":true,"station_name":"Manggarai","i_lat":-6.209883,"i_long":106.84912,"line":0},{"time":4,"i_long":106.857948,"is_transit":false,"station_name":"Tebet","station_id":"TEB","i_lat":-6.226659,"distance":2610,"line":2,"transit":false},{"line":0,"i_lat":-6.242512,"time":2,"station_name":"Cawang","is_transit":false,"station_id":"CW","distance":1230,"i_long":106.856607,"transit":false},{"i_lat":-6.255332,"distance":1546,"i_long":106.85449,"station_id":"DRN","transit":false,"is_transit":false,"station_name":"Duren Kalibata","time":3,"line":0},{"station_id":"PSMB","station_name":"Pasar Minggu Baru","distance":824,"i_long":106.851577,"time":2,"line":2,"is_transit":false,"transit":false,"i_lat":-6.263214}],[{"i_long":106.679458,"time":0,"transit":false,"distance":0,"station_name":"Poris","i_lat":-6.169933,"line":5,"is_transit":false,"station_id":"PI"},{"time":3,"distance":2548,"is_transit":false,"i_long":106.701612,"station_name":"Kalideres","transit":false,"i_lat":-6.166068,"line":5,"station_id":"KDS"},{"i_long":106.723064,"i_lat":-6.162758,"time":3,"line":5,"distance":2504,"transit":false,"station_name":"Rawa Buaya","is_transit":false,"station_id":"RW"},{"is_transit":false,"line":0,"time":4,"i_lat":-6.159876,"transit":false,"i_long":106.737035,"station_id":"BOI","station_name":"Bojongindah","distance":1152},{"is_transit":false,"distance":2334,"i_lat":-6.1587309999999995,"station_id":"TKO","i_long":106.756522,"line":5,"time":2,"station_name":"Taman Kota","transit":false},{"station_id":"PSG","is_transit":false,"i_lat":-6.161433,"line":5,"transit":false,"distance":1614,"time":2,"i_long":106.771379,"station_name":"Pesing"},{"time":2,"station_name":"Grogol","distance":2036,"i_lat":-6.162021,"is_transit":false,"station_id":"GGL","i_long":106.788277,"transit":false,"line":5},{"line":1,"time":3,"transit":true,"distance":1700,"station_id":"DU","is_transit":true,"i_long":106.800832,"i_lat":-6.155215,"station_name":"Duri"},{"distance":1230,"line":0,"i_long":106.79867,"is_transit":false,"time":4,"station_id":"AK","transit":false,"i_lat":-6.144674,"station_name":"Angke"},{"time":9,"transit":false,"is_transit":true,"distance":4102,"station_id":"KPB","station_name":"Kampung Bandan","line":0,"i_long":106.826365,"i_lat":-6.132549},{"i_long":106.812439,"distance":1364,"station_id":"JAKK","is_transit":true,"transit":true,"station_name":"Jakarta Kota","time":3,"i_lat":-6.137569,"line":0},{"station_name":"Jayakarta","time":4,"i_lat":-6.141205,"station_id":"JAY","line":7,"transit":false,"is_transit":false,"distance":1264,"i_long":106.820901},{"time":2,"is_transit":false,"station_id":"MGB","i_long":106.82482,"transit":false,"station_name":"Manggabesar","distance":1080,"line":2,"i_lat":-6.149769},{"line":2,"station_name":"Sawah Besar","transit":false,"time":2,"i_lat":-6.160725,"i_long":106.827103,"station_id":"SW","distance":906,"is_transit":false},{"i_lat":-6.166716,"is_transit":false,"i_long":106.828284,"line":2,"station_name":"Juanda","station_id":"JUA","transit":false,"time":2,"distance":1149},{"station_name":"Gondangdia","distance":2015,"time":4,"transit":false,"station_id":"GDD","i_long":106.832183,"is_transit":false,"i_lat":-6.186295,"line":2},{"time":3,"i_lat":-6.198556,"station_name":"Cikini","i_long":106.840169,"line":0,"is_transit":false,"station_id":"CKI","distance":1750,"transit":false},{"line":0,"i_long":106.84912,"transit":true,"is_transit":true,"station_id":"MRI","i_lat":-6.209883,"time":4,"distance":1590,"station_name":"Manggarai"},{"line":2,"station_id":"TEB","transit":false,"distance":2610,"i_long":106.857948,"station_name":"Tebet","time":4,"i_lat":-6.226659,"is_transit":false},{"line":0,"i_lat":-6.242512,"distance":1230,"time":2,"i_long":106.856607,"station_id":"CW","station_name":"Cawang","is_transit":false,"transit":false},{"is_transit":false,"station_name":"Duren Kalibata","transit":false,"i_long":106.85449,"station_id":"DRN","distance":1546,"time":3,"i_lat":-6.255332,"line":0},{"i_lat":-6.263214,"time":2,"station_id":"PSMB","station_name":"Pasar Minggu Baru","line":2,"i_long":106.851577,"transit":false,"distance":824,"is_transit":false}],[{"i_long":106.679458,"station_id":"PI","distance":0,"station_name":"Poris","is_transit":false,"i_lat":-6.169933,"time":0,"line":5,"transit":false},{"distance":2548,"line":5,"station_name":"Kalideres","i_lat":-6.166068,"time":3,"station_id":"KDS","i_long":106.701612,"transit":false,"is_transit":false},{"time":3,"station_name":"Rawa Buaya","station_id":"RW","transit":false,"i_long":106.723064,"i_lat":-6.162758,"line":5,"is_transit":false,"distance":2504},{"distance":1152,"i_long":106.737035,"station_name":"Bojongindah","transit":false,"i_lat":-6.159876,"station_id":"BOI","line":0,"time":4,"is_transit":false},{"i_lat":-6.1587309999999995,"is_transit":false,"station_name":"Taman Kota","distance":2334,"station_id":"TKO","transit":false,"time":2,"i_long":106.756522,"line":5},{"distance":1614,"transit":false,"i_lat":-6.161433,"is_transit":false,"station_id":"PSG","time":2,"line":5,"i_long":106.771379,"station_name":"Pesing"},{"transit":false,"time":2,"is_transit":false,"station_id":"GGL","station_name":"Grogol","distance":2036,"i_lat":-6.162021,"i_long":106.788277,"line":5},{"time":3,"station_name":"Duri","is_transit":true,"i_lat":-6.155215,"i_long":106.800832,"line":1,"station_id":"DU","distance":1700,"transit":true},{"station_name":"Angke","time":4,"i_long":106.79867,"line":0,"station_id":"AK","i_lat":-6.144674,"distance":1230,"is_transit":false,"transit":false},{"distance":4102,"is_transit":true,"time":9,"line":0,"i_long":106.826365,"transit":true,"station_name":"Kampung Bandan","i_lat":-6.132549,"station_id":"KPB"},{"line":11,"transit":false,"is_transit":false,"time":3,"station_id":"RJW","station_name":"Rajawali","distance":1444,"i_long":106.836569,"i_lat":-6.14505},{"i_lat":-6.161728,"time":5,"transit":false,"line":11,"is_transit":false,"station_name":"Kemayoran","i_long":106.839204,"station_id":"KMO","distance":1901},{"is_transit":false,"i_long":106.84368,"station_id":"PSE","line":11,"time":4,"station_name":"Pasar Senen","distance":1436,"transit":false,"i_lat":-6.174784},{"time":8,"is_transit":false,"distance":1567,"transit":false,"i_lat":-6.185975,"station_id":"GST","station_name":"Gang Sentiong","i_long":106.850107,"line":11},{"transit":false,"i_lat":-6.193792,"i_long":106.855437,"distance":973,"station_id":"KMT","station_name":"Kramat","time":1,"is_transit":false,"line":11},{"transit":false,"i_long":106.861737,"line":11,"station_name":"Pondok Jati","distance":1829,"is_transit":false,"i_lat":-6.209188,"station_id":"POK","time":2},{"distance":1236,"i_lat":-6.215091,"i_long":106.86807400000001,"station_id":"JNG","line":0,"station_name":"Jatinegara","time":9,"is_transit":true,"transit":true},{"station_name":"Matraman","distance":1377,"i_long":106.858896,"line":1,"is_transit":false,"transit":false,"station_id":"MTR","i_lat":-6.212485,"time":2},{"is_transit":true,"transit":true,"line":0,"time":2,"station_id":"MRI","distance":1275,"i_long":106.84912,"i_lat":-6.209883,"station_name":"Manggarai"},{"time":4,"station_id":"TEB","i_long":106.857948,"distance":2610,"transit":false,"line":2,"i_lat":-6.226659,"station_name":"Tebet","is_transit":false},{"i_long":106.856607,"station_name":"Cawang","station_id":"CW","time":2,"distance":1230,"i_lat":-6.242512,"transit":false,"line":0,"is_transit":false},{"station_name":"Duren Kalibata","is_transit":false,"distance":1546,"i_long":106.85449,"station_id":"DRN","line":0,"transit":false,"time":3,"i_lat":-6.255332},{"time":2,"station_name":"Pasar Minggu Baru","is_transit":false,"i_long":106.851577,"line":2,"station_id":"PSMB","distance":824,"i_lat":-6.263214,"transit":false}]]}