{"data":[[{"transit":false,"station_id":"PI","station_name":"Poris","distance":0,"is_transit":false,"i_long":106.679458,"line":5,"i_lat":-6.169933,"time":0},{"station_name":"Kalideres","transit":false,"distance":2548,"i_lat":-6.166068,"line":5,"is_transit":false,"time":3,"i_long":106.701612,"station_id":"KDS"},{"i_lat":-6.162758,"is_transit":false,"station_id":"RW","station_name":"Rawa Buaya","time":3,"distance":2504,"transit":false,"i_long":106.723064,"line":5},{"line":5,"station_id":"BOI","i_long":106.737035,"i_lat":-6.159876,"time":4,"distance":1152,"transit":false,"station_name":"Bojongindah","is_transit":false},{"i_long":106.756522,"distance":2334,"i_lat":-6.1587309999999995,"line":5,"time":2,"transit":false,"station_name":"Taman Kota","station_id":"TKO","is_transit":false},{"time":2,"i_long":106.771379,"station_name":"Pesing","i_lat":-6.161433,"transit":false,"is_transit":false,"line":5,"distance":1614,"station_id":"PSG"},{"transit":false,"station_id":"GGL","distance":2036,"i_long":106.788277,"time":2,"line":5,"is_transit":false,"station_name":"Grogol","i_lat":-6.162021},{"station_name":"Duri","is_transit":true,"station_id":"DU","time":3,"line":1,"transit":true,"distance":1700,"i_long":106.800832,"i_lat":-6.155215},{"station_name":"Tanah Abang","is_transit":false,"time":8,"station_id":"THB","i_lat":-6.185545,"transit":false,"line":1,"distance":3632,"i_long":106.811091},{"time":5,"i_long":106.816351,"distance":2029,"transit":false,"line":1,"station_id":"KAT","is_transit":false,"station_name":"Karet","i_lat":-6.20132},{"transit":false,"time":1,"station_id":"SUDB","distance":471,"i_lat":-6.201433,"is_transit":false,"i_long":106.819881,"station_name":"Sudirman Baru","line":1},{"i_lat":-6.202263,"line":1,"is_transit":false,"time":1,"station_name":"Sudirman","station_id":"SUD","transit":false,"i_long":106.822649,"distance":280},{"time":4,"station_name":"Manggarai","line":2,"i_lat":-6.209883,"transit":true,"distance":3186,"is_transit":true,"station_id":"MRI","i_long":106.84912},{"time":4,"line":2,"station_name":"Tebet","station_id":"TEB","is_transit":false,"distance":2610,"transit":false,"i_lat":-6.226659,"i_long":106.857948},{"station_name":"Cawang","is_transit":false,"time":2,"transit":false,"station_id":"CW","distance":1230,"i_lat":-6.242512,"line":2,"i_long":106.856607},{"station_name":"Duren Kalibata","transit":false,"distance":1546,"i_long":106.85449,"line":2,"is_transit":false,"i_lat":-6.255332,"time":3,"station_id":"DRN"},{"i_lat":-6.263214,"line":2,"distance":824,"is_transit":false,"i_long":106.851577,"time":2,"transit":false,"station_name":"Pasar Minggu Baru","station_id":"PSMB"}],[{"time":0,"station_id":"PI","is_transit":false,"line":5,"i_lat":-6.169933,"distance":0,"transit":false,"station_name":"Poris","i_long":106.679458},{"line":5,"station_name":"Kalideres","is_transit":false,"distance":2548,"i_lat":-6.166068,"station_id":"KDS","i_long":106.701612,"transit":false,"time":3},{"time":3,"i_long":106.723064,"distance":2504,"station_name":"Rawa Buaya","transit":false,"station_id":"RW","i_lat":-6.162758,"line":5,"is_transit":false},{"is_transit":false,"line":5,"distance":1152,"station_id":"BOI","i_lat":-6.159876,"station_name":"Bojongindah","transit":false,"time":4,"i_long":106.737035},{"station_name":"Taman Kota","i_lat":-6.1587309999999995,"line":5,"is_transit":false,"transit":false,"time":2,"distance":2334,"station_id":"TKO","i_long":106.756522},{"distance":1614,"station_name":"Pesing","i_long":106.771379,"station_id":"PSG","i_lat":-6.161433,"is_transit":false,"time":2,"transit":false,"line":5},{"i_long":106.788277,"transit":false,"time":2,"is_transit":false,"distance":2036,"i_lat":-6.162021,"line":5,"station_name":"Grogol","station_id":"GGL"},{"line":1,"distance":1700,"station_name":"Duri","transit":true,"time":3,"i_lat":-6.155215,"station_id":"DU","is_transit":true,"i_long":106.800832},{"i_lat":-6.144674,"station_id":"AK","is_transit":false,"transit":false,"i_long":106.79867,"station_name":"Angke","time":4,"line":1,"distance":1230},{"i_lat":-6.132549,"station_name":"Kampung Bandan","line":4,"is_transit":true,"station_id":"KPB","distance":4102,"i_long":106.826365,"transit":true,"time":9},{"transit":true,"i_long":106.812439,"is_transit":true,"line":2,"station_id":"JAKK","distance":1364,"i_lat":-6.137569,"station_name":"Jakarta Kota","time":3},{"line":2,"i_lat":-6.141205,"station_id":"JAY","station_name":"Jayakarta","is_transit":false,"transit":false,"distance":1264,"time":4,"i_long":106.820901},{"i_lat":-6.149769,"i_long":106.82482,"line":2,"is_transit":false,"station_id":"MGB","transit":false,"station_name":"Manggabesar","distance":1080,"time":2},{"line":2,"station_name":"Sawah Besar","i_long":106.827103,"time":2,"distance":906,"i_lat":-6.160725,"station_id":"SW","is_transit":false,"transit":false},{"transit":false,"is_transit":false,"line":2,"station_id":"JUA","time":2,"i_long":106.828284,"i_lat":-6.166716,"station_name":"Juanda","distance":1149},{"i_long":106.832183,"station_name":"Gondangdia","is_transit":false,"i_lat":-6.186295,"line":2,"time":4,"transit":false,"station_id":"GDD","distance":2015},{"station_id":"CKI","i_long":106.840169,"time":3,"station_name":"Cikini","transit":false,"i_lat":-6.198556,"line":2,"distance":1750,"is_transit":false},{"is_transit":false,"i_long":106.84912,"line":2,"transit":false,"i_lat":-6.209883,"station_name":"Manggarai","time":4,"distance":1590,"station_id":"MRI"},{"transit":false,"station_id":"TEB","time":4,"distance":2610,"line":2,"is_transit":false,"i_long":106.857948,"station_name":"Tebet","i_lat":-6.226659},{"i_long":106.856607,"station_name":"Cawang","is_transit":false,"i_lat":-6.242512,"transit":false,"time":2,"distance":1230,"station_id":"CW","line":2},{"line":2,"station_id":"DRN","i_lat":-6.255332,"station_name":"Duren Kalibata","transit":false,"i_long":106.85449,"distance":1546,"time":3,"is_transit":false},{"station_name":"Pasar Minggu Baru","line":2,"station_id":"PSMB","i_long":106.851577,"time":2,"is_transit":false,"transit":false,"distance":824,"i_lat":-6.263214}],[{"i_long":106.679458,"time":0,"station_id":"PI","i_lat":-6.169933,"station_name":"Poris","line":5,"distance":0,"is_transit":false,"transit":false},{"distance":2548,"is_transit":false,"i_long":106.701612,"station_id":"KDS","transit":false,"time":3,"i_lat":-6.166068,"station_name":"Kalideres","line":5},{"station_id":"RW","i_long":106.723064,"station_name":"Rawa Buaya","time":3,"transit":false,"is_transit":false,"i_lat":-6.162758,"line":5,"distance":2504},{"i_lat":-6.159876,"i_long":106.737035,"transit":false,"station_id":"BOI","is_transit":false,"time":4,"line":5,"station_name":"Bojongindah","distance":1152},{"i_lat":-6.1587309999999995,"distance":2334,"line":5,"station_id":"TKO","i_long":106.756522,"time":2,"is_transit":false,"station_name":"Taman Kota","transit":false},{"is_transit":false,"distance":1614,"i_lat":-6.161433,"transit":false,"line":5,"i_long":106.771379,"station_name":"Pesing","time":2,"station_id":"PSG"},{"i_lat":-6.162021,"i_long":106.788277,"station_id":"GGL","distance":2036,"time":2,"line":5,"is_transit":false,"transit":false,"station_name":"Grogol"},{"line":1,"transit":true,"time":3,"distance":1700,"station_id":"DU","is_transit":true,"i_long":106.800832,"station_name":"Duri","i_lat":-6.155215},{"station_name":"Angke","line":1,"transit":false,"i_lat":-6.144674,"time":4,"station_id":"AK","is_transit":false,"distance":1230,"i_long":106.79867},{"distance":4102,"i_long":106.826365,"line":4,"station_name":"Kampung Bandan","station_id":"KPB","time":9,"is_transit":true,"i_lat":-6.132549,"transit":true},{"station_name":"Rajawali","i_lat":-6.14505,"line":11,"time":3,"station_id":"RJW","distance":1444,"is_transit":false,"i_long":106.836569,"transit":false},{"transit":false,"line":11,"station_name":"Kemayoran","is_transit":false,"station_id":"KMO","time":5,"distance":1901,"i_lat":-6.161728,"i_long":106.839204},{"distance":1436,"is_transit":false,"line":11,"i_lat":-6.174784,"time":4,"i_long":106.84368,"station_id":"PSE","station_name":"Pasar Senen","transit":false},{"time":8,"i_long":106.850107,"station_id":"GST","station_name":"Gang Sentiong","is_transit":false,"distance":1567,"line":11,"i_lat":-6.185975,"transit":false},{"transit":false,"distance":973,"i_long":106.855437,"is_transit":false,"line":11,"station_id":"KMT","time":1,"i_lat":-6.193792,"station_name":"Kramat"},{"time":2,"station_name":"Pondok Jati","is_transit":false,"i_lat":-6.209188,"i_long":106.861737,"station_id":"POK","line":11,"distance":1829,"transit":false},{"time":9,"distance":1236,"i_lat":-6.215091,"station_id":"JNG","station_name":"Jatinegara","transit":true,"line":1,"is_transit":true,"i_long":106.86807400000001},{"station_id":"MTR","i_lat":-6.212485,"transit":false,"i_long":106.858896,"is_transit":false,"distance":1377,"station_name":"Matraman","line":1,"time":2},{"station_id":"MRI","station_name":"Manggarai","is_transit":true,"transit":true,"i_long":106.84912,"time":2,"i_lat":-6.209883,"line":2,"distance":1275},{"transit":false,"i_long":106.857948,"time":4,"distance":2610,"i_lat":-6.226659,"line":2,"station_name":"Tebet","is_transit":false,"station_id":"TEB"},{"station_id":"CW","time":2,"station_name":"Cawang","distance":1230,"i_lat":-6.242512,"is_transit":false,"transit":false,"line":2,"i_long":106.856607},{"station_id":"DRN","is_transit":false,"i_long":106.85449,"i_lat":-6.255332,"time":3,"station_name":"Duren Kalibata","transit":false,"distance":1546,"line":2},{"station_name":"Pasar Minggu Baru","distance":824,"time":2,"i_lat":-6.263214,"i_long":106.851577,"station_id":"PSMB","transit":false,"line":2,"is_transit":false}]]}