{"data":[[{"i_long":106.679458,"station_id":"PI","station_name":"Poris","transit":false,"time":0,"distance":0,"i_lat":-6.169933,"line":5,"is_transit":false},{"station_name":"Kalideres","station_id":"KDS","transit":false,"line":5,"time":3,"i_long":106.701612,"i_lat":-6.166068,"is_transit":false,"distance":2548},{"station_id":"RW","i_long":106.723064,"transit":false,"line":5,"distance":2504,"i_lat":-6.162758,"time":3,"is_transit":false,"station_name":"Rawa Buaya"},{"transit":false,"is_transit":false,"distance":1152,"station_name":"Bojongindah","time":4,"station_id":"BOI","i_long":106.737035,"line":5,"i_lat":-6.159876},{"time":2,"line":5,"station_name":"Taman Kota","i_lat":-6.1587309999999995,"transit":false,"station_id":"TKO","i_long":106.756522,"distance":2334,"is_transit":false},{"line":5,"is_transit":false,"i_lat":-6.161433,"station_name":"Pesing","transit":false,"time":2,"i_long":106.771379,"station_id":"PSG","distance":1614},{"line":5,"transit":false,"is_transit":false,"time":2,"station_id":"GGL","distance":2036,"i_lat":-6.162021,"i_long":106.788277,"station_name":"Grogol"},{"i_long":106.800832,"line":1,"station_id":"DU","station_name":"Duri","transit":true,"i_lat":-6.155215,"time":3,"distance":1700,"is_transit":true},{"distance":3632,"station_name":"Tanah Abang","time":8,"i_long":106.811091,"is_transit":false,"line":1,"transit":false,"station_id":"THB","i_lat":-6.185545},{"time":5,"station_id":"KAT","distance":2029,"line":1,"station_name":"Karet","i_lat":-6.20132,"transit":false,"i_long":106.816351,"is_transit":false},{"distance":471,"i_long":106.819881,"station_id":"SUDB","transit":false,"station_name":"Sudirman Baru","is_transit":false,"line":1,"time":1,"i_lat":-6.201433},{"station_name":"Sudirman","line":1,"is_transit":false,"station_id":"SUD","distance":280,"time":1,"i_lat":-6.202263,"i_long":106.822649,"transit":false},{"i_lat":-6.209883,"line":2,"station_name":"Manggarai","is_transit":true,"transit":true,"distance":3186,"time":4,"station_id":"MRI","i_long":106.84912},{"line":2,"station_name":"Tebet","is_transit":false,"station_id":"TEB","distance":2610,"time":4,"i_lat":-6.226659,"transit":false,"i_long":106.857948},{"transit":false,"station_name":"Cawang","is_transit":false,"station_id":"CW","distance":1230,"i_lat":-6.242512,"i_long":106.856607,"time":2,"line":2},{"i_lat":-6.255332,"distance":1546,"station_id":"DRN","i_long":106.85449,"line":2,"transit":false,"time":3,"station_name":"Duren Kalibata","is_transit":false},{"is_transit":false,"time":2,"i_long":106.851577,"distance":824,"station_name":"Pasar Minggu Baru","i_lat":-6.263214,"line":2,"transit":false,"station_id":"PSMB"},{"transit":false,"station_name":"Pasar Minggu","distance":2380,"is_transit":false,"time":2,"i_lat":-6.2842400000000005,"i_long":106.843999,"station_id":"PSM","line":2},{"time":4,"line":2,"is_transit":false,"transit":false,"station_name":"Tanjung Barat","distance":2820,"i_lat":-6.3080680000000005,"i_long":106.838896,"station_id":"TNT"},{"time":3,"distance":2671,"i_long":106.832616,"line":2,"station_id":"LNA","station_name":"Lenteng Agung","is_transit":false,"transit":false,"i_lat":-6.330363},{"station_id":"UP","time":2,"i_long":106.834175,"is_transit":false,"station_name":"Univ. Pancasila","distance":1029,"line":2,"transit":false,"i_lat":-6.339291},{"station_name":"Univ. Indonesia","line":2,"station_id":"UI","is_transit":false,"distance":2264,"transit":false,"i_long":106.831474,"time":3,"i_lat":-6.360749},{"distance":1109,"line":2,"i_lat":-6.369073,"station_name":"Pondok Cina","i_long":106.831114,"station_id":"POC","is_transit":false,"transit":false,"time":2}],[{"time":0,"i_lat":-6.169933,"transit":false,"station_id":"PI","station_name":"Poris","line":5,"distance":0,"is_transit":false,"i_long":106.679458},{"line":5,"transit":false,"i_long":106.701612,"i_lat":-6.166068,"station_id":"KDS","time":3,"station_name":"Kalideres","is_transit":false,"distance":2548},{"time":3,"i_lat":-6.162758,"station_name":"Rawa Buaya","line":5,"distance":2504,"station_id":"RW","is_transit":false,"i_long":106.723064,"transit":false},{"is_transit":false,"line":5,"station_id":"BOI","i_long":106.737035,"distance":1152,"station_name":"Bojongindah","transit":false,"time":4,"i_lat":-6.159876},{"is_transit":false,"i_long":106.756522,"line":5,"distance":2334,"transit":false,"i_lat":-6.1587309999999995,"time":2,"station_id":"TKO","station_name":"Taman Kota"},{"transit":false,"line":5,"station_name":"Pesing","time":2,"distance":1614,"station_id":"PSG","i_long":106.771379,"is_transit":false,"i_lat":-6.161433},{"i_lat":-6.162021,"station_id":"GGL","transit":false,"distance":2036,"i_long":106.788277,"station_name":"Grogol","is_transit":false,"line":5,"time":2},{"i_lat":-6.155215,"distance":1700,"line":1,"transit":true,"station_name":"Duri","time":3,"station_id":"DU","is_transit":true,"i_long":106.800832},{"i_long":106.79867,"line":1,"transit":false,"distance":1230,"i_lat":-6.144674,"time":4,"is_transit":false,"station_id":"AK","station_name":"Angke"},{"station_id":"KPB","i_lat":-6.132549,"is_transit":true,"line":4,"distance":4102,"transit":true,"station_name":"Kampung Bandan","time":9,"i_long":106.826365},{"distance":1364,"transit":true,"i_long":106.812439,"station_id":"JAKK","line":2,"time":3,"i_lat":-6.137569,"station_name":"Jakarta Kota","is_transit":true},{"is_transit":false,"i_long":106.820901,"station_id":"JAY","distance":1264,"i_lat":-6.141205,"line":2,"time":4,"transit":false,"station_name":"Jayakarta"},{"station_id":"MGB","is_transit":false,"station_name":"Manggabesar","i_long":106.82482,"distance":1080,"time":2,"i_lat":-6.149769,"line":2,"transit":false},{"i_lat":-6.160725,"line":2,"is_transit":false,"time":2,"transit":false,"distance":906,"station_name":"Sawah Besar","i_long":106.827103,"station_id":"SW"},{"station_name":"Juanda","line":2,"transit":false,"time":2,"distance":1149,"i_lat":-6.166716,"i_long":106.828284,"station_id":"JUA","is_transit":false},{"distance":2015,"i_lat":-6.186295,"is_transit":false,"time":4,"transit":false,"station_id":"GDD","line":2,"station_name":"Gondangdia","i_long":106.832183},{"transit":false,"i_lat":-6.198556,"i_long":106.840169,"station_name":"Cikini","station_id":"CKI","line":2,"is_transit":false,"distance":1750,"time":3},{"i_long":106.84912,"time":4,"line":2,"is_transit":false,"i_lat":-6.209883,"station_id":"MRI","transit":false,"station_name":"Manggarai","distance":1590},{"i_lat":-6.226659,"station_id":"TEB","station_name":"Tebet","transit":false,"is_transit":false,"line":2,"time":4,"i_long":106.857948,"distance":2610},{"station_name":"Cawang","station_id":"CW","transit":false,"time":2,"line":2,"i_long":106.856607,"is_transit":false,"distance":1230,"i_lat":-6.242512},{"is_transit":false,"i_lat":-6.255332,"station_id":"DRN","i_long":106.85449,"transit":false,"distance":1546,"line":2,"time":3,"station_name":"Duren Kalibata"},{"station_id":"PSMB","i_lat":-6.263214,"transit":false,"is_transit":false,"station_name":"Pasar Minggu Baru","time":2,"i_long":106.851577,"line":2,"distance":824},{"i_lat":-6.2842400000000005,"station_id":"PSM","distance":2380,"time":2,"line":2,"i_long":106.843999,"transit":false,"station_name":"Pasar Minggu","is_transit":false},{"line":2,"station_id":"TNT","time":4,"distance":2820,"transit":false,"i_lat":-6.3080680000000005,"station_name":"Tanjung Barat","i_long":106.838896,"is_transit":false},{"is_transit":false,"time":3,"line":2,"station_name":"Lenteng Agung","transit":false,"distance":2671,"i_long":106.832616,"i_lat":-6.330363,"station_id":"LNA"},{"station_name":"Univ. Pancasila","i_long":106.834175,"time":2,"transit":false,"line":2,"distance":1029,"i_lat":-6.339291,"is_transit":false,"station_id":"UP"},{"station_id":"UI","distance":2264,"station_name":"Univ. Indonesia","is_transit":false,"i_lat":-6.360749,"i_long":106.831474,"time":3,"line":2,"transit":false},{"station_id":"POC","time":2,"station_name":"Pondok Cina","is_transit":false,"i_lat":-6.369073,"i_long":106.831114,"transit":false,"line":2,"distance":1109}],[{"station_id":"PI","transit":false,"station_name":"Poris","distance":0,"time":0,"line":5,"is_transit":false,"i_lat":-6.169933,"i_long":106.679458},{"transit":false,"station_name":"Kalideres","distance":2548,"i_long":106.701612,"time":3,"i_lat":-6.166068,"station_id":"KDS","line":5,"is_transit":false},{"transit":false,"distance":2504,"station_name":"Rawa Buaya","line":5,"i_lat":-6.162758,"station_id":"RW","time":3,"is_transit":false,"i_long":106.723064},{"is_transit":false,"time":4,"i_long":106.737035,"line":5,"i_lat":-6.159876,"station_id":"BOI","transit":false,"station_name":"Bojongindah","distance":1152},{"time":2,"line":5,"i_lat":-6.1587309999999995,"station_name":"Taman Kota","distance":2334,"is_transit":false,"station_id":"TKO","i_long":106.756522,"transit":false},{"line":5,"transit":false,"time":2,"station_id":"PSG","i_lat":-6.161433,"station_name":"Pesing","distance":1614,"is_transit":false,"i_long":106.771379},{"station_id":"GGL","i_lat":-6.162021,"station_name":"Grogol","time":2,"line":5,"is_transit":false,"distance":2036,"i_long":106.788277,"transit":false},{"transit":true,"is_transit":true,"station_id":"DU","distance":1700,"i_lat":-6.155215,"station_name":"Duri","time":3,"i_long":106.800832,"line":1},{"distance":1230,"line":1,"time":4,"i_lat":-6.144674,"transit":false,"station_id":"AK","station_name":"Angke","is_transit":false,"i_long":106.79867},{"line":4,"time":9,"is_transit":true,"i_lat":-6.132549,"i_long":106.826365,"transit":true,"station_id":"KPB","distance":4102,"station_name":"Kampung Bandan"},{"i_long":106.836569,"transit":false,"i_lat":-6.14505,"station_name":"Rajawali","is_transit":false,"station_id":"RJW","time":3,"distance":1444,"line":11},{"distance":1901,"line":11,"i_lat":-6.161728,"is_transit":false,"transit":false,"i_long":106.839204,"station_name":"Kemayoran","station_id":"KMO","time":5},{"station_id":"PSE","station_name":"Pasar Senen","distance":1436,"i_long":106.84368,"transit":false,"is_transit":false,"time":4,"i_lat":-6.174784,"line":11},{"station_id":"GST","station_name":"Gang Sentiong","is_transit":false,"i_lat":-6.185975,"i_long":106.850107,"distance":1567,"time":8,"transit":false,"line":11},{"transit":false,"i_lat":-6.193792,"line":11,"distance":973,"i_long":106.855437,"station_id":"KMT","is_transit":false,"station_name":"Kramat","time":1},{"distance":1829,"station_name":"Pondok Jati","i_long":106.861737,"line":11,"station_id":"POK","time":2,"is_transit":false,"i_lat":-6.209188,"transit":false},{"line":1,"time":9,"is_transit":true,"station_name":"Jatinegara","i_lat":-6.215091,"station_id":"JNG","distance":1236,"transit":true,"i_long":106.86807400000001},{"distance":1377,"station_id":"MTR","station_name":"Matraman","is_transit":false,"transit":false,"time":2,"i_lat":-6.212485,"i_long":106.858896,"line":1},{"i_long":106.84912,"station_name":"Manggarai","station_id":"MRI","line":2,"is_transit":true,"distance":1275,"transit":true,"time":2,"i_lat":-6.209883},{"transit":false,"station_id":"TEB","i_long":106.857948,"i_lat":-6.226659,"line":2,"is_transit":false,"time":4,"distance":2610,"station_name":"Tebet"},{"is_transit":false,"time":2,"i_long":106.856607,"i_lat":-6.242512,"distance":1230,"station_id":"CW","station_name":"Cawang","line":2,"transit":false},{"station_name":"Duren Kalibata","station_id":"DRN","transit":false,"is_transit":false,"i_long":106.85449,"time":3,"distance":1546,"line":2,"i_lat":-6.255332},{"i_long":106.851577,"time":2,"station_id":"PSMB","distance":824,"station_name":"Pasar Minggu Baru","transit":false,"is_transit":false,"i_lat":-6.263214,"line":2},{"line":2,"transit":false,"time":2,"station_name":"Pasar Minggu","station_id":"PSM","distance":2380,"is_transit":false,"i_lat":-6.2842400000000005,"i_long":106.843999},{"i_long":106.838896,"station_name":"Tanjung Barat","time":4,"transit":false,"is_transit":false,"line":2,"i_lat":-6.3080680000000005,"station_id":"TNT","distance":2820},{"is_transit":false,"station_name":"Lenteng Agung","i_lat":-6.330363,"line":2,"distance":2671,"transit":false,"station_id":"LNA","i_long":106.832616,"time":3},{"is_transit":false,"distance":1029,"i_lat":-6.339291,"line":2,"transit":false,"station_name":"Univ. Pancasila","station_id":"UP","time":2,"i_long":106.834175},{"i_lat":-6.360749,"transit":false,"station_id":"UI","distance":2264,"i_long":106.831474,"line":2,"station_name":"Univ. Indonesia","is_transit":false,"time":3},{"station_id":"POC","transit":false,"time":2,"is_transit":false,"distance":1109,"i_lat":-6.369073,"i_long":106.831114,"station_name":"Pondok Cina","line":2}]]}