{"data":[[{"distance":0,"line":5,"time":0,"station_name":"Poris","transit":false,"i_lat":-6.169933,"station_id":"PI","is_transit":false,"i_long":106.679458},{"station_id":"KDS","i_lat":-6.166068,"i_long":106.701612,"is_transit":false,"time":3,"station_name":"Kalideres","line":5,"transit":false,"distance":2548},{"station_name":"Rawa Buaya","transit":false,"station_id":"RW","i_lat":-6.162758,"distance":2504,"i_long":106.723064,"line":5,"time":3,"is_transit":false},{"distance":1152,"i_lat":-6.159876,"transit":false,"time":4,"is_transit":false,"station_id":"BOI","line":5,"station_name":"Bojongindah","i_long":106.737035},{"transit":false,"distance":2334,"station_id":"TKO","i_lat":-6.1587309999999995,"i_long":106.756522,"time":2,"line":5,"is_transit":false,"station_name":"Taman Kota"},{"is_transit":false,"station_name":"Pesing","distance":1614,"station_id":"PSG","transit":false,"line":5,"time":2,"i_lat":-6.161433,"i_long":106.771379},{"i_lat":-6.162021,"i_long":106.788277,"station_name":"Grogol","time":2,"transit":false,"line":5,"is_transit":false,"station_id":"GRG","distance":2036},{"station_id":"DU","i_long":106.800832,"distance":1700,"i_lat":-6.155215,"line":1,"time":3,"transit":true,"station_name":"Duri","is_transit":true},{"is_transit":false,"i_lat":-6.185545,"distance":3632,"station_name":"Tanah Abang","time":8,"line":1,"transit":false,"station_id":"THB","i_long":106.811091},{"line":1,"distance":2029,"time":5,"transit":false,"is_transit":false,"i_long":106.816351,"station_id":"KAT","station_name":"Karet","i_lat":-6.20132},{"is_transit":false,"i_lat":-6.201433,"station_name":"Sudirman Baru","time":1,"transit":false,"station_id":"SUDB","i_long":106.819881,"line":1,"distance":471},{"distance":280,"transit":false,"line":1,"is_transit":false,"i_long":106.822649,"i_lat":-6.202263,"station_id":"SUD","station_name":"Sudirman","time":1},{"station_name":"Manggarai","time":4,"is_transit":true,"transit":true,"i_lat":-6.209883,"station_id":"MRI","distance":3186,"i_long":106.84912,"line":2},{"station_id":"TEB","distance":2610,"line":2,"transit":false,"time":4,"is_transit":false,"station_name":"Tebet","i_lat":-6.226659,"i_long":106.857948},{"is_transit":false,"i_lat":-6.242512,"distance":1230,"time":2,"transit":false,"station_name":"Cawang","station_id":"CW","line":2,"i_long":106.856607},{"distance":1546,"time":3,"station_id":"DRN","station_name":"Duren Kalibata","is_transit":false,"transit":false,"i_lat":-6.255332,"i_long":106.85449,"line":2},{"station_id":"PSMB","i_lat":-6.263214,"station_name":"Pasar Minggu Baru","is_transit":false,"i_long":106.851577,"time":2,"line":2,"transit":false,"distance":824},{"line":2,"i_long":106.843999,"station_id":"PSM","time":2,"distance":2380,"transit":false,"is_transit":false,"station_name":"Pasar Minggu","i_lat":-6.2842400000000005},{"time":4,"transit":false,"is_transit":false,"station_id":"TNT","i_long":106.838896,"i_lat":-6.3080680000000005,"distance":2820,"station_name":"Tanjung Barat","line":2},{"distance":2671,"i_lat":-6.330363,"i_long":106.832616,"station_id":"LNA","transit":false,"is_transit":false,"line":2,"time":3,"station_name":"Lenteng Agung"},{"transit":false,"station_id":"UP","i_long":106.834175,"line":2,"time":2,"distance":1029,"station_name":"Univ. Pancasila","is_transit":false,"i_lat":-6.339291},{"is_transit":false,"line":2,"i_lat":-6.360749,"transit":false,"distance":2264,"station_id":"UI","i_long":106.831474,"time":3,"station_name":"Univ. Indonesia"},{"transit":false,"i_lat":-6.369073,"time":2,"line":2,"station_id":"POC","station_name":"Pondok Cina","is_transit":false,"i_long":106.831114,"distance":1109}],[{"transit":false,"line":5,"time":0,"distance":0,"station_name":"Poris","is_transit":false,"i_lat":-6.169933,"i_long":106.679458,"station_id":"PI"},{"line":5,"transit":false,"i_long":106.701612,"time":3,"station_id":"KDS","is_transit":false,"i_lat":-6.166068,"station_name":"Kalideres","distance":2548},{"time":3,"station_name":"Rawa Buaya","transit":false,"distance":2504,"station_id":"RW","i_lat":-6.162758,"i_long":106.723064,"is_transit":false,"line":5},{"station_id":"BOI","time":4,"distance":1152,"line":5,"i_long":106.737035,"i_lat":-6.159876,"is_transit":false,"station_name":"Bojongindah","transit":false},{"i_lat":-6.1587309999999995,"time":2,"is_transit":false,"i_long":106.756522,"transit":false,"station_name":"Taman Kota","line":5,"distance":2334,"station_id":"TKO"},{"i_lat":-6.161433,"time":2,"is_transit":false,"i_long":106.771379,"distance":1614,"line":5,"station_name":"Pesing","station_id":"PSG","transit":false},{"i_long":106.788277,"station_id":"GRG","i_lat":-6.162021,"line":5,"time":2,"station_name":"Grogol","is_transit":false,"distance":2036,"transit":false},{"i_lat":-6.155215,"is_transit":true,"i_long":106.800832,"station_name":"Duri","station_id":"DU","time":3,"transit":true,"line":1,"distance":1700},{"is_transit":false,"transit":false,"station_id":"AK","station_name":"Angke","distance":1230,"time":4,"i_lat":-6.144674,"i_long":106.79867,"line":1},{"i_lat":-6.132549,"line":4,"distance":4102,"time":9,"station_name":"Kampung Bandan","is_transit":true,"i_long":106.826365,"station_id":"KPB","transit":true},{"is_transit":true,"line":2,"station_name":"Jakarta Kota","distance":1364,"i_long":106.812439,"station_id":"JAKK","i_lat":-6.137569,"transit":true,"time":3},{"distance":1264,"station_id":"JAY","is_transit":false,"i_lat":-6.141205,"i_long":106.820901,"line":2,"transit":false,"time":4,"station_name":"Jayakarta"},{"transit":false,"line":2,"distance":1080,"time":2,"station_id":"MGB","i_long":106.82482,"station_name":"Manggabesar","is_transit":false,"i_lat":-6.149769},{"time":2,"transit":false,"i_long":106.827103,"station_name":"Sawah Besar","i_lat":-6.160725,"line":2,"station_id":"SW","distance":906,"is_transit":false},{"transit":false,"station_id":"JUA","station_name":"Juanda","distance":1149,"i_lat":-6.166716,"line":2,"is_transit":false,"i_long":106.828284,"time":2},{"transit":false,"distance":2015,"station_id":"GDD","station_name":"Gondangdia","time":4,"i_lat":-6.186295,"i_long":106.832183,"is_transit":false,"line":2},{"station_id":"CKI","transit":false,"distance":1750,"station_name":"Cikini","i_lat":-6.198556,"i_long":106.840169,"time":3,"is_transit":false,"line":2},{"distance":1590,"station_id":"MRI","is_transit":false,"i_lat":-6.209883,"transit":false,"time":4,"i_long":106.84912,"line":2,"station_name":"Manggarai"},{"line":2,"i_long":106.857948,"transit":false,"distance":2610,"station_id":"TEB","station_name":"Tebet","time":4,"is_transit":false,"i_lat":-6.226659},{"distance":1230,"i_lat":-6.242512,"is_transit":false,"transit":false,"time":2,"station_name":"Cawang","i_long":106.856607,"station_id":"CW","line":2},{"time":3,"station_name":"Duren Kalibata","transit":false,"distance":1546,"is_transit":false,"i_long":106.85449,"station_id":"DRN","i_lat":-6.255332,"line":2},{"time":2,"distance":824,"line":2,"i_lat":-6.263214,"station_name":"Pasar Minggu Baru","transit":false,"station_id":"PSMB","i_long":106.851577,"is_transit":false},{"time":2,"i_long":106.843999,"station_id":"PSM","i_lat":-6.2842400000000005,"is_transit":false,"distance":2380,"station_name":"Pasar Minggu","transit":false,"line":2},{"distance":2820,"time":4,"i_lat":-6.3080680000000005,"i_long":106.838896,"is_transit":false,"station_name":"Tanjung Barat","line":2,"transit":false,"station_id":"TNT"},{"i_lat":-6.330363,"is_transit":false,"i_long":106.832616,"distance":2671,"transit":false,"line":2,"station_id":"LNA","station_name":"Lenteng Agung","time":3},{"station_id":"UP","line":2,"i_lat":-6.339291,"station_name":"Univ. Pancasila","is_transit":false,"i_long":106.834175,"transit":false,"time":2,"distance":1029},{"station_name":"Univ. Indonesia","time":3,"distance":2264,"i_lat":-6.360749,"line":2,"is_transit":false,"i_long":106.831474,"station_id":"UI","transit":false},{"is_transit":false,"distance":1109,"i_lat":-6.369073,"line":2,"station_name":"Pondok Cina","station_id":"POC","transit":false,"time":2,"i_long":106.831114}],[{"i_lat":-6.169933,"transit":false,"time":0,"distance":0,"is_transit":false,"station_id":"PI","station_name":"Poris","i_long":106.679458,"line":5},{"station_id":"KDS","station_name":"Kalideres","is_transit":false,"transit":false,"i_lat":-6.166068,"time":3,"i_long":106.701612,"distance":2548,"line":5},{"time":3,"station_id":"RW","distance":2504,"i_long":106.723064,"line":5,"station_name":"Rawa Buaya","i_lat":-6.162758,"transit":false,"is_transit":false},{"transit":false,"i_lat":-6.159876,"line":5,"time":4,"station_name":"Bojongindah","station_id":"BOI","distance":1152,"is_transit":false,"i_long":106.737035},{"transit":false,"distance":2334,"i_lat":-6.1587309999999995,"station_name":"Taman Kota","time":2,"is_transit":false,"i_long":106.756522,"line":5,"station_id":"TKO"},{"station_id":"PSG","transit":false,"i_long":106.771379,"line":5,"station_name":"Pesing","distance":1614,"is_transit":false,"time":2,"i_lat":-6.161433},{"is_transit":false,"i_lat":-6.162021,"i_long":106.788277,"time":2,"distance":2036,"line":5,"station_id":"GRG","station_name":"Grogol","transit":false},{"is_transit":true,"i_lat":-6.155215,"time":3,"station_name":"Duri","line":1,"i_long":106.800832,"station_id":"DU","transit":true,"distance":1700},{"time":4,"transit":false,"line":1,"distance":1230,"station_id":"AK","i_long":106.79867,"station_name":"Angke","is_transit":false,"i_lat":-6.144674},{"station_name":"Kampung Bandan","distance":4102,"i_lat":-6.132549,"is_transit":true,"line":4,"i_long":106.826365,"time":9,"transit":true,"station_id":"KPB"},{"distance":1444,"station_id":"RJW","station_name":"Rajawali","i_lat":-6.14505,"transit":false,"i_long":106.836569,"line":11,"time":3,"is_transit":false},{"station_name":"Kemayoran","is_transit":false,"line":11,"distance":1901,"station_id":"KMO","time":5,"i_lat":-6.161728,"i_long":106.839204,"transit":false},{"transit":false,"station_id":"PSE","station_name":"Pasar Senen","i_lat":-6.174784,"i_long":106.84368,"time":4,"line":11,"is_transit":false,"distance":1436},{"station_id":"GST","station_name":"Gang Sentiong","time":8,"is_transit":false,"line":11,"transit":false,"i_long":106.850107,"i_lat":-6.185975,"distance":1567},{"i_long":106.855437,"station_name":"Kramat","is_transit":false,"transit":false,"line":11,"time":1,"distance":973,"i_lat":-6.193792,"station_id":"KMT"},{"transit":false,"is_transit":false,"distance":1829,"station_id":"POK","line":11,"i_long":106.861737,"i_lat":-6.209188,"time":2,"station_name":"Pondok Jati"},{"line":1,"is_transit":true,"i_long":106.86807400000001,"transit":true,"time":9,"station_name":"Jatinegara","i_lat":-6.215091,"station_id":"JNG","distance":1236},{"station_name":"Matraman","i_lat":-6.212485,"line":1,"time":2,"transit":false,"station_id":"MTR","is_transit":false,"distance":1377,"i_long":106.858896},{"i_lat":-6.209883,"line":2,"is_transit":true,"time":2,"station_name":"Manggarai","i_long":106.84912,"transit":true,"distance":1275,"station_id":"MRI"},{"station_name":"Tebet","distance":2610,"time":4,"i_long":106.857948,"station_id":"TEB","is_transit":false,"line":2,"transit":false,"i_lat":-6.226659},{"distance":1230,"is_transit":false,"i_lat":-6.242512,"transit":false,"line":2,"time":2,"station_id":"CW","station_name":"Cawang","i_long":106.856607},{"transit":false,"station_id":"DRN","i_lat":-6.255332,"line":2,"station_name":"Duren Kalibata","time":3,"distance":1546,"is_transit":false,"i_long":106.85449},{"is_transit":false,"i_lat":-6.263214,"time":2,"station_id":"PSMB","line":2,"distance":824,"station_name":"Pasar Minggu Baru","i_long":106.851577,"transit":false},{"is_transit":false,"transit":false,"i_lat":-6.2842400000000005,"time":2,"line":2,"station_id":"PSM","station_name":"Pasar Minggu","distance":2380,"i_long":106.843999},{"line":2,"time":4,"station_name":"Tanjung Barat","i_long":106.838896,"station_id":"TNT","distance":2820,"transit":false,"is_transit":false,"i_lat":-6.3080680000000005},{"i_lat":-6.330363,"time":3,"i_long":106.832616,"line":2,"transit":false,"station_id":"LNA","station_name":"Lenteng Agung","distance":2671,"is_transit":false},{"is_transit":false,"distance":1029,"time":2,"i_lat":-6.339291,"line":2,"i_long":106.834175,"transit":false,"station_id":"UP","station_name":"Univ. Pancasila"},{"i_lat":-6.360749,"station_id":"UI","station_name":"Univ. Indonesia","i_long":106.831474,"transit":false,"distance":2264,"is_transit":false,"time":3,"line":2},{"transit":false,"distance":1109,"is_transit":false,"station_id":"POC","i_long":106.831114,"line":2,"time":2,"i_lat":-6.369073,"station_name":"Pondok Cina"}]]}