{"data":[[{"is_transit":false,"line":5,"i_long":106.679458,"station_id":"PI","time":0,"i_lat":-6.169933,"transit":false,"station_name":"Poris","distance":0},{"transit":false,"line":5,"i_long":106.701612,"time":3,"station_id":"KDS","distance":2548,"i_lat":-6.166068,"is_transit":false,"station_name":"Kalideres"},{"transit":false,"line":5,"is_transit":false,"i_long":106.723064,"station_id":"RW","station_name":"Rawa Buaya","time":3,"distance":2504,"i_lat":-6.162758},{"time":4,"station_id":"BOI","station_name":"Bojongindah","is_transit":false,"line":5,"i_lat":-6.159876,"i_long":106.737035,"transit":false,"distance":1152},{"station_name":"Taman Kota","distance":2334,"i_lat":-6.1587309999999995,"time":2,"station_id":"TKO","i_long":106.756522,"transit":false,"is_transit":false,"line":5},{"is_transit":false,"i_lat":-6.161433,"distance":1614,"station_id":"PSG","time":2,"line":5,"transit":false,"i_long":106.771379,"station_name":"Pesing"},{"i_long":106.788277,"is_transit":false,"station_name":"Grogol","distance":2036,"transit":false,"time":2,"line":5,"station_id":"GGL","i_lat":-6.162021},{"i_lat":-6.155215,"transit":true,"station_id":"DU","station_name":"Duri","is_transit":true,"distance":1700,"time":3,"line":1,"i_long":106.800832},{"transit":true,"station_name":"Tanah Abang","station_id":"THB","i_lat":-6.185545,"is_transit":true,"time":8,"distance":3632,"i_long":106.811091,"line":1},{"time":6,"station_id":"PLM","station_name":"Palmerah","i_lat":-6.207404,"i_long":106.79689,"distance":3191,"line":6,"is_transit":false,"transit":false}],[{"is_transit":false,"station_name":"Poris","transit":false,"station_id":"PI","distance":0,"time":0,"i_lat":-6.169933,"i_long":106.679458,"line":5},{"transit":false,"is_transit":false,"i_lat":-6.166068,"distance":2548,"time":3,"station_id":"KDS","i_long":106.701612,"line":5,"station_name":"Kalideres"},{"time":3,"i_lat":-6.162758,"transit":false,"station_name":"Rawa Buaya","is_transit":false,"station_id":"RW","i_long":106.723064,"line":5,"distance":2504},{"is_transit":false,"time":4,"i_lat":-6.159876,"station_name":"Bojongindah","transit":false,"station_id":"BOI","i_long":106.737035,"distance":1152,"line":5},{"is_transit":false,"distance":2334,"line":5,"station_name":"Taman Kota","station_id":"TKO","time":2,"i_lat":-6.1587309999999995,"transit":false,"i_long":106.756522},{"line":5,"i_lat":-6.161433,"i_long":106.771379,"distance":1614,"time":2,"station_name":"Pesing","is_transit":false,"station_id":"PSG","transit":false},{"transit":false,"station_id":"GGL","i_lat":-6.162021,"station_name":"Grogol","is_transit":false,"i_long":106.788277,"distance":2036,"time":2,"line":5},{"distance":1700,"is_transit":true,"i_lat":-6.155215,"line":1,"station_name":"Duri","i_long":106.800832,"time":3,"station_id":"DU","transit":true},{"distance":1230,"is_transit":false,"transit":false,"i_lat":-6.144674,"i_long":106.79867,"line":1,"station_name":"Angke","time":4,"station_id":"AK"},{"i_lat":-6.132549,"i_long":106.826365,"distance":4102,"station_id":"KPB","line":4,"station_name":"Kampung Bandan","transit":true,"is_transit":true,"time":9},{"i_lat":-6.137569,"line":2,"i_long":106.812439,"station_name":"Jakarta Kota","time":3,"transit":true,"station_id":"JAKK","distance":1364,"is_transit":true},{"transit":false,"time":4,"station_id":"JAY","is_transit":false,"i_long":106.820901,"line":2,"distance":1264,"i_lat":-6.141205,"station_name":"Jayakarta"},{"i_lat":-6.149769,"station_name":"Manggabesar","line":2,"time":2,"is_transit":false,"distance":1080,"i_long":106.82482,"station_id":"MGB","transit":false},{"is_transit":false,"i_long":106.827103,"transit":false,"time":2,"line":2,"station_name":"Sawah Besar","i_lat":-6.160725,"distance":906,"station_id":"SW"},{"transit":false,"station_id":"JUA","time":2,"distance":1149,"i_long":106.828284,"station_name":"Juanda","i_lat":-6.166716,"line":2,"is_transit":false},{"i_lat":-6.186295,"transit":false,"time":4,"line":2,"i_long":106.832183,"station_name":"Gondangdia","is_transit":false,"station_id":"GDD","distance":2015},{"transit":false,"time":3,"i_lat":-6.198556,"i_long":106.840169,"line":2,"distance":1750,"station_name":"Cikini","station_id":"CKI","is_transit":false},{"station_id":"MRI","station_name":"Manggarai","is_transit":true,"i_long":106.84912,"line":2,"distance":1590,"transit":true,"i_lat":-6.209883,"time":4},{"station_id":"SUD","station_name":"Sudirman","is_transit":false,"i_long":106.822649,"line":1,"time":4,"transit":false,"distance":3186,"i_lat":-6.202263},{"transit":false,"time":1,"i_lat":-6.201433,"is_transit":false,"distance":280,"station_id":"SUDB","line":1,"station_name":"Sudirman Baru","i_long":106.819881},{"distance":471,"transit":false,"station_id":"KAT","time":1,"i_lat":-6.20132,"station_name":"Karet","is_transit":false,"line":1,"i_long":106.816351},{"i_long":106.811091,"is_transit":true,"station_name":"Tanah Abang","time":5,"i_lat":-6.185545,"line":1,"station_id":"THB","distance":2029,"transit":true},{"station_name":"Palmerah","time":6,"station_id":"PLM","line":6,"i_long":106.79689,"is_transit":false,"transit":false,"distance":3191,"i_lat":-6.207404}],[{"transit":false,"is_transit":false,"station_name":"Poris","i_lat":-6.169933,"line":5,"station_id":"PI","time":0,"distance":0,"i_long":106.679458},{"i_lat":-6.166068,"is_transit":false,"i_long":106.701612,"transit":false,"station_id":"KDS","line":5,"station_name":"Kalideres","distance":2548,"time":3},{"station_name":"Rawa Buaya","time":3,"line":5,"i_long":106.723064,"transit":false,"i_lat":-6.162758,"station_id":"RW","distance":2504,"is_transit":false},{"line":5,"station_id":"BOI","distance":1152,"i_lat":-6.159876,"is_transit":false,"i_long":106.737035,"time":4,"transit":false,"station_name":"Bojongindah"},{"is_transit":false,"time":2,"i_long":106.756522,"transit":false,"line":5,"i_lat":-6.1587309999999995,"distance":2334,"station_name":"Taman Kota","station_id":"TKO"},{"time":2,"is_transit":false,"i_lat":-6.161433,"line":5,"station_name":"Pesing","distance":1614,"i_long":106.771379,"station_id":"PSG","transit":false},{"time":2,"i_lat":-6.162021,"i_long":106.788277,"station_name":"Grogol","line":5,"distance":2036,"transit":false,"station_id":"GGL","is_transit":false},{"line":1,"distance":1700,"station_id":"DU","i_lat":-6.155215,"time":3,"is_transit":true,"station_name":"Duri","transit":true,"i_long":106.800832},{"time":4,"i_long":106.79867,"is_transit":false,"distance":1230,"station_id":"AK","i_lat":-6.144674,"station_name":"Angke","transit":false,"line":1},{"distance":4102,"station_name":"Kampung Bandan","time":9,"i_lat":-6.132549,"i_long":106.826365,"line":4,"is_transit":true,"transit":true,"station_id":"KPB"},{"distance":1444,"line":11,"station_name":"Rajawali","is_transit":false,"transit":false,"station_id":"RJW","time":3,"i_long":106.836569,"i_lat":-6.14505},{"distance":1901,"time":5,"is_transit":false,"station_name":"Kemayoran","i_long":106.839204,"i_lat":-6.161728,"transit":false,"line":11,"station_id":"KMO"},{"line":11,"station_id":"PSE","transit":false,"i_lat":-6.174784,"time":4,"is_transit":false,"distance":1436,"station_name":"Pasar Senen","i_long":106.84368},{"station_id":"GST","distance":1567,"is_transit":false,"transit":false,"i_long":106.850107,"time":8,"i_lat":-6.185975,"line":11,"station_name":"Gang Sentiong"},{"time":1,"line":11,"station_name":"Kramat","distance":973,"transit":false,"i_lat":-6.193792,"station_id":"KMT","i_long":106.855437,"is_transit":false},{"time":2,"i_lat":-6.209188,"transit":false,"station_id":"POK","i_long":106.861737,"station_name":"Pondok Jati","distance":1829,"line":11,"is_transit":false},{"transit":true,"station_name":"Jatinegara","time":9,"i_lat":-6.215091,"i_long":106.86807400000001,"line":1,"station_id":"JNG","is_transit":true,"distance":1236},{"time":2,"is_transit":false,"station_name":"Matraman","i_long":106.858896,"i_lat":-6.212485,"station_id":"MTR","distance":1377,"line":1,"transit":false},{"station_id":"MRI","transit":false,"station_name":"Manggarai","time":2,"distance":1275,"is_transit":false,"i_lat":-6.209883,"line":2,"i_long":106.84912},{"time":4,"i_lat":-6.202263,"transit":false,"is_transit":false,"station_id":"SUD","line":1,"station_name":"Sudirman","i_long":106.822649,"distance":3186},{"line":1,"station_id":"SUDB","distance":280,"transit":false,"station_name":"Sudirman Baru","time":1,"i_long":106.819881,"is_transit":false,"i_lat":-6.201433},{"transit":false,"station_name":"Karet","line":1,"is_transit":false,"i_lat":-6.20132,"i_long":106.816351,"station_id":"KAT","distance":471,"time":1},{"i_lat":-6.185545,"station_name":"Tanah Abang","is_transit":true,"station_id":"THB","line":1,"transit":true,"distance":2029,"time":5,"i_long":106.811091},{"i_lat":-6.207404,"line":6,"is_transit":false,"transit":false,"distance":3191,"station_id":"PLM","time":6,"station_name":"Palmerah","i_long":106.79689}]]}