{"data":[[{"distance":0,"line":5,"time":0,"is_transit":false,"i_long":106.679458,"station_name":"Poris","transit":false,"station_id":"PI","i_lat":-6.169933},{"line":5,"station_name":"Kalideres","station_id":"KDS","i_lat":-6.166068,"is_transit":false,"distance":2548,"transit":false,"i_long":106.701612,"time":3},{"station_id":"RW","i_lat":-6.162758,"station_name":"Rawa Buaya","transit":false,"is_transit":false,"i_long":106.723064,"distance":2504,"line":5,"time":3},{"station_id":"BOI","time":4,"is_transit":false,"i_lat":-6.159876,"station_name":"Bojongindah","transit":false,"line":0,"distance":1152,"i_long":106.737035},{"is_transit":false,"i_lat":-6.1587309999999995,"i_long":106.756522,"station_name":"Taman Kota","line":5,"transit":false,"distance":2334,"time":2,"station_id":"TKO"},{"transit":false,"time":2,"i_lat":-6.161433,"station_name":"Pesing","i_long":106.771379,"is_transit":false,"line":5,"station_id":"PSG","distance":1614},{"i_long":106.788277,"i_lat":-6.162021,"line":5,"station_id":"GGL","station_name":"Grogol","distance":2036,"transit":false,"time":2,"is_transit":false},{"line":1,"transit":true,"is_transit":true,"time":3,"station_id":"DU","i_lat":-6.155215,"i_long":106.800832,"distance":1700,"station_name":"Duri"},{"i_lat":-6.185545,"station_id":"THB","distance":3632,"is_transit":true,"time":8,"station_name":"Tanah Abang","transit":false,"i_long":106.811091,"line":1},{"transit":false,"station_id":"KAT","station_name":"Karet","i_lat":-6.20132,"time":5,"distance":2029,"is_transit":false,"i_long":106.816351,"line":1},{"station_name":"Sudirman Baru","i_long":106.819881,"line":1,"transit":false,"distance":471,"time":1,"i_lat":-6.201433,"is_transit":false,"station_id":"SUDB"},{"i_lat":-6.202263,"i_long":106.822649,"line":1,"station_name":"Sudirman","station_id":"SUD","is_transit":false,"transit":false,"time":1,"distance":280},{"is_transit":true,"transit":true,"i_lat":-6.209883,"line":0,"distance":3186,"i_long":106.84912,"station_name":"Manggarai","time":4,"station_id":"MRI"},{"time":4,"transit":false,"distance":2610,"station_id":"TEB","i_long":106.857948,"is_transit":false,"line":2,"station_name":"Tebet","i_lat":-6.226659},{"time":2,"i_lat":-6.242512,"distance":1230,"is_transit":false,"station_id":"CW","i_long":106.856607,"line":0,"transit":false,"station_name":"Cawang"},{"i_long":106.85449,"station_id":"DRN","line":0,"transit":false,"station_name":"Duren Kalibata","is_transit":false,"i_lat":-6.255332,"distance":1546,"time":3},{"i_long":106.851577,"line":2,"distance":824,"time":2,"station_name":"Pasar Minggu Baru","transit":false,"is_transit":false,"i_lat":-6.263214,"station_id":"PSMB"},{"distance":2380,"transit":false,"station_name":"Pasar Minggu","is_transit":false,"i_lat":-6.2842400000000005,"station_id":"PSM","line":2,"time":2,"i_long":106.843999}],[{"station_id":"PI","i_long":106.679458,"station_name":"Poris","transit":false,"distance":0,"i_lat":-6.169933,"is_transit":false,"time":0,"line":5},{"is_transit":false,"transit":false,"i_long":106.701612,"line":5,"station_name":"Kalideres","i_lat":-6.166068,"distance":2548,"time":3,"station_id":"KDS"},{"time":3,"transit":false,"station_name":"Rawa Buaya","i_lat":-6.162758,"i_long":106.723064,"line":5,"is_transit":false,"distance":2504,"station_id":"RW"},{"distance":1152,"station_name":"Bojongindah","station_id":"BOI","i_long":106.737035,"time":4,"line":0,"is_transit":false,"i_lat":-6.159876,"transit":false},{"transit":false,"time":2,"i_lat":-6.1587309999999995,"distance":2334,"is_transit":false,"i_long":106.756522,"line":5,"station_name":"Taman Kota","station_id":"TKO"},{"is_transit":false,"station_id":"PSG","time":2,"distance":1614,"i_lat":-6.161433,"i_long":106.771379,"line":5,"transit":false,"station_name":"Pesing"},{"station_name":"Grogol","line":5,"time":2,"transit":false,"station_id":"GGL","distance":2036,"i_long":106.788277,"i_lat":-6.162021,"is_transit":false},{"i_lat":-6.155215,"is_transit":true,"i_long":106.800832,"line":1,"distance":1700,"station_id":"DU","station_name":"Duri","transit":true,"time":3},{"distance":1230,"time":4,"i_long":106.79867,"station_id":"AK","line":0,"is_transit":false,"i_lat":-6.144674,"transit":false,"station_name":"Angke"},{"station_name":"Kampung Bandan","is_transit":true,"distance":4102,"i_lat":-6.132549,"time":9,"transit":false,"i_long":106.826365,"station_id":"KPB","line":0},{"station_name":"Jakarta Kota","station_id":"JAKK","time":3,"transit":true,"is_transit":true,"i_long":106.812439,"line":0,"distance":1364,"i_lat":-6.137569},{"distance":1264,"station_id":"JAY","i_long":106.820901,"time":4,"is_transit":false,"station_name":"Jayakarta","transit":false,"line":7,"i_lat":-6.141205},{"i_long":106.82482,"distance":1080,"time":2,"station_id":"MGB","is_transit":false,"transit":false,"i_lat":-6.149769,"line":2,"station_name":"Manggabesar"},{"i_long":106.827103,"station_id":"SW","station_name":"Sawah Besar","line":2,"transit":false,"is_transit":false,"time":2,"distance":906,"i_lat":-6.160725},{"distance":1149,"station_name":"Juanda","transit":false,"i_lat":-6.166716,"line":2,"station_id":"JUA","is_transit":false,"i_long":106.828284,"time":2},{"station_name":"Gondangdia","i_lat":-6.186295,"station_id":"GDD","is_transit":false,"line":2,"time":4,"distance":2015,"transit":false,"i_long":106.832183},{"station_name":"Cikini","distance":1750,"line":0,"station_id":"CKI","i_lat":-6.198556,"time":3,"is_transit":false,"transit":false,"i_long":106.840169},{"is_transit":true,"i_long":106.84912,"line":0,"i_lat":-6.209883,"time":4,"station_id":"MRI","distance":1590,"transit":true,"station_name":"Manggarai"},{"station_id":"TEB","transit":false,"i_lat":-6.226659,"line":2,"time":4,"i_long":106.857948,"is_transit":false,"station_name":"Tebet","distance":2610},{"i_lat":-6.242512,"distance":1230,"time":2,"station_id":"CW","transit":false,"line":0,"is_transit":false,"station_name":"Cawang","i_long":106.856607},{"i_long":106.85449,"station_name":"Duren Kalibata","is_transit":false,"time":3,"distance":1546,"station_id":"DRN","i_lat":-6.255332,"transit":false,"line":0},{"i_long":106.851577,"time":2,"station_id":"PSMB","i_lat":-6.263214,"distance":824,"is_transit":false,"line":2,"station_name":"Pasar Minggu Baru","transit":false},{"transit":false,"i_long":106.843999,"time":2,"line":2,"distance":2380,"is_transit":false,"i_lat":-6.2842400000000005,"station_name":"Pasar Minggu","station_id":"PSM"}],[{"line":5,"transit":false,"station_name":"Poris","station_id":"PI","time":0,"i_long":106.679458,"distance":0,"i_lat":-6.169933,"is_transit":false},{"time":3,"station_name":"Kalideres","i_long":106.701612,"distance":2548,"is_transit":false,"i_lat":-6.166068,"station_id":"KDS","transit":false,"line":5},{"distance":2504,"time":3,"line":5,"station_name":"Rawa Buaya","i_long":106.723064,"i_lat":-6.162758,"station_id":"RW","is_transit":false,"transit":false},{"distance":1152,"i_lat":-6.159876,"time":4,"i_long":106.737035,"station_id":"BOI","transit":false,"is_transit":false,"line":0,"station_name":"Bojongindah"},{"station_id":"TKO","is_transit":false,"line":5,"i_long":106.756522,"i_lat":-6.1587309999999995,"station_name":"Taman Kota","transit":false,"distance":2334,"time":2},{"is_transit":false,"transit":false,"line":5,"time":2,"distance":1614,"i_long":106.771379,"station_name":"Pesing","station_id":"PSG","i_lat":-6.161433},{"distance":2036,"i_long":106.788277,"station_name":"Grogol","station_id":"GGL","i_lat":-6.162021,"transit":false,"line":5,"is_transit":false,"time":2},{"i_lat":-6.155215,"distance":1700,"i_long":106.800832,"station_name":"Duri","station_id":"DU","transit":true,"time":3,"is_transit":true,"line":1},{"is_transit":false,"i_long":106.79867,"line":0,"station_name":"Angke","i_lat":-6.144674,"transit":false,"distance":1230,"time":4,"station_id":"AK"},{"is_transit":true,"line":0,"time":9,"distance":4102,"transit":true,"i_long":106.826365,"station_id":"KPB","station_name":"Kampung Bandan","i_lat":-6.132549},{"is_transit":false,"time":3,"station_name":"Rajawali","i_long":106.836569,"i_lat":-6.14505,"distance":1444,"line":11,"station_id":"RJW","transit":false},{"i_long":106.839204,"i_lat":-6.161728,"station_id":"KMO","line":11,"time":5,"is_transit":false,"distance":1901,"station_name":"Kemayoran","transit":false},{"is_transit":false,"transit":false,"line":11,"station_id":"PSE","i_long":106.84368,"station_name":"Pasar Senen","i_lat":-6.174784,"time":4,"distance":1436},{"distance":1567,"station_id":"GST","station_name":"Gang Sentiong","transit":false,"is_transit":false,"i_long":106.850107,"time":8,"i_lat":-6.185975,"line":11},{"station_id":"KMT","station_name":"Kramat","i_lat":-6.193792,"is_transit":false,"i_long":106.855437,"distance":973,"line":11,"time":1,"transit":false},{"time":2,"line":11,"i_lat":-6.209188,"i_long":106.861737,"distance":1829,"is_transit":false,"transit":false,"station_name":"Pondok Jati","station_id":"POK"},{"station_name":"Jatinegara","station_id":"JNG","transit":true,"line":0,"time":9,"i_lat":-6.215091,"distance":1236,"is_transit":true,"i_long":106.86807400000001},{"station_id":"MTR","is_transit":false,"transit":false,"i_lat":-6.212485,"distance":1377,"station_name":"Matraman","time":2,"line":1,"i_long":106.858896},{"station_name":"Manggarai","time":2,"distance":1275,"i_long":106.84912,"is_transit":true,"transit":true,"i_lat":-6.209883,"station_id":"MRI","line":0},{"distance":2610,"i_lat":-6.226659,"i_long":106.857948,"line":2,"station_name":"Tebet","is_transit":false,"station_id":"TEB","transit":false,"time":4},{"i_lat":-6.242512,"station_id":"CW","is_transit":false,"station_name":"Cawang","time":2,"distance":1230,"i_long":106.856607,"line":0,"transit":false},{"time":3,"i_lat":-6.255332,"transit":false,"is_transit":false,"station_id":"DRN","i_long":106.85449,"station_name":"Duren Kalibata","distance":1546,"line":0},{"time":2,"station_name":"Pasar Minggu Baru","i_lat":-6.263214,"station_id":"PSMB","line":2,"transit":false,"distance":824,"is_transit":false,"i_long":106.851577},{"station_id":"PSM","transit":false,"time":2,"station_name":"Pasar Minggu","i_long":106.843999,"line":2,"i_lat":-6.2842400000000005,"distance":2380,"is_transit":false}]]}