{"data":[[{"line":5,"station_name":"Poris","is_transit":false,"time":0,"station_id":"PI","distance":0,"i_long":106.679458,"transit":false,"i_lat":-6.169933},{"i_lat":-6.166068,"i_long":106.701612,"is_transit":false,"time":3,"transit":false,"line":5,"station_id":"KDS","distance":2548,"station_name":"Kalideres"},{"distance":2504,"i_long":106.723064,"i_lat":-6.162758,"line":5,"station_name":"Rawa Buaya","transit":false,"time":3,"station_id":"RW","is_transit":false},{"time":4,"i_lat":-6.159876,"i_long":106.737035,"is_transit":false,"line":5,"distance":1152,"station_id":"BOI","station_name":"Bojongindah","transit":false},{"transit":false,"station_name":"Taman Kota","i_long":106.756522,"i_lat":-6.1587309999999995,"is_transit":false,"distance":2334,"time":2,"station_id":"TKO","line":5},{"station_id":"PSG","time":2,"distance":1614,"transit":false,"station_name":"Pesing","is_transit":false,"i_long":106.771379,"i_lat":-6.161433,"line":5},{"distance":2036,"line":5,"transit":false,"time":2,"station_name":"Grogol","station_id":"GGL","i_lat":-6.162021,"is_transit":false,"i_long":106.788277},{"i_long":106.800832,"station_name":"Duri","is_transit":true,"time":3,"station_id":"DU","distance":1700,"i_lat":-6.155215,"line":1,"transit":true},{"line":1,"i_lat":-6.185545,"station_id":"THB","is_transit":false,"i_long":106.811091,"station_name":"Tanah Abang","distance":3632,"transit":false,"time":8},{"is_transit":false,"distance":2029,"time":5,"line":1,"transit":false,"station_name":"Karet","station_id":"KAT","i_long":106.816351,"i_lat":-6.20132},{"line":1,"transit":false,"time":1,"distance":471,"station_name":"Sudirman Baru","is_transit":false,"i_long":106.819881,"i_lat":-6.201433,"station_id":"SUDB"}],[{"station_id":"PI","time":0,"i_lat":-6.169933,"line":5,"i_long":106.679458,"station_name":"Poris","transit":false,"distance":0,"is_transit":false},{"i_lat":-6.166068,"i_long":106.701612,"transit":false,"is_transit":false,"distance":2548,"line":5,"station_id":"KDS","station_name":"Kalideres","time":3},{"i_long":106.723064,"distance":2504,"station_id":"RW","line":5,"station_name":"Rawa Buaya","is_transit":false,"i_lat":-6.162758,"time":3,"transit":false},{"i_lat":-6.159876,"station_name":"Bojongindah","station_id":"BOI","is_transit":false,"time":4,"distance":1152,"line":5,"i_long":106.737035,"transit":false},{"transit":false,"station_id":"TKO","i_lat":-6.1587309999999995,"line":5,"is_transit":false,"distance":2334,"i_long":106.756522,"station_name":"Taman Kota","time":2},{"line":5,"station_name":"Pesing","station_id":"PSG","i_lat":-6.161433,"time":2,"distance":1614,"i_long":106.771379,"transit":false,"is_transit":false},{"transit":false,"time":2,"station_id":"GGL","station_name":"Grogol","distance":2036,"i_lat":-6.162021,"i_long":106.788277,"is_transit":false,"line":5},{"i_long":106.800832,"distance":1700,"line":1,"station_id":"DU","station_name":"Duri","time":3,"transit":true,"i_lat":-6.155215,"is_transit":true},{"distance":1230,"i_long":106.79867,"station_name":"Angke","station_id":"AK","is_transit":false,"time":4,"i_lat":-6.144674,"transit":false,"line":1},{"i_long":106.826365,"i_lat":-6.132549,"is_transit":true,"transit":true,"station_name":"Kampung Bandan","distance":4102,"station_id":"KPB","time":9,"line":4},{"station_name":"Jakarta Kota","is_transit":true,"i_long":106.812439,"time":3,"distance":1364,"transit":true,"i_lat":-6.137569,"station_id":"JAKK","line":2},{"i_lat":-6.141205,"time":4,"distance":1264,"station_id":"JAY","transit":false,"station_name":"Jayakarta","is_transit":false,"line":2,"i_long":106.820901},{"i_lat":-6.149769,"transit":false,"station_id":"MGB","is_transit":false,"time":2,"distance":1080,"line":2,"station_name":"Manggabesar","i_long":106.82482},{"station_name":"Sawah Besar","line":2,"is_transit":false,"station_id":"SW","distance":906,"i_long":106.827103,"time":2,"i_lat":-6.160725,"transit":false},{"i_long":106.828284,"line":2,"station_name":"Juanda","i_lat":-6.166716,"time":2,"transit":false,"station_id":"JUA","is_transit":false,"distance":1149},{"station_name":"Gondangdia","station_id":"GDD","transit":false,"time":4,"line":2,"is_transit":false,"i_lat":-6.186295,"distance":2015,"i_long":106.832183},{"line":2,"transit":false,"station_name":"Cikini","station_id":"CKI","time":3,"distance":1750,"i_lat":-6.198556,"i_long":106.840169,"is_transit":false},{"station_id":"MRI","time":4,"station_name":"Manggarai","i_long":106.84912,"i_lat":-6.209883,"transit":true,"is_transit":true,"distance":1590,"line":2},{"i_lat":-6.202263,"transit":false,"distance":3186,"station_name":"Sudirman","is_transit":false,"line":1,"time":4,"station_id":"SUD","i_long":106.822649},{"distance":280,"i_long":106.819881,"station_name":"Sudirman Baru","time":1,"line":1,"station_id":"SUDB","is_transit":false,"transit":false,"i_lat":-6.201433}],[{"transit":false,"i_lat":-6.169933,"distance":0,"is_transit":false,"time":0,"station_name":"Poris","station_id":"PI","i_long":106.679458,"line":5},{"station_name":"Kalideres","is_transit":false,"i_lat":-6.166068,"station_id":"KDS","time":3,"transit":false,"i_long":106.701612,"distance":2548,"line":5},{"station_name":"Rawa Buaya","time":3,"transit":false,"station_id":"RW","distance":2504,"i_lat":-6.162758,"line":5,"is_transit":false,"i_long":106.723064},{"transit":false,"station_id":"BOI","i_lat":-6.159876,"station_name":"Bojongindah","i_long":106.737035,"distance":1152,"is_transit":false,"time":4,"line":5},{"is_transit":false,"distance":2334,"line":5,"i_lat":-6.1587309999999995,"transit":false,"time":2,"station_id":"TKO","i_long":106.756522,"station_name":"Taman Kota"},{"distance":1614,"time":2,"transit":false,"station_name":"Pesing","line":5,"i_lat":-6.161433,"i_long":106.771379,"is_transit":false,"station_id":"PSG"},{"station_id":"GGL","transit":false,"distance":2036,"time":2,"i_long":106.788277,"is_transit":false,"i_lat":-6.162021,"station_name":"Grogol","line":5},{"station_name":"Duri","time":3,"station_id":"DU","i_lat":-6.155215,"line":1,"is_transit":true,"distance":1700,"transit":true,"i_long":106.800832},{"station_id":"AK","transit":false,"i_lat":-6.144674,"line":1,"i_long":106.79867,"time":4,"distance":1230,"station_name":"Angke","is_transit":false},{"is_transit":true,"station_name":"Kampung Bandan","time":9,"i_long":106.826365,"station_id":"KPB","distance":4102,"line":4,"i_lat":-6.132549,"transit":true},{"i_long":106.836569,"station_name":"Rajawali","i_lat":-6.14505,"transit":false,"station_id":"RJW","time":3,"is_transit":false,"distance":1444,"line":11},{"station_name":"Kemayoran","time":5,"distance":1901,"i_long":106.839204,"line":11,"station_id":"KMO","is_transit":false,"i_lat":-6.161728,"transit":false},{"station_name":"Pasar Senen","transit":false,"distance":1436,"is_transit":false,"i_lat":-6.174784,"time":4,"i_long":106.84368,"line":11,"station_id":"PSE"},{"is_transit":false,"time":8,"station_name":"Gang Sentiong","transit":false,"distance":1567,"i_long":106.850107,"i_lat":-6.185975,"line":11,"station_id":"GST"},{"transit":false,"time":1,"distance":973,"i_lat":-6.193792,"is_transit":false,"station_id":"KMT","i_long":106.855437,"station_name":"Kramat","line":11},{"i_lat":-6.209188,"line":11,"distance":1829,"transit":false,"station_name":"Pondok Jati","station_id":"POK","time":2,"is_transit":false,"i_long":106.861737},{"distance":1236,"i_long":106.86807400000001,"transit":true,"i_lat":-6.215091,"station_name":"Jatinegara","line":1,"is_transit":true,"time":9,"station_id":"JNG"},{"distance":1377,"station_name":"Matraman","transit":false,"station_id":"MTR","i_long":106.858896,"time":2,"i_lat":-6.212485,"is_transit":false,"line":1},{"i_long":106.84912,"is_transit":false,"distance":1275,"station_name":"Manggarai","i_lat":-6.209883,"line":2,"station_id":"MRI","time":2,"transit":false},{"i_lat":-6.202263,"transit":false,"station_name":"Sudirman","i_long":106.822649,"line":1,"station_id":"SUD","time":4,"is_transit":false,"distance":3186},{"is_transit":false,"i_lat":-6.201433,"i_long":106.819881,"distance":280,"line":1,"time":1,"station_name":"Sudirman Baru","transit":false,"station_id":"SUDB"}]]}