{"data":[[{"line":5,"transit":false,"distance":0,"station_name":"Poris","station_id":"PI","time":0,"i_lat":-6.169933,"i_long":106.679458,"is_transit":false},{"i_long":106.701612,"line":5,"station_name":"Kalideres","is_transit":false,"distance":2548,"station_id":"KDS","transit":false,"time":3,"i_lat":-6.166068},{"station_id":"RW","transit":false,"i_lat":-6.162758,"line":5,"is_transit":false,"time":3,"distance":2504,"station_name":"Rawa Buaya","i_long":106.723064},{"is_transit":false,"station_id":"BOI","time":4,"i_lat":-6.159876,"i_long":106.737035,"line":5,"station_name":"Bojongindah","distance":1152,"transit":false},{"distance":2334,"time":2,"i_lat":-6.1587309999999995,"i_long":106.756522,"station_name":"Taman Kota","line":5,"transit":false,"is_transit":false,"station_id":"TKO"},{"time":2,"station_name":"Pesing","station_id":"PSG","is_transit":false,"transit":false,"i_lat":-6.161433,"i_long":106.771379,"line":5,"distance":1614},{"station_name":"Grogol","transit":false,"distance":2036,"is_transit":false,"station_id":"GGL","time":2,"line":5,"i_lat":-6.162021,"i_long":106.788277},{"line":1,"transit":true,"station_name":"Duri","i_long":106.800832,"i_lat":-6.155215,"is_transit":true,"distance":1700,"station_id":"DU","time":3},{"is_transit":false,"i_long":106.811091,"distance":3632,"line":1,"time":8,"transit":false,"i_lat":-6.185545,"station_id":"THB","station_name":"Tanah Abang"},{"line":1,"is_transit":false,"i_lat":-6.20132,"station_id":"KAT","station_name":"Karet","distance":2029,"transit":false,"time":5,"i_long":106.816351},{"i_long":106.819881,"transit":false,"station_name":"Sudirman Baru","time":1,"line":1,"station_id":"SUDB","is_transit":false,"distance":471,"i_lat":-6.201433}],[{"distance":0,"station_name":"Poris","line":5,"is_transit":false,"transit":false,"i_long":106.679458,"i_lat":-6.169933,"station_id":"PI","time":0},{"distance":2548,"time":3,"transit":false,"is_transit":false,"i_long":106.701612,"line":5,"station_id":"KDS","station_name":"Kalideres","i_lat":-6.166068},{"time":3,"is_transit":false,"transit":false,"line":5,"station_name":"Rawa Buaya","i_long":106.723064,"i_lat":-6.162758,"distance":2504,"station_id":"RW"},{"i_lat":-6.159876,"time":4,"transit":false,"station_name":"Bojongindah","line":5,"i_long":106.737035,"distance":1152,"is_transit":false,"station_id":"BOI"},{"is_transit":false,"station_id":"TKO","line":5,"i_long":106.756522,"distance":2334,"transit":false,"station_name":"Taman Kota","i_lat":-6.1587309999999995,"time":2},{"line":5,"i_long":106.771379,"is_transit":false,"station_name":"Pesing","distance":1614,"time":2,"i_lat":-6.161433,"transit":false,"station_id":"PSG"},{"line":5,"distance":2036,"station_id":"GGL","is_transit":false,"i_lat":-6.162021,"transit":false,"station_name":"Grogol","time":2,"i_long":106.788277},{"distance":1700,"station_id":"DU","i_long":106.800832,"transit":true,"station_name":"Duri","is_transit":true,"i_lat":-6.155215,"line":1,"time":3},{"station_name":"Angke","is_transit":false,"transit":false,"distance":1230,"station_id":"AK","i_long":106.79867,"line":1,"time":4,"i_lat":-6.144674},{"i_long":106.826365,"transit":true,"station_id":"KPB","distance":4102,"time":9,"i_lat":-6.132549,"line":4,"is_transit":true,"station_name":"Kampung Bandan"},{"time":3,"is_transit":true,"station_id":"JAKK","station_name":"Jakarta Kota","distance":1364,"i_lat":-6.137569,"transit":true,"i_long":106.812439,"line":2},{"i_long":106.820901,"station_name":"Jayakarta","transit":false,"distance":1264,"time":4,"line":2,"is_transit":false,"i_lat":-6.141205,"station_id":"JAY"},{"transit":false,"time":2,"i_lat":-6.149769,"is_transit":false,"station_id":"MGB","station_name":"Manggabesar","i_long":106.82482,"line":2,"distance":1080},{"i_lat":-6.160725,"time":2,"distance":906,"transit":false,"i_long":106.827103,"line":2,"station_name":"Sawah Besar","station_id":"SW","is_transit":false},{"distance":1149,"time":2,"transit":false,"i_long":106.828284,"station_name":"Juanda","i_lat":-6.166716,"station_id":"JUA","is_transit":false,"line":2},{"station_name":"Gondangdia","transit":false,"station_id":"GDD","is_transit":false,"i_lat":-6.186295,"line":2,"distance":2015,"i_long":106.832183,"time":4},{"time":3,"station_name":"Cikini","i_long":106.840169,"distance":1750,"is_transit":false,"station_id":"CKI","transit":false,"i_lat":-6.198556,"line":2},{"is_transit":true,"station_id":"MRI","line":2,"station_name":"Manggarai","i_long":106.84912,"time":4,"transit":true,"distance":1590,"i_lat":-6.209883},{"i_lat":-6.202263,"station_id":"SUD","i_long":106.822649,"time":4,"is_transit":false,"transit":false,"station_name":"Sudirman","line":1,"distance":3186},{"transit":false,"time":1,"distance":280,"line":1,"is_transit":false,"station_name":"Sudirman Baru","station_id":"SUDB","i_long":106.819881,"i_lat":-6.201433}],[{"i_lat":-6.169933,"is_transit":false,"time":0,"line":5,"i_long":106.679458,"station_id":"PI","distance":0,"transit":false,"station_name":"Poris"},{"station_name":"Kalideres","line":5,"i_long":106.701612,"station_id":"KDS","i_lat":-6.166068,"distance":2548,"is_transit":false,"transit":false,"time":3},{"station_id":"RW","i_long":106.723064,"is_transit":false,"station_name":"Rawa Buaya","distance":2504,"time":3,"transit":false,"line":5,"i_lat":-6.162758},{"station_id":"BOI","i_lat":-6.159876,"line":5,"i_long":106.737035,"distance":1152,"transit":false,"station_name":"Bojongindah","is_transit":false,"time":4},{"line":5,"station_name":"Taman Kota","transit":false,"distance":2334,"station_id":"TKO","time":2,"i_lat":-6.1587309999999995,"i_long":106.756522,"is_transit":false},{"distance":1614,"is_transit":false,"time":2,"transit":false,"station_id":"PSG","station_name":"Pesing","i_lat":-6.161433,"i_long":106.771379,"line":5},{"transit":false,"is_transit":false,"i_long":106.788277,"station_name":"Grogol","line":5,"distance":2036,"time":2,"station_id":"GGL","i_lat":-6.162021},{"i_long":106.800832,"time":3,"distance":1700,"i_lat":-6.155215,"line":1,"transit":true,"station_name":"Duri","is_transit":true,"station_id":"DU"},{"distance":1230,"i_long":106.79867,"line":1,"transit":false,"station_name":"Angke","i_lat":-6.144674,"time":4,"station_id":"AK","is_transit":false},{"i_long":106.826365,"transit":true,"i_lat":-6.132549,"station_name":"Kampung Bandan","time":9,"line":4,"distance":4102,"station_id":"KPB","is_transit":true},{"station_name":"Rajawali","is_transit":false,"transit":false,"station_id":"RJW","distance":1444,"time":3,"i_lat":-6.14505,"i_long":106.836569,"line":11},{"distance":1901,"transit":false,"line":11,"is_transit":false,"station_id":"KMO","station_name":"Kemayoran","i_lat":-6.161728,"i_long":106.839204,"time":5},{"line":11,"time":4,"distance":1436,"transit":false,"station_id":"PSE","station_name":"Pasar Senen","i_long":106.84368,"i_lat":-6.174784,"is_transit":false},{"time":8,"distance":1567,"i_long":106.850107,"station_name":"Gang Sentiong","transit":false,"is_transit":false,"station_id":"GST","i_lat":-6.185975,"line":11},{"time":1,"is_transit":false,"transit":false,"i_long":106.855437,"distance":973,"station_id":"KMT","line":11,"i_lat":-6.193792,"station_name":"Kramat"},{"line":11,"station_id":"POK","distance":1829,"i_lat":-6.209188,"is_transit":false,"time":2,"station_name":"Pondok Jati","transit":false,"i_long":106.861737},{"station_name":"Jatinegara","is_transit":true,"line":1,"station_id":"JNG","transit":true,"time":9,"i_long":106.86807400000001,"i_lat":-6.215091,"distance":1236},{"distance":1377,"i_lat":-6.212485,"i_long":106.858896,"is_transit":false,"transit":false,"station_id":"MTR","station_name":"Matraman","time":2,"line":1},{"distance":1275,"station_name":"Manggarai","time":2,"station_id":"MRI","is_transit":false,"i_long":106.84912,"i_lat":-6.209883,"line":2,"transit":false},{"station_id":"SUD","transit":false,"i_long":106.822649,"i_lat":-6.202263,"line":1,"station_name":"Sudirman","time":4,"is_transit":false,"distance":3186},{"is_transit":false,"station_id":"SUDB","i_lat":-6.201433,"line":1,"transit":false,"i_long":106.819881,"station_name":"Sudirman Baru","distance":280,"time":1}]]}