{"data":[[{"time":0,"distance":0,"station_name":"Poris","is_transit":false,"line":5,"i_lat":-6.169933,"transit":false,"station_id":"PI","i_long":106.679458},{"time":3,"is_transit":false,"distance":2548,"station_name":"Kalideres","i_long":106.701612,"line":5,"transit":false,"i_lat":-6.166068,"station_id":"KDS"},{"i_long":106.723064,"station_id":"RW","time":3,"station_name":"Rawa Buaya","is_transit":false,"distance":2504,"i_lat":-6.162758,"transit":false,"line":5},{"i_long":106.737035,"i_lat":-6.159876,"station_id":"BOI","transit":false,"distance":1152,"time":4,"station_name":"Bojongindah","is_transit":false,"line":0},{"transit":false,"station_id":"TKO","line":5,"i_long":106.756522,"distance":2334,"station_name":"Taman Kota","time":2,"i_lat":-6.1587309999999995,"is_transit":false},{"line":5,"is_transit":false,"time":2,"distance":1614,"station_name":"Pesing","i_lat":-6.161433,"station_id":"PSG","transit":false,"i_long":106.771379},{"distance":2036,"station_id":"GGL","line":5,"i_lat":-6.162021,"is_transit":false,"time":2,"station_name":"Grogol","i_long":106.788277,"transit":false},{"station_name":"Duri","is_transit":true,"transit":true,"i_lat":-6.155215,"station_id":"DU","line":1,"time":3,"distance":1700,"i_long":106.800832},{"line":1,"i_long":106.811091,"time":8,"transit":false,"distance":3632,"station_id":"THB","station_name":"Tanah Abang","is_transit":true,"i_lat":-6.185545},{"station_id":"KAT","is_transit":false,"i_lat":-6.20132,"line":1,"distance":2029,"time":5,"station_name":"Karet","i_long":106.816351,"transit":false},{"line":1,"is_transit":false,"i_lat":-6.201433,"time":1,"transit":false,"station_id":"SUDB","station_name":"Sudirman Baru","i_long":106.819881,"distance":471}],[{"line":5,"station_id":"PI","transit":false,"i_long":106.679458,"i_lat":-6.169933,"time":0,"distance":0,"station_name":"Poris","is_transit":false},{"line":5,"time":3,"i_long":106.701612,"i_lat":-6.166068,"distance":2548,"station_name":"Kalideres","station_id":"KDS","is_transit":false,"transit":false},{"transit":false,"is_transit":false,"station_name":"Rawa Buaya","station_id":"RW","line":5,"i_lat":-6.162758,"time":3,"distance":2504,"i_long":106.723064},{"is_transit":false,"i_long":106.737035,"station_id":"BOI","line":0,"transit":false,"station_name":"Bojongindah","i_lat":-6.159876,"distance":1152,"time":4},{"time":2,"station_name":"Taman Kota","station_id":"TKO","distance":2334,"is_transit":false,"transit":false,"i_long":106.756522,"line":5,"i_lat":-6.1587309999999995},{"time":2,"is_transit":false,"line":5,"station_id":"PSG","station_name":"Pesing","distance":1614,"i_lat":-6.161433,"transit":false,"i_long":106.771379},{"i_lat":-6.162021,"transit":false,"i_long":106.788277,"station_id":"GGL","station_name":"Grogol","time":2,"line":5,"is_transit":false,"distance":2036},{"i_long":106.800832,"station_name":"Duri","time":3,"is_transit":true,"line":1,"transit":true,"distance":1700,"station_id":"DU","i_lat":-6.155215},{"time":4,"i_lat":-6.144674,"station_name":"Angke","line":0,"distance":1230,"transit":false,"station_id":"AK","is_transit":false,"i_long":106.79867},{"time":9,"station_name":"Kampung Bandan","is_transit":true,"line":0,"i_long":106.826365,"distance":4102,"transit":false,"station_id":"KPB","i_lat":-6.132549},{"station_id":"JAKK","distance":1364,"station_name":"Jakarta Kota","transit":true,"i_long":106.812439,"line":0,"is_transit":true,"time":3,"i_lat":-6.137569},{"time":4,"distance":1264,"transit":false,"i_long":106.820901,"line":7,"station_id":"JAY","is_transit":false,"station_name":"Jayakarta","i_lat":-6.141205},{"station_name":"Manggabesar","transit":false,"line":2,"distance":1080,"i_long":106.82482,"i_lat":-6.149769,"is_transit":false,"station_id":"MGB","time":2},{"time":2,"station_id":"SW","station_name":"Sawah Besar","is_transit":false,"transit":false,"i_lat":-6.160725,"i_long":106.827103,"line":2,"distance":906},{"i_long":106.828284,"station_name":"Juanda","station_id":"JUA","is_transit":false,"i_lat":-6.166716,"distance":1149,"line":2,"time":2,"transit":false},{"i_long":106.832183,"is_transit":false,"station_id":"GDD","distance":2015,"station_name":"Gondangdia","line":2,"time":4,"transit":false,"i_lat":-6.186295},{"distance":1750,"station_id":"CKI","i_lat":-6.198556,"line":0,"time":3,"station_name":"Cikini","transit":false,"is_transit":false,"i_long":106.840169},{"transit":true,"time":4,"i_lat":-6.209883,"station_name":"Manggarai","is_transit":true,"i_long":106.84912,"line":0,"distance":1590,"station_id":"MRI"},{"line":1,"station_name":"Sudirman","station_id":"SUD","transit":false,"distance":3186,"time":4,"is_transit":false,"i_long":106.822649,"i_lat":-6.202263},{"time":1,"i_long":106.819881,"transit":false,"distance":280,"line":1,"is_transit":false,"station_id":"SUDB","station_name":"Sudirman Baru","i_lat":-6.201433}],[{"i_long":106.679458,"transit":false,"i_lat":-6.169933,"distance":0,"time":0,"line":5,"is_transit":false,"station_id":"PI","station_name":"Poris"},{"is_transit":false,"line":5,"i_long":106.701612,"distance":2548,"station_id":"KDS","time":3,"transit":false,"station_name":"Kalideres","i_lat":-6.166068},{"i_lat":-6.162758,"i_long":106.723064,"station_id":"RW","transit":false,"distance":2504,"time":3,"line":5,"is_transit":false,"station_name":"Rawa Buaya"},{"i_long":106.737035,"station_id":"BOI","station_name":"Bojongindah","time":4,"transit":false,"is_transit":false,"line":0,"i_lat":-6.159876,"distance":1152},{"i_lat":-6.1587309999999995,"time":2,"is_transit":false,"i_long":106.756522,"line":5,"station_id":"TKO","transit":false,"distance":2334,"station_name":"Taman Kota"},{"distance":1614,"i_lat":-6.161433,"time":2,"station_name":"Pesing","line":5,"is_transit":false,"station_id":"PSG","transit":false,"i_long":106.771379},{"station_name":"Grogol","distance":2036,"time":2,"line":5,"is_transit":false,"i_lat":-6.162021,"station_id":"GGL","i_long":106.788277,"transit":false},{"station_name":"Duri","station_id":"DU","time":3,"distance":1700,"line":1,"is_transit":true,"i_lat":-6.155215,"transit":true,"i_long":106.800832},{"i_long":106.79867,"line":0,"is_transit":false,"station_id":"AK","time":4,"station_name":"Angke","i_lat":-6.144674,"distance":1230,"transit":false},{"i_lat":-6.132549,"transit":true,"line":0,"distance":4102,"i_long":106.826365,"time":9,"station_name":"Kampung Bandan","is_transit":true,"station_id":"KPB"},{"line":11,"i_lat":-6.14505,"station_id":"RJW","time":3,"i_long":106.836569,"station_name":"Rajawali","is_transit":false,"distance":1444,"transit":false},{"i_long":106.839204,"i_lat":-6.161728,"distance":1901,"station_name":"Kemayoran","station_id":"KMO","line":11,"time":5,"transit":false,"is_transit":false},{"transit":false,"station_id":"PSE","is_transit":false,"i_long":106.84368,"distance":1436,"line":11,"time":4,"station_name":"Pasar Senen","i_lat":-6.174784},{"transit":false,"station_name":"Gang Sentiong","i_lat":-6.185975,"distance":1567,"time":8,"line":11,"station_id":"GST","is_transit":false,"i_long":106.850107},{"time":1,"transit":false,"is_transit":false,"station_name":"Kramat","i_lat":-6.193792,"i_long":106.855437,"station_id":"KMT","line":11,"distance":973},{"station_id":"POK","distance":1829,"is_transit":false,"transit":false,"i_lat":-6.209188,"i_long":106.861737,"time":2,"station_name":"Pondok Jati","line":11},{"transit":true,"distance":1236,"line":0,"station_name":"Jatinegara","station_id":"JNG","i_lat":-6.215091,"i_long":106.86807400000001,"time":9,"is_transit":true},{"is_transit":false,"line":1,"distance":1377,"station_name":"Matraman","i_long":106.858896,"time":2,"i_lat":-6.212485,"station_id":"MTR","transit":false},{"is_transit":true,"line":0,"distance":1275,"transit":false,"station_id":"MRI","time":2,"station_name":"Manggarai","i_lat":-6.209883,"i_long":106.84912},{"transit":false,"station_id":"SUD","is_transit":false,"i_long":106.822649,"station_name":"Sudirman","i_lat":-6.202263,"line":1,"time":4,"distance":3186},{"is_transit":false,"time":1,"station_name":"Sudirman Baru","line":1,"transit":false,"station_id":"SUDB","i_lat":-6.201433,"i_long":106.819881,"distance":280}]]}