{"data":[[{"distance":0,"line":5,"time":0,"i_lat":-6.169933,"transit":false,"i_long":106.679458,"station_id":"PI","station_name":"Poris","is_transit":false},{"i_long":106.701612,"time":3,"station_name":"Kalideres","transit":false,"distance":2548,"is_transit":false,"station_id":"KDS","i_lat":-6.166068,"line":5},{"distance":2504,"station_name":"Rawa Buaya","i_lat":-6.162758,"line":5,"transit":false,"i_long":106.723064,"time":3,"station_id":"RW","is_transit":false},{"i_long":106.737035,"station_name":"Bojongindah","transit":false,"is_transit":false,"station_id":"BOI","time":4,"distance":1152,"i_lat":-6.159876,"line":5},{"station_name":"Taman Kota","transit":false,"station_id":"TKO","i_lat":-6.1587309999999995,"line":5,"distance":2334,"time":2,"i_long":106.756522,"is_transit":false},{"time":2,"station_id":"PSG","is_transit":false,"distance":1614,"transit":false,"i_long":106.771379,"i_lat":-6.161433,"line":5,"station_name":"Pesing"},{"i_long":106.788277,"station_id":"GRG","distance":2036,"station_name":"Grogol","i_lat":-6.162021,"time":2,"is_transit":false,"line":5,"transit":false},{"is_transit":true,"station_id":"DU","i_lat":-6.155215,"station_name":"Duri","line":1,"i_long":106.800832,"time":3,"distance":1700,"transit":true},{"station_id":"THB","distance":3632,"i_lat":-6.185545,"i_long":106.811091,"line":1,"is_transit":false,"transit":false,"station_name":"Tanah Abang","time":8},{"transit":false,"i_long":106.816351,"station_id":"KAT","time":5,"is_transit":false,"i_lat":-6.20132,"line":1,"distance":2029,"station_name":"Karet"},{"time":1,"station_name":"Sudirman Baru","i_long":106.819881,"station_id":"SUDB","distance":471,"is_transit":false,"transit":false,"i_lat":-6.201433,"line":1}],[{"station_id":"PI","distance":0,"time":0,"transit":false,"i_long":106.679458,"station_name":"Poris","is_transit":false,"i_lat":-6.169933,"line":5},{"distance":2548,"time":3,"line":5,"transit":false,"station_name":"Kalideres","is_transit":false,"station_id":"KDS","i_lat":-6.166068,"i_long":106.701612},{"i_lat":-6.162758,"i_long":106.723064,"transit":false,"time":3,"line":5,"distance":2504,"is_transit":false,"station_id":"RW","station_name":"Rawa Buaya"},{"i_lat":-6.159876,"station_name":"Bojongindah","transit":false,"is_transit":false,"time":4,"distance":1152,"i_long":106.737035,"line":5,"station_id":"BOI"},{"i_lat":-6.1587309999999995,"transit":false,"line":5,"station_id":"TKO","distance":2334,"station_name":"Taman Kota","is_transit":false,"time":2,"i_long":106.756522},{"i_long":106.771379,"distance":1614,"station_id":"PSG","i_lat":-6.161433,"line":5,"station_name":"Pesing","transit":false,"is_transit":false,"time":2},{"station_name":"Grogol","line":5,"station_id":"GRG","i_lat":-6.162021,"distance":2036,"transit":false,"time":2,"is_transit":false,"i_long":106.788277},{"station_id":"DU","i_lat":-6.155215,"transit":true,"i_long":106.800832,"line":1,"distance":1700,"station_name":"Duri","time":3,"is_transit":true},{"line":1,"transit":false,"distance":1230,"time":4,"station_name":"Angke","i_lat":-6.144674,"station_id":"AK","is_transit":false,"i_long":106.79867},{"station_name":"Kampung Bandan","line":4,"is_transit":true,"transit":true,"i_lat":-6.132549,"i_long":106.826365,"station_id":"KPB","time":9,"distance":4102},{"transit":true,"station_name":"Jakarta Kota","is_transit":true,"line":2,"station_id":"JAKK","i_long":106.812439,"time":3,"distance":1364,"i_lat":-6.137569},{"i_lat":-6.141205,"transit":false,"distance":1264,"i_long":106.820901,"time":4,"station_id":"JAY","is_transit":false,"line":2,"station_name":"Jayakarta"},{"station_id":"MGB","time":2,"transit":false,"station_name":"Manggabesar","is_transit":false,"i_lat":-6.149769,"i_long":106.82482,"line":2,"distance":1080},{"time":2,"is_transit":false,"station_name":"Sawah Besar","station_id":"SW","distance":906,"i_lat":-6.160725,"line":2,"i_long":106.827103,"transit":false},{"time":2,"is_transit":false,"transit":false,"i_long":106.828284,"station_id":"JUA","distance":1149,"i_lat":-6.166716,"station_name":"Juanda","line":2},{"time":4,"is_transit":false,"station_id":"GDD","transit":false,"line":2,"distance":2015,"station_name":"Gondangdia","i_long":106.832183,"i_lat":-6.186295},{"station_name":"Cikini","is_transit":false,"i_long":106.840169,"time":3,"transit":false,"i_lat":-6.198556,"distance":1750,"line":2,"station_id":"CKI"},{"i_lat":-6.209883,"line":2,"station_id":"MRI","is_transit":true,"time":4,"i_long":106.84912,"transit":true,"station_name":"Manggarai","distance":1590},{"i_long":106.822649,"station_id":"SUD","time":4,"is_transit":false,"line":1,"transit":false,"distance":3186,"station_name":"Sudirman","i_lat":-6.202263},{"time":1,"is_transit":false,"station_name":"Sudirman Baru","line":1,"distance":280,"i_lat":-6.201433,"i_long":106.819881,"transit":false,"station_id":"SUDB"}],[{"distance":0,"transit":false,"is_transit":false,"time":0,"station_id":"PI","station_name":"Poris","line":5,"i_lat":-6.169933,"i_long":106.679458},{"transit":false,"time":3,"distance":2548,"i_lat":-6.166068,"is_transit":false,"i_long":106.701612,"station_id":"KDS","line":5,"station_name":"Kalideres"},{"is_transit":false,"line":5,"i_long":106.723064,"station_id":"RW","station_name":"Rawa Buaya","distance":2504,"i_lat":-6.162758,"transit":false,"time":3},{"time":4,"is_transit":false,"station_name":"Bojongindah","line":5,"distance":1152,"station_id":"BOI","transit":false,"i_lat":-6.159876,"i_long":106.737035},{"line":5,"transit":false,"i_lat":-6.1587309999999995,"station_name":"Taman Kota","is_transit":false,"distance":2334,"station_id":"TKO","i_long":106.756522,"time":2},{"station_id":"PSG","is_transit":false,"transit":false,"i_long":106.771379,"distance":1614,"line":5,"station_name":"Pesing","time":2,"i_lat":-6.161433},{"i_long":106.788277,"is_transit":false,"distance":2036,"i_lat":-6.162021,"line":5,"transit":false,"time":2,"station_id":"GRG","station_name":"Grogol"},{"distance":1700,"station_name":"Duri","time":3,"i_long":106.800832,"line":1,"station_id":"DU","i_lat":-6.155215,"is_transit":true,"transit":true},{"time":4,"i_lat":-6.144674,"station_name":"Angke","line":1,"is_transit":false,"i_long":106.79867,"station_id":"AK","distance":1230,"transit":false},{"station_name":"Kampung Bandan","time":9,"station_id":"KPB","transit":true,"distance":4102,"is_transit":true,"i_lat":-6.132549,"i_long":106.826365,"line":4},{"i_lat":-6.14505,"station_name":"Rajawali","time":3,"station_id":"RJW","i_long":106.836569,"distance":1444,"transit":false,"is_transit":false,"line":11},{"transit":false,"station_name":"Kemayoran","time":5,"is_transit":false,"i_long":106.839204,"i_lat":-6.161728,"line":11,"distance":1901,"station_id":"KMO"},{"transit":false,"i_long":106.84368,"station_id":"PSE","is_transit":false,"station_name":"Pasar Senen","distance":1436,"time":4,"line":11,"i_lat":-6.174784},{"distance":1567,"is_transit":false,"i_lat":-6.185975,"time":8,"i_long":106.850107,"station_id":"GST","station_name":"Gang Sentiong","transit":false,"line":11},{"station_name":"Kramat","i_long":106.855437,"distance":973,"transit":false,"i_lat":-6.193792,"time":1,"line":11,"station_id":"KMT","is_transit":false},{"line":11,"distance":1829,"i_lat":-6.209188,"i_long":106.861737,"station_id":"POK","station_name":"Pondok Jati","is_transit":false,"transit":false,"time":2},{"is_transit":true,"i_lat":-6.215091,"line":1,"i_long":106.86807400000001,"station_name":"Jatinegara","station_id":"JNG","distance":1236,"time":9,"transit":true},{"time":2,"distance":1377,"i_long":106.858896,"line":1,"station_id":"MTR","transit":false,"i_lat":-6.212485,"is_transit":false,"station_name":"Matraman"},{"transit":false,"is_transit":false,"station_id":"MRI","i_lat":-6.209883,"line":2,"station_name":"Manggarai","i_long":106.84912,"distance":1275,"time":2},{"station_name":"Sudirman","is_transit":false,"transit":false,"distance":3186,"station_id":"SUD","i_long":106.822649,"time":4,"i_lat":-6.202263,"line":1},{"distance":280,"station_name":"Sudirman Baru","i_lat":-6.201433,"line":1,"i_long":106.819881,"station_id":"SUDB","time":1,"transit":false,"is_transit":false}]]}