{"data":[[{"is_transit":false,"time":0,"i_lat":-6.169933,"distance":0,"station_name":"Poris","transit":false,"i_long":106.679458,"line":5,"station_id":"PI"},{"station_id":"KDS","i_long":106.701612,"i_lat":-6.166068,"line":5,"is_transit":false,"station_name":"Kalideres","distance":2548,"time":3,"transit":false},{"is_transit":false,"station_id":"RW","i_long":106.723064,"line":5,"station_name":"Rawa Buaya","time":3,"distance":2504,"transit":false,"i_lat":-6.162758},{"station_id":"BOI","is_transit":false,"line":5,"time":4,"i_lat":-6.159876,"distance":1152,"station_name":"Bojongindah","transit":false,"i_long":106.737035},{"is_transit":false,"distance":2334,"i_long":106.756522,"station_name":"Taman Kota","time":2,"transit":false,"line":5,"station_id":"TKO","i_lat":-6.1587309999999995},{"station_name":"Pesing","is_transit":false,"station_id":"PSG","time":2,"i_long":106.771379,"distance":1614,"line":5,"transit":false,"i_lat":-6.161433},{"is_transit":false,"station_name":"Grogol","distance":2036,"transit":false,"i_long":106.788277,"line":5,"i_lat":-6.162021,"station_id":"GGL","time":2},{"station_name":"Duri","transit":true,"is_transit":true,"distance":1700,"station_id":"DU","i_lat":-6.155215,"time":3,"i_long":106.800832,"line":1},{"i_lat":-6.185545,"station_name":"Tanah Abang","is_transit":false,"distance":3632,"i_long":106.811091,"line":1,"time":8,"station_id":"THB","transit":false}],[{"station_id":"PI","is_transit":false,"distance":0,"transit":false,"i_lat":-6.169933,"station_name":"Poris","time":0,"i_long":106.679458,"line":5},{"i_long":106.701612,"distance":2548,"line":5,"station_name":"Kalideres","time":3,"station_id":"KDS","is_transit":false,"transit":false,"i_lat":-6.166068},{"transit":false,"station_name":"Rawa Buaya","distance":2504,"is_transit":false,"station_id":"RW","time":3,"line":5,"i_lat":-6.162758,"i_long":106.723064},{"is_transit":false,"distance":1152,"transit":false,"i_lat":-6.159876,"line":5,"i_long":106.737035,"station_name":"Bojongindah","time":4,"station_id":"BOI"},{"i_lat":-6.1587309999999995,"station_id":"TKO","line":5,"is_transit":false,"distance":2334,"time":2,"transit":false,"station_name":"Taman Kota","i_long":106.756522},{"distance":1614,"is_transit":false,"transit":false,"i_lat":-6.161433,"line":5,"i_long":106.771379,"station_id":"PSG","station_name":"Pesing","time":2},{"station_id":"GGL","transit":false,"i_long":106.788277,"line":5,"time":2,"i_lat":-6.162021,"distance":2036,"station_name":"Grogol","is_transit":false},{"station_name":"Duri","station_id":"DU","distance":1700,"i_lat":-6.155215,"time":3,"transit":true,"i_long":106.800832,"line":1,"is_transit":true},{"i_lat":-6.144674,"distance":1230,"station_id":"AK","line":1,"transit":false,"station_name":"Angke","i_long":106.79867,"is_transit":false,"time":4},{"line":4,"transit":true,"station_id":"KPB","distance":4102,"i_lat":-6.132549,"station_name":"Kampung Bandan","i_long":106.826365,"is_transit":true,"time":9},{"i_long":106.812439,"station_id":"JAKK","is_transit":true,"time":3,"station_name":"Jakarta Kota","distance":1364,"transit":true,"line":2,"i_lat":-6.137569},{"time":4,"station_name":"Jayakarta","is_transit":false,"station_id":"JAY","transit":false,"distance":1264,"i_lat":-6.141205,"line":2,"i_long":106.820901},{"is_transit":false,"transit":false,"i_lat":-6.149769,"station_id":"MGB","distance":1080,"line":2,"time":2,"station_name":"Manggabesar","i_long":106.82482},{"station_name":"Sawah Besar","transit":false,"i_long":106.827103,"station_id":"SW","time":2,"i_lat":-6.160725,"line":2,"distance":906,"is_transit":false},{"i_lat":-6.166716,"station_id":"JUA","transit":false,"line":2,"station_name":"Juanda","is_transit":false,"time":2,"i_long":106.828284,"distance":1149},{"i_lat":-6.186295,"station_id":"GDD","distance":2015,"transit":false,"is_transit":false,"station_name":"Gondangdia","line":2,"time":4,"i_long":106.832183},{"is_transit":false,"line":2,"station_id":"CKI","station_name":"Cikini","time":3,"transit":false,"i_lat":-6.198556,"i_long":106.840169,"distance":1750},{"transit":true,"station_name":"Manggarai","distance":1590,"is_transit":true,"line":2,"station_id":"MRI","time":4,"i_lat":-6.209883,"i_long":106.84912},{"distance":3186,"transit":false,"i_lat":-6.202263,"time":4,"i_long":106.822649,"line":1,"station_id":"SUD","is_transit":false,"station_name":"Sudirman"},{"i_long":106.819881,"distance":280,"station_id":"SUDB","time":1,"is_transit":false,"station_name":"Sudirman Baru","transit":false,"i_lat":-6.201433,"line":1},{"station_id":"KAT","is_transit":false,"i_long":106.816351,"transit":false,"i_lat":-6.20132,"line":1,"distance":471,"station_name":"Karet","time":1},{"station_name":"Tanah Abang","time":5,"station_id":"THB","line":1,"distance":2029,"i_lat":-6.185545,"is_transit":false,"transit":false,"i_long":106.811091}],[{"transit":false,"time":0,"i_lat":-6.169933,"i_long":106.679458,"line":5,"station_id":"PI","station_name":"Poris","is_transit":false,"distance":0},{"is_transit":false,"transit":false,"i_lat":-6.166068,"station_name":"Kalideres","line":5,"time":3,"distance":2548,"station_id":"KDS","i_long":106.701612},{"i_lat":-6.162758,"line":5,"distance":2504,"i_long":106.723064,"time":3,"station_id":"RW","station_name":"Rawa Buaya","is_transit":false,"transit":false},{"i_long":106.737035,"transit":false,"is_transit":false,"time":4,"i_lat":-6.159876,"station_name":"Bojongindah","station_id":"BOI","distance":1152,"line":5},{"station_id":"TKO","is_transit":false,"time":2,"i_long":106.756522,"transit":false,"distance":2334,"i_lat":-6.1587309999999995,"station_name":"Taman Kota","line":5},{"is_transit":false,"station_id":"PSG","i_lat":-6.161433,"line":5,"station_name":"Pesing","distance":1614,"time":2,"transit":false,"i_long":106.771379},{"time":2,"is_transit":false,"i_lat":-6.162021,"i_long":106.788277,"line":5,"transit":false,"station_name":"Grogol","station_id":"GGL","distance":2036},{"i_long":106.800832,"i_lat":-6.155215,"time":3,"transit":true,"station_id":"DU","station_name":"Duri","is_transit":true,"distance":1700,"line":1},{"i_lat":-6.144674,"is_transit":false,"transit":false,"station_id":"AK","line":1,"distance":1230,"station_name":"Angke","time":4,"i_long":106.79867},{"i_lat":-6.132549,"time":9,"station_id":"KPB","is_transit":true,"distance":4102,"station_name":"Kampung Bandan","transit":true,"i_long":106.826365,"line":4},{"station_id":"RJW","i_lat":-6.14505,"distance":1444,"i_long":106.836569,"time":3,"is_transit":false,"transit":false,"station_name":"Rajawali","line":11},{"station_name":"Kemayoran","distance":1901,"i_long":106.839204,"line":11,"station_id":"KMO","is_transit":false,"time":5,"i_lat":-6.161728,"transit":false},{"line":11,"transit":false,"station_id":"PSE","i_lat":-6.174784,"time":4,"i_long":106.84368,"distance":1436,"is_transit":false,"station_name":"Pasar Senen"},{"line":11,"transit":false,"i_lat":-6.185975,"i_long":106.850107,"is_transit":false,"distance":1567,"station_name":"Gang Sentiong","time":8,"station_id":"GST"},{"line":11,"time":1,"is_transit":false,"distance":973,"station_id":"KMT","i_long":106.855437,"station_name":"Kramat","transit":false,"i_lat":-6.193792},{"i_long":106.861737,"is_transit":false,"transit":false,"station_name":"Pondok Jati","station_id":"POK","distance":1829,"line":11,"i_lat":-6.209188,"time":2},{"transit":true,"i_lat":-6.215091,"station_name":"Jatinegara","line":1,"time":9,"is_transit":true,"i_long":106.86807400000001,"station_id":"JNG","distance":1236},{"station_id":"MTR","station_name":"Matraman","transit":false,"line":1,"is_transit":false,"i_lat":-6.212485,"i_long":106.858896,"distance":1377,"time":2},{"i_lat":-6.209883,"i_long":106.84912,"distance":1275,"station_name":"Manggarai","line":2,"is_transit":false,"time":2,"transit":false,"station_id":"MRI"},{"time":4,"distance":3186,"station_id":"SUD","line":1,"station_name":"Sudirman","transit":false,"is_transit":false,"i_lat":-6.202263,"i_long":106.822649},{"station_id":"SUDB","i_long":106.819881,"transit":false,"is_transit":false,"distance":280,"i_lat":-6.201433,"line":1,"time":1,"station_name":"Sudirman Baru"},{"station_id":"KAT","station_name":"Karet","time":1,"is_transit":false,"i_long":106.816351,"line":1,"distance":471,"transit":false,"i_lat":-6.20132},{"station_name":"Tanah Abang","station_id":"THB","transit":false,"i_lat":-6.185545,"i_long":106.811091,"line":1,"is_transit":false,"time":5,"distance":2029}]]}