{"data":[[{"is_transit":false,"station_name":"Poris","line":5,"transit":false,"station_id":"PI","time":0,"distance":0,"i_long":106.679458,"i_lat":-6.169933},{"station_name":"Kalideres","station_id":"KDS","transit":false,"is_transit":false,"distance":2548,"time":3,"i_lat":-6.166068,"i_long":106.701612,"line":5},{"distance":2504,"is_transit":false,"station_id":"RW","station_name":"Rawa Buaya","line":5,"transit":false,"i_lat":-6.162758,"time":3,"i_long":106.723064},{"station_name":"Bojongindah","time":4,"i_long":106.737035,"station_id":"BOI","i_lat":-6.159876,"line":5,"is_transit":false,"distance":1152,"transit":false},{"transit":false,"is_transit":false,"station_name":"Taman Kota","i_lat":-6.1587309999999995,"line":5,"i_long":106.756522,"station_id":"TKO","time":2,"distance":2334},{"station_id":"PSG","i_long":106.771379,"transit":false,"is_transit":false,"distance":1614,"line":5,"station_name":"Pesing","time":2,"i_lat":-6.161433},{"time":2,"station_id":"GGL","is_transit":false,"station_name":"Grogol","transit":false,"i_long":106.788277,"i_lat":-6.162021,"distance":2036,"line":5},{"transit":true,"distance":1700,"time":3,"i_lat":-6.155215,"station_id":"DU","station_name":"Duri","i_long":106.800832,"line":1,"is_transit":true},{"distance":3632,"line":1,"transit":false,"station_id":"THB","station_name":"Tanah Abang","is_transit":false,"i_lat":-6.185545,"i_long":106.811091,"time":8},{"i_long":106.816351,"transit":false,"station_name":"Karet","time":5,"distance":2029,"is_transit":false,"station_id":"KAT","line":1,"i_lat":-6.20132},{"station_name":"Sudirman Baru","is_transit":false,"distance":471,"line":1,"station_id":"SUDB","i_lat":-6.201433,"transit":false,"time":1,"i_long":106.819881},{"line":1,"transit":false,"time":1,"distance":280,"station_name":"Sudirman","i_lat":-6.202263,"station_id":"SUD","i_long":106.822649,"is_transit":false},{"station_name":"Manggarai","time":4,"is_transit":true,"i_lat":-6.209883,"line":2,"distance":3186,"transit":true,"station_id":"MRI","i_long":106.84912},{"station_name":"Tebet","distance":2610,"line":2,"i_lat":-6.226659,"time":4,"transit":false,"is_transit":false,"station_id":"TEB","i_long":106.857948},{"distance":1230,"station_id":"CW","station_name":"Cawang","is_transit":false,"transit":false,"i_lat":-6.242512,"line":2,"i_long":106.856607,"time":2},{"distance":1546,"is_transit":false,"time":3,"line":2,"station_name":"Duren Kalibata","transit":false,"station_id":"DRN","i_lat":-6.255332,"i_long":106.85449},{"time":2,"station_name":"Pasar Minggu Baru","i_lat":-6.263214,"distance":824,"is_transit":false,"transit":false,"station_id":"PSMB","i_long":106.851577,"line":2},{"i_lat":-6.2842400000000005,"line":2,"time":2,"transit":false,"is_transit":false,"i_long":106.843999,"station_name":"Pasar Minggu","station_id":"PSM","distance":2380},{"station_id":"TNT","i_long":106.838896,"is_transit":false,"time":4,"line":2,"station_name":"Tanjung Barat","transit":false,"distance":2820,"i_lat":-6.3080680000000005}],[{"distance":0,"station_name":"Poris","i_long":106.679458,"time":0,"transit":false,"i_lat":-6.169933,"is_transit":false,"line":5,"station_id":"PI"},{"transit":false,"is_transit":false,"station_id":"KDS","station_name":"Kalideres","i_lat":-6.166068,"line":5,"distance":2548,"time":3,"i_long":106.701612},{"i_long":106.723064,"line":5,"station_id":"RW","transit":false,"is_transit":false,"distance":2504,"station_name":"Rawa Buaya","time":3,"i_lat":-6.162758},{"is_transit":false,"transit":false,"line":5,"station_name":"Bojongindah","station_id":"BOI","time":4,"distance":1152,"i_lat":-6.159876,"i_long":106.737035},{"station_id":"TKO","i_long":106.756522,"distance":2334,"station_name":"Taman Kota","transit":false,"time":2,"line":5,"i_lat":-6.1587309999999995,"is_transit":false},{"distance":1614,"station_id":"PSG","transit":false,"i_long":106.771379,"line":5,"time":2,"is_transit":false,"station_name":"Pesing","i_lat":-6.161433},{"distance":2036,"i_lat":-6.162021,"station_id":"GGL","time":2,"line":5,"station_name":"Grogol","i_long":106.788277,"transit":false,"is_transit":false},{"is_transit":true,"station_id":"DU","i_long":106.800832,"station_name":"Duri","transit":true,"time":3,"i_lat":-6.155215,"distance":1700,"line":1},{"transit":false,"i_lat":-6.144674,"station_name":"Angke","time":4,"is_transit":false,"distance":1230,"i_long":106.79867,"line":1,"station_id":"AK"},{"i_lat":-6.132549,"i_long":106.826365,"transit":true,"station_name":"Kampung Bandan","is_transit":true,"station_id":"KPB","time":9,"distance":4102,"line":4},{"station_name":"Jakarta Kota","transit":true,"station_id":"JAKK","distance":1364,"i_long":106.812439,"line":2,"time":3,"is_transit":true,"i_lat":-6.137569},{"station_id":"JAY","time":4,"distance":1264,"i_lat":-6.141205,"line":2,"i_long":106.820901,"station_name":"Jayakarta","transit":false,"is_transit":false},{"station_name":"Manggabesar","i_long":106.82482,"transit":false,"station_id":"MGB","distance":1080,"time":2,"i_lat":-6.149769,"line":2,"is_transit":false},{"i_long":106.827103,"transit":false,"i_lat":-6.160725,"line":2,"distance":906,"is_transit":false,"station_id":"SW","time":2,"station_name":"Sawah Besar"},{"distance":1149,"line":2,"station_id":"JUA","station_name":"Juanda","i_lat":-6.166716,"is_transit":false,"transit":false,"time":2,"i_long":106.828284},{"time":4,"station_name":"Gondangdia","line":2,"station_id":"GDD","transit":false,"distance":2015,"i_lat":-6.186295,"i_long":106.832183,"is_transit":false},{"time":3,"i_long":106.840169,"line":2,"station_id":"CKI","station_name":"Cikini","transit":false,"distance":1750,"i_lat":-6.198556,"is_transit":false},{"i_lat":-6.209883,"is_transit":false,"i_long":106.84912,"time":4,"transit":false,"line":2,"station_name":"Manggarai","distance":1590,"station_id":"MRI"},{"i_long":106.857948,"time":4,"station_id":"TEB","is_transit":false,"distance":2610,"station_name":"Tebet","line":2,"transit":false,"i_lat":-6.226659},{"i_long":106.856607,"is_transit":false,"station_name":"Cawang","distance":1230,"line":2,"transit":false,"i_lat":-6.242512,"station_id":"CW","time":2},{"distance":1546,"line":2,"i_long":106.85449,"station_name":"Duren Kalibata","transit":false,"i_lat":-6.255332,"is_transit":false,"time":3,"station_id":"DRN"},{"is_transit":false,"i_lat":-6.263214,"i_long":106.851577,"line":2,"distance":824,"transit":false,"station_id":"PSMB","station_name":"Pasar Minggu Baru","time":2},{"distance":2380,"line":2,"i_lat":-6.2842400000000005,"station_id":"PSM","is_transit":false,"i_long":106.843999,"transit":false,"station_name":"Pasar Minggu","time":2},{"i_lat":-6.3080680000000005,"time":4,"station_id":"TNT","distance":2820,"i_long":106.838896,"line":2,"transit":false,"station_name":"Tanjung Barat","is_transit":false}],[{"station_name":"Poris","station_id":"PI","distance":0,"i_lat":-6.169933,"i_long":106.679458,"is_transit":false,"time":0,"transit":false,"line":5},{"i_long":106.701612,"distance":2548,"i_lat":-6.166068,"line":5,"station_name":"Kalideres","transit":false,"station_id":"KDS","time":3,"is_transit":false},{"transit":false,"time":3,"distance":2504,"station_name":"Rawa Buaya","is_transit":false,"i_lat":-6.162758,"i_long":106.723064,"station_id":"RW","line":5},{"transit":false,"station_name":"Bojongindah","time":4,"line":5,"is_transit":false,"i_long":106.737035,"station_id":"BOI","distance":1152,"i_lat":-6.159876},{"i_long":106.756522,"line":5,"is_transit":false,"distance":2334,"transit":false,"time":2,"station_id":"TKO","i_lat":-6.1587309999999995,"station_name":"Taman Kota"},{"line":5,"is_transit":false,"i_lat":-6.161433,"transit":false,"distance":1614,"i_long":106.771379,"station_id":"PSG","station_name":"Pesing","time":2},{"i_lat":-6.162021,"line":5,"transit":false,"is_transit":false,"station_name":"Grogol","distance":2036,"station_id":"GGL","i_long":106.788277,"time":2},{"station_name":"Duri","transit":true,"i_long":106.800832,"station_id":"DU","time":3,"distance":1700,"i_lat":-6.155215,"line":1,"is_transit":true},{"i_long":106.79867,"station_name":"Angke","line":1,"station_id":"AK","is_transit":false,"distance":1230,"transit":false,"time":4,"i_lat":-6.144674},{"distance":4102,"line":4,"i_long":106.826365,"transit":true,"station_name":"Kampung Bandan","is_transit":true,"i_lat":-6.132549,"station_id":"KPB","time":9},{"transit":false,"station_name":"Rajawali","station_id":"RJW","i_lat":-6.14505,"i_long":106.836569,"time":3,"line":11,"is_transit":false,"distance":1444},{"is_transit":false,"time":5,"distance":1901,"station_id":"KMO","transit":false,"i_long":106.839204,"line":11,"station_name":"Kemayoran","i_lat":-6.161728},{"i_lat":-6.174784,"distance":1436,"line":11,"is_transit":false,"time":4,"transit":false,"i_long":106.84368,"station_id":"PSE","station_name":"Pasar Senen"},{"is_transit":false,"station_name":"Gang Sentiong","distance":1567,"transit":false,"i_lat":-6.185975,"station_id":"GST","line":11,"i_long":106.850107,"time":8},{"i_long":106.855437,"station_name":"Kramat","transit":false,"time":1,"distance":973,"is_transit":false,"station_id":"KMT","line":11,"i_lat":-6.193792},{"station_id":"POK","time":2,"i_lat":-6.209188,"distance":1829,"transit":false,"station_name":"Pondok Jati","is_transit":false,"line":11,"i_long":106.861737},{"distance":1236,"transit":true,"i_long":106.86807400000001,"station_id":"JNG","line":1,"station_name":"Jatinegara","is_transit":true,"time":9,"i_lat":-6.215091},{"distance":1377,"i_long":106.858896,"transit":false,"station_id":"MTR","time":2,"i_lat":-6.212485,"line":1,"is_transit":false,"station_name":"Matraman"},{"transit":true,"is_transit":true,"station_id":"MRI","line":2,"i_long":106.84912,"distance":1275,"time":2,"station_name":"Manggarai","i_lat":-6.209883},{"line":2,"station_id":"TEB","is_transit":false,"transit":false,"distance":2610,"time":4,"station_name":"Tebet","i_lat":-6.226659,"i_long":106.857948},{"time":2,"transit":false,"is_transit":false,"i_lat":-6.242512,"i_long":106.856607,"distance":1230,"station_name":"Cawang","station_id":"CW","line":2},{"distance":1546,"line":2,"station_name":"Duren Kalibata","time":3,"is_transit":false,"transit":false,"station_id":"DRN","i_lat":-6.255332,"i_long":106.85449},{"time":2,"is_transit":false,"i_long":106.851577,"i_lat":-6.263214,"line":2,"station_id":"PSMB","station_name":"Pasar Minggu Baru","distance":824,"transit":false},{"transit":false,"i_lat":-6.2842400000000005,"i_long":106.843999,"distance":2380,"station_name":"Pasar Minggu","is_transit":false,"station_id":"PSM","time":2,"line":2},{"station_name":"Tanjung Barat","i_long":106.838896,"transit":false,"distance":2820,"time":4,"line":2,"i_lat":-6.3080680000000005,"is_transit":false,"station_id":"TNT"}]]}