{"data":[[{"station_id":"PI","distance":0,"is_transit":false,"time":0,"transit":false,"station_name":"Poris","line":5,"i_long":106.679458,"i_lat":-6.169933},{"station_name":"Kalideres","is_transit":false,"time":3,"i_lat":-6.166068,"distance":2548,"line":5,"transit":false,"station_id":"KDS","i_long":106.701612},{"distance":2504,"station_id":"RW","transit":false,"time":3,"i_long":106.723064,"station_name":"Rawa Buaya","i_lat":-6.162758,"line":5,"is_transit":false},{"i_long":106.737035,"line":5,"transit":false,"is_transit":false,"station_name":"Bojongindah","time":4,"distance":1152,"i_lat":-6.159876,"station_id":"BOI"},{"i_lat":-6.1587309999999995,"distance":2334,"i_long":106.756522,"transit":false,"station_id":"TKO","line":5,"station_name":"Taman Kota","is_transit":false,"time":2},{"is_transit":false,"time":2,"transit":false,"i_lat":-6.161433,"i_long":106.771379,"station_name":"Pesing","line":5,"distance":1614,"station_id":"PSG"},{"station_id":"GGL","distance":2036,"station_name":"Grogol","is_transit":false,"i_long":106.788277,"line":5,"i_lat":-6.162021,"time":2,"transit":false},{"i_long":106.800832,"line":1,"time":3,"i_lat":-6.155215,"station_name":"Duri","distance":1700,"transit":true,"station_id":"DU","is_transit":true},{"line":1,"transit":false,"station_id":"AK","station_name":"Angke","is_transit":false,"time":4,"i_lat":-6.144674,"distance":1230,"i_long":106.79867},{"transit":true,"station_id":"KPB","station_name":"Kampung Bandan","distance":4102,"time":9,"i_long":106.826365,"line":4,"is_transit":true,"i_lat":-6.132549},{"line":4,"distance":2185,"station_id":"AC","is_transit":false,"station_name":"Ancol","time":4,"transit":false,"i_long":106.84464,"i_lat":-6.128023},{"line":4,"transit":false,"i_lat":-6.1109480000000005,"station_name":"Tanjung Priuk","distance":4566,"station_id":"TPK","is_transit":false,"i_long":106.880089,"time":9}],[{"i_long":106.679458,"line":5,"is_transit":false,"station_name":"Poris","i_lat":-6.169933,"transit":false,"time":0,"distance":0,"station_id":"PI"},{"is_transit":false,"i_lat":-6.166068,"transit":false,"line":5,"distance":2548,"station_id":"KDS","station_name":"Kalideres","i_long":106.701612,"time":3},{"i_lat":-6.162758,"line":5,"distance":2504,"i_long":106.723064,"station_name":"Rawa Buaya","station_id":"RW","time":3,"is_transit":false,"transit":false},{"i_lat":-6.159876,"is_transit":false,"distance":1152,"line":5,"station_name":"Bojongindah","time":4,"station_id":"BOI","i_long":106.737035,"transit":false},{"time":2,"station_name":"Taman Kota","line":5,"i_lat":-6.1587309999999995,"distance":2334,"transit":false,"is_transit":false,"i_long":106.756522,"station_id":"TKO"},{"is_transit":false,"station_id":"PSG","distance":1614,"i_lat":-6.161433,"station_name":"Pesing","time":2,"i_long":106.771379,"line":5,"transit":false},{"station_id":"GGL","i_lat":-6.162021,"i_long":106.788277,"distance":2036,"is_transit":false,"time":2,"line":5,"station_name":"Grogol","transit":false},{"station_name":"Duri","is_transit":true,"time":3,"line":1,"transit":true,"station_id":"DU","i_lat":-6.155215,"distance":1700,"i_long":106.800832},{"i_long":106.811091,"station_name":"Tanah Abang","distance":3632,"line":1,"transit":false,"station_id":"THB","time":8,"is_transit":false,"i_lat":-6.185545},{"distance":2029,"transit":false,"is_transit":false,"i_long":106.816351,"time":5,"station_id":"KAT","station_name":"Karet","i_lat":-6.20132,"line":1},{"is_transit":false,"time":1,"line":1,"i_lat":-6.201433,"station_id":"SUDB","i_long":106.819881,"transit":false,"station_name":"Sudirman Baru","distance":471},{"station_name":"Sudirman","distance":280,"station_id":"SUD","i_lat":-6.202263,"line":1,"time":1,"is_transit":false,"transit":false,"i_long":106.822649},{"i_lat":-6.209883,"station_id":"MRI","line":2,"station_name":"Manggarai","transit":true,"is_transit":true,"time":4,"distance":3186,"i_long":106.84912},{"station_name":"Cikini","station_id":"CKI","time":4,"is_transit":false,"transit":false,"i_lat":-6.198556,"i_long":106.840169,"distance":1590,"line":2},{"time":3,"station_id":"GDD","i_long":106.832183,"station_name":"Gondangdia","transit":false,"is_transit":false,"i_lat":-6.186295,"distance":1750,"line":2},{"i_lat":-6.166716,"station_name":"Juanda","i_long":106.828284,"line":2,"transit":false,"station_id":"JUA","time":4,"distance":2015,"is_transit":false},{"time":2,"line":2,"distance":1149,"is_transit":false,"i_lat":-6.160725,"station_id":"SW","transit":false,"i_long":106.827103,"station_name":"Sawah Besar"},{"station_id":"MGB","is_transit":false,"distance":906,"line":2,"transit":false,"time":2,"i_lat":-6.149769,"i_long":106.82482,"station_name":"Manggabesar"},{"i_long":106.820901,"line":2,"is_transit":false,"station_id":"JAY","transit":false,"i_lat":-6.141205,"distance":1080,"station_name":"Jayakarta","time":2},{"station_id":"JAKK","is_transit":true,"distance":1264,"i_lat":-6.137569,"station_name":"Jakarta Kota","line":2,"transit":true,"i_long":106.812439,"time":4},{"time":3,"i_long":106.826365,"station_name":"Kampung Bandan","i_lat":-6.132549,"is_transit":true,"distance":1364,"transit":true,"station_id":"KPB","line":4},{"station_name":"Ancol","transit":false,"i_long":106.84464,"station_id":"AC","distance":2185,"line":4,"is_transit":false,"time":4,"i_lat":-6.128023},{"transit":false,"station_id":"TPK","station_name":"Tanjung Priuk","i_lat":-6.1109480000000005,"i_long":106.880089,"time":9,"distance":4566,"line":4,"is_transit":false}],[{"distance":0,"i_lat":-6.169933,"station_id":"PI","transit":false,"is_transit":false,"station_name":"Poris","i_long":106.679458,"time":0,"line":5},{"station_name":"Kalideres","time":3,"distance":2548,"i_lat":-6.166068,"i_long":106.701612,"transit":false,"line":5,"station_id":"KDS","is_transit":false},{"station_id":"RW","i_long":106.723064,"line":5,"distance":2504,"transit":false,"is_transit":false,"time":3,"station_name":"Rawa Buaya","i_lat":-6.162758},{"is_transit":false,"i_lat":-6.159876,"station_id":"BOI","i_long":106.737035,"transit":false,"line":5,"time":4,"distance":1152,"station_name":"Bojongindah"},{"transit":false,"i_lat":-6.1587309999999995,"i_long":106.756522,"is_transit":false,"time":2,"distance":2334,"line":5,"station_id":"TKO","station_name":"Taman Kota"},{"station_name":"Pesing","is_transit":false,"i_lat":-6.161433,"station_id":"PSG","i_long":106.771379,"transit":false,"time":2,"distance":1614,"line":5},{"i_long":106.788277,"line":5,"transit":false,"is_transit":false,"station_id":"GGL","time":2,"distance":2036,"i_lat":-6.162021,"station_name":"Grogol"},{"transit":true,"is_transit":true,"distance":1700,"station_id":"DU","time":3,"i_lat":-6.155215,"line":1,"i_long":106.800832,"station_name":"Duri"},{"distance":3632,"is_transit":false,"line":1,"station_id":"THB","station_name":"Tanah Abang","time":8,"i_lat":-6.185545,"transit":false,"i_long":106.811091},{"station_name":"Karet","transit":false,"time":5,"is_transit":false,"distance":2029,"i_lat":-6.20132,"i_long":106.816351,"station_id":"KAT","line":1},{"station_id":"SUDB","i_lat":-6.201433,"is_transit":false,"distance":471,"transit":false,"i_long":106.819881,"line":1,"station_name":"Sudirman Baru","time":1},{"transit":false,"line":1,"i_lat":-6.202263,"station_name":"Sudirman","i_long":106.822649,"time":1,"station_id":"SUD","is_transit":false,"distance":280},{"line":2,"station_name":"Manggarai","i_long":106.84912,"i_lat":-6.209883,"transit":false,"distance":3186,"station_id":"MRI","is_transit":false,"time":4},{"is_transit":false,"line":1,"distance":1275,"i_lat":-6.212485,"time":2,"i_long":106.858896,"station_name":"Matraman","station_id":"MTR","transit":false},{"station_name":"Jatinegara","station_id":"JNG","i_lat":-6.215091,"distance":1377,"i_long":106.86807400000001,"is_transit":true,"transit":true,"line":1,"time":8},{"station_id":"POK","transit":false,"i_lat":-6.209188,"station_name":"Pondok Jati","line":11,"is_transit":false,"time":2,"distance":1236,"i_long":106.861737},{"i_lat":-6.193792,"line":11,"station_name":"Kramat","station_id":"KMT","distance":1829,"time":2,"transit":false,"i_long":106.855437,"is_transit":false},{"distance":973,"station_name":"Gang Sentiong","transit":false,"time":1,"i_lat":-6.185975,"station_id":"GST","is_transit":false,"i_long":106.850107,"line":11},{"station_id":"PSE","is_transit":false,"line":11,"station_name":"Pasar Senen","distance":1567,"i_lat":-6.174784,"transit":false,"i_long":106.84368,"time":8},{"i_lat":-6.161728,"is_transit":false,"station_name":"Kemayoran","time":4,"distance":1436,"transit":false,"station_id":"KMO","line":11,"i_long":106.839204},{"station_name":"Rajawali","i_long":106.836569,"transit":false,"time":5,"distance":1901,"is_transit":false,"station_id":"RJW","i_lat":-6.14505,"line":11},{"station_id":"KPB","i_lat":-6.132549,"time":3,"distance":1444,"is_transit":true,"i_long":106.826365,"line":4,"transit":true,"station_name":"Kampung Bandan"},{"station_id":"AC","time":4,"transit":false,"station_name":"Ancol","i_lat":-6.128023,"i_long":106.84464,"line":4,"distance":2185,"is_transit":false},{"station_id":"TPK","is_transit":false,"line":4,"i_lat":-6.1109480000000005,"transit":false,"station_name":"Tanjung Priuk","i_long":106.880089,"distance":4566,"time":9}]]}