{"data":[[{"station_name":"Poris","transit":false,"time":0,"i_long":106.679458,"line":5,"station_id":"PI","is_transit":false,"distance":0,"i_lat":-6.169933},{"transit":false,"line":5,"is_transit":false,"time":3,"station_name":"Kalideres","i_lat":-6.166068,"station_id":"KDS","i_long":106.701612,"distance":2548},{"i_lat":-6.162758,"is_transit":false,"transit":false,"station_id":"RW","time":3,"i_long":106.723064,"station_name":"Rawa Buaya","line":5,"distance":2504},{"station_id":"BOI","transit":false,"line":5,"time":4,"i_long":106.737035,"i_lat":-6.159876,"distance":1152,"station_name":"Bojongindah","is_transit":false},{"station_id":"TKO","transit":false,"station_name":"Taman Kota","time":2,"is_transit":false,"i_lat":-6.1587309999999995,"i_long":106.756522,"line":5,"distance":2334},{"station_id":"PSG","i_long":106.771379,"line":5,"station_name":"Pesing","i_lat":-6.161433,"time":2,"transit":false,"is_transit":false,"distance":1614},{"station_id":"GGL","line":5,"station_name":"Grogol","transit":false,"time":2,"is_transit":false,"i_long":106.788277,"distance":2036,"i_lat":-6.162021},{"distance":1700,"station_name":"Duri","transit":true,"i_lat":-6.155215,"i_long":106.800832,"line":1,"station_id":"DU","is_transit":true,"time":3},{"i_lat":-6.185545,"line":1,"i_long":106.811091,"is_transit":false,"distance":3632,"transit":false,"time":8,"station_name":"Tanah Abang","station_id":"THB"},{"line":1,"i_long":106.816351,"transit":false,"is_transit":false,"distance":2029,"station_name":"Karet","station_id":"KAT","i_lat":-6.20132,"time":5},{"station_id":"SUDB","distance":471,"transit":false,"i_long":106.819881,"line":1,"is_transit":false,"i_lat":-6.201433,"time":1,"station_name":"Sudirman Baru"},{"station_name":"Sudirman","time":1,"i_lat":-6.202263,"i_long":106.822649,"distance":280,"line":1,"transit":false,"station_id":"SUD","is_transit":false},{"distance":3186,"station_name":"Manggarai","transit":true,"time":4,"line":2,"station_id":"MRI","is_transit":true,"i_long":106.84912,"i_lat":-6.209883},{"i_lat":-6.226659,"transit":false,"is_transit":false,"distance":2610,"station_id":"TEB","time":4,"station_name":"Tebet","line":2,"i_long":106.857948},{"station_id":"CW","is_transit":false,"station_name":"Cawang","distance":1230,"line":2,"transit":false,"time":2,"i_lat":-6.242512,"i_long":106.856607},{"is_transit":false,"time":3,"distance":1546,"line":2,"i_long":106.85449,"station_name":"Duren Kalibata","i_lat":-6.255332,"transit":false,"station_id":"DRN"},{"time":2,"transit":false,"line":2,"i_lat":-6.263214,"distance":824,"is_transit":false,"station_name":"Pasar Minggu Baru","station_id":"PSMB","i_long":106.851577},{"i_lat":-6.2842400000000005,"time":2,"station_name":"Pasar Minggu","transit":false,"is_transit":false,"distance":2380,"station_id":"PSM","i_long":106.843999,"line":2},{"is_transit":false,"transit":false,"line":2,"i_lat":-6.3080680000000005,"distance":2820,"station_name":"Tanjung Barat","i_long":106.838896,"time":4,"station_id":"TNT"}],[{"time":0,"is_transit":false,"i_lat":-6.169933,"station_id":"PI","distance":0,"i_long":106.679458,"line":5,"transit":false,"station_name":"Poris"},{"station_name":"Kalideres","distance":2548,"transit":false,"station_id":"KDS","is_transit":false,"i_lat":-6.166068,"i_long":106.701612,"time":3,"line":5},{"station_id":"RW","is_transit":false,"time":3,"transit":false,"i_long":106.723064,"station_name":"Rawa Buaya","distance":2504,"line":5,"i_lat":-6.162758},{"transit":false,"i_lat":-6.159876,"line":5,"distance":1152,"station_id":"BOI","is_transit":false,"time":4,"i_long":106.737035,"station_name":"Bojongindah"},{"i_lat":-6.1587309999999995,"is_transit":false,"transit":false,"distance":2334,"i_long":106.756522,"station_id":"TKO","time":2,"station_name":"Taman Kota","line":5},{"i_lat":-6.161433,"time":2,"i_long":106.771379,"transit":false,"station_id":"PSG","is_transit":false,"line":5,"station_name":"Pesing","distance":1614},{"i_lat":-6.162021,"is_transit":false,"time":2,"distance":2036,"i_long":106.788277,"station_name":"Grogol","line":5,"station_id":"GGL","transit":false},{"distance":1700,"is_transit":true,"i_long":106.800832,"transit":true,"time":3,"i_lat":-6.155215,"station_id":"DU","station_name":"Duri","line":1},{"time":4,"i_lat":-6.144674,"station_name":"Angke","station_id":"AK","transit":false,"is_transit":false,"i_long":106.79867,"line":1,"distance":1230},{"time":9,"i_lat":-6.132549,"i_long":106.826365,"is_transit":true,"transit":true,"station_name":"Kampung Bandan","station_id":"KPB","distance":4102,"line":4},{"station_name":"Jakarta Kota","is_transit":true,"i_long":106.812439,"distance":1364,"line":2,"station_id":"JAKK","transit":true,"time":3,"i_lat":-6.137569},{"i_long":106.820901,"i_lat":-6.141205,"distance":1264,"is_transit":false,"transit":false,"line":2,"station_name":"Jayakarta","time":4,"station_id":"JAY"},{"station_id":"MGB","transit":false,"distance":1080,"time":2,"is_transit":false,"line":2,"station_name":"Manggabesar","i_lat":-6.149769,"i_long":106.82482},{"station_name":"Sawah Besar","line":2,"i_long":106.827103,"is_transit":false,"time":2,"i_lat":-6.160725,"transit":false,"distance":906,"station_id":"SW"},{"transit":false,"i_lat":-6.166716,"is_transit":false,"line":2,"station_id":"JUA","time":2,"station_name":"Juanda","distance":1149,"i_long":106.828284},{"distance":2015,"station_name":"Gondangdia","station_id":"GDD","i_lat":-6.186295,"i_long":106.832183,"time":4,"transit":false,"line":2,"is_transit":false},{"distance":1750,"line":2,"transit":false,"station_id":"CKI","time":3,"i_long":106.840169,"station_name":"Cikini","is_transit":false,"i_lat":-6.198556},{"station_id":"MRI","i_long":106.84912,"transit":false,"time":4,"distance":1590,"is_transit":false,"i_lat":-6.209883,"line":2,"station_name":"Manggarai"},{"station_id":"TEB","is_transit":false,"i_lat":-6.226659,"time":4,"line":2,"station_name":"Tebet","transit":false,"i_long":106.857948,"distance":2610},{"is_transit":false,"transit":false,"time":2,"distance":1230,"i_lat":-6.242512,"line":2,"station_id":"CW","i_long":106.856607,"station_name":"Cawang"},{"distance":1546,"i_lat":-6.255332,"station_id":"DRN","line":2,"i_long":106.85449,"is_transit":false,"transit":false,"station_name":"Duren Kalibata","time":3},{"is_transit":false,"line":2,"transit":false,"station_id":"PSMB","i_lat":-6.263214,"station_name":"Pasar Minggu Baru","distance":824,"time":2,"i_long":106.851577},{"line":2,"station_id":"PSM","i_lat":-6.2842400000000005,"is_transit":false,"time":2,"distance":2380,"transit":false,"i_long":106.843999,"station_name":"Pasar Minggu"},{"is_transit":false,"time":4,"i_long":106.838896,"station_id":"TNT","transit":false,"station_name":"Tanjung Barat","distance":2820,"i_lat":-6.3080680000000005,"line":2}],[{"transit":false,"time":0,"line":5,"distance":0,"i_long":106.679458,"station_id":"PI","station_name":"Poris","is_transit":false,"i_lat":-6.169933},{"transit":false,"station_id":"KDS","is_transit":false,"time":3,"distance":2548,"i_lat":-6.166068,"i_long":106.701612,"station_name":"Kalideres","line":5},{"time":3,"transit":false,"distance":2504,"i_lat":-6.162758,"line":5,"station_name":"Rawa Buaya","station_id":"RW","i_long":106.723064,"is_transit":false},{"line":5,"i_lat":-6.159876,"station_id":"BOI","i_long":106.737035,"station_name":"Bojongindah","distance":1152,"is_transit":false,"time":4,"transit":false},{"is_transit":false,"line":5,"transit":false,"station_name":"Taman Kota","distance":2334,"i_long":106.756522,"time":2,"station_id":"TKO","i_lat":-6.1587309999999995},{"is_transit":false,"i_long":106.771379,"i_lat":-6.161433,"time":2,"station_name":"Pesing","transit":false,"distance":1614,"line":5,"station_id":"PSG"},{"distance":2036,"station_name":"Grogol","i_long":106.788277,"transit":false,"time":2,"is_transit":false,"station_id":"GGL","i_lat":-6.162021,"line":5},{"i_lat":-6.155215,"line":1,"is_transit":true,"i_long":106.800832,"station_id":"DU","transit":true,"distance":1700,"time":3,"station_name":"Duri"},{"station_id":"AK","time":4,"i_long":106.79867,"is_transit":false,"line":1,"station_name":"Angke","transit":false,"distance":1230,"i_lat":-6.144674},{"is_transit":true,"time":9,"transit":true,"distance":4102,"i_lat":-6.132549,"station_id":"KPB","line":4,"i_long":106.826365,"station_name":"Kampung Bandan"},{"station_name":"Rajawali","i_long":106.836569,"line":11,"transit":false,"station_id":"RJW","is_transit":false,"i_lat":-6.14505,"distance":1444,"time":3},{"i_lat":-6.161728,"transit":false,"station_name":"Kemayoran","i_long":106.839204,"is_transit":false,"line":11,"time":5,"station_id":"KMO","distance":1901},{"time":4,"line":11,"transit":false,"is_transit":false,"station_name":"Pasar Senen","i_lat":-6.174784,"distance":1436,"i_long":106.84368,"station_id":"PSE"},{"line":11,"is_transit":false,"i_lat":-6.185975,"i_long":106.850107,"distance":1567,"station_name":"Gang Sentiong","transit":false,"station_id":"GST","time":8},{"distance":973,"station_id":"KMT","i_long":106.855437,"is_transit":false,"time":1,"i_lat":-6.193792,"station_name":"Kramat","transit":false,"line":11},{"station_id":"POK","i_long":106.861737,"time":2,"distance":1829,"transit":false,"is_transit":false,"station_name":"Pondok Jati","i_lat":-6.209188,"line":11},{"transit":true,"i_lat":-6.215091,"time":9,"distance":1236,"station_name":"Jatinegara","line":1,"station_id":"JNG","is_transit":true,"i_long":106.86807400000001},{"is_transit":false,"line":1,"i_lat":-6.212485,"time":2,"transit":false,"station_name":"Matraman","station_id":"MTR","i_long":106.858896,"distance":1377},{"distance":1275,"time":2,"line":2,"transit":true,"station_id":"MRI","is_transit":true,"i_lat":-6.209883,"station_name":"Manggarai","i_long":106.84912},{"transit":false,"is_transit":false,"line":2,"time":4,"station_id":"TEB","station_name":"Tebet","i_long":106.857948,"i_lat":-6.226659,"distance":2610},{"station_id":"CW","time":2,"is_transit":false,"distance":1230,"i_lat":-6.242512,"transit":false,"i_long":106.856607,"station_name":"Cawang","line":2},{"station_name":"Duren Kalibata","line":2,"station_id":"DRN","i_long":106.85449,"transit":false,"distance":1546,"is_transit":false,"i_lat":-6.255332,"time":3},{"transit":false,"station_name":"Pasar Minggu Baru","time":2,"is_transit":false,"line":2,"i_long":106.851577,"i_lat":-6.263214,"station_id":"PSMB","distance":824},{"line":2,"transit":false,"i_long":106.843999,"is_transit":false,"distance":2380,"station_id":"PSM","station_name":"Pasar Minggu","i_lat":-6.2842400000000005,"time":2},{"i_long":106.838896,"line":2,"transit":false,"time":4,"station_id":"TNT","distance":2820,"i_lat":-6.3080680000000005,"station_name":"Tanjung Barat","is_transit":false}]]}