{"data":[[{"station_name":"Poris","station_id":"PI","transit":false,"time":0,"i_lat":-6.169933,"distance":0,"i_long":106.679458,"line":5,"is_transit":false},{"time":3,"distance":2548,"line":5,"station_id":"KDS","i_lat":-6.166068,"is_transit":false,"transit":false,"station_name":"Kalideres","i_long":106.701612},{"line":5,"station_name":"Rawa Buaya","transit":false,"station_id":"RW","distance":2504,"time":3,"is_transit":false,"i_lat":-6.162758,"i_long":106.723064},{"station_name":"Bojongindah","transit":false,"i_lat":-6.159876,"is_transit":false,"i_long":106.737035,"line":0,"station_id":"BOI","distance":1152,"time":4},{"distance":2334,"is_transit":false,"transit":false,"station_id":"TKO","time":2,"i_long":106.756522,"line":5,"i_lat":-6.1587309999999995,"station_name":"Taman Kota"},{"station_name":"Pesing","line":5,"transit":false,"is_transit":false,"time":2,"station_id":"PSG","distance":1614,"i_lat":-6.161433,"i_long":106.771379},{"is_transit":false,"i_lat":-6.162021,"transit":false,"time":2,"distance":2036,"station_name":"Grogol","i_long":106.788277,"station_id":"GGL","line":5},{"distance":1700,"station_name":"Duri","time":3,"is_transit":true,"i_lat":-6.155215,"station_id":"DU","line":1,"i_long":106.800832,"transit":true},{"transit":false,"distance":3632,"station_id":"THB","is_transit":true,"time":8,"station_name":"Tanah Abang","i_lat":-6.185545,"i_long":106.811091,"line":1}],[{"station_id":"PI","line":5,"time":0,"i_long":106.679458,"is_transit":false,"i_lat":-6.169933,"transit":false,"distance":0,"station_name":"Poris"},{"station_name":"Kalideres","i_long":106.701612,"station_id":"KDS","distance":2548,"time":3,"i_lat":-6.166068,"is_transit":false,"transit":false,"line":5},{"i_lat":-6.162758,"distance":2504,"time":3,"station_name":"Rawa Buaya","i_long":106.723064,"station_id":"RW","is_transit":false,"transit":false,"line":5},{"i_lat":-6.159876,"distance":1152,"transit":false,"is_transit":false,"line":0,"station_id":"BOI","station_name":"Bojongindah","time":4,"i_long":106.737035},{"transit":false,"is_transit":false,"distance":2334,"i_lat":-6.1587309999999995,"i_long":106.756522,"time":2,"station_name":"Taman Kota","station_id":"TKO","line":5},{"time":2,"i_lat":-6.161433,"station_name":"Pesing","is_transit":false,"distance":1614,"transit":false,"line":5,"station_id":"PSG","i_long":106.771379},{"is_transit":false,"i_long":106.788277,"i_lat":-6.162021,"line":5,"station_name":"Grogol","time":2,"distance":2036,"transit":false,"station_id":"GGL"},{"line":1,"i_lat":-6.155215,"station_id":"DU","distance":1700,"time":3,"i_long":106.800832,"transit":true,"station_name":"Duri","is_transit":true},{"station_name":"Angke","station_id":"AK","distance":1230,"time":4,"i_lat":-6.144674,"line":0,"transit":false,"i_long":106.79867,"is_transit":false},{"line":0,"time":9,"transit":false,"i_lat":-6.132549,"station_id":"KPB","station_name":"Kampung Bandan","i_long":106.826365,"distance":4102,"is_transit":true},{"station_id":"JAKK","i_lat":-6.137569,"transit":true,"station_name":"Jakarta Kota","distance":1364,"line":0,"time":3,"i_long":106.812439,"is_transit":true},{"i_lat":-6.141205,"transit":false,"station_name":"Jayakarta","i_long":106.820901,"time":4,"station_id":"JAY","line":7,"is_transit":false,"distance":1264},{"i_lat":-6.149769,"transit":false,"station_name":"Manggabesar","station_id":"MGB","is_transit":false,"time":2,"i_long":106.82482,"line":2,"distance":1080},{"transit":false,"time":2,"i_lat":-6.160725,"distance":906,"station_id":"SW","station_name":"Sawah Besar","i_long":106.827103,"line":2,"is_transit":false},{"transit":false,"distance":1149,"station_id":"JUA","i_long":106.828284,"time":2,"i_lat":-6.166716,"station_name":"Juanda","is_transit":false,"line":2},{"i_long":106.832183,"transit":false,"distance":2015,"station_id":"GDD","i_lat":-6.186295,"line":2,"time":4,"station_name":"Gondangdia","is_transit":false},{"i_long":106.840169,"transit":false,"time":3,"line":0,"distance":1750,"is_transit":false,"station_id":"CKI","station_name":"Cikini","i_lat":-6.198556},{"station_name":"Manggarai","time":4,"i_lat":-6.209883,"i_long":106.84912,"distance":1590,"is_transit":true,"line":0,"station_id":"MRI","transit":true},{"line":1,"station_id":"SUD","transit":false,"distance":3186,"time":4,"station_name":"Sudirman","is_transit":false,"i_lat":-6.202263,"i_long":106.822649},{"transit":false,"distance":280,"time":1,"i_lat":-6.201433,"station_name":"Sudirman Baru","is_transit":false,"line":1,"station_id":"SUDB","i_long":106.819881},{"distance":471,"station_id":"KAT","i_long":106.816351,"line":1,"transit":false,"is_transit":false,"station_name":"Karet","time":1,"i_lat":-6.20132},{"station_id":"THB","station_name":"Tanah Abang","i_lat":-6.185545,"distance":2029,"i_long":106.811091,"transit":false,"is_transit":true,"time":5,"line":1}],[{"distance":0,"time":0,"station_id":"PI","station_name":"Poris","transit":false,"line":5,"i_long":106.679458,"i_lat":-6.169933,"is_transit":false},{"station_name":"Kalideres","i_long":106.701612,"distance":2548,"line":5,"time":3,"is_transit":false,"station_id":"KDS","i_lat":-6.166068,"transit":false},{"station_name":"Rawa Buaya","is_transit":false,"station_id":"RW","i_lat":-6.162758,"distance":2504,"transit":false,"i_long":106.723064,"line":5,"time":3},{"transit":false,"time":4,"i_long":106.737035,"i_lat":-6.159876,"line":0,"is_transit":false,"station_name":"Bojongindah","station_id":"BOI","distance":1152},{"i_lat":-6.1587309999999995,"distance":2334,"transit":false,"station_name":"Taman Kota","i_long":106.756522,"is_transit":false,"station_id":"TKO","time":2,"line":5},{"is_transit":false,"transit":false,"distance":1614,"i_lat":-6.161433,"i_long":106.771379,"station_name":"Pesing","time":2,"station_id":"PSG","line":5},{"station_name":"Grogol","transit":false,"line":5,"distance":2036,"i_lat":-6.162021,"station_id":"GGL","is_transit":false,"time":2,"i_long":106.788277},{"station_id":"DU","is_transit":true,"i_lat":-6.155215,"i_long":106.800832,"line":1,"time":3,"transit":true,"distance":1700,"station_name":"Duri"},{"station_id":"AK","line":0,"is_transit":false,"i_long":106.79867,"time":4,"distance":1230,"transit":false,"i_lat":-6.144674,"station_name":"Angke"},{"station_id":"KPB","transit":true,"distance":4102,"station_name":"Kampung Bandan","is_transit":true,"i_lat":-6.132549,"line":0,"time":9,"i_long":106.826365},{"time":3,"distance":1444,"i_long":106.836569,"i_lat":-6.14505,"line":11,"transit":false,"is_transit":false,"station_name":"Rajawali","station_id":"RJW"},{"line":11,"i_long":106.839204,"transit":false,"distance":1901,"station_name":"Kemayoran","station_id":"KMO","time":5,"i_lat":-6.161728,"is_transit":false},{"station_id":"PSE","line":11,"is_transit":false,"distance":1436,"time":4,"i_long":106.84368,"station_name":"Pasar Senen","transit":false,"i_lat":-6.174784},{"line":11,"station_id":"GST","transit":false,"station_name":"Gang Sentiong","is_transit":false,"i_long":106.850107,"distance":1567,"i_lat":-6.185975,"time":8},{"transit":false,"time":1,"station_name":"Kramat","is_transit":false,"distance":973,"station_id":"KMT","i_lat":-6.193792,"i_long":106.855437,"line":11},{"transit":false,"i_lat":-6.209188,"station_id":"POK","station_name":"Pondok Jati","line":11,"is_transit":false,"distance":1829,"time":2,"i_long":106.861737},{"station_name":"Jatinegara","station_id":"JNG","time":9,"i_lat":-6.215091,"line":0,"transit":true,"distance":1236,"i_long":106.86807400000001,"is_transit":true},{"station_name":"Matraman","is_transit":false,"i_lat":-6.212485,"i_long":106.858896,"transit":false,"station_id":"MTR","time":2,"line":1,"distance":1377},{"station_id":"MRI","time":2,"is_transit":true,"i_lat":-6.209883,"line":0,"transit":false,"station_name":"Manggarai","distance":1275,"i_long":106.84912},{"station_id":"SUD","i_lat":-6.202263,"distance":3186,"station_name":"Sudirman","time":4,"i_long":106.822649,"transit":false,"line":1,"is_transit":false},{"time":1,"transit":false,"i_lat":-6.201433,"line":1,"distance":280,"i_long":106.819881,"is_transit":false,"station_id":"SUDB","station_name":"Sudirman Baru"},{"station_id":"KAT","i_long":106.816351,"is_transit":false,"distance":471,"line":1,"transit":false,"station_name":"Karet","time":1,"i_lat":-6.20132},{"is_transit":true,"i_lat":-6.185545,"i_long":106.811091,"distance":2029,"station_name":"Tanah Abang","time":5,"transit":false,"station_id":"THB","line":1}]]}