{"data":[[{"is_transit":false,"time":0,"transit":false,"station_name":"Poris","i_lat":-6.169933,"i_long":106.679458,"distance":0,"station_id":"PI","line":5},{"distance":2548,"i_lat":-6.166068,"i_long":106.701612,"transit":false,"line":5,"time":3,"station_name":"Kalideres","station_id":"KDS","is_transit":false},{"is_transit":false,"i_long":106.723064,"station_id":"RW","time":3,"transit":false,"station_name":"Rawa Buaya","i_lat":-6.162758,"distance":2504,"line":5},{"i_lat":-6.159876,"station_name":"Bojongindah","is_transit":false,"distance":1152,"i_long":106.737035,"transit":false,"time":4,"station_id":"BOI","line":0},{"transit":false,"i_lat":-6.1587309999999995,"line":5,"i_long":106.756522,"distance":2334,"time":2,"is_transit":false,"station_name":"Taman Kota","station_id":"TKO"},{"transit":false,"line":5,"time":2,"distance":1614,"i_long":106.771379,"station_name":"Pesing","station_id":"PSG","is_transit":false,"i_lat":-6.161433},{"station_id":"GGL","i_long":106.788277,"is_transit":false,"distance":2036,"station_name":"Grogol","i_lat":-6.162021,"time":2,"line":5,"transit":false},{"station_id":"DU","distance":1700,"is_transit":true,"transit":true,"time":3,"station_name":"Duri","i_long":106.800832,"i_lat":-6.155215,"line":1},{"i_lat":-6.185545,"i_long":106.811091,"distance":3632,"station_id":"THB","line":1,"is_transit":true,"time":8,"transit":false,"station_name":"Tanah Abang"},{"i_long":106.816351,"line":1,"i_lat":-6.20132,"is_transit":false,"time":5,"station_name":"Karet","transit":false,"station_id":"KAT","distance":2029},{"time":1,"i_long":106.819881,"i_lat":-6.201433,"station_name":"Sudirman Baru","distance":471,"line":1,"is_transit":false,"transit":false,"station_id":"SUDB"},{"i_long":106.822649,"line":1,"station_id":"SUD","i_lat":-6.202263,"transit":false,"time":1,"is_transit":false,"distance":280,"station_name":"Sudirman"},{"line":0,"transit":true,"is_transit":true,"time":4,"distance":3186,"station_name":"Manggarai","i_lat":-6.209883,"i_long":106.84912,"station_id":"MRI"},{"transit":false,"station_id":"TEB","line":2,"distance":2610,"is_transit":false,"time":4,"station_name":"Tebet","i_lat":-6.226659,"i_long":106.857948},{"distance":1230,"transit":false,"station_id":"CW","station_name":"Cawang","is_transit":false,"line":0,"i_lat":-6.242512,"i_long":106.856607,"time":2},{"transit":false,"station_id":"DRN","i_lat":-6.255332,"i_long":106.85449,"line":0,"station_name":"Duren Kalibata","distance":1546,"time":3,"is_transit":false},{"i_long":106.851577,"time":2,"distance":824,"transit":false,"i_lat":-6.263214,"station_id":"PSMB","is_transit":false,"station_name":"Pasar Minggu Baru","line":2},{"i_long":106.843999,"line":2,"transit":false,"is_transit":false,"time":2,"station_name":"Pasar Minggu","i_lat":-6.2842400000000005,"distance":2380,"station_id":"PSM"},{"is_transit":false,"time":4,"i_long":106.838896,"line":2,"distance":2820,"station_id":"TNT","station_name":"Tanjung Barat","i_lat":-6.3080680000000005,"transit":false}],[{"is_transit":false,"station_name":"Poris","i_lat":-6.169933,"i_long":106.679458,"line":5,"time":0,"transit":false,"station_id":"PI","distance":0},{"i_lat":-6.166068,"line":5,"i_long":106.701612,"distance":2548,"station_id":"KDS","transit":false,"is_transit":false,"time":3,"station_name":"Kalideres"},{"time":3,"station_id":"RW","line":5,"distance":2504,"i_long":106.723064,"i_lat":-6.162758,"station_name":"Rawa Buaya","is_transit":false,"transit":false},{"station_name":"Bojongindah","i_long":106.737035,"time":4,"is_transit":false,"station_id":"BOI","i_lat":-6.159876,"distance":1152,"transit":false,"line":0},{"time":2,"distance":2334,"transit":false,"i_lat":-6.1587309999999995,"station_id":"TKO","is_transit":false,"station_name":"Taman Kota","line":5,"i_long":106.756522},{"transit":false,"i_long":106.771379,"station_name":"Pesing","station_id":"PSG","i_lat":-6.161433,"line":5,"distance":1614,"is_transit":false,"time":2},{"transit":false,"station_id":"GGL","station_name":"Grogol","distance":2036,"i_lat":-6.162021,"i_long":106.788277,"is_transit":false,"time":2,"line":5},{"transit":true,"is_transit":true,"i_long":106.800832,"time":3,"distance":1700,"station_name":"Duri","i_lat":-6.155215,"line":1,"station_id":"DU"},{"distance":1230,"is_transit":false,"i_long":106.79867,"station_id":"AK","i_lat":-6.144674,"time":4,"line":0,"transit":false,"station_name":"Angke"},{"transit":false,"station_id":"KPB","i_long":106.826365,"is_transit":true,"time":9,"station_name":"Kampung Bandan","i_lat":-6.132549,"distance":4102,"line":0},{"transit":true,"time":3,"station_id":"JAKK","is_transit":true,"i_long":106.812439,"i_lat":-6.137569,"line":0,"station_name":"Jakarta Kota","distance":1364},{"station_id":"JAY","station_name":"Jayakarta","transit":false,"i_lat":-6.141205,"i_long":106.820901,"line":7,"is_transit":false,"time":4,"distance":1264},{"distance":1080,"station_name":"Manggabesar","i_long":106.82482,"line":2,"station_id":"MGB","is_transit":false,"time":2,"i_lat":-6.149769,"transit":false},{"i_lat":-6.160725,"is_transit":false,"time":2,"line":2,"i_long":106.827103,"distance":906,"transit":false,"station_name":"Sawah Besar","station_id":"SW"},{"i_long":106.828284,"i_lat":-6.166716,"transit":false,"station_name":"Juanda","distance":1149,"time":2,"is_transit":false,"station_id":"JUA","line":2},{"distance":2015,"i_lat":-6.186295,"time":4,"station_name":"Gondangdia","line":2,"transit":false,"station_id":"GDD","i_long":106.832183,"is_transit":false},{"station_id":"CKI","i_lat":-6.198556,"is_transit":false,"transit":false,"line":0,"time":3,"i_long":106.840169,"station_name":"Cikini","distance":1750},{"i_lat":-6.209883,"line":0,"i_long":106.84912,"is_transit":true,"time":4,"transit":true,"station_id":"MRI","station_name":"Manggarai","distance":1590},{"station_id":"TEB","is_transit":false,"i_lat":-6.226659,"i_long":106.857948,"distance":2610,"line":2,"station_name":"Tebet","time":4,"transit":false},{"time":2,"i_lat":-6.242512,"i_long":106.856607,"station_name":"Cawang","transit":false,"is_transit":false,"station_id":"CW","distance":1230,"line":0},{"station_id":"DRN","station_name":"Duren Kalibata","i_lat":-6.255332,"i_long":106.85449,"distance":1546,"transit":false,"is_transit":false,"time":3,"line":0},{"distance":824,"is_transit":false,"line":2,"i_long":106.851577,"station_id":"PSMB","time":2,"transit":false,"i_lat":-6.263214,"station_name":"Pasar Minggu Baru"},{"station_name":"Pasar Minggu","i_lat":-6.2842400000000005,"time":2,"transit":false,"is_transit":false,"line":2,"distance":2380,"station_id":"PSM","i_long":106.843999},{"station_id":"TNT","i_lat":-6.3080680000000005,"distance":2820,"is_transit":false,"line":2,"transit":false,"time":4,"station_name":"Tanjung Barat","i_long":106.838896}],[{"is_transit":false,"distance":0,"i_long":106.679458,"station_name":"Poris","transit":false,"station_id":"PI","i_lat":-6.169933,"line":5,"time":0},{"station_id":"KDS","time":3,"station_name":"Kalideres","is_transit":false,"transit":false,"line":5,"distance":2548,"i_long":106.701612,"i_lat":-6.166068},{"i_lat":-6.162758,"is_transit":false,"transit":false,"station_name":"Rawa Buaya","time":3,"line":5,"distance":2504,"station_id":"RW","i_long":106.723064},{"i_long":106.737035,"is_transit":false,"time":4,"station_name":"Bojongindah","transit":false,"station_id":"BOI","i_lat":-6.159876,"distance":1152,"line":0},{"station_name":"Taman Kota","i_lat":-6.1587309999999995,"distance":2334,"line":5,"transit":false,"i_long":106.756522,"is_transit":false,"time":2,"station_id":"TKO"},{"station_id":"PSG","station_name":"Pesing","time":2,"transit":false,"distance":1614,"line":5,"i_lat":-6.161433,"i_long":106.771379,"is_transit":false},{"is_transit":false,"distance":2036,"station_id":"GGL","station_name":"Grogol","i_long":106.788277,"transit":false,"line":5,"time":2,"i_lat":-6.162021},{"station_name":"Duri","time":3,"i_lat":-6.155215,"station_id":"DU","distance":1700,"transit":true,"i_long":106.800832,"line":1,"is_transit":true},{"i_lat":-6.144674,"distance":1230,"line":0,"transit":false,"is_transit":false,"i_long":106.79867,"station_name":"Angke","station_id":"AK","time":4},{"station_id":"KPB","station_name":"Kampung Bandan","i_lat":-6.132549,"transit":true,"distance":4102,"line":0,"i_long":106.826365,"is_transit":true,"time":9},{"i_lat":-6.14505,"line":11,"station_id":"RJW","i_long":106.836569,"time":3,"transit":false,"station_name":"Rajawali","distance":1444,"is_transit":false},{"transit":false,"i_long":106.839204,"line":11,"is_transit":false,"time":5,"distance":1901,"station_name":"Kemayoran","i_lat":-6.161728,"station_id":"KMO"},{"is_transit":false,"time":4,"transit":false,"station_name":"Pasar Senen","i_lat":-6.174784,"i_long":106.84368,"line":11,"station_id":"PSE","distance":1436},{"transit":false,"i_lat":-6.185975,"station_id":"GST","is_transit":false,"time":8,"i_long":106.850107,"line":11,"station_name":"Gang Sentiong","distance":1567},{"station_name":"Kramat","is_transit":false,"distance":973,"transit":false,"time":1,"station_id":"KMT","i_long":106.855437,"i_lat":-6.193792,"line":11},{"line":11,"time":2,"station_id":"POK","distance":1829,"station_name":"Pondok Jati","i_lat":-6.209188,"is_transit":false,"i_long":106.861737,"transit":false},{"line":0,"is_transit":true,"station_name":"Jatinegara","transit":true,"i_long":106.86807400000001,"distance":1236,"time":9,"station_id":"JNG","i_lat":-6.215091},{"station_name":"Matraman","is_transit":false,"line":1,"time":2,"distance":1377,"i_long":106.858896,"i_lat":-6.212485,"transit":false,"station_id":"MTR"},{"line":0,"time":2,"is_transit":true,"i_long":106.84912,"station_id":"MRI","station_name":"Manggarai","transit":true,"i_lat":-6.209883,"distance":1275},{"i_long":106.857948,"transit":false,"time":4,"station_name":"Tebet","line":2,"is_transit":false,"station_id":"TEB","distance":2610,"i_lat":-6.226659},{"is_transit":false,"distance":1230,"transit":false,"time":2,"line":0,"station_id":"CW","station_name":"Cawang","i_lat":-6.242512,"i_long":106.856607},{"station_name":"Duren Kalibata","i_lat":-6.255332,"i_long":106.85449,"line":0,"station_id":"DRN","distance":1546,"time":3,"transit":false,"is_transit":false},{"i_lat":-6.263214,"time":2,"station_name":"Pasar Minggu Baru","i_long":106.851577,"line":2,"station_id":"PSMB","distance":824,"is_transit":false,"transit":false},{"station_name":"Pasar Minggu","time":2,"is_transit":false,"i_long":106.843999,"distance":2380,"station_id":"PSM","i_lat":-6.2842400000000005,"line":2,"transit":false},{"distance":2820,"station_id":"TNT","is_transit":false,"transit":false,"i_lat":-6.3080680000000005,"i_long":106.838896,"time":4,"station_name":"Tanjung Barat","line":2}]]}