{"data":[[{"is_transit":false,"station_name":"Poris","time":0,"station_id":"PI","distance":0,"i_lat":-6.169933,"line":5,"i_long":106.679458,"transit":false},{"distance":2548,"station_name":"Kalideres","i_lat":-6.166068,"is_transit":false,"i_long":106.701612,"station_id":"KDS","time":3,"line":5,"transit":false},{"time":3,"transit":false,"is_transit":false,"station_name":"Rawa Buaya","station_id":"RW","i_lat":-6.162758,"i_long":106.723064,"distance":2504,"line":5},{"distance":1152,"i_lat":-6.159876,"is_transit":false,"line":5,"i_long":106.737035,"transit":false,"station_name":"Bojongindah","time":4,"station_id":"BOI"},{"is_transit":false,"i_lat":-6.1587309999999995,"i_long":106.756522,"transit":false,"station_name":"Taman Kota","time":2,"station_id":"TKO","distance":2334,"line":5},{"i_long":106.771379,"i_lat":-6.161433,"line":5,"station_name":"Pesing","transit":false,"is_transit":false,"time":2,"distance":1614,"station_id":"PSG"},{"line":5,"i_lat":-6.162021,"station_name":"Grogol","distance":2036,"transit":false,"time":2,"station_id":"GGL","is_transit":false,"i_long":106.788277},{"i_long":106.800832,"distance":1700,"station_id":"DU","transit":true,"is_transit":true,"time":3,"line":1,"i_lat":-6.155215,"station_name":"Duri"},{"distance":3632,"station_name":"Tanah Abang","time":8,"is_transit":false,"station_id":"THB","transit":false,"line":1,"i_long":106.811091,"i_lat":-6.185545}],[{"station_name":"Poris","i_lat":-6.169933,"time":0,"distance":0,"line":5,"transit":false,"i_long":106.679458,"station_id":"PI","is_transit":false},{"distance":2548,"station_name":"Kalideres","station_id":"KDS","i_lat":-6.166068,"is_transit":false,"line":5,"i_long":106.701612,"transit":false,"time":3},{"station_name":"Rawa Buaya","time":3,"i_lat":-6.162758,"line":5,"transit":false,"distance":2504,"station_id":"RW","i_long":106.723064,"is_transit":false},{"station_name":"Bojongindah","is_transit":false,"transit":false,"time":4,"distance":1152,"station_id":"BOI","i_lat":-6.159876,"line":5,"i_long":106.737035},{"time":2,"is_transit":false,"distance":2334,"i_long":106.756522,"line":5,"station_name":"Taman Kota","transit":false,"station_id":"TKO","i_lat":-6.1587309999999995},{"i_lat":-6.161433,"is_transit":false,"station_name":"Pesing","i_long":106.771379,"transit":false,"time":2,"line":5,"distance":1614,"station_id":"PSG"},{"station_id":"GGL","transit":false,"line":5,"i_lat":-6.162021,"is_transit":false,"station_name":"Grogol","time":2,"distance":2036,"i_long":106.788277},{"time":3,"is_transit":true,"line":1,"station_name":"Duri","distance":1700,"transit":true,"station_id":"DU","i_long":106.800832,"i_lat":-6.155215},{"transit":false,"station_name":"Angke","line":1,"time":4,"is_transit":false,"distance":1230,"station_id":"AK","i_lat":-6.144674,"i_long":106.79867},{"distance":4102,"station_id":"KPB","time":9,"i_lat":-6.132549,"i_long":106.826365,"is_transit":true,"transit":true,"station_name":"Kampung Bandan","line":4},{"is_transit":true,"transit":true,"station_id":"JAKK","i_lat":-6.137569,"time":3,"station_name":"Jakarta Kota","distance":1364,"line":2,"i_long":106.812439},{"line":2,"station_id":"JAY","i_long":106.820901,"i_lat":-6.141205,"station_name":"Jayakarta","transit":false,"is_transit":false,"time":4,"distance":1264},{"is_transit":false,"transit":false,"station_id":"MGB","i_long":106.82482,"station_name":"Manggabesar","distance":1080,"time":2,"i_lat":-6.149769,"line":2},{"distance":906,"transit":false,"i_lat":-6.160725,"is_transit":false,"time":2,"i_long":106.827103,"station_name":"Sawah Besar","line":2,"station_id":"SW"},{"is_transit":false,"time":2,"i_long":106.828284,"station_name":"Juanda","line":2,"transit":false,"distance":1149,"station_id":"JUA","i_lat":-6.166716},{"distance":2015,"i_long":106.832183,"is_transit":false,"i_lat":-6.186295,"transit":false,"time":4,"station_id":"GDD","station_name":"Gondangdia","line":2},{"i_lat":-6.198556,"time":3,"station_name":"Cikini","station_id":"CKI","is_transit":false,"line":2,"transit":false,"distance":1750,"i_long":106.840169},{"i_lat":-6.209883,"i_long":106.84912,"distance":1590,"station_name":"Manggarai","transit":true,"time":4,"station_id":"MRI","is_transit":true,"line":2},{"distance":3186,"transit":false,"station_name":"Sudirman","is_transit":false,"time":4,"station_id":"SUD","i_long":106.822649,"line":1,"i_lat":-6.202263},{"time":1,"i_long":106.819881,"i_lat":-6.201433,"is_transit":false,"distance":280,"station_name":"Sudirman Baru","line":1,"station_id":"SUDB","transit":false},{"station_id":"KAT","line":1,"i_lat":-6.20132,"time":1,"distance":471,"station_name":"Karet","i_long":106.816351,"transit":false,"is_transit":false},{"is_transit":false,"station_name":"Tanah Abang","time":5,"station_id":"THB","transit":false,"i_lat":-6.185545,"i_long":106.811091,"line":1,"distance":2029}],[{"is_transit":false,"line":5,"station_name":"Poris","time":0,"i_long":106.679458,"transit":false,"distance":0,"i_lat":-6.169933,"station_id":"PI"},{"station_name":"Kalideres","i_lat":-6.166068,"is_transit":false,"distance":2548,"i_long":106.701612,"station_id":"KDS","line":5,"transit":false,"time":3},{"i_long":106.723064,"transit":false,"line":5,"i_lat":-6.162758,"distance":2504,"is_transit":false,"station_name":"Rawa Buaya","time":3,"station_id":"RW"},{"station_id":"BOI","is_transit":false,"time":4,"i_lat":-6.159876,"transit":false,"distance":1152,"i_long":106.737035,"line":5,"station_name":"Bojongindah"},{"distance":2334,"transit":false,"time":2,"line":5,"i_lat":-6.1587309999999995,"is_transit":false,"i_long":106.756522,"station_name":"Taman Kota","station_id":"TKO"},{"time":2,"i_long":106.771379,"i_lat":-6.161433,"is_transit":false,"distance":1614,"station_name":"Pesing","station_id":"PSG","line":5,"transit":false},{"i_lat":-6.162021,"station_name":"Grogol","is_transit":false,"time":2,"transit":false,"i_long":106.788277,"station_id":"GGL","line":5,"distance":2036},{"line":1,"i_lat":-6.155215,"station_name":"Duri","transit":true,"is_transit":true,"station_id":"DU","i_long":106.800832,"distance":1700,"time":3},{"transit":false,"i_lat":-6.144674,"distance":1230,"station_id":"AK","i_long":106.79867,"line":1,"time":4,"is_transit":false,"station_name":"Angke"},{"station_id":"KPB","distance":4102,"line":4,"i_lat":-6.132549,"transit":true,"station_name":"Kampung Bandan","time":9,"i_long":106.826365,"is_transit":true},{"is_transit":false,"station_name":"Rajawali","transit":false,"time":3,"i_long":106.836569,"distance":1444,"station_id":"RJW","i_lat":-6.14505,"line":11},{"time":5,"is_transit":false,"distance":1901,"station_id":"KMO","i_long":106.839204,"station_name":"Kemayoran","transit":false,"i_lat":-6.161728,"line":11},{"station_id":"PSE","i_long":106.84368,"line":11,"is_transit":false,"i_lat":-6.174784,"distance":1436,"station_name":"Pasar Senen","transit":false,"time":4},{"transit":false,"time":8,"is_transit":false,"i_lat":-6.185975,"station_name":"Gang Sentiong","station_id":"GST","i_long":106.850107,"distance":1567,"line":11},{"i_long":106.855437,"line":11,"station_id":"KMT","transit":false,"is_transit":false,"station_name":"Kramat","time":1,"distance":973,"i_lat":-6.193792},{"station_id":"POK","i_long":106.861737,"is_transit":false,"station_name":"Pondok Jati","time":2,"transit":false,"line":11,"i_lat":-6.209188,"distance":1829},{"transit":true,"is_transit":true,"distance":1236,"i_long":106.86807400000001,"time":9,"line":1,"station_name":"Jatinegara","station_id":"JNG","i_lat":-6.215091},{"distance":1377,"time":2,"i_lat":-6.212485,"i_long":106.858896,"is_transit":false,"transit":false,"station_name":"Matraman","line":1,"station_id":"MTR"},{"line":2,"distance":1275,"transit":false,"is_transit":false,"station_id":"MRI","time":2,"i_lat":-6.209883,"i_long":106.84912,"station_name":"Manggarai"},{"transit":false,"station_id":"SUD","distance":3186,"i_lat":-6.202263,"is_transit":false,"time":4,"station_name":"Sudirman","i_long":106.822649,"line":1},{"station_id":"SUDB","is_transit":false,"i_lat":-6.201433,"line":1,"i_long":106.819881,"distance":280,"transit":false,"station_name":"Sudirman Baru","time":1},{"i_long":106.816351,"distance":471,"i_lat":-6.20132,"station_name":"Karet","transit":false,"line":1,"is_transit":false,"time":1,"station_id":"KAT"},{"i_long":106.811091,"line":1,"i_lat":-6.185545,"transit":false,"time":5,"station_name":"Tanah Abang","station_id":"THB","distance":2029,"is_transit":false}]]}