{"data":[[{"station_name":"Poris","station_id":"PI","line":5,"is_transit":false,"time":0,"i_long":106.679458,"distance":0,"i_lat":-6.169933,"transit":false},{"station_name":"Kalideres","is_transit":false,"station_id":"KDS","distance":2548,"time":3,"transit":false,"i_lat":-6.166068,"line":5,"i_long":106.701612},{"transit":false,"i_lat":-6.162758,"time":3,"distance":2504,"station_name":"Rawa Buaya","station_id":"RW","is_transit":false,"i_long":106.723064,"line":5},{"line":5,"transit":false,"station_id":"BOI","i_long":106.737035,"station_name":"Bojongindah","distance":1152,"time":4,"i_lat":-6.159876,"is_transit":false},{"line":5,"distance":2334,"is_transit":false,"station_name":"Taman Kota","i_lat":-6.1587309999999995,"time":2,"i_long":106.756522,"transit":false,"station_id":"TKO"},{"distance":1614,"line":5,"transit":false,"time":2,"i_lat":-6.161433,"i_long":106.771379,"station_id":"PSG","station_name":"Pesing","is_transit":false},{"line":5,"time":2,"i_long":106.788277,"station_id":"GGL","is_transit":false,"distance":2036,"i_lat":-6.162021,"station_name":"Grogol","transit":false},{"time":3,"line":1,"is_transit":true,"station_name":"Duri","i_lat":-6.155215,"distance":1700,"station_id":"DU","transit":true,"i_long":106.800832},{"line":1,"station_name":"Tanah Abang","station_id":"THB","is_transit":false,"transit":false,"i_lat":-6.185545,"time":8,"i_long":106.811091,"distance":3632},{"i_long":106.816351,"station_id":"KAT","station_name":"Karet","transit":false,"distance":2029,"i_lat":-6.20132,"line":1,"is_transit":false,"time":5},{"transit":false,"i_lat":-6.201433,"station_id":"SUDB","distance":471,"i_long":106.819881,"station_name":"Sudirman Baru","is_transit":false,"time":1,"line":1},{"is_transit":false,"time":1,"station_id":"SUD","transit":false,"distance":280,"i_lat":-6.202263,"i_long":106.822649,"station_name":"Sudirman","line":1},{"transit":true,"distance":3186,"time":4,"i_long":106.84912,"station_id":"MRI","station_name":"Manggarai","line":2,"i_lat":-6.209883,"is_transit":true},{"transit":false,"station_id":"TEB","i_lat":-6.226659,"line":2,"station_name":"Tebet","i_long":106.857948,"distance":2610,"is_transit":false,"time":4},{"time":2,"i_lat":-6.242512,"distance":1230,"transit":false,"station_name":"Cawang","station_id":"CW","line":2,"is_transit":false,"i_long":106.856607},{"station_name":"Duren Kalibata","station_id":"DRN","is_transit":false,"i_long":106.85449,"i_lat":-6.255332,"line":2,"distance":1546,"transit":false,"time":3},{"distance":824,"station_name":"Pasar Minggu Baru","is_transit":false,"transit":false,"station_id":"PSMB","i_lat":-6.263214,"i_long":106.851577,"time":2,"line":2},{"station_id":"PSM","i_lat":-6.2842400000000005,"line":2,"transit":false,"time":2,"station_name":"Pasar Minggu","distance":2380,"is_transit":false,"i_long":106.843999},{"i_long":106.838896,"is_transit":false,"distance":2820,"i_lat":-6.3080680000000005,"transit":false,"station_name":"Tanjung Barat","line":2,"time":4,"station_id":"TNT"}],[{"time":0,"distance":0,"station_id":"PI","line":5,"i_lat":-6.169933,"i_long":106.679458,"station_name":"Poris","transit":false,"is_transit":false},{"station_id":"KDS","time":3,"i_long":106.701612,"line":5,"i_lat":-6.166068,"station_name":"Kalideres","is_transit":false,"distance":2548,"transit":false},{"time":3,"transit":false,"station_id":"RW","i_lat":-6.162758,"i_long":106.723064,"station_name":"Rawa Buaya","line":5,"distance":2504,"is_transit":false},{"distance":1152,"is_transit":false,"station_name":"Bojongindah","time":4,"i_lat":-6.159876,"line":5,"i_long":106.737035,"station_id":"BOI","transit":false},{"transit":false,"station_id":"TKO","i_lat":-6.1587309999999995,"line":5,"time":2,"i_long":106.756522,"distance":2334,"station_name":"Taman Kota","is_transit":false},{"station_id":"PSG","i_long":106.771379,"is_transit":false,"station_name":"Pesing","distance":1614,"transit":false,"i_lat":-6.161433,"line":5,"time":2},{"transit":false,"distance":2036,"time":2,"i_lat":-6.162021,"station_name":"Grogol","line":5,"is_transit":false,"i_long":106.788277,"station_id":"GGL"},{"distance":1700,"time":3,"is_transit":true,"station_name":"Duri","i_lat":-6.155215,"i_long":106.800832,"station_id":"DU","line":1,"transit":true},{"station_id":"AK","is_transit":false,"distance":1230,"time":4,"i_long":106.79867,"line":1,"transit":false,"i_lat":-6.144674,"station_name":"Angke"},{"transit":true,"station_name":"Kampung Bandan","distance":4102,"station_id":"KPB","line":4,"i_lat":-6.132549,"is_transit":true,"time":9,"i_long":106.826365},{"station_name":"Jakarta Kota","transit":true,"i_long":106.812439,"time":3,"i_lat":-6.137569,"station_id":"JAKK","is_transit":true,"line":2,"distance":1364},{"station_id":"JAY","i_lat":-6.141205,"transit":false,"distance":1264,"time":4,"i_long":106.820901,"is_transit":false,"station_name":"Jayakarta","line":2},{"transit":false,"time":2,"is_transit":false,"distance":1080,"i_lat":-6.149769,"station_name":"Manggabesar","station_id":"MGB","i_long":106.82482,"line":2},{"i_long":106.827103,"line":2,"transit":false,"distance":906,"station_name":"Sawah Besar","is_transit":false,"i_lat":-6.160725,"station_id":"SW","time":2},{"i_lat":-6.166716,"line":2,"time":2,"station_name":"Juanda","is_transit":false,"distance":1149,"station_id":"JUA","transit":false,"i_long":106.828284},{"is_transit":false,"station_id":"GDD","i_lat":-6.186295,"station_name":"Gondangdia","i_long":106.832183,"line":2,"time":4,"transit":false,"distance":2015},{"station_name":"Cikini","is_transit":false,"distance":1750,"i_lat":-6.198556,"i_long":106.840169,"time":3,"line":2,"station_id":"CKI","transit":false},{"i_lat":-6.209883,"time":4,"i_long":106.84912,"station_name":"Manggarai","is_transit":false,"station_id":"MRI","transit":false,"line":2,"distance":1590},{"i_long":106.857948,"is_transit":false,"station_id":"TEB","distance":2610,"line":2,"transit":false,"time":4,"i_lat":-6.226659,"station_name":"Tebet"},{"station_id":"CW","transit":false,"distance":1230,"is_transit":false,"station_name":"Cawang","i_long":106.856607,"line":2,"i_lat":-6.242512,"time":2},{"station_id":"DRN","transit":false,"i_lat":-6.255332,"distance":1546,"station_name":"Duren Kalibata","time":3,"is_transit":false,"i_long":106.85449,"line":2},{"time":2,"i_long":106.851577,"transit":false,"station_id":"PSMB","distance":824,"station_name":"Pasar Minggu Baru","line":2,"i_lat":-6.263214,"is_transit":false},{"i_lat":-6.2842400000000005,"line":2,"i_long":106.843999,"distance":2380,"station_id":"PSM","station_name":"Pasar Minggu","time":2,"transit":false,"is_transit":false},{"transit":false,"is_transit":false,"i_lat":-6.3080680000000005,"line":2,"station_name":"Tanjung Barat","distance":2820,"time":4,"i_long":106.838896,"station_id":"TNT"}],[{"line":5,"i_lat":-6.169933,"station_name":"Poris","distance":0,"is_transit":false,"time":0,"transit":false,"station_id":"PI","i_long":106.679458},{"i_long":106.701612,"is_transit":false,"transit":false,"station_id":"KDS","line":5,"distance":2548,"i_lat":-6.166068,"station_name":"Kalideres","time":3},{"station_name":"Rawa Buaya","transit":false,"distance":2504,"is_transit":false,"time":3,"line":5,"i_lat":-6.162758,"station_id":"RW","i_long":106.723064},{"is_transit":false,"station_id":"BOI","line":5,"transit":false,"distance":1152,"i_lat":-6.159876,"i_long":106.737035,"station_name":"Bojongindah","time":4},{"line":5,"station_id":"TKO","distance":2334,"transit":false,"i_lat":-6.1587309999999995,"time":2,"i_long":106.756522,"station_name":"Taman Kota","is_transit":false},{"is_transit":false,"line":5,"distance":1614,"time":2,"i_long":106.771379,"i_lat":-6.161433,"station_name":"Pesing","transit":false,"station_id":"PSG"},{"time":2,"i_long":106.788277,"transit":false,"distance":2036,"i_lat":-6.162021,"station_id":"GGL","line":5,"station_name":"Grogol","is_transit":false},{"i_long":106.800832,"transit":true,"station_name":"Duri","time":3,"station_id":"DU","i_lat":-6.155215,"line":1,"distance":1700,"is_transit":true},{"is_transit":false,"i_lat":-6.144674,"i_long":106.79867,"transit":false,"distance":1230,"station_id":"AK","time":4,"line":1,"station_name":"Angke"},{"transit":true,"station_id":"KPB","i_lat":-6.132549,"i_long":106.826365,"line":4,"distance":4102,"station_name":"Kampung Bandan","time":9,"is_transit":true},{"i_lat":-6.14505,"i_long":106.836569,"line":11,"distance":1444,"station_id":"RJW","is_transit":false,"transit":false,"station_name":"Rajawali","time":3},{"distance":1901,"station_id":"KMO","i_long":106.839204,"station_name":"Kemayoran","transit":false,"line":11,"is_transit":false,"time":5,"i_lat":-6.161728},{"i_long":106.84368,"i_lat":-6.174784,"distance":1436,"station_name":"Pasar Senen","station_id":"PSE","time":4,"transit":false,"is_transit":false,"line":11},{"transit":false,"is_transit":false,"time":8,"distance":1567,"i_long":106.850107,"station_id":"GST","station_name":"Gang Sentiong","line":11,"i_lat":-6.185975},{"distance":973,"i_lat":-6.193792,"time":1,"transit":false,"station_id":"KMT","station_name":"Kramat","i_long":106.855437,"line":11,"is_transit":false},{"distance":1829,"transit":false,"i_lat":-6.209188,"time":2,"is_transit":false,"station_name":"Pondok Jati","station_id":"POK","line":11,"i_long":106.861737},{"station_id":"JNG","line":1,"station_name":"Jatinegara","distance":1236,"is_transit":true,"i_lat":-6.215091,"i_long":106.86807400000001,"transit":true,"time":9},{"i_long":106.858896,"station_id":"MTR","transit":false,"distance":1377,"time":2,"i_lat":-6.212485,"line":1,"station_name":"Matraman","is_transit":false},{"i_lat":-6.209883,"station_id":"MRI","is_transit":true,"i_long":106.84912,"line":2,"transit":true,"time":2,"distance":1275,"station_name":"Manggarai"},{"is_transit":false,"distance":2610,"line":2,"i_long":106.857948,"time":4,"transit":false,"station_id":"TEB","i_lat":-6.226659,"station_name":"Tebet"},{"station_id":"CW","line":2,"time":2,"station_name":"Cawang","i_long":106.856607,"transit":false,"distance":1230,"i_lat":-6.242512,"is_transit":false},{"transit":false,"i_lat":-6.255332,"distance":1546,"time":3,"i_long":106.85449,"line":2,"station_name":"Duren Kalibata","is_transit":false,"station_id":"DRN"},{"time":2,"station_id":"PSMB","i_lat":-6.263214,"line":2,"i_long":106.851577,"is_transit":false,"transit":false,"distance":824,"station_name":"Pasar Minggu Baru"},{"station_name":"Pasar Minggu","transit":false,"time":2,"i_lat":-6.2842400000000005,"line":2,"distance":2380,"station_id":"PSM","i_long":106.843999,"is_transit":false},{"time":4,"station_id":"TNT","transit":false,"i_long":106.838896,"distance":2820,"station_name":"Tanjung Barat","line":2,"is_transit":false,"i_lat":-6.3080680000000005}]]}