{"data":[[{"i_long":106.679458,"i_lat":-6.169933,"is_transit":false,"transit":false,"station_name":"Poris","line":5,"station_id":"PI","time":0,"distance":0},{"station_id":"KDS","distance":2548,"i_long":106.701612,"i_lat":-6.166068,"line":5,"station_name":"Kalideres","time":3,"transit":false,"is_transit":false},{"station_name":"Rawa Buaya","station_id":"RW","distance":2504,"i_long":106.723064,"is_transit":false,"time":3,"transit":false,"i_lat":-6.162758,"line":5},{"is_transit":false,"station_name":"Bojongindah","transit":false,"station_id":"BOI","i_lat":-6.159876,"line":5,"distance":1152,"time":4,"i_long":106.737035},{"transit":false,"line":5,"station_id":"TKO","i_lat":-6.1587309999999995,"time":2,"station_name":"Taman Kota","distance":2334,"i_long":106.756522,"is_transit":false},{"is_transit":false,"i_long":106.771379,"station_name":"Pesing","time":2,"i_lat":-6.161433,"distance":1614,"transit":false,"line":5,"station_id":"PSG"},{"station_name":"Grogol","i_lat":-6.162021,"is_transit":false,"station_id":"GRG","line":5,"time":2,"i_long":106.788277,"distance":2036,"transit":false},{"time":3,"is_transit":true,"distance":1700,"i_long":106.800832,"transit":true,"line":1,"station_name":"Duri","station_id":"DU","i_lat":-6.155215},{"transit":false,"is_transit":false,"i_long":106.79867,"line":1,"time":4,"station_name":"Angke","distance":1230,"station_id":"AK","i_lat":-6.144674},{"i_lat":-6.132549,"station_name":"Kampung Bandan","is_transit":true,"distance":4102,"station_id":"KPB","i_long":106.826365,"time":9,"line":4,"transit":true},{"time":4,"transit":false,"i_long":106.84464,"is_transit":false,"distance":2185,"station_name":"Ancol","line":4,"i_lat":-6.128023,"station_id":"AC"},{"distance":4566,"i_lat":-6.1109480000000005,"station_name":"Tanjung Priuk","is_transit":false,"line":4,"transit":false,"i_long":106.880089,"time":9,"station_id":"TPK"}],[{"station_id":"PI","transit":false,"is_transit":false,"distance":0,"station_name":"Poris","i_long":106.679458,"time":0,"i_lat":-6.169933,"line":5},{"station_id":"KDS","time":3,"is_transit":false,"transit":false,"line":5,"station_name":"Kalideres","distance":2548,"i_lat":-6.166068,"i_long":106.701612},{"time":3,"line":5,"is_transit":false,"station_id":"RW","distance":2504,"transit":false,"i_long":106.723064,"station_name":"Rawa Buaya","i_lat":-6.162758},{"i_lat":-6.159876,"transit":false,"line":5,"station_id":"BOI","is_transit":false,"station_name":"Bojongindah","distance":1152,"i_long":106.737035,"time":4},{"is_transit":false,"station_name":"Taman Kota","transit":false,"i_lat":-6.1587309999999995,"distance":2334,"i_long":106.756522,"line":5,"station_id":"TKO","time":2},{"transit":false,"is_transit":false,"station_name":"Pesing","i_long":106.771379,"station_id":"PSG","time":2,"line":5,"distance":1614,"i_lat":-6.161433},{"i_long":106.788277,"time":2,"i_lat":-6.162021,"transit":false,"station_id":"GRG","station_name":"Grogol","distance":2036,"is_transit":false,"line":5},{"i_long":106.800832,"station_id":"DU","distance":1700,"station_name":"Duri","line":1,"i_lat":-6.155215,"is_transit":true,"time":3,"transit":true},{"line":1,"is_transit":false,"station_id":"THB","station_name":"Tanah Abang","i_lat":-6.185545,"i_long":106.811091,"distance":3632,"transit":false,"time":8},{"transit":false,"line":1,"time":5,"distance":2029,"i_lat":-6.20132,"station_name":"Karet","is_transit":false,"station_id":"KAT","i_long":106.816351},{"station_name":"Sudirman Baru","line":1,"i_long":106.819881,"station_id":"SUDB","is_transit":false,"transit":false,"time":1,"distance":471,"i_lat":-6.201433},{"line":1,"station_name":"Sudirman","transit":false,"distance":280,"i_long":106.822649,"time":1,"is_transit":false,"station_id":"SUD","i_lat":-6.202263},{"distance":3186,"i_long":106.84912,"line":2,"is_transit":true,"station_name":"Manggarai","station_id":"MRI","time":4,"i_lat":-6.209883,"transit":true},{"distance":1590,"time":4,"station_id":"CKI","is_transit":false,"line":2,"transit":false,"station_name":"Cikini","i_long":106.840169,"i_lat":-6.198556},{"i_lat":-6.186295,"line":2,"time":3,"is_transit":false,"transit":false,"station_id":"GDD","station_name":"Gondangdia","i_long":106.832183,"distance":1750},{"transit":false,"i_lat":-6.166716,"station_name":"Juanda","i_long":106.828284,"is_transit":false,"line":2,"distance":2015,"station_id":"JUA","time":4},{"is_transit":false,"i_lat":-6.160725,"time":2,"station_name":"Sawah Besar","distance":1149,"transit":false,"station_id":"SW","line":2,"i_long":106.827103},{"i_long":106.82482,"station_name":"Manggabesar","station_id":"MGB","line":2,"is_transit":false,"transit":false,"i_lat":-6.149769,"time":2,"distance":906},{"i_long":106.820901,"time":2,"is_transit":false,"station_id":"JAY","station_name":"Jayakarta","i_lat":-6.141205,"line":2,"distance":1080,"transit":false},{"line":2,"station_id":"JAKK","time":4,"is_transit":true,"station_name":"Jakarta Kota","transit":true,"i_long":106.812439,"distance":1264,"i_lat":-6.137569},{"i_long":106.826365,"is_transit":true,"distance":1364,"station_id":"KPB","transit":true,"i_lat":-6.132549,"line":4,"station_name":"Kampung Bandan","time":3},{"distance":2185,"time":4,"i_long":106.84464,"is_transit":false,"line":4,"transit":false,"station_name":"Ancol","i_lat":-6.128023,"station_id":"AC"},{"distance":4566,"i_lat":-6.1109480000000005,"i_long":106.880089,"line":4,"is_transit":false,"transit":false,"time":9,"station_name":"Tanjung Priuk","station_id":"TPK"}],[{"station_id":"PI","is_transit":false,"i_lat":-6.169933,"distance":0,"line":5,"time":0,"i_long":106.679458,"transit":false,"station_name":"Poris"},{"i_long":106.701612,"distance":2548,"station_name":"Kalideres","line":5,"i_lat":-6.166068,"station_id":"KDS","transit":false,"time":3,"is_transit":false},{"i_long":106.723064,"is_transit":false,"distance":2504,"time":3,"transit":false,"line":5,"station_name":"Rawa Buaya","station_id":"RW","i_lat":-6.162758},{"i_long":106.737035,"i_lat":-6.159876,"line":5,"station_name":"Bojongindah","distance":1152,"time":4,"is_transit":false,"transit":false,"station_id":"BOI"},{"transit":false,"i_lat":-6.1587309999999995,"i_long":106.756522,"is_transit":false,"distance":2334,"line":5,"station_name":"Taman Kota","station_id":"TKO","time":2},{"is_transit":false,"i_lat":-6.161433,"i_long":106.771379,"distance":1614,"line":5,"time":2,"station_id":"PSG","station_name":"Pesing","transit":false},{"transit":false,"i_lat":-6.162021,"i_long":106.788277,"time":2,"line":5,"station_name":"Grogol","is_transit":false,"distance":2036,"station_id":"GRG"},{"i_long":106.800832,"line":1,"is_transit":true,"i_lat":-6.155215,"transit":true,"station_id":"DU","time":3,"distance":1700,"station_name":"Duri"},{"time":8,"station_name":"Tanah Abang","station_id":"THB","i_long":106.811091,"is_transit":false,"i_lat":-6.185545,"line":1,"distance":3632,"transit":false},{"station_name":"Karet","i_long":106.816351,"station_id":"KAT","line":1,"is_transit":false,"time":5,"transit":false,"distance":2029,"i_lat":-6.20132},{"transit":false,"time":1,"i_lat":-6.201433,"i_long":106.819881,"station_id":"SUDB","line":1,"is_transit":false,"station_name":"Sudirman Baru","distance":471},{"time":1,"station_name":"Sudirman","line":1,"station_id":"SUD","i_lat":-6.202263,"distance":280,"is_transit":false,"i_long":106.822649,"transit":false},{"is_transit":false,"time":4,"transit":false,"station_id":"MRI","station_name":"Manggarai","i_lat":-6.209883,"i_long":106.84912,"line":2,"distance":3186},{"is_transit":false,"station_id":"MTR","i_long":106.858896,"transit":false,"line":1,"i_lat":-6.212485,"distance":1275,"station_name":"Matraman","time":2},{"is_transit":true,"i_long":106.86807400000001,"line":1,"station_name":"Jatinegara","distance":1377,"i_lat":-6.215091,"time":8,"station_id":"JNG","transit":true},{"line":11,"is_transit":false,"transit":false,"station_id":"POK","i_lat":-6.209188,"distance":1236,"time":2,"station_name":"Pondok Jati","i_long":106.861737},{"station_id":"KMT","i_lat":-6.193792,"is_transit":false,"transit":false,"line":11,"i_long":106.855437,"station_name":"Kramat","distance":1829,"time":2},{"distance":973,"i_long":106.850107,"station_name":"Gang Sentiong","transit":false,"i_lat":-6.185975,"line":11,"station_id":"GST","is_transit":false,"time":1},{"is_transit":false,"transit":false,"time":8,"station_name":"Pasar Senen","i_lat":-6.174784,"line":11,"distance":1567,"i_long":106.84368,"station_id":"PSE"},{"station_name":"Kemayoran","i_long":106.839204,"time":4,"i_lat":-6.161728,"distance":1436,"is_transit":false,"station_id":"KMO","transit":false,"line":11},{"transit":false,"time":5,"i_lat":-6.14505,"line":11,"station_id":"RJW","i_long":106.836569,"station_name":"Rajawali","is_transit":false,"distance":1901},{"time":3,"i_long":106.826365,"station_id":"KPB","station_name":"Kampung Bandan","i_lat":-6.132549,"distance":1444,"is_transit":true,"transit":true,"line":4},{"distance":2185,"station_name":"Ancol","time":4,"i_lat":-6.128023,"line":4,"transit":false,"station_id":"AC","i_long":106.84464,"is_transit":false},{"line":4,"station_id":"TPK","is_transit":false,"time":9,"station_name":"Tanjung Priuk","distance":4566,"i_lat":-6.1109480000000005,"transit":false,"i_long":106.880089}]]}