{"data":[[{"distance":0,"transit":false,"station_name":"Poris","time":0,"is_transit":false,"i_lat":-6.169933,"i_long":106.679458,"station_id":"PI","line":5},{"transit":false,"is_transit":false,"time":3,"i_long":106.701612,"station_id":"KDS","distance":2548,"line":5,"i_lat":-6.166068,"station_name":"Kalideres"},{"distance":2504,"transit":false,"time":3,"station_id":"RW","station_name":"Rawa Buaya","line":5,"i_long":106.723064,"i_lat":-6.162758,"is_transit":false},{"distance":1152,"i_lat":-6.159876,"is_transit":false,"i_long":106.737035,"station_name":"Bojongindah","line":5,"time":4,"station_id":"BOI","transit":false},{"line":5,"is_transit":false,"time":2,"i_long":106.756522,"transit":false,"i_lat":-6.1587309999999995,"station_id":"TKO","station_name":"Taman Kota","distance":2334},{"is_transit":false,"i_long":106.771379,"line":5,"transit":false,"station_name":"Pesing","station_id":"PSG","i_lat":-6.161433,"time":2,"distance":1614},{"station_name":"Grogol","time":2,"line":5,"i_lat":-6.162021,"station_id":"GGL","i_long":106.788277,"transit":false,"distance":2036,"is_transit":false},{"station_name":"Duri","is_transit":true,"i_lat":-6.155215,"station_id":"DU","i_long":106.800832,"transit":true,"time":3,"distance":1700,"line":1},{"i_lat":-6.144674,"station_id":"AK","station_name":"Angke","i_long":106.79867,"distance":1230,"is_transit":false,"time":4,"line":1,"transit":false},{"i_lat":-6.132549,"i_long":106.826365,"station_id":"KPB","station_name":"Kampung Bandan","line":4,"transit":true,"is_transit":true,"time":9,"distance":4102},{"line":4,"distance":2185,"station_id":"AC","is_transit":false,"transit":false,"i_lat":-6.128023,"i_long":106.84464,"station_name":"Ancol","time":4},{"i_lat":-6.1109480000000005,"i_long":106.880089,"is_transit":false,"transit":false,"line":4,"station_id":"TPK","station_name":"Tanjung Priuk","distance":4566,"time":9}],[{"station_id":"PI","i_long":106.679458,"transit":false,"line":5,"is_transit":false,"i_lat":-6.169933,"distance":0,"time":0,"station_name":"Poris"},{"station_id":"KDS","station_name":"Kalideres","transit":false,"is_transit":false,"line":5,"i_lat":-6.166068,"distance":2548,"time":3,"i_long":106.701612},{"distance":2504,"i_lat":-6.162758,"line":5,"time":3,"i_long":106.723064,"station_id":"RW","transit":false,"station_name":"Rawa Buaya","is_transit":false},{"station_name":"Bojongindah","line":5,"station_id":"BOI","distance":1152,"i_lat":-6.159876,"is_transit":false,"i_long":106.737035,"time":4,"transit":false},{"i_lat":-6.1587309999999995,"station_name":"Taman Kota","i_long":106.756522,"line":5,"is_transit":false,"station_id":"TKO","distance":2334,"transit":false,"time":2},{"i_lat":-6.161433,"station_id":"PSG","is_transit":false,"time":2,"i_long":106.771379,"line":5,"transit":false,"distance":1614,"station_name":"Pesing"},{"i_long":106.788277,"distance":2036,"station_id":"GGL","station_name":"Grogol","line":5,"transit":false,"i_lat":-6.162021,"is_transit":false,"time":2},{"i_lat":-6.155215,"distance":1700,"transit":true,"i_long":106.800832,"line":1,"time":3,"station_id":"DU","is_transit":true,"station_name":"Duri"},{"is_transit":false,"i_lat":-6.185545,"time":8,"station_name":"Tanah Abang","i_long":106.811091,"distance":3632,"transit":false,"station_id":"THB","line":1},{"time":5,"station_id":"KAT","is_transit":false,"i_long":106.816351,"line":1,"transit":false,"distance":2029,"station_name":"Karet","i_lat":-6.20132},{"time":1,"station_id":"SUDB","i_long":106.819881,"line":1,"is_transit":false,"distance":471,"transit":false,"station_name":"Sudirman Baru","i_lat":-6.201433},{"station_name":"Sudirman","line":1,"transit":false,"distance":280,"i_long":106.822649,"i_lat":-6.202263,"station_id":"SUD","time":1,"is_transit":false},{"distance":3186,"is_transit":true,"station_name":"Manggarai","i_lat":-6.209883,"station_id":"MRI","i_long":106.84912,"line":2,"time":4,"transit":true},{"station_id":"CKI","time":4,"i_lat":-6.198556,"distance":1590,"line":2,"i_long":106.840169,"station_name":"Cikini","transit":false,"is_transit":false},{"distance":1750,"station_id":"GDD","i_lat":-6.186295,"i_long":106.832183,"line":2,"is_transit":false,"station_name":"Gondangdia","transit":false,"time":3},{"station_name":"Juanda","transit":false,"i_lat":-6.166716,"station_id":"JUA","i_long":106.828284,"time":4,"is_transit":false,"line":2,"distance":2015},{"transit":false,"i_lat":-6.160725,"i_long":106.827103,"distance":1149,"station_id":"SW","station_name":"Sawah Besar","time":2,"is_transit":false,"line":2},{"line":2,"distance":906,"transit":false,"i_lat":-6.149769,"time":2,"i_long":106.82482,"is_transit":false,"station_id":"MGB","station_name":"Manggabesar"},{"station_name":"Jayakarta","station_id":"JAY","i_lat":-6.141205,"is_transit":false,"time":2,"i_long":106.820901,"distance":1080,"transit":false,"line":2},{"i_lat":-6.137569,"i_long":106.812439,"line":2,"station_id":"JAKK","transit":true,"distance":1264,"station_name":"Jakarta Kota","time":4,"is_transit":true},{"i_long":106.826365,"transit":true,"station_id":"KPB","line":4,"time":3,"distance":1364,"station_name":"Kampung Bandan","is_transit":true,"i_lat":-6.132549},{"station_name":"Ancol","i_lat":-6.128023,"i_long":106.84464,"distance":2185,"time":4,"station_id":"AC","line":4,"transit":false,"is_transit":false},{"i_long":106.880089,"station_id":"TPK","i_lat":-6.1109480000000005,"distance":4566,"line":4,"transit":false,"time":9,"station_name":"Tanjung Priuk","is_transit":false}],[{"is_transit":false,"station_name":"Poris","i_lat":-6.169933,"line":5,"transit":false,"station_id":"PI","distance":0,"time":0,"i_long":106.679458},{"transit":false,"station_name":"Kalideres","is_transit":false,"time":3,"i_lat":-6.166068,"i_long":106.701612,"line":5,"distance":2548,"station_id":"KDS"},{"i_long":106.723064,"distance":2504,"station_id":"RW","time":3,"line":5,"is_transit":false,"station_name":"Rawa Buaya","i_lat":-6.162758,"transit":false},{"station_id":"BOI","transit":false,"is_transit":false,"i_long":106.737035,"time":4,"station_name":"Bojongindah","line":5,"distance":1152,"i_lat":-6.159876},{"line":5,"distance":2334,"station_id":"TKO","time":2,"is_transit":false,"i_lat":-6.1587309999999995,"station_name":"Taman Kota","transit":false,"i_long":106.756522},{"i_long":106.771379,"transit":false,"is_transit":false,"station_name":"Pesing","line":5,"distance":1614,"i_lat":-6.161433,"station_id":"PSG","time":2},{"transit":false,"i_lat":-6.162021,"time":2,"distance":2036,"i_long":106.788277,"station_name":"Grogol","station_id":"GGL","is_transit":false,"line":5},{"station_name":"Duri","line":1,"i_long":106.800832,"distance":1700,"is_transit":true,"station_id":"DU","i_lat":-6.155215,"time":3,"transit":true},{"transit":false,"station_name":"Tanah Abang","i_lat":-6.185545,"line":1,"time":8,"station_id":"THB","distance":3632,"is_transit":false,"i_long":106.811091},{"i_lat":-6.20132,"i_long":106.816351,"line":1,"time":5,"transit":false,"distance":2029,"station_name":"Karet","station_id":"KAT","is_transit":false},{"line":1,"i_long":106.819881,"distance":471,"station_name":"Sudirman Baru","time":1,"station_id":"SUDB","transit":false,"is_transit":false,"i_lat":-6.201433},{"time":1,"is_transit":false,"station_id":"SUD","i_long":106.822649,"transit":false,"station_name":"Sudirman","line":1,"distance":280,"i_lat":-6.202263},{"i_long":106.84912,"line":2,"is_transit":false,"i_lat":-6.209883,"station_id":"MRI","time":4,"distance":3186,"transit":false,"station_name":"Manggarai"},{"distance":1275,"transit":false,"station_id":"MTR","line":1,"i_lat":-6.212485,"i_long":106.858896,"station_name":"Matraman","time":2,"is_transit":false},{"i_lat":-6.215091,"station_id":"JNG","time":8,"distance":1377,"transit":true,"is_transit":true,"station_name":"Jatinegara","i_long":106.86807400000001,"line":1},{"i_lat":-6.209188,"station_id":"POK","distance":1236,"station_name":"Pondok Jati","i_long":106.861737,"line":11,"is_transit":false,"transit":false,"time":2},{"station_name":"Kramat","i_long":106.855437,"is_transit":false,"line":11,"distance":1829,"station_id":"KMT","transit":false,"i_lat":-6.193792,"time":2},{"distance":973,"i_lat":-6.185975,"i_long":106.850107,"transit":false,"station_name":"Gang Sentiong","line":11,"is_transit":false,"time":1,"station_id":"GST"},{"distance":1567,"station_id":"PSE","station_name":"Pasar Senen","i_lat":-6.174784,"transit":false,"is_transit":false,"time":8,"i_long":106.84368,"line":11},{"i_lat":-6.161728,"i_long":106.839204,"station_id":"KMO","distance":1436,"line":11,"is_transit":false,"transit":false,"station_name":"Kemayoran","time":4},{"time":5,"i_lat":-6.14505,"distance":1901,"i_long":106.836569,"is_transit":false,"line":11,"station_id":"RJW","transit":false,"station_name":"Rajawali"},{"time":3,"line":4,"station_id":"KPB","distance":1444,"transit":true,"station_name":"Kampung Bandan","is_transit":true,"i_lat":-6.132549,"i_long":106.826365},{"line":4,"time":4,"station_id":"AC","i_lat":-6.128023,"transit":false,"i_long":106.84464,"distance":2185,"station_name":"Ancol","is_transit":false},{"i_long":106.880089,"transit":false,"line":4,"distance":4566,"station_id":"TPK","is_transit":false,"station_name":"Tanjung Priuk","i_lat":-6.1109480000000005,"time":9}]]}