{"data":[[{"station_id":"PI","distance":0,"i_lat":-6.169933,"transit":false,"line":5,"is_transit":false,"time":0,"station_name":"Poris","i_long":106.679458},{"is_transit":false,"i_lat":-6.166068,"distance":2548,"time":3,"station_name":"Kalideres","station_id":"KDS","i_long":106.701612,"line":5,"transit":false},{"is_transit":false,"i_lat":-6.162758,"distance":2504,"line":5,"i_long":106.723064,"station_id":"RW","station_name":"Rawa Buaya","transit":false,"time":3},{"i_lat":-6.159876,"time":4,"is_transit":false,"transit":false,"i_long":106.737035,"line":0,"station_id":"BOI","distance":1152,"station_name":"Bojongindah"},{"time":2,"station_id":"TKO","station_name":"Taman Kota","distance":2334,"i_long":106.756522,"is_transit":false,"transit":false,"i_lat":-6.1587309999999995,"line":5},{"is_transit":false,"line":5,"time":2,"distance":1614,"transit":false,"i_lat":-6.161433,"i_long":106.771379,"station_name":"Pesing","station_id":"PSG"},{"transit":false,"i_lat":-6.162021,"station_name":"Grogol","i_long":106.788277,"station_id":"GGL","time":2,"line":5,"is_transit":false,"distance":2036},{"line":1,"distance":1700,"i_long":106.800832,"time":3,"transit":true,"i_lat":-6.155215,"station_id":"DU","is_transit":true,"station_name":"Duri"},{"time":4,"transit":false,"station_name":"Angke","distance":1230,"i_lat":-6.144674,"station_id":"AK","line":0,"is_transit":false,"i_long":106.79867},{"line":0,"station_name":"Kampung Bandan","time":9,"i_lat":-6.132549,"station_id":"KPB","i_long":106.826365,"distance":4102,"is_transit":true,"transit":false},{"line":0,"is_transit":false,"station_name":"Ancol","transit":false,"time":4,"i_lat":-6.128023,"distance":2185,"station_id":"AC","i_long":106.84464},{"distance":4566,"station_name":"Tanjung Priuk","transit":false,"station_id":"TPK","i_long":106.880089,"line":4,"is_transit":false,"i_lat":-6.1109480000000005,"time":9}],[{"i_lat":-6.169933,"distance":0,"time":0,"is_transit":false,"transit":false,"i_long":106.679458,"station_name":"Poris","station_id":"PI","line":5},{"i_lat":-6.166068,"distance":2548,"transit":false,"station_id":"KDS","line":5,"station_name":"Kalideres","time":3,"is_transit":false,"i_long":106.701612},{"transit":false,"is_transit":false,"station_id":"RW","station_name":"Rawa Buaya","i_lat":-6.162758,"i_long":106.723064,"line":5,"distance":2504,"time":3},{"time":4,"i_long":106.737035,"distance":1152,"is_transit":false,"i_lat":-6.159876,"line":0,"station_id":"BOI","station_name":"Bojongindah","transit":false},{"transit":false,"station_name":"Taman Kota","time":2,"station_id":"TKO","i_lat":-6.1587309999999995,"i_long":106.756522,"is_transit":false,"line":5,"distance":2334},{"is_transit":false,"station_name":"Pesing","time":2,"station_id":"PSG","transit":false,"i_lat":-6.161433,"i_long":106.771379,"line":5,"distance":1614},{"is_transit":false,"distance":2036,"i_lat":-6.162021,"time":2,"i_long":106.788277,"station_id":"GGL","line":5,"transit":false,"station_name":"Grogol"},{"is_transit":true,"line":1,"distance":1700,"transit":true,"i_long":106.800832,"i_lat":-6.155215,"time":3,"station_id":"DU","station_name":"Duri"},{"is_transit":true,"station_id":"THB","time":8,"i_long":106.811091,"transit":false,"i_lat":-6.185545,"line":1,"distance":3632,"station_name":"Tanah Abang"},{"station_name":"Karet","line":1,"i_lat":-6.20132,"i_long":106.816351,"time":5,"distance":2029,"transit":false,"is_transit":false,"station_id":"KAT"},{"station_name":"Sudirman Baru","transit":false,"station_id":"SUDB","is_transit":false,"time":1,"distance":471,"line":1,"i_lat":-6.201433,"i_long":106.819881},{"is_transit":false,"time":1,"transit":false,"i_lat":-6.202263,"station_id":"SUD","distance":280,"station_name":"Sudirman","i_long":106.822649,"line":1},{"line":0,"time":4,"i_lat":-6.209883,"i_long":106.84912,"station_name":"Manggarai","distance":3186,"is_transit":true,"station_id":"MRI","transit":true},{"time":4,"distance":1590,"transit":false,"i_long":106.840169,"i_lat":-6.198556,"is_transit":false,"station_id":"CKI","station_name":"Cikini","line":0},{"line":2,"is_transit":false,"i_lat":-6.186295,"time":3,"station_id":"GDD","i_long":106.832183,"station_name":"Gondangdia","transit":false,"distance":1750},{"is_transit":false,"station_id":"JUA","time":4,"i_lat":-6.166716,"transit":false,"distance":2015,"station_name":"Juanda","i_long":106.828284,"line":2},{"transit":false,"station_name":"Sawah Besar","station_id":"SW","time":2,"i_lat":-6.160725,"is_transit":false,"distance":1149,"i_long":106.827103,"line":2},{"time":2,"station_id":"MGB","i_lat":-6.149769,"transit":false,"distance":906,"station_name":"Manggabesar","line":2,"i_long":106.82482,"is_transit":false},{"station_id":"JAY","i_lat":-6.141205,"time":2,"distance":1080,"station_name":"Jayakarta","i_long":106.820901,"line":7,"is_transit":false,"transit":false},{"transit":true,"is_transit":true,"i_long":106.812439,"station_id":"JAKK","line":0,"station_name":"Jakarta Kota","i_lat":-6.137569,"time":4,"distance":1264},{"is_transit":true,"distance":1364,"time":3,"station_name":"Kampung Bandan","i_lat":-6.132549,"transit":false,"i_long":106.826365,"line":0,"station_id":"KPB"},{"line":0,"time":4,"i_lat":-6.128023,"transit":false,"i_long":106.84464,"is_transit":false,"station_name":"Ancol","distance":2185,"station_id":"AC"},{"station_name":"Tanjung Priuk","station_id":"TPK","i_lat":-6.1109480000000005,"line":4,"transit":false,"time":9,"i_long":106.880089,"is_transit":false,"distance":4566}],[{"transit":false,"distance":0,"station_name":"Poris","line":5,"i_lat":-6.169933,"time":0,"station_id":"PI","is_transit":false,"i_long":106.679458},{"transit":false,"station_id":"KDS","distance":2548,"station_name":"Kalideres","i_lat":-6.166068,"time":3,"line":5,"i_long":106.701612,"is_transit":false},{"i_lat":-6.162758,"is_transit":false,"time":3,"station_name":"Rawa Buaya","line":5,"i_long":106.723064,"distance":2504,"transit":false,"station_id":"RW"},{"transit":false,"station_id":"BOI","i_long":106.737035,"is_transit":false,"station_name":"Bojongindah","i_lat":-6.159876,"line":0,"time":4,"distance":1152},{"i_lat":-6.1587309999999995,"i_long":106.756522,"time":2,"transit":false,"line":5,"is_transit":false,"station_name":"Taman Kota","distance":2334,"station_id":"TKO"},{"i_lat":-6.161433,"station_name":"Pesing","transit":false,"station_id":"PSG","line":5,"time":2,"i_long":106.771379,"distance":1614,"is_transit":false},{"line":5,"i_long":106.788277,"station_id":"GGL","is_transit":false,"transit":false,"time":2,"station_name":"Grogol","i_lat":-6.162021,"distance":2036},{"is_transit":true,"station_name":"Duri","station_id":"DU","time":3,"line":1,"i_long":106.800832,"transit":true,"distance":1700,"i_lat":-6.155215},{"i_lat":-6.185545,"is_transit":true,"i_long":106.811091,"station_name":"Tanah Abang","line":1,"time":8,"distance":3632,"station_id":"THB","transit":false},{"i_lat":-6.20132,"i_long":106.816351,"distance":2029,"station_id":"KAT","time":5,"is_transit":false,"transit":false,"line":1,"station_name":"Karet"},{"is_transit":false,"station_name":"Sudirman Baru","time":1,"i_long":106.819881,"i_lat":-6.201433,"station_id":"SUDB","line":1,"distance":471,"transit":false},{"i_long":106.822649,"i_lat":-6.202263,"is_transit":false,"distance":280,"time":1,"station_name":"Sudirman","station_id":"SUD","line":1,"transit":false},{"i_lat":-6.209883,"time":4,"station_name":"Manggarai","distance":3186,"transit":false,"station_id":"MRI","is_transit":true,"i_long":106.84912,"line":0},{"time":2,"i_lat":-6.212485,"distance":1275,"station_name":"Matraman","station_id":"MTR","line":1,"transit":false,"is_transit":false,"i_long":106.858896},{"time":8,"i_long":106.86807400000001,"distance":1377,"i_lat":-6.215091,"transit":true,"is_transit":true,"station_id":"JNG","line":0,"station_name":"Jatinegara"},{"station_name":"Pondok Jati","time":2,"is_transit":false,"station_id":"POK","i_lat":-6.209188,"i_long":106.861737,"line":11,"distance":1236,"transit":false},{"time":2,"station_name":"Kramat","transit":false,"i_long":106.855437,"i_lat":-6.193792,"distance":1829,"is_transit":false,"line":11,"station_id":"KMT"},{"time":1,"transit":false,"i_long":106.850107,"station_id":"GST","is_transit":false,"distance":973,"station_name":"Gang Sentiong","i_lat":-6.185975,"line":11},{"time":8,"line":11,"station_name":"Pasar Senen","station_id":"PSE","i_long":106.84368,"distance":1567,"is_transit":false,"i_lat":-6.174784,"transit":false},{"is_transit":false,"station_name":"Kemayoran","i_lat":-6.161728,"station_id":"KMO","time":4,"transit":false,"line":11,"i_long":106.839204,"distance":1436},{"distance":1901,"i_long":106.836569,"transit":false,"time":5,"is_transit":false,"station_name":"Rajawali","i_lat":-6.14505,"line":11,"station_id":"RJW"},{"transit":true,"time":3,"i_lat":-6.132549,"is_transit":true,"distance":1444,"station_id":"KPB","i_long":106.826365,"station_name":"Kampung Bandan","line":0},{"i_long":106.84464,"line":0,"distance":2185,"station_name":"Ancol","time":4,"i_lat":-6.128023,"is_transit":false,"transit":false,"station_id":"AC"},{"transit":false,"is_transit":false,"station_name":"Tanjung Priuk","line":4,"i_long":106.880089,"i_lat":-6.1109480000000005,"time":9,"station_id":"TPK","distance":4566}]]}