{"data":[[{"is_transit":false,"distance":0,"i_lat":-7.567939,"transit":false,"station_id":"PL","station_name":"Palur","time":0,"i_long":110.875516,"line":0},{"i_lat":-7.56197,"station_name":"Solo Jebres","station_id":"SK","transit":false,"time":6,"line":7,"distance":415,"is_transit":false,"i_long":110.839459},{"station_id":"SLO","is_transit":false,"distance":2141,"transit":false,"station_name":"Solo Balapan","i_long":110.821471,"line":7,"time":10,"i_lat":-7.556783},{"is_transit":false,"time":6,"station_name":"Purwosari","i_lat":-7.561362,"i_long":110.796655,"station_id":"PWS","distance":2936,"line":7,"transit":false},{"distance":6639,"transit":false,"i_lat":-7.589036,"station_id":"GW","station_name":"Gawok","line":7,"i_long":110.744432,"is_transit":false,"time":7},{"station_id":"DL","is_transit":false,"station_name":"Delanggu","i_lat":-7.62181,"line":7,"distance":5543,"time":6,"transit":false,"i_long":110.706679},{"distance":6271,"line":7,"station_id":"CE","station_name":"Ceper","i_long":110.674861,"i_lat":-7.668597,"time":7,"transit":false,"is_transit":false},{"transit":false,"station_id":"KT","i_long":110.602981,"i_lat":-7.712087,"is_transit":false,"distance":9279,"station_name":"Klaten","line":7,"time":9},{"distance":6738,"is_transit":false,"time":8,"i_long":110.548972,"i_lat":-7.74111,"line":7,"station_name":"Srowot","transit":false,"station_id":"SWT"},{"transit":false,"is_transit":false,"i_lat":-7.756284,"distance":5850,"time":7,"station_id":"BBN","station_name":"Brambanan","i_long":110.500451,"line":0}]]}