{"data":[[{"station_id":"PL","station_name":"Palur","i_long":110.875516,"distance":0,"time":0,"transit":false,"line":0,"is_transit":false,"i_lat":-7.567939},{"station_id":"SK","transit":false,"i_long":110.839459,"line":7,"time":6,"is_transit":false,"distance":415,"i_lat":-7.56197,"station_name":"Solo Jebres"},{"station_id":"SLO","i_long":110.821471,"is_transit":false,"distance":2141,"station_name":"Solo Balapan","i_lat":-7.556783,"transit":false,"line":7,"time":10},{"distance":2936,"line":7,"is_transit":false,"i_lat":-7.561362,"i_long":110.796655,"time":6,"station_id":"PWS","station_name":"Purwosari","transit":false},{"transit":false,"i_long":110.744432,"station_name":"Gawok","time":7,"i_lat":-7.589036,"is_transit":false,"distance":6639,"line":7,"station_id":"GW"},{"time":6,"i_long":110.706679,"transit":false,"station_id":"DL","distance":5543,"i_lat":-7.62181,"is_transit":false,"station_name":"Delanggu","line":0},{"time":7,"i_lat":-7.668597,"distance":6271,"station_id":"CE","i_long":110.674861,"transit":false,"station_name":"Ceper","line":0,"is_transit":false},{"station_id":"KT","i_lat":-7.712087,"is_transit":false,"distance":9279,"i_long":110.602981,"station_name":"Klaten","transit":false,"time":9,"line":7},{"station_id":"SWT","distance":6738,"i_lat":-7.74111,"is_transit":false,"transit":false,"time":8,"line":7,"station_name":"Srowot","i_long":110.548972},{"time":7,"i_lat":-7.756284,"distance":5850,"i_long":110.500451,"station_name":"Brambanan","station_id":"BBN","line":0,"is_transit":false,"transit":false}]]}