{"data":[[{"transit":false,"distance":0,"is_transit":false,"line":0,"time":0,"station_id":"PL","i_long":110.875516,"i_lat":-7.567939,"station_name":"Palur"},{"station_id":"SK","station_name":"Solo Jebres","is_transit":false,"distance":415,"line":7,"i_long":110.839459,"i_lat":-7.56197,"transit":false,"time":6},{"i_long":110.821471,"transit":false,"line":7,"time":10,"i_lat":-7.556783,"distance":2141,"is_transit":false,"station_name":"Solo Balapan","station_id":"SLO"},{"station_id":"PWS","i_lat":-7.561362,"i_long":110.796655,"time":6,"line":7,"distance":2936,"transit":false,"is_transit":false,"station_name":"Purwosari"},{"i_lat":-7.589036,"i_long":110.744432,"line":7,"distance":6639,"station_name":"Gawok","transit":false,"is_transit":false,"station_id":"GW","time":7},{"time":6,"station_id":"DL","i_long":110.706679,"station_name":"Delanggu","is_transit":false,"i_lat":-7.62181,"line":7,"transit":false,"distance":5543},{"transit":false,"distance":6271,"i_lat":-7.668597,"is_transit":false,"station_id":"CE","time":7,"line":7,"station_name":"Ceper","i_long":110.674861},{"i_lat":-7.712087,"station_id":"KT","station_name":"Klaten","time":9,"distance":9279,"transit":false,"is_transit":false,"i_long":110.602981,"line":7},{"i_lat":-7.74111,"is_transit":false,"station_name":"Srowot","distance":6738,"station_id":"SWT","i_long":110.548972,"line":7,"time":8,"transit":false},{"i_long":110.500451,"station_id":"BBN","line":0,"is_transit":false,"transit":false,"station_name":"Brambanan","i_lat":-7.756284,"time":7,"distance":5850}]]}