{"data":[[{"i_long":110.875516,"distance":0,"i_lat":-7.567939,"transit":false,"station_name":"Palur","station_id":"PL","is_transit":false,"time":0,"line":0},{"is_transit":false,"distance":415,"transit":false,"i_lat":-7.56197,"i_long":110.839459,"station_id":"SK","line":7,"time":6,"station_name":"Solo Jebres"},{"line":7,"transit":false,"is_transit":false,"i_lat":-7.556783,"time":10,"station_id":"SLO","station_name":"Solo Balapan","i_long":110.821471,"distance":2141},{"station_id":"PWS","is_transit":false,"line":7,"time":6,"transit":false,"station_name":"Purwosari","i_lat":-7.561362,"distance":2936,"i_long":110.796655},{"i_long":110.744432,"line":7,"station_name":"Gawok","is_transit":false,"transit":false,"station_id":"GW","distance":6639,"time":7,"i_lat":-7.589036},{"station_name":"Delanggu","i_long":110.706679,"time":6,"distance":5543,"transit":false,"station_id":"DL","i_lat":-7.62181,"line":7,"is_transit":false},{"time":7,"line":7,"is_transit":false,"i_long":110.674861,"transit":false,"distance":6271,"i_lat":-7.668597,"station_name":"Ceper","station_id":"CE"},{"i_long":110.602981,"station_id":"KT","transit":false,"distance":9279,"is_transit":false,"station_name":"Klaten","time":9,"i_lat":-7.712087,"line":7},{"i_long":110.548972,"station_name":"Srowot","time":8,"station_id":"SWT","is_transit":false,"i_lat":-7.74111,"line":7,"transit":false,"distance":6738},{"transit":false,"station_id":"BBN","is_transit":false,"station_name":"Brambanan","time":7,"i_lat":-7.756284,"distance":5850,"i_long":110.500451,"line":0}]]}