{"data":[[{"station_name":"Palur","transit":false,"distance":0,"i_long":110.875516,"time":0,"station_id":"PL","is_transit":false,"i_lat":-7.567939,"line":0},{"station_id":"SK","i_lat":-7.56197,"distance":415,"i_long":110.839459,"station_name":"Solo Jebres","is_transit":false,"time":6,"transit":false,"line":7},{"station_id":"SLO","i_lat":-7.556783,"transit":false,"i_long":110.821471,"station_name":"Solo Balapan","time":10,"is_transit":false,"distance":2141,"line":7},{"i_long":110.796655,"is_transit":false,"distance":2936,"station_id":"PWS","time":6,"line":7,"i_lat":-7.561362,"transit":false,"station_name":"Purwosari"},{"station_name":"Gawok","transit":false,"distance":6639,"i_long":110.744432,"is_transit":false,"time":7,"line":7,"station_id":"GW","i_lat":-7.589036},{"distance":5543,"time":6,"i_long":110.706679,"line":7,"station_id":"DL","station_name":"Delanggu","transit":false,"i_lat":-7.62181,"is_transit":false},{"station_name":"Ceper","time":7,"distance":6271,"is_transit":false,"i_long":110.674861,"station_id":"CE","line":7,"i_lat":-7.668597,"transit":false},{"i_long":110.602981,"transit":false,"distance":9279,"station_name":"Klaten","station_id":"KT","time":9,"line":7,"i_lat":-7.712087,"is_transit":false},{"i_lat":-7.74111,"time":8,"distance":6738,"station_name":"Srowot","station_id":"SWT","is_transit":false,"transit":false,"line":7,"i_long":110.548972},{"station_id":"BBN","distance":5850,"is_transit":false,"line":0,"time":7,"transit":false,"i_long":110.500451,"station_name":"Brambanan","i_lat":-7.756284},{"i_long":110.436791,"station_id":"MGW","transit":false,"station_name":"Maguwo","is_transit":false,"time":8,"i_lat":-7.784476,"line":7,"distance":7905},{"is_transit":false,"station_name":"Lempuyangan","time":7,"distance":6799,"i_long":110.375434,"station_id":"LPN","i_lat":-7.790018,"line":7,"transit":false},{"is_transit":false,"line":7,"i_lat":-7.788961,"station_name":"Yogyakarta","station_id":"YK","distance":1307,"transit":false,"time":6,"i_long":110.36345},{"time":5,"station_id":"PTN","station_name":"Patukan","i_long":110.32542,"is_transit":false,"transit":false,"i_lat":-7.790605,"line":7,"distance":4241},{"i_lat":-7.797702,"is_transit":false,"line":7,"i_long":110.279205,"distance":4579,"transit":false,"station_id":"RWL","time":4,"station_name":"Rewulu"},{"station_name":"Sentolo","i_long":110.220122,"is_transit":false,"transit":false,"i_lat":-7.832939,"station_id":"STL","line":0,"time":8,"distance":9041},{"transit":false,"line":7,"station_id":"WT","distance":10145,"i_lat":-7.859237,"time":25,"station_name":"Wates","is_transit":false,"i_long":110.158003},{"i_lat":-7.861626,"line":7,"station_name":"Wojo","is_transit":false,"time":15,"transit":false,"station_id":"WJ","distance":13652,"i_long":110.040449}]]}