{"data":[[{"station_name":"Palur","i_lat":-7.567939,"is_transit":false,"transit":false,"time":0,"line":0,"station_id":"PL","distance":0,"i_long":110.875516},{"station_name":"Solo Jebres","distance":415,"time":6,"i_lat":-7.56197,"is_transit":false,"transit":false,"station_id":"SK","i_long":110.839459,"line":7},{"station_name":"Solo Balapan","station_id":"SLO","i_long":110.821471,"time":10,"line":7,"distance":2141,"transit":false,"i_lat":-7.556783,"is_transit":false},{"transit":false,"station_id":"PWS","is_transit":false,"distance":2936,"time":6,"station_name":"Purwosari","i_lat":-7.561362,"line":7,"i_long":110.796655},{"i_lat":-7.589036,"i_long":110.744432,"time":7,"line":7,"distance":6639,"station_id":"GW","is_transit":false,"station_name":"Gawok","transit":false},{"station_name":"Delanggu","station_id":"DL","distance":5543,"time":6,"i_long":110.706679,"is_transit":false,"i_lat":-7.62181,"transit":false,"line":7},{"station_id":"CE","is_transit":false,"transit":false,"i_long":110.674861,"line":7,"station_name":"Ceper","distance":6271,"i_lat":-7.668597,"time":7},{"transit":false,"station_name":"Klaten","i_long":110.602981,"distance":9279,"time":9,"i_lat":-7.712087,"line":7,"station_id":"KT","is_transit":false},{"station_id":"SWT","is_transit":false,"transit":false,"station_name":"Srowot","i_lat":-7.74111,"i_long":110.548972,"line":7,"distance":6738,"time":8},{"time":7,"line":0,"is_transit":false,"distance":5850,"station_id":"BBN","station_name":"Brambanan","i_lat":-7.756284,"i_long":110.500451,"transit":false},{"transit":false,"i_long":110.436791,"time":8,"is_transit":false,"i_lat":-7.784476,"distance":7905,"line":7,"station_name":"Maguwo","station_id":"MGW"},{"station_name":"Lempuyangan","station_id":"LPN","i_lat":-7.790018,"is_transit":false,"line":7,"distance":6799,"time":7,"transit":false,"i_long":110.375434},{"transit":false,"distance":1307,"is_transit":false,"station_name":"Yogyakarta","time":6,"station_id":"YK","i_long":110.36345,"line":7,"i_lat":-7.788961},{"distance":4241,"i_long":110.32542,"station_id":"PTN","time":5,"station_name":"Patukan","i_lat":-7.790605,"is_transit":false,"transit":false,"line":7},{"i_lat":-7.797702,"station_id":"RWL","line":7,"is_transit":false,"i_long":110.279205,"distance":4579,"transit":false,"time":4,"station_name":"Rewulu"},{"station_id":"STL","time":8,"transit":false,"distance":9041,"station_name":"Sentolo","i_long":110.220122,"line":0,"is_transit":false,"i_lat":-7.832939},{"station_name":"Wates","station_id":"WT","transit":false,"distance":10145,"is_transit":false,"time":25,"i_lat":-7.859237,"i_long":110.158003,"line":7},{"is_transit":false,"distance":13652,"i_lat":-7.861626,"station_id":"WJ","station_name":"Wojo","time":15,"transit":false,"i_long":110.040449,"line":7}]]}