{"data":[[{"distance":0,"station_name":"Palur","i_lat":-7.567939,"i_long":110.875516,"time":0,"transit":false,"is_transit":false,"station_id":"PL","line":0},{"i_long":110.839459,"distance":415,"station_name":"Solo Jebres","transit":false,"i_lat":-7.56197,"is_transit":false,"station_id":"SK","time":6,"line":7},{"station_id":"SLO","distance":2141,"transit":false,"i_lat":-7.556783,"line":7,"is_transit":false,"station_name":"Solo Balapan","time":10,"i_long":110.821471},{"distance":2936,"station_name":"Purwosari","transit":false,"time":6,"i_lat":-7.561362,"i_long":110.796655,"is_transit":false,"line":7,"station_id":"PWS"},{"is_transit":false,"line":7,"time":7,"i_lat":-7.589036,"station_name":"Gawok","i_long":110.744432,"transit":false,"station_id":"GW","distance":6639},{"station_id":"DL","transit":false,"i_lat":-7.62181,"time":6,"i_long":110.706679,"station_name":"Delanggu","distance":5543,"line":0,"is_transit":false},{"time":7,"i_lat":-7.668597,"is_transit":false,"transit":false,"line":0,"distance":6271,"station_id":"CE","station_name":"Ceper","i_long":110.674861},{"station_name":"Klaten","station_id":"KT","transit":false,"time":9,"distance":9279,"i_lat":-7.712087,"i_long":110.602981,"line":7,"is_transit":false},{"distance":6738,"i_lat":-7.74111,"i_long":110.548972,"station_name":"Srowot","time":8,"line":7,"is_transit":false,"station_id":"SWT","transit":false},{"distance":5850,"time":7,"station_name":"Brambanan","is_transit":false,"i_lat":-7.756284,"transit":false,"line":0,"station_id":"BBN","i_long":110.500451},{"time":8,"i_lat":-7.784476,"i_long":110.436791,"line":7,"station_name":"Maguwo","transit":false,"distance":7905,"is_transit":false,"station_id":"MGW"},{"station_name":"Lempuyangan","transit":false,"i_long":110.375434,"time":7,"distance":6799,"station_id":"LPN","i_lat":-7.790018,"is_transit":false,"line":7},{"station_id":"YK","distance":1307,"is_transit":false,"transit":false,"station_name":"Yogyakarta","i_long":110.36345,"line":7,"i_lat":-7.788961,"time":6},{"line":7,"station_name":"Patukan","i_long":110.32542,"station_id":"PTN","i_lat":-7.790605,"distance":4241,"transit":false,"time":5,"is_transit":false},{"time":4,"distance":4579,"line":7,"i_long":110.279205,"is_transit":false,"station_id":"RWL","station_name":"Rewulu","transit":false,"i_lat":-7.797702},{"station_id":"STL","distance":9041,"station_name":"Sentolo","transit":false,"i_long":110.220122,"i_lat":-7.832939,"time":8,"line":7,"is_transit":false},{"i_lat":-7.859237,"line":7,"time":25,"is_transit":false,"i_long":110.158003,"transit":false,"distance":10145,"station_name":"Wates","station_id":"WT"},{"i_long":110.040449,"station_id":"WJ","station_name":"Wojo","transit":false,"is_transit":false,"time":15,"i_lat":-7.861626,"distance":13652,"line":7}]]}