{"data":[[{"line":0,"station_id":"PL","station_name":"Palur","distance":0,"is_transit":false,"transit":false,"time":0,"i_lat":-7.567939,"i_long":110.875516},{"time":6,"line":7,"distance":415,"transit":false,"i_lat":-7.56197,"i_long":110.839459,"station_name":"Solo Jebres","station_id":"SK","is_transit":false},{"transit":false,"time":10,"i_lat":-7.556783,"station_name":"Solo Balapan","is_transit":false,"distance":2141,"station_id":"SLO","line":7,"i_long":110.821471},{"distance":2936,"station_name":"Purwosari","station_id":"PWS","time":6,"is_transit":false,"line":7,"i_lat":-7.561362,"transit":false,"i_long":110.796655},{"distance":6639,"time":7,"is_transit":false,"station_id":"GW","i_lat":-7.589036,"transit":false,"i_long":110.744432,"line":7,"station_name":"Gawok"},{"station_name":"Delanggu","distance":5543,"i_lat":-7.62181,"is_transit":false,"i_long":110.706679,"transit":false,"time":6,"station_id":"DL","line":0},{"line":0,"distance":6271,"station_id":"CE","station_name":"Ceper","transit":false,"time":7,"is_transit":false,"i_lat":-7.668597,"i_long":110.674861},{"time":9,"is_transit":false,"station_id":"KT","station_name":"Klaten","line":7,"transit":false,"distance":9279,"i_lat":-7.712087,"i_long":110.602981},{"i_lat":-7.74111,"station_id":"SWT","station_name":"Srowot","transit":false,"time":8,"is_transit":false,"distance":6738,"i_long":110.548972,"line":7},{"distance":5850,"time":7,"i_lat":-7.756284,"is_transit":false,"line":0,"i_long":110.500451,"station_name":"Brambanan","transit":false,"station_id":"BBN"},{"is_transit":false,"time":8,"station_id":"MGW","distance":7905,"i_lat":-7.784476,"i_long":110.436791,"line":7,"transit":false,"station_name":"Maguwo"},{"time":7,"i_lat":-7.790018,"station_id":"LPN","distance":6799,"is_transit":false,"station_name":"Lempuyangan","transit":false,"i_long":110.375434,"line":7},{"i_lat":-7.788961,"transit":false,"is_transit":false,"station_id":"YK","station_name":"Yogyakarta","line":7,"distance":1307,"time":6,"i_long":110.36345}]]}