{"data":[[{"station_id":"PL","transit":false,"i_long":110.875516,"line":0,"time":0,"is_transit":false,"distance":0,"i_lat":-7.567939,"station_name":"Palur"},{"station_id":"SK","i_long":110.839459,"transit":false,"distance":415,"station_name":"Solo Jebres","line":7,"time":6,"is_transit":false,"i_lat":-7.56197},{"line":7,"station_id":"SLO","is_transit":false,"time":10,"i_long":110.821471,"distance":2141,"transit":false,"i_lat":-7.556783,"station_name":"Solo Balapan"},{"station_id":"PWS","station_name":"Purwosari","time":6,"i_long":110.796655,"distance":2936,"is_transit":false,"line":7,"i_lat":-7.561362,"transit":false},{"i_long":110.744432,"station_name":"Gawok","transit":false,"station_id":"GW","time":7,"distance":6639,"line":7,"is_transit":false,"i_lat":-7.589036},{"i_long":110.706679,"i_lat":-7.62181,"time":6,"line":7,"distance":5543,"station_id":"DL","transit":false,"is_transit":false,"station_name":"Delanggu"},{"i_long":110.674861,"i_lat":-7.668597,"line":7,"distance":6271,"is_transit":false,"station_name":"Ceper","transit":false,"time":7,"station_id":"CE"},{"is_transit":false,"line":7,"distance":9279,"i_long":110.602981,"station_id":"KT","time":9,"transit":false,"station_name":"Klaten","i_lat":-7.712087},{"time":8,"station_id":"SWT","is_transit":false,"transit":false,"distance":6738,"i_long":110.548972,"i_lat":-7.74111,"station_name":"Srowot","line":7},{"time":7,"i_lat":-7.756284,"station_name":"Brambanan","line":0,"distance":5850,"station_id":"BBN","transit":false,"i_long":110.500451,"is_transit":false},{"time":8,"station_name":"Maguwo","distance":7905,"is_transit":false,"line":7,"i_lat":-7.784476,"station_id":"MGW","transit":false,"i_long":110.436791},{"station_id":"LPN","is_transit":false,"time":7,"transit":false,"station_name":"Lempuyangan","i_long":110.375434,"line":7,"distance":6799,"i_lat":-7.790018},{"line":7,"time":6,"is_transit":false,"distance":1307,"station_name":"Yogyakarta","station_id":"YK","i_lat":-7.788961,"transit":false,"i_long":110.36345}]]}