{"data":[[{"line":0,"station_id":"PL","time":0,"i_long":110.875516,"transit":false,"is_transit":false,"station_name":"Palur","i_lat":-7.567939,"distance":0},{"station_name":"Solo Jebres","line":7,"station_id":"SK","distance":415,"transit":false,"time":6,"is_transit":false,"i_lat":-7.56197,"i_long":110.839459},{"time":10,"station_id":"SLO","distance":2141,"is_transit":false,"transit":false,"line":7,"i_lat":-7.556783,"i_long":110.821471,"station_name":"Solo Balapan"},{"station_name":"Purwosari","line":7,"time":6,"station_id":"PWS","is_transit":false,"transit":false,"i_long":110.796655,"distance":2936,"i_lat":-7.561362},{"distance":6639,"station_id":"GW","is_transit":false,"transit":false,"i_lat":-7.589036,"i_long":110.744432,"time":7,"station_name":"Gawok","line":7},{"station_name":"Delanggu","transit":false,"i_long":110.706679,"line":7,"i_lat":-7.62181,"time":6,"station_id":"DL","is_transit":false,"distance":5543},{"is_transit":false,"line":7,"distance":6271,"station_id":"CE","station_name":"Ceper","i_lat":-7.668597,"transit":false,"i_long":110.674861,"time":7},{"i_long":110.602981,"line":7,"i_lat":-7.712087,"time":9,"station_id":"KT","is_transit":false,"station_name":"Klaten","transit":false,"distance":9279},{"i_long":110.548972,"distance":6738,"station_name":"Srowot","i_lat":-7.74111,"station_id":"SWT","transit":false,"time":8,"line":7,"is_transit":false},{"i_lat":-7.756284,"is_transit":false,"station_name":"Brambanan","line":0,"transit":false,"i_long":110.500451,"station_id":"BBN","distance":5850,"time":7},{"distance":7905,"line":7,"time":8,"station_id":"MGW","is_transit":false,"transit":false,"station_name":"Maguwo","i_long":110.436791,"i_lat":-7.784476},{"i_lat":-7.790018,"distance":6799,"station_id":"LPN","station_name":"Lempuyangan","i_long":110.375434,"is_transit":false,"transit":false,"line":7,"time":7},{"distance":1307,"time":6,"transit":false,"i_lat":-7.788961,"is_transit":false,"station_name":"Yogyakarta","i_long":110.36345,"station_id":"YK","line":7}]]}