{"data":[[{"distance":0,"line":0,"is_transit":false,"i_lat":-7.567939,"time":0,"station_name":"Palur","transit":false,"i_long":110.875516,"station_id":"PL"},{"distance":415,"station_name":"Solo Jebres","transit":false,"i_lat":-7.56197,"i_long":110.839459,"station_id":"SK","is_transit":false,"line":7,"time":6},{"is_transit":false,"distance":2141,"line":7,"i_long":110.821471,"transit":false,"station_name":"Solo Balapan","station_id":"SLO","time":10,"i_lat":-7.556783},{"station_id":"PWS","distance":2936,"i_lat":-7.561362,"station_name":"Purwosari","i_long":110.796655,"line":7,"is_transit":false,"time":6,"transit":false},{"line":7,"station_name":"Gawok","is_transit":false,"i_lat":-7.589036,"transit":false,"i_long":110.744432,"station_id":"GW","distance":6639,"time":7},{"i_lat":-7.62181,"time":6,"distance":5543,"station_name":"Delanggu","is_transit":false,"station_id":"DL","i_long":110.706679,"line":7,"transit":false},{"distance":6271,"is_transit":false,"station_name":"Ceper","i_long":110.674861,"time":7,"line":7,"i_lat":-7.668597,"station_id":"CE","transit":false},{"time":9,"distance":9279,"line":7,"station_name":"Klaten","i_lat":-7.712087,"station_id":"KT","transit":false,"is_transit":false,"i_long":110.602981},{"station_name":"Srowot","is_transit":false,"time":8,"distance":6738,"transit":false,"i_lat":-7.74111,"line":7,"i_long":110.548972,"station_id":"SWT"},{"line":0,"time":7,"transit":false,"station_name":"Brambanan","is_transit":false,"distance":5850,"i_long":110.500451,"i_lat":-7.756284,"station_id":"BBN"},{"time":8,"line":7,"station_id":"MGW","station_name":"Maguwo","distance":7905,"transit":false,"i_lat":-7.784476,"is_transit":false,"i_long":110.436791},{"i_long":110.375434,"distance":6799,"station_name":"Lempuyangan","i_lat":-7.790018,"is_transit":false,"line":7,"transit":false,"station_id":"LPN","time":7},{"transit":false,"i_long":110.36345,"is_transit":false,"line":7,"distance":1307,"i_lat":-7.788961,"station_name":"Yogyakarta","station_id":"YK","time":6}]]}