{"data":[[{"is_transit":false,"station_name":"Palmerah","transit":false,"distance":0,"i_lat":-6.207404,"i_long":106.79689,"line":6,"time":0,"station_id":"PLM"},{"i_long":106.811091,"i_lat":-6.185545,"transit":true,"is_transit":true,"line":1,"distance":3191,"station_name":"Tanah Abang","time":6,"station_id":"THB"},{"line":1,"station_id":"DU","transit":true,"is_transit":true,"i_long":106.800832,"time":8,"distance":3632,"station_name":"Duri","i_lat":-6.155215},{"station_name":"Angke","station_id":"AK","transit":false,"time":4,"distance":1230,"i_lat":-6.144674,"i_long":106.79867,"is_transit":false,"line":0},{"transit":false,"i_long":106.826365,"time":9,"distance":4102,"i_lat":-6.132549,"station_id":"KPB","station_name":"Kampung Bandan","line":0,"is_transit":true},{"is_transit":false,"i_lat":-6.128023,"station_id":"AC","distance":2185,"i_long":106.84464,"time":4,"station_name":"Ancol","transit":false,"line":0}],[{"time":0,"i_long":106.79689,"transit":false,"i_lat":-6.207404,"station_name":"Palmerah","is_transit":false,"distance":0,"station_id":"PLM","line":6},{"i_long":106.811091,"station_name":"Tanah Abang","station_id":"THB","is_transit":true,"time":6,"distance":3191,"transit":true,"i_lat":-6.185545,"line":1},{"line":1,"station_name":"Karet","time":5,"station_id":"KAT","is_transit":false,"i_lat":-6.20132,"i_long":106.816351,"distance":2029,"transit":false},{"station_id":"SUDB","station_name":"Sudirman Baru","is_transit":false,"i_lat":-6.201433,"line":1,"time":1,"i_long":106.819881,"transit":false,"distance":471},{"line":1,"i_long":106.822649,"i_lat":-6.202263,"station_name":"Sudirman","distance":280,"station_id":"SUD","transit":false,"time":1,"is_transit":false},{"time":4,"is_transit":true,"i_long":106.84912,"transit":true,"distance":3186,"station_id":"MRI","line":0,"station_name":"Manggarai","i_lat":-6.209883},{"station_id":"CKI","distance":1590,"time":4,"line":0,"transit":false,"i_lat":-6.198556,"is_transit":false,"station_name":"Cikini","i_long":106.840169},{"line":2,"is_transit":false,"station_name":"Gondangdia","transit":false,"distance":1750,"station_id":"GDD","i_lat":-6.186295,"time":3,"i_long":106.832183},{"line":2,"distance":2015,"transit":false,"station_id":"JUA","station_name":"Juanda","time":4,"is_transit":false,"i_lat":-6.166716,"i_long":106.828284},{"time":2,"transit":false,"station_name":"Sawah Besar","is_transit":false,"station_id":"SW","line":2,"i_lat":-6.160725,"distance":1149,"i_long":106.827103},{"time":2,"station_name":"Manggabesar","is_transit":false,"i_lat":-6.149769,"distance":906,"i_long":106.82482,"station_id":"MGB","transit":false,"line":2},{"station_name":"Jayakarta","transit":false,"time":2,"distance":1080,"line":7,"station_id":"JAY","i_lat":-6.141205,"i_long":106.820901,"is_transit":false},{"is_transit":true,"station_id":"JAKK","station_name":"Jakarta Kota","i_long":106.812439,"distance":1264,"i_lat":-6.137569,"time":4,"line":0,"transit":true},{"is_transit":true,"distance":1364,"time":3,"i_lat":-6.132549,"i_long":106.826365,"station_id":"KPB","transit":false,"line":0,"station_name":"Kampung Bandan"},{"station_id":"AC","distance":2185,"time":4,"station_name":"Ancol","is_transit":false,"transit":false,"line":0,"i_lat":-6.128023,"i_long":106.84464}],[{"line":6,"station_id":"PLM","station_name":"Palmerah","is_transit":false,"i_lat":-6.207404,"transit":false,"time":0,"distance":0,"i_long":106.79689},{"transit":true,"distance":3191,"station_name":"Tanah Abang","i_lat":-6.185545,"station_id":"THB","time":6,"i_long":106.811091,"is_transit":true,"line":1},{"i_lat":-6.20132,"station_name":"Karet","transit":false,"distance":2029,"is_transit":false,"time":5,"i_long":106.816351,"station_id":"KAT","line":1},{"distance":471,"is_transit":false,"i_lat":-6.201433,"i_long":106.819881,"line":1,"station_id":"SUDB","time":1,"station_name":"Sudirman Baru","transit":false},{"is_transit":false,"station_name":"Sudirman","distance":280,"station_id":"SUD","time":1,"i_long":106.822649,"line":1,"transit":false,"i_lat":-6.202263},{"transit":false,"i_lat":-6.209883,"i_long":106.84912,"station_id":"MRI","station_name":"Manggarai","is_transit":true,"time":4,"distance":3186,"line":0},{"i_long":106.858896,"time":2,"station_name":"Matraman","line":1,"station_id":"MTR","is_transit":false,"i_lat":-6.212485,"distance":1275,"transit":false},{"time":8,"is_transit":true,"station_id":"JNG","i_long":106.86807400000001,"line":0,"transit":true,"i_lat":-6.215091,"distance":1377,"station_name":"Jatinegara"},{"line":11,"station_name":"Pondok Jati","transit":false,"station_id":"POK","time":2,"is_transit":false,"distance":1236,"i_lat":-6.209188,"i_long":106.861737},{"i_lat":-6.193792,"station_id":"KMT","distance":1829,"station_name":"Kramat","time":2,"line":11,"i_long":106.855437,"transit":false,"is_transit":false},{"i_long":106.850107,"station_name":"Gang Sentiong","station_id":"GST","transit":false,"time":1,"is_transit":false,"distance":973,"line":11,"i_lat":-6.185975},{"station_id":"PSE","is_transit":false,"transit":false,"time":8,"i_long":106.84368,"line":11,"i_lat":-6.174784,"station_name":"Pasar Senen","distance":1567},{"is_transit":false,"i_long":106.839204,"transit":false,"i_lat":-6.161728,"distance":1436,"line":11,"station_id":"KMO","station_name":"Kemayoran","time":4},{"line":11,"station_name":"Rajawali","time":5,"station_id":"RJW","transit":false,"distance":1901,"i_lat":-6.14505,"is_transit":false,"i_long":106.836569},{"transit":true,"station_name":"Kampung Bandan","i_long":106.826365,"i_lat":-6.132549,"station_id":"KPB","is_transit":true,"distance":1444,"time":3,"line":0},{"time":4,"i_long":106.84464,"distance":2185,"i_lat":-6.128023,"line":0,"station_id":"AC","is_transit":false,"station_name":"Ancol","transit":false}]]}