{"data":[[{"transit":false,"station_id":"PLM","is_transit":false,"i_lat":-6.207404,"time":0,"i_long":106.79689,"distance":0,"line":6,"station_name":"Palmerah"},{"i_long":106.811091,"is_transit":true,"station_id":"THB","distance":3191,"transit":true,"station_name":"Tanah Abang","i_lat":-6.185545,"line":1,"time":6},{"i_lat":-6.20132,"line":1,"distance":2029,"i_long":106.816351,"is_transit":false,"transit":false,"time":5,"station_id":"KAT","station_name":"Karet"},{"distance":471,"time":1,"line":1,"transit":false,"station_id":"SUDB","i_long":106.819881,"station_name":"Sudirman Baru","i_lat":-6.201433,"is_transit":false},{"i_lat":-6.202263,"station_name":"Sudirman","i_long":106.822649,"distance":280,"line":1,"transit":false,"is_transit":false,"time":1,"station_id":"SUD"},{"transit":true,"station_name":"Manggarai","station_id":"MRI","is_transit":true,"time":4,"distance":3186,"i_lat":-6.209883,"i_long":106.84912,"line":2},{"station_id":"TEB","i_lat":-6.226659,"line":2,"is_transit":false,"station_name":"Tebet","i_long":106.857948,"time":4,"distance":2610,"transit":false},{"i_long":106.856607,"transit":false,"station_id":"CW","time":2,"distance":1230,"i_lat":-6.242512,"station_name":"Cawang","line":2,"is_transit":false},{"distance":1546,"station_id":"DRN","i_lat":-6.255332,"is_transit":false,"i_long":106.85449,"station_name":"Duren Kalibata","line":2,"time":3,"transit":false},{"distance":824,"line":2,"station_id":"PSMB","time":2,"i_lat":-6.263214,"is_transit":false,"i_long":106.851577,"transit":false,"station_name":"Pasar Minggu Baru"},{"transit":false,"station_name":"Pasar Minggu","i_lat":-6.2842400000000005,"station_id":"PSM","i_long":106.843999,"line":2,"is_transit":false,"distance":2380,"time":2},{"line":2,"station_id":"TNT","transit":false,"is_transit":false,"time":4,"i_lat":-6.3080680000000005,"station_name":"Tanjung Barat","i_long":106.838896,"distance":2820},{"station_name":"Lenteng Agung","transit":false,"station_id":"LNA","distance":2671,"time":3,"i_lat":-6.330363,"i_long":106.832616,"is_transit":false,"line":2},{"is_transit":false,"station_name":"Univ. Pancasila","station_id":"UP","time":2,"transit":false,"distance":1029,"i_lat":-6.339291,"line":2,"i_long":106.834175},{"distance":2264,"is_transit":false,"station_id":"UI","transit":false,"time":3,"station_name":"Univ. Indonesia","i_lat":-6.360749,"i_long":106.831474,"line":2},{"station_id":"POC","distance":1109,"i_long":106.831114,"time":2,"is_transit":false,"i_lat":-6.369073,"station_name":"Pondok Cina","transit":false,"line":2}],[{"station_id":"PLM","i_long":106.79689,"line":6,"distance":0,"i_lat":-6.207404,"is_transit":false,"transit":false,"time":0,"station_name":"Palmerah"},{"i_lat":-6.185545,"station_id":"THB","time":6,"is_transit":true,"distance":3191,"i_long":106.811091,"line":1,"transit":true,"station_name":"Tanah Abang"},{"is_transit":false,"distance":3632,"time":8,"station_id":"DU","i_lat":-6.155215,"i_long":106.800832,"station_name":"Duri","transit":false,"line":1},{"station_name":"Angke","i_lat":-6.144674,"station_id":"AK","is_transit":false,"line":1,"i_long":106.79867,"time":4,"transit":false,"distance":1230},{"i_lat":-6.132549,"line":4,"distance":4102,"is_transit":true,"station_id":"KPB","time":9,"transit":true,"station_name":"Kampung Bandan","i_long":106.826365},{"is_transit":true,"distance":1364,"i_lat":-6.137569,"station_name":"Jakarta Kota","time":3,"i_long":106.812439,"line":2,"transit":true,"station_id":"JAKK"},{"i_long":106.820901,"station_name":"Jayakarta","distance":1264,"time":4,"line":2,"station_id":"JAY","is_transit":false,"transit":false,"i_lat":-6.141205},{"distance":1080,"i_long":106.82482,"station_name":"Manggabesar","time":2,"i_lat":-6.149769,"transit":false,"station_id":"MGB","is_transit":false,"line":2},{"station_name":"Sawah Besar","station_id":"SW","is_transit":false,"line":2,"time":2,"distance":906,"transit":false,"i_long":106.827103,"i_lat":-6.160725},{"transit":false,"is_transit":false,"time":2,"line":2,"station_id":"JUA","station_name":"Juanda","i_lat":-6.166716,"i_long":106.828284,"distance":1149},{"line":2,"distance":2015,"i_lat":-6.186295,"i_long":106.832183,"transit":false,"station_name":"Gondangdia","is_transit":false,"time":4,"station_id":"GDD"},{"station_name":"Cikini","station_id":"CKI","transit":false,"is_transit":false,"distance":1750,"i_lat":-6.198556,"line":2,"time":3,"i_long":106.840169},{"station_name":"Manggarai","distance":1590,"line":2,"station_id":"MRI","is_transit":false,"transit":false,"i_lat":-6.209883,"i_long":106.84912,"time":4},{"transit":false,"station_name":"Tebet","station_id":"TEB","time":4,"i_lat":-6.226659,"is_transit":false,"distance":2610,"i_long":106.857948,"line":2},{"transit":false,"station_id":"CW","is_transit":false,"time":2,"i_long":106.856607,"line":2,"station_name":"Cawang","distance":1230,"i_lat":-6.242512},{"line":2,"time":3,"i_lat":-6.255332,"station_id":"DRN","i_long":106.85449,"station_name":"Duren Kalibata","is_transit":false,"transit":false,"distance":1546},{"line":2,"station_name":"Pasar Minggu Baru","is_transit":false,"i_long":106.851577,"i_lat":-6.263214,"distance":824,"station_id":"PSMB","time":2,"transit":false},{"time":2,"station_name":"Pasar Minggu","distance":2380,"i_long":106.843999,"transit":false,"i_lat":-6.2842400000000005,"line":2,"is_transit":false,"station_id":"PSM"},{"station_id":"TNT","distance":2820,"line":2,"time":4,"transit":false,"station_name":"Tanjung Barat","i_long":106.838896,"is_transit":false,"i_lat":-6.3080680000000005},{"transit":false,"station_name":"Lenteng Agung","is_transit":false,"i_long":106.832616,"time":3,"station_id":"LNA","distance":2671,"i_lat":-6.330363,"line":2},{"i_long":106.834175,"time":2,"station_id":"UP","distance":1029,"transit":false,"station_name":"Univ. Pancasila","is_transit":false,"i_lat":-6.339291,"line":2},{"transit":false,"station_id":"UI","line":2,"time":3,"distance":2264,"i_long":106.831474,"station_name":"Univ. Indonesia","i_lat":-6.360749,"is_transit":false},{"is_transit":false,"i_long":106.831114,"distance":1109,"i_lat":-6.369073,"station_name":"Pondok Cina","line":2,"time":2,"transit":false,"station_id":"POC"}],[{"time":0,"transit":false,"is_transit":false,"distance":0,"i_long":106.79689,"line":6,"station_name":"Palmerah","station_id":"PLM","i_lat":-6.207404},{"station_name":"Tanah Abang","i_long":106.811091,"station_id":"THB","time":6,"i_lat":-6.185545,"line":1,"transit":true,"distance":3191,"is_transit":true},{"time":8,"station_id":"DU","is_transit":false,"i_long":106.800832,"i_lat":-6.155215,"transit":false,"distance":3632,"line":1,"station_name":"Duri"},{"i_long":106.79867,"time":4,"line":1,"station_id":"AK","is_transit":false,"i_lat":-6.144674,"station_name":"Angke","distance":1230,"transit":false},{"i_long":106.826365,"time":9,"station_id":"KPB","is_transit":true,"line":4,"station_name":"Kampung Bandan","distance":4102,"transit":true,"i_lat":-6.132549},{"i_long":106.836569,"i_lat":-6.14505,"line":11,"transit":false,"station_name":"Rajawali","station_id":"RJW","is_transit":false,"time":3,"distance":1444},{"i_long":106.839204,"transit":false,"station_name":"Kemayoran","time":5,"line":11,"station_id":"KMO","distance":1901,"i_lat":-6.161728,"is_transit":false},{"station_name":"Pasar Senen","station_id":"PSE","is_transit":false,"distance":1436,"i_lat":-6.174784,"line":11,"time":4,"transit":false,"i_long":106.84368},{"station_id":"GST","i_lat":-6.185975,"is_transit":false,"distance":1567,"station_name":"Gang Sentiong","transit":false,"line":11,"time":8,"i_long":106.850107},{"transit":false,"i_long":106.855437,"station_id":"KMT","is_transit":false,"i_lat":-6.193792,"time":1,"line":11,"station_name":"Kramat","distance":973},{"is_transit":false,"distance":1829,"i_long":106.861737,"station_name":"Pondok Jati","station_id":"POK","time":2,"transit":false,"i_lat":-6.209188,"line":11},{"is_transit":true,"i_long":106.86807400000001,"transit":true,"line":1,"distance":1236,"time":9,"i_lat":-6.215091,"station_name":"Jatinegara","station_id":"JNG"},{"station_id":"MTR","station_name":"Matraman","time":2,"i_long":106.858896,"i_lat":-6.212485,"line":1,"is_transit":false,"distance":1377,"transit":false},{"time":2,"i_long":106.84912,"transit":true,"station_name":"Manggarai","station_id":"MRI","i_lat":-6.209883,"distance":1275,"is_transit":true,"line":2},{"station_name":"Tebet","is_transit":false,"distance":2610,"i_lat":-6.226659,"transit":false,"line":2,"station_id":"TEB","i_long":106.857948,"time":4},{"is_transit":false,"distance":1230,"transit":false,"time":2,"i_long":106.856607,"station_name":"Cawang","line":2,"station_id":"CW","i_lat":-6.242512},{"is_transit":false,"i_long":106.85449,"transit":false,"distance":1546,"i_lat":-6.255332,"station_name":"Duren Kalibata","time":3,"line":2,"station_id":"DRN"},{"line":2,"is_transit":false,"distance":824,"station_id":"PSMB","time":2,"i_lat":-6.263214,"i_long":106.851577,"transit":false,"station_name":"Pasar Minggu Baru"},{"line":2,"distance":2380,"is_transit":false,"i_long":106.843999,"station_id":"PSM","transit":false,"station_name":"Pasar Minggu","time":2,"i_lat":-6.2842400000000005},{"station_name":"Tanjung Barat","i_lat":-6.3080680000000005,"station_id":"TNT","line":2,"distance":2820,"transit":false,"i_long":106.838896,"is_transit":false,"time":4},{"transit":false,"time":3,"is_transit":false,"i_long":106.832616,"station_id":"LNA","distance":2671,"i_lat":-6.330363,"station_name":"Lenteng Agung","line":2},{"i_lat":-6.339291,"distance":1029,"line":2,"transit":false,"station_name":"Univ. Pancasila","i_long":106.834175,"is_transit":false,"station_id":"UP","time":2},{"line":2,"is_transit":false,"i_long":106.831474,"distance":2264,"station_name":"Univ. Indonesia","station_id":"UI","time":3,"transit":false,"i_lat":-6.360749},{"station_name":"Pondok Cina","line":2,"station_id":"POC","i_long":106.831114,"transit":false,"time":2,"is_transit":false,"i_lat":-6.369073,"distance":1109}]]}