{"data":[[{"i_long":106.79689,"station_name":"Palmerah","line":6,"is_transit":false,"time":0,"station_id":"PLM","transit":false,"distance":0,"i_lat":-6.207404},{"line":1,"i_lat":-6.185545,"time":6,"station_name":"Tanah Abang","transit":true,"distance":3191,"i_long":106.811091,"station_id":"THB","is_transit":true},{"i_long":106.816351,"time":5,"transit":false,"station_name":"Karet","distance":2029,"line":1,"station_id":"KAT","is_transit":false,"i_lat":-6.20132},{"line":1,"time":1,"i_long":106.819881,"is_transit":false,"station_name":"Sudirman Baru","transit":false,"i_lat":-6.201433,"distance":471,"station_id":"SUDB"},{"line":1,"station_name":"Sudirman","i_long":106.822649,"station_id":"SUD","transit":false,"is_transit":false,"time":1,"i_lat":-6.202263,"distance":280},{"transit":false,"i_lat":-6.209883,"i_long":106.84912,"line":2,"station_name":"Manggarai","distance":3186,"is_transit":false,"time":4,"station_id":"MRI"}],[{"time":0,"is_transit":false,"station_id":"PLM","station_name":"Palmerah","distance":0,"transit":false,"i_lat":-6.207404,"i_long":106.79689,"line":6},{"line":1,"i_long":106.811091,"distance":3191,"station_id":"THB","i_lat":-6.185545,"station_name":"Tanah Abang","time":6,"is_transit":true,"transit":true},{"i_lat":-6.155215,"line":1,"time":8,"distance":3632,"is_transit":false,"station_name":"Duri","transit":false,"station_id":"DU","i_long":106.800832},{"line":1,"time":4,"transit":false,"i_long":106.79867,"is_transit":false,"station_id":"AK","distance":1230,"i_lat":-6.144674,"station_name":"Angke"},{"i_long":106.826365,"transit":true,"line":4,"time":9,"station_id":"KPB","i_lat":-6.132549,"distance":4102,"is_transit":true,"station_name":"Kampung Bandan"},{"i_lat":-6.137569,"station_id":"JAKK","distance":1364,"time":3,"i_long":106.812439,"transit":true,"line":2,"is_transit":true,"station_name":"Jakarta Kota"},{"distance":1264,"station_name":"Jayakarta","i_long":106.820901,"i_lat":-6.141205,"line":2,"is_transit":false,"station_id":"JAY","transit":false,"time":4},{"i_lat":-6.149769,"transit":false,"station_name":"Manggabesar","distance":1080,"i_long":106.82482,"time":2,"is_transit":false,"station_id":"MGB","line":2},{"i_long":106.827103,"distance":906,"transit":false,"i_lat":-6.160725,"is_transit":false,"station_id":"SW","line":2,"station_name":"Sawah Besar","time":2},{"is_transit":false,"line":2,"distance":1149,"time":2,"station_id":"JUA","i_lat":-6.166716,"transit":false,"station_name":"Juanda","i_long":106.828284},{"i_long":106.832183,"station_id":"GDD","transit":false,"time":4,"i_lat":-6.186295,"line":2,"station_name":"Gondangdia","distance":2015,"is_transit":false},{"is_transit":false,"station_id":"CKI","transit":false,"line":2,"station_name":"Cikini","i_long":106.840169,"time":3,"distance":1750,"i_lat":-6.198556},{"transit":false,"station_name":"Manggarai","distance":1590,"i_long":106.84912,"is_transit":false,"station_id":"MRI","i_lat":-6.209883,"line":2,"time":4}],[{"time":0,"station_id":"PLM","is_transit":false,"transit":false,"i_lat":-6.207404,"i_long":106.79689,"line":6,"station_name":"Palmerah","distance":0},{"station_id":"THB","i_long":106.811091,"distance":3191,"is_transit":true,"time":6,"transit":true,"i_lat":-6.185545,"line":1,"station_name":"Tanah Abang"},{"station_id":"DU","station_name":"Duri","transit":false,"i_long":106.800832,"i_lat":-6.155215,"line":1,"is_transit":false,"distance":3632,"time":8},{"transit":false,"i_long":106.79867,"distance":1230,"station_id":"AK","line":1,"i_lat":-6.144674,"is_transit":false,"time":4,"station_name":"Angke"},{"is_transit":true,"time":9,"station_id":"KPB","i_lat":-6.132549,"station_name":"Kampung Bandan","distance":4102,"line":4,"transit":true,"i_long":106.826365},{"line":11,"transit":false,"is_transit":false,"distance":1444,"time":3,"i_lat":-6.14505,"i_long":106.836569,"station_name":"Rajawali","station_id":"RJW"},{"time":5,"i_lat":-6.161728,"i_long":106.839204,"line":11,"transit":false,"distance":1901,"station_id":"KMO","station_name":"Kemayoran","is_transit":false},{"distance":1436,"i_long":106.84368,"station_id":"PSE","line":11,"station_name":"Pasar Senen","transit":false,"i_lat":-6.174784,"time":4,"is_transit":false},{"station_name":"Gang Sentiong","i_long":106.850107,"transit":false,"i_lat":-6.185975,"is_transit":false,"line":11,"distance":1567,"time":8,"station_id":"GST"},{"time":1,"line":11,"i_lat":-6.193792,"station_name":"Kramat","station_id":"KMT","is_transit":false,"transit":false,"distance":973,"i_long":106.855437},{"station_id":"POK","station_name":"Pondok Jati","is_transit":false,"time":2,"i_long":106.861737,"distance":1829,"line":11,"i_lat":-6.209188,"transit":false},{"station_name":"Jatinegara","line":1,"station_id":"JNG","transit":true,"is_transit":true,"time":9,"i_lat":-6.215091,"distance":1236,"i_long":106.86807400000001},{"is_transit":false,"station_name":"Matraman","i_lat":-6.212485,"i_long":106.858896,"transit":false,"time":2,"distance":1377,"line":1,"station_id":"MTR"},{"i_long":106.84912,"i_lat":-6.209883,"is_transit":false,"station_name":"Manggarai","station_id":"MRI","line":2,"transit":false,"time":2,"distance":1275}]]}