{"data":[[{"station_name":"Palmerah","transit":false,"i_lat":-6.207404,"i_long":106.79689,"distance":0,"station_id":"PLM","line":6,"is_transit":false,"time":0},{"is_transit":false,"station_id":"KBY","i_long":106.780334,"station_name":"Kebayoran","time":7,"i_lat":-6.237242,"line":6,"distance":3737,"transit":false},{"is_transit":false,"transit":false,"distance":6218,"i_lat":-6.276362,"i_long":106.74273,"time":8,"station_id":"PDJ","station_name":"Pondokranji","line":6},{"time":3,"transit":false,"is_transit":false,"station_id":"JMU","station_name":"Jurangmangu","i_lat":-6.288927,"i_long":106.728916,"distance":2179,"line":6},{"station_name":"Sudimara","i_lat":-6.296963,"is_transit":false,"time":4,"distance":1994,"station_id":"SDM","line":6,"transit":false,"i_long":106.712277},{"distance":4566,"line":6,"i_long":106.675475,"i_lat":-6.314823,"is_transit":false,"time":6,"transit":false,"station_name":"Rawa Buntu","station_id":"RU"},{"distance":2413,"transit":false,"time":4,"is_transit":false,"i_long":106.66566,"i_lat":-6.319871,"station_id":"SRP","station_name":"Serpong","line":6},{"line":0,"time":4,"station_id":"CSK","i_lat":-6.32484,"distance":1784,"is_transit":false,"i_long":106.640411,"station_name":"Cisauk","transit":false},{"time":4,"distance":2519,"line":0,"i_lat":-6.329547,"transit":false,"is_transit":false,"station_name":"Cicayur","station_id":"CC","i_long":106.617853},{"i_lat":-6.3441410000000005,"station_id":"PRP","transit":false,"distance":5968,"station_name":"Parung Panjang","line":6,"time":8,"i_long":106.568863,"is_transit":false},{"line":0,"is_transit":false,"i_lat":-6.354349,"station_id":"CJT","station_name":"Cilejit","i_long":106.508482,"distance":7025,"transit":false,"time":9},{"i_long":106.491338,"line":0,"distance":2675,"station_id":"DAR","i_lat":-6.338021,"station_name":"Daru","is_transit":false,"time":6,"transit":false},{"time":5,"station_name":"Tenjo","is_transit":false,"transit":false,"station_id":"TEJ","i_long":106.460812,"distance":3902,"i_lat":-6.327251,"line":6},{"is_transit":false,"i_long":106.425991,"i_lat":-6.328533,"line":6,"distance":2974,"transit":false,"station_name":"Tigaraksa","time":5,"station_id":"TGS"},{"line":0,"is_transit":false,"station_id":"CKY","distance":2651,"station_name":"Cikoya","transit":false,"i_long":106.411216,"i_lat":-6.33561,"time":3}]]}