{"data":[[{"station_name":"Palmerah","transit":false,"station_id":"PLM","is_transit":false,"distance":0,"i_long":106.79689,"line":6,"time":0,"i_lat":-6.207404},{"station_name":"Tanah Abang","i_lat":-6.185545,"i_long":106.811091,"station_id":"THB","line":1,"distance":3191,"transit":true,"is_transit":true,"time":6},{"distance":2029,"time":5,"station_id":"KAT","line":1,"i_lat":-6.20132,"i_long":106.816351,"station_name":"Karet","is_transit":false,"transit":false},{"i_long":106.819881,"is_transit":false,"line":1,"transit":false,"station_name":"Sudirman Baru","i_lat":-6.201433,"time":1,"distance":471,"station_id":"SUDB"},{"line":1,"time":1,"distance":280,"transit":false,"is_transit":false,"i_lat":-6.202263,"i_long":106.822649,"station_id":"SUD","station_name":"Sudirman"},{"i_lat":-6.209883,"time":4,"transit":false,"station_name":"Manggarai","i_long":106.84912,"is_transit":true,"station_id":"MRI","line":0,"distance":3186}],[{"is_transit":false,"time":0,"station_name":"Palmerah","transit":false,"line":6,"station_id":"PLM","distance":0,"i_long":106.79689,"i_lat":-6.207404},{"time":6,"i_lat":-6.185545,"station_name":"Tanah Abang","transit":true,"station_id":"THB","is_transit":true,"distance":3191,"i_long":106.811091,"line":1},{"transit":true,"i_lat":-6.155215,"is_transit":true,"i_long":106.800832,"distance":3632,"station_id":"DU","time":8,"station_name":"Duri","line":1},{"line":0,"transit":false,"i_lat":-6.144674,"time":4,"distance":1230,"i_long":106.79867,"station_id":"AK","station_name":"Angke","is_transit":false},{"distance":4102,"station_id":"KPB","transit":false,"station_name":"Kampung Bandan","i_lat":-6.132549,"line":0,"is_transit":true,"time":9,"i_long":106.826365},{"time":3,"line":0,"i_lat":-6.137569,"is_transit":true,"distance":1364,"transit":true,"station_id":"JAKK","i_long":106.812439,"station_name":"Jakarta Kota"},{"line":7,"i_lat":-6.141205,"i_long":106.820901,"distance":1264,"is_transit":false,"transit":false,"time":4,"station_id":"JAY","station_name":"Jayakarta"},{"transit":false,"station_name":"Manggabesar","time":2,"i_long":106.82482,"is_transit":false,"i_lat":-6.149769,"line":2,"station_id":"MGB","distance":1080},{"distance":906,"line":2,"is_transit":false,"station_id":"SW","transit":false,"station_name":"Sawah Besar","time":2,"i_long":106.827103,"i_lat":-6.160725},{"line":2,"station_name":"Juanda","time":2,"distance":1149,"i_long":106.828284,"is_transit":false,"station_id":"JUA","transit":false,"i_lat":-6.166716},{"time":4,"transit":false,"is_transit":false,"station_id":"GDD","line":2,"station_name":"Gondangdia","i_lat":-6.186295,"distance":2015,"i_long":106.832183},{"station_id":"CKI","i_lat":-6.198556,"is_transit":false,"transit":false,"time":3,"line":0,"i_long":106.840169,"station_name":"Cikini","distance":1750},{"distance":1590,"time":4,"transit":false,"i_lat":-6.209883,"is_transit":true,"line":0,"station_name":"Manggarai","i_long":106.84912,"station_id":"MRI"}],[{"i_lat":-6.207404,"transit":false,"station_name":"Palmerah","line":6,"distance":0,"station_id":"PLM","i_long":106.79689,"is_transit":false,"time":0},{"time":6,"station_id":"THB","distance":3191,"transit":true,"station_name":"Tanah Abang","is_transit":true,"i_lat":-6.185545,"i_long":106.811091,"line":1},{"station_name":"Duri","line":1,"is_transit":true,"i_long":106.800832,"time":8,"distance":3632,"station_id":"DU","i_lat":-6.155215,"transit":true},{"i_long":106.79867,"transit":false,"time":4,"line":0,"is_transit":false,"station_id":"AK","i_lat":-6.144674,"station_name":"Angke","distance":1230},{"station_name":"Kampung Bandan","is_transit":true,"i_long":106.826365,"station_id":"KPB","transit":true,"i_lat":-6.132549,"line":0,"time":9,"distance":4102},{"distance":1444,"i_long":106.836569,"time":3,"transit":false,"is_transit":false,"station_name":"Rajawali","station_id":"RJW","i_lat":-6.14505,"line":11},{"distance":1901,"station_id":"KMO","i_long":106.839204,"transit":false,"station_name":"Kemayoran","time":5,"i_lat":-6.161728,"line":11,"is_transit":false},{"i_lat":-6.174784,"is_transit":false,"time":4,"station_id":"PSE","transit":false,"distance":1436,"station_name":"Pasar Senen","i_long":106.84368,"line":11},{"is_transit":false,"transit":false,"station_name":"Gang Sentiong","i_long":106.850107,"line":11,"i_lat":-6.185975,"time":8,"distance":1567,"station_id":"GST"},{"transit":false,"time":1,"distance":973,"station_id":"KMT","station_name":"Kramat","i_lat":-6.193792,"i_long":106.855437,"line":11,"is_transit":false},{"line":11,"station_name":"Pondok Jati","station_id":"POK","distance":1829,"transit":false,"i_lat":-6.209188,"i_long":106.861737,"is_transit":false,"time":2},{"time":9,"transit":true,"is_transit":true,"line":0,"distance":1236,"station_name":"Jatinegara","i_lat":-6.215091,"i_long":106.86807400000001,"station_id":"JNG"},{"transit":false,"distance":1377,"station_id":"MTR","line":1,"is_transit":false,"station_name":"Matraman","time":2,"i_long":106.858896,"i_lat":-6.212485},{"distance":1275,"is_transit":true,"time":2,"station_id":"MRI","transit":false,"i_long":106.84912,"i_lat":-6.209883,"line":0,"station_name":"Manggarai"}]]}