{"data":[[{"station_id":"PLM","is_transit":false,"distance":0,"time":0,"transit":false,"i_lat":-6.207404,"i_long":106.79689,"line":6,"station_name":"Palmerah"},{"time":6,"transit":true,"i_lat":-6.185545,"station_id":"THB","line":1,"distance":3191,"i_long":106.811091,"station_name":"Tanah Abang","is_transit":true},{"is_transit":false,"i_long":106.816351,"station_name":"Karet","time":5,"distance":2029,"transit":false,"i_lat":-6.20132,"line":1,"station_id":"KAT"},{"i_long":106.819881,"i_lat":-6.201433,"station_id":"SUDB","station_name":"Sudirman Baru","is_transit":false,"transit":false,"time":1,"line":1,"distance":471},{"i_long":106.822649,"time":1,"station_id":"SUD","line":1,"i_lat":-6.202263,"is_transit":false,"station_name":"Sudirman","distance":280,"transit":false},{"i_long":106.84912,"time":4,"is_transit":false,"station_name":"Manggarai","transit":false,"distance":3186,"i_lat":-6.209883,"station_id":"MRI","line":2}],[{"station_name":"Palmerah","station_id":"PLM","is_transit":false,"i_long":106.79689,"transit":false,"time":0,"distance":0,"line":6,"i_lat":-6.207404},{"time":6,"i_lat":-6.185545,"line":1,"station_name":"Tanah Abang","i_long":106.811091,"distance":3191,"station_id":"THB","is_transit":true,"transit":true},{"time":8,"i_lat":-6.155215,"station_id":"DU","distance":3632,"transit":false,"line":1,"station_name":"Duri","i_long":106.800832,"is_transit":false},{"station_name":"Angke","i_lat":-6.144674,"time":4,"i_long":106.79867,"is_transit":false,"distance":1230,"station_id":"AK","line":1,"transit":false},{"station_id":"KPB","i_long":106.826365,"line":4,"transit":true,"is_transit":true,"distance":4102,"station_name":"Kampung Bandan","i_lat":-6.132549,"time":9},{"is_transit":true,"distance":1364,"station_name":"Jakarta Kota","i_lat":-6.137569,"transit":true,"station_id":"JAKK","time":3,"i_long":106.812439,"line":2},{"transit":false,"station_id":"JAY","time":4,"i_lat":-6.141205,"distance":1264,"i_long":106.820901,"line":2,"station_name":"Jayakarta","is_transit":false},{"station_name":"Manggabesar","distance":1080,"is_transit":false,"i_lat":-6.149769,"transit":false,"station_id":"MGB","i_long":106.82482,"line":2,"time":2},{"i_lat":-6.160725,"station_id":"SW","transit":false,"is_transit":false,"distance":906,"i_long":106.827103,"line":2,"time":2,"station_name":"Sawah Besar"},{"distance":1149,"is_transit":false,"station_name":"Juanda","line":2,"time":2,"i_lat":-6.166716,"i_long":106.828284,"transit":false,"station_id":"JUA"},{"line":2,"station_name":"Gondangdia","station_id":"GDD","time":4,"transit":false,"i_lat":-6.186295,"i_long":106.832183,"distance":2015,"is_transit":false},{"time":3,"station_name":"Cikini","station_id":"CKI","line":2,"distance":1750,"i_long":106.840169,"i_lat":-6.198556,"transit":false,"is_transit":false},{"distance":1590,"line":2,"station_name":"Manggarai","time":4,"is_transit":false,"i_long":106.84912,"transit":false,"i_lat":-6.209883,"station_id":"MRI"}],[{"distance":0,"time":0,"i_lat":-6.207404,"line":6,"transit":false,"is_transit":false,"station_name":"Palmerah","station_id":"PLM","i_long":106.79689},{"is_transit":true,"time":6,"i_lat":-6.185545,"transit":true,"station_name":"Tanah Abang","station_id":"THB","i_long":106.811091,"line":1,"distance":3191},{"station_name":"Duri","is_transit":false,"time":8,"transit":false,"i_lat":-6.155215,"station_id":"DU","distance":3632,"line":1,"i_long":106.800832},{"is_transit":false,"line":1,"time":4,"station_name":"Angke","transit":false,"station_id":"AK","distance":1230,"i_lat":-6.144674,"i_long":106.79867},{"time":9,"i_long":106.826365,"line":4,"i_lat":-6.132549,"distance":4102,"station_name":"Kampung Bandan","transit":true,"station_id":"KPB","is_transit":true},{"time":3,"line":11,"station_id":"RJW","i_lat":-6.14505,"is_transit":false,"station_name":"Rajawali","transit":false,"distance":1444,"i_long":106.836569},{"i_lat":-6.161728,"transit":false,"i_long":106.839204,"line":11,"station_id":"KMO","is_transit":false,"distance":1901,"time":5,"station_name":"Kemayoran"},{"station_id":"PSE","is_transit":false,"time":4,"station_name":"Pasar Senen","transit":false,"i_lat":-6.174784,"line":11,"distance":1436,"i_long":106.84368},{"time":8,"distance":1567,"i_long":106.850107,"is_transit":false,"station_id":"GST","line":11,"station_name":"Gang Sentiong","i_lat":-6.185975,"transit":false},{"distance":973,"i_long":106.855437,"line":11,"is_transit":false,"station_id":"KMT","station_name":"Kramat","time":1,"i_lat":-6.193792,"transit":false},{"time":2,"i_lat":-6.209188,"i_long":106.861737,"station_name":"Pondok Jati","line":11,"station_id":"POK","is_transit":false,"transit":false,"distance":1829},{"time":9,"transit":true,"i_lat":-6.215091,"i_long":106.86807400000001,"station_id":"JNG","station_name":"Jatinegara","line":1,"distance":1236,"is_transit":true},{"transit":false,"station_id":"MTR","is_transit":false,"time":2,"line":1,"i_lat":-6.212485,"station_name":"Matraman","i_long":106.858896,"distance":1377},{"line":2,"transit":false,"is_transit":false,"station_name":"Manggarai","distance":1275,"i_lat":-6.209883,"time":2,"station_id":"MRI","i_long":106.84912}]]}