{"data":[[{"line":6,"is_transit":false,"time":0,"i_long":106.79689,"distance":0,"station_id":"PLM","station_name":"Palmerah","transit":false,"i_lat":-6.207404},{"transit":true,"line":1,"station_name":"Tanah Abang","time":6,"station_id":"THB","distance":3191,"i_lat":-6.185545,"i_long":106.811091,"is_transit":true},{"is_transit":false,"time":5,"line":1,"station_name":"Karet","station_id":"KAT","i_lat":-6.20132,"transit":false,"distance":2029,"i_long":106.816351},{"time":1,"i_lat":-6.201433,"i_long":106.819881,"distance":471,"station_name":"Sudirman Baru","transit":false,"is_transit":false,"station_id":"SUDB","line":1},{"station_name":"Sudirman","time":1,"is_transit":false,"station_id":"SUD","distance":280,"i_long":106.822649,"i_lat":-6.202263,"transit":false,"line":1},{"station_id":"MRI","time":4,"is_transit":true,"distance":3186,"i_long":106.84912,"station_name":"Manggarai","transit":true,"i_lat":-6.209883,"line":2},{"station_name":"Tebet","i_long":106.857948,"line":2,"distance":2610,"station_id":"TEB","time":4,"i_lat":-6.226659,"transit":false,"is_transit":false},{"transit":false,"i_long":106.856607,"station_name":"Cawang","station_id":"CW","i_lat":-6.242512,"is_transit":false,"distance":1230,"time":2,"line":2},{"distance":1546,"station_name":"Duren Kalibata","i_lat":-6.255332,"station_id":"DRN","transit":false,"i_long":106.85449,"is_transit":false,"time":3,"line":2},{"distance":824,"station_name":"Pasar Minggu Baru","time":2,"i_lat":-6.263214,"transit":false,"i_long":106.851577,"station_id":"PSMB","line":2,"is_transit":false},{"i_lat":-6.2842400000000005,"i_long":106.843999,"line":2,"distance":2380,"is_transit":false,"station_name":"Pasar Minggu","time":2,"transit":false,"station_id":"PSM"},{"station_id":"TNT","distance":2820,"time":4,"i_lat":-6.3080680000000005,"transit":false,"is_transit":false,"station_name":"Tanjung Barat","i_long":106.838896,"line":2},{"time":3,"is_transit":false,"i_lat":-6.330363,"transit":false,"i_long":106.832616,"line":2,"station_id":"LNA","station_name":"Lenteng Agung","distance":2671},{"distance":1029,"time":2,"is_transit":false,"i_lat":-6.339291,"line":2,"station_name":"Univ. Pancasila","i_long":106.834175,"transit":false,"station_id":"UP"},{"time":3,"line":2,"i_lat":-6.360749,"i_long":106.831474,"station_id":"UI","distance":2264,"station_name":"Univ. Indonesia","transit":false,"is_transit":false},{"station_name":"Pondok Cina","transit":false,"time":2,"is_transit":false,"i_long":106.831114,"line":2,"i_lat":-6.369073,"station_id":"POC","distance":1109},{"transit":false,"station_name":"Depokbaru","is_transit":false,"line":2,"distance":2727,"i_long":106.819451,"station_id":"DPB","time":4,"i_lat":-6.391065},{"transit":false,"i_lat":-6.405256,"is_transit":false,"i_long":106.816926,"distance":1584,"line":2,"station_name":"Depok","station_id":"DP","time":3},{"time":6,"i_long":106.800298,"station_name":"Citayam","i_lat":-6.448811,"station_id":"CTA","distance":5084,"transit":true,"line":2,"is_transit":true},{"i_lat":-6.460735,"station_name":"Pondok Rajeg","transit":false,"i_long":106.824374,"time":0,"station_id":"PDRG","is_transit":false,"line":21,"distance":0},{"transit":false,"i_lat":-6.46424,"line":21,"station_id":"CBN","distance":0,"station_name":"Cibinong","i_long":106.851978,"is_transit":false,"time":0},{"is_transit":false,"i_lat":-6.466285,"time":10,"station_id":"NMO","transit":false,"distance":6527,"i_long":106.905196,"line":21,"station_name":"Nambo"}],[{"is_transit":false,"station_name":"Palmerah","time":0,"i_long":106.79689,"station_id":"PLM","i_lat":-6.207404,"line":6,"transit":false,"distance":0},{"time":6,"i_lat":-6.185545,"line":1,"station_name":"Tanah Abang","station_id":"THB","distance":3191,"transit":true,"i_long":106.811091,"is_transit":true},{"station_id":"DU","i_long":106.800832,"line":1,"distance":3632,"station_name":"Duri","is_transit":false,"time":8,"transit":false,"i_lat":-6.155215},{"is_transit":false,"transit":false,"line":1,"station_id":"AK","time":4,"i_long":106.79867,"distance":1230,"i_lat":-6.144674,"station_name":"Angke"},{"transit":true,"i_lat":-6.132549,"station_id":"KPB","line":4,"distance":4102,"station_name":"Kampung Bandan","i_long":106.826365,"time":9,"is_transit":true},{"station_name":"Jakarta Kota","station_id":"JAKK","is_transit":true,"transit":true,"line":2,"i_lat":-6.137569,"distance":1364,"time":3,"i_long":106.812439},{"station_name":"Jayakarta","line":2,"transit":false,"station_id":"JAY","distance":1264,"time":4,"i_long":106.820901,"is_transit":false,"i_lat":-6.141205},{"is_transit":false,"station_name":"Manggabesar","i_long":106.82482,"line":2,"time":2,"station_id":"MGB","distance":1080,"i_lat":-6.149769,"transit":false},{"station_id":"SW","station_name":"Sawah Besar","distance":906,"transit":false,"i_lat":-6.160725,"is_transit":false,"i_long":106.827103,"time":2,"line":2},{"distance":1149,"transit":false,"station_id":"JUA","i_long":106.828284,"i_lat":-6.166716,"is_transit":false,"time":2,"station_name":"Juanda","line":2},{"line":2,"distance":2015,"i_lat":-6.186295,"station_name":"Gondangdia","time":4,"transit":false,"i_long":106.832183,"is_transit":false,"station_id":"GDD"},{"transit":false,"i_lat":-6.198556,"is_transit":false,"line":2,"distance":1750,"i_long":106.840169,"station_id":"CKI","time":3,"station_name":"Cikini"},{"line":2,"i_long":106.84912,"transit":false,"i_lat":-6.209883,"distance":1590,"station_id":"MRI","station_name":"Manggarai","time":4,"is_transit":false},{"station_id":"TEB","time":4,"transit":false,"i_lat":-6.226659,"station_name":"Tebet","i_long":106.857948,"is_transit":false,"line":2,"distance":2610},{"distance":1230,"transit":false,"station_id":"CW","is_transit":false,"i_long":106.856607,"time":2,"station_name":"Cawang","line":2,"i_lat":-6.242512},{"station_name":"Duren Kalibata","station_id":"DRN","time":3,"transit":false,"i_long":106.85449,"distance":1546,"is_transit":false,"i_lat":-6.255332,"line":2},{"transit":false,"is_transit":false,"station_id":"PSMB","i_lat":-6.263214,"distance":824,"station_name":"Pasar Minggu Baru","i_long":106.851577,"time":2,"line":2},{"time":2,"distance":2380,"station_name":"Pasar Minggu","is_transit":false,"transit":false,"i_lat":-6.2842400000000005,"i_long":106.843999,"line":2,"station_id":"PSM"},{"i_lat":-6.3080680000000005,"is_transit":false,"transit":false,"i_long":106.838896,"distance":2820,"station_name":"Tanjung Barat","time":4,"line":2,"station_id":"TNT"},{"time":3,"transit":false,"is_transit":false,"i_long":106.832616,"i_lat":-6.330363,"distance":2671,"line":2,"station_name":"Lenteng Agung","station_id":"LNA"},{"transit":false,"time":2,"station_id":"UP","i_lat":-6.339291,"station_name":"Univ. Pancasila","is_transit":false,"i_long":106.834175,"line":2,"distance":1029},{"line":2,"is_transit":false,"distance":2264,"station_name":"Univ. Indonesia","time":3,"transit":false,"i_lat":-6.360749,"i_long":106.831474,"station_id":"UI"},{"transit":false,"station_name":"Pondok Cina","station_id":"POC","time":2,"i_lat":-6.369073,"distance":1109,"is_transit":false,"i_long":106.831114,"line":2},{"distance":2727,"is_transit":false,"station_id":"DPB","i_lat":-6.391065,"i_long":106.819451,"transit":false,"station_name":"Depokbaru","time":4,"line":2},{"time":3,"station_name":"Depok","transit":false,"i_long":106.816926,"i_lat":-6.405256,"distance":1584,"is_transit":false,"station_id":"DP","line":2},{"is_transit":true,"distance":5084,"station_id":"CTA","i_lat":-6.448811,"line":2,"time":6,"station_name":"Citayam","transit":true,"i_long":106.800298},{"time":0,"line":21,"distance":0,"is_transit":false,"transit":false,"station_id":"PDRG","i_lat":-6.460735,"station_name":"Pondok Rajeg","i_long":106.824374},{"station_name":"Cibinong","station_id":"CBN","distance":0,"transit":false,"i_lat":-6.46424,"line":21,"time":0,"is_transit":false,"i_long":106.851978},{"i_long":106.905196,"station_name":"Nambo","station_id":"NMO","time":10,"is_transit":false,"i_lat":-6.466285,"line":21,"distance":6527,"transit":false}],[{"time":0,"transit":false,"i_lat":-6.207404,"i_long":106.79689,"line":6,"station_name":"Palmerah","is_transit":false,"distance":0,"station_id":"PLM"},{"time":6,"i_lat":-6.185545,"distance":3191,"station_id":"THB","is_transit":true,"transit":true,"i_long":106.811091,"station_name":"Tanah Abang","line":1},{"i_long":106.800832,"station_name":"Duri","time":8,"line":1,"i_lat":-6.155215,"station_id":"DU","transit":false,"distance":3632,"is_transit":false},{"time":4,"station_id":"AK","station_name":"Angke","i_long":106.79867,"is_transit":false,"distance":1230,"line":1,"transit":false,"i_lat":-6.144674},{"i_long":106.826365,"distance":4102,"time":9,"is_transit":true,"transit":true,"i_lat":-6.132549,"station_name":"Kampung Bandan","station_id":"KPB","line":4},{"station_name":"Rajawali","line":11,"time":3,"transit":false,"is_transit":false,"distance":1444,"station_id":"RJW","i_lat":-6.14505,"i_long":106.836569},{"transit":false,"line":11,"i_lat":-6.161728,"i_long":106.839204,"station_name":"Kemayoran","distance":1901,"station_id":"KMO","is_transit":false,"time":5},{"station_name":"Pasar Senen","i_long":106.84368,"distance":1436,"time":4,"station_id":"PSE","line":11,"is_transit":false,"transit":false,"i_lat":-6.174784},{"station_name":"Gang Sentiong","line":11,"is_transit":false,"distance":1567,"time":8,"station_id":"GST","transit":false,"i_lat":-6.185975,"i_long":106.850107},{"is_transit":false,"distance":973,"i_lat":-6.193792,"line":11,"transit":false,"time":1,"station_name":"Kramat","i_long":106.855437,"station_id":"KMT"},{"station_name":"Pondok Jati","transit":false,"station_id":"POK","distance":1829,"i_lat":-6.209188,"is_transit":false,"i_long":106.861737,"line":11,"time":2},{"transit":true,"i_long":106.86807400000001,"time":9,"line":1,"distance":1236,"station_name":"Jatinegara","station_id":"JNG","i_lat":-6.215091,"is_transit":true},{"i_long":106.858896,"station_name":"Matraman","distance":1377,"line":1,"is_transit":false,"station_id":"MTR","time":2,"transit":false,"i_lat":-6.212485},{"time":2,"station_name":"Manggarai","is_transit":true,"station_id":"MRI","i_lat":-6.209883,"i_long":106.84912,"line":2,"distance":1275,"transit":true},{"distance":2610,"transit":false,"station_id":"TEB","is_transit":false,"time":4,"station_name":"Tebet","line":2,"i_long":106.857948,"i_lat":-6.226659},{"time":2,"transit":false,"distance":1230,"i_lat":-6.242512,"station_name":"Cawang","i_long":106.856607,"is_transit":false,"line":2,"station_id":"CW"},{"distance":1546,"time":3,"i_lat":-6.255332,"station_name":"Duren Kalibata","station_id":"DRN","i_long":106.85449,"line":2,"transit":false,"is_transit":false},{"transit":false,"line":2,"station_name":"Pasar Minggu Baru","i_long":106.851577,"station_id":"PSMB","i_lat":-6.263214,"is_transit":false,"distance":824,"time":2},{"station_name":"Pasar Minggu","is_transit":false,"i_lat":-6.2842400000000005,"distance":2380,"time":2,"i_long":106.843999,"line":2,"transit":false,"station_id":"PSM"},{"distance":2820,"station_id":"TNT","is_transit":false,"station_name":"Tanjung Barat","time":4,"transit":false,"i_lat":-6.3080680000000005,"i_long":106.838896,"line":2},{"i_long":106.832616,"line":2,"station_id":"LNA","distance":2671,"transit":false,"time":3,"is_transit":false,"i_lat":-6.330363,"station_name":"Lenteng Agung"},{"is_transit":false,"transit":false,"i_long":106.834175,"i_lat":-6.339291,"station_id":"UP","station_name":"Univ. Pancasila","time":2,"line":2,"distance":1029},{"i_lat":-6.360749,"i_long":106.831474,"station_name":"Univ. Indonesia","time":3,"is_transit":false,"transit":false,"distance":2264,"station_id":"UI","line":2},{"station_id":"POC","i_lat":-6.369073,"time":2,"station_name":"Pondok Cina","i_long":106.831114,"line":2,"is_transit":false,"transit":false,"distance":1109},{"station_id":"DPB","transit":false,"line":2,"distance":2727,"i_lat":-6.391065,"is_transit":false,"station_name":"Depokbaru","i_long":106.819451,"time":4},{"station_name":"Depok","i_lat":-6.405256,"line":2,"distance":1584,"i_long":106.816926,"is_transit":false,"transit":false,"station_id":"DP","time":3},{"is_transit":true,"distance":5084,"time":6,"i_lat":-6.448811,"station_id":"CTA","line":2,"i_long":106.800298,"station_name":"Citayam","transit":true},{"i_long":106.824374,"i_lat":-6.460735,"line":21,"is_transit":false,"transit":false,"station_id":"PDRG","distance":0,"time":0,"station_name":"Pondok Rajeg"},{"transit":false,"i_lat":-6.46424,"station_id":"CBN","line":21,"i_long":106.851978,"station_name":"Cibinong","is_transit":false,"time":0,"distance":0},{"i_long":106.905196,"station_id":"NMO","line":21,"transit":false,"i_lat":-6.466285,"time":10,"station_name":"Nambo","distance":6527,"is_transit":false}]]}