{"data":[[{"station_id":"PLM","time":0,"distance":0,"i_long":106.79689,"i_lat":-6.207404,"station_name":"Palmerah","is_transit":false,"transit":false,"line":6},{"distance":3737,"station_name":"Kebayoran","i_long":106.780334,"is_transit":false,"i_lat":-6.237242,"time":7,"station_id":"KBY","transit":false,"line":6},{"transit":false,"station_name":"Pondokranji","time":8,"i_long":106.74273,"distance":6218,"station_id":"PDJ","line":6,"i_lat":-6.276362,"is_transit":false},{"station_id":"JMU","transit":false,"i_long":106.728916,"i_lat":-6.288927,"time":3,"distance":2179,"line":6,"is_transit":false,"station_name":"Jurangmangu"},{"i_long":106.712277,"time":4,"station_name":"Sudimara","station_id":"SDM","is_transit":false,"i_lat":-6.296963,"line":6,"transit":false,"distance":1994}]]}