{"data":[[{"i_lat":-6.207404,"time":0,"i_long":106.79689,"distance":0,"line":6,"station_id":"PLM","station_name":"Palmerah","transit":false,"is_transit":false},{"line":6,"is_transit":false,"i_lat":-6.237242,"station_name":"Kebayoran","i_long":106.780334,"time":7,"distance":3737,"transit":false,"station_id":"KBY"},{"is_transit":false,"transit":false,"time":8,"station_name":"Pondokranji","distance":6218,"station_id":"PDJ","i_lat":-6.276362,"line":6,"i_long":106.74273},{"i_lat":-6.288927,"station_name":"Jurangmangu","is_transit":false,"station_id":"JMU","time":3,"line":6,"i_long":106.728916,"transit":false,"distance":2179},{"transit":false,"station_id":"SDM","i_lat":-6.296963,"time":4,"line":6,"is_transit":false,"station_name":"Sudimara","distance":1994,"i_long":106.712277}]]}