{"data":[[{"i_long":106.79689,"time":0,"i_lat":-6.207404,"transit":false,"line":6,"station_id":"PLM","distance":0,"station_name":"Palmerah","is_transit":false},{"i_lat":-6.185545,"is_transit":true,"station_name":"Tanah Abang","time":6,"transit":true,"i_long":106.811091,"line":1,"station_id":"THB","distance":3191},{"station_name":"Duri","i_lat":-6.155215,"time":8,"i_long":106.800832,"distance":3632,"line":1,"station_id":"DU","is_transit":true,"transit":true},{"is_transit":false,"distance":1230,"line":0,"station_name":"Angke","transit":false,"i_lat":-6.144674,"station_id":"AK","time":4,"i_long":106.79867},{"station_id":"KPB","i_long":106.826365,"is_transit":true,"time":9,"distance":4102,"station_name":"Kampung Bandan","i_lat":-6.132549,"transit":false,"line":0}],[{"line":6,"time":0,"distance":0,"is_transit":false,"station_name":"Palmerah","i_lat":-6.207404,"i_long":106.79689,"transit":false,"station_id":"PLM"},{"line":1,"i_long":106.811091,"station_name":"Tanah Abang","station_id":"THB","distance":3191,"is_transit":true,"time":6,"transit":true,"i_lat":-6.185545},{"distance":2029,"is_transit":false,"i_lat":-6.20132,"time":5,"line":1,"transit":false,"i_long":106.816351,"station_name":"Karet","station_id":"KAT"},{"transit":false,"time":1,"station_id":"SUDB","is_transit":false,"i_lat":-6.201433,"station_name":"Sudirman Baru","distance":471,"i_long":106.819881,"line":1},{"station_name":"Sudirman","is_transit":false,"transit":false,"i_long":106.822649,"time":1,"line":1,"distance":280,"station_id":"SUD","i_lat":-6.202263},{"distance":3186,"transit":true,"station_id":"MRI","time":4,"station_name":"Manggarai","is_transit":true,"i_lat":-6.209883,"i_long":106.84912,"line":0},{"station_name":"Cikini","i_lat":-6.198556,"is_transit":false,"time":4,"line":0,"transit":false,"distance":1590,"station_id":"CKI","i_long":106.840169},{"time":3,"i_lat":-6.186295,"station_id":"GDD","distance":1750,"i_long":106.832183,"line":2,"transit":false,"is_transit":false,"station_name":"Gondangdia"},{"distance":2015,"transit":false,"is_transit":false,"i_long":106.828284,"station_name":"Juanda","time":4,"line":2,"station_id":"JUA","i_lat":-6.166716},{"distance":1149,"line":2,"is_transit":false,"i_lat":-6.160725,"i_long":106.827103,"station_id":"SW","time":2,"transit":false,"station_name":"Sawah Besar"},{"distance":906,"station_id":"MGB","i_lat":-6.149769,"time":2,"i_long":106.82482,"line":2,"station_name":"Manggabesar","transit":false,"is_transit":false},{"distance":1080,"line":7,"is_transit":false,"transit":false,"time":2,"station_id":"JAY","i_long":106.820901,"i_lat":-6.141205,"station_name":"Jayakarta"},{"time":4,"distance":1264,"station_id":"JAKK","is_transit":true,"i_lat":-6.137569,"line":0,"i_long":106.812439,"transit":true,"station_name":"Jakarta Kota"},{"time":3,"line":0,"i_long":106.826365,"station_id":"KPB","i_lat":-6.132549,"is_transit":true,"distance":1364,"transit":false,"station_name":"Kampung Bandan"}],[{"transit":false,"station_name":"Palmerah","i_lat":-6.207404,"time":0,"station_id":"PLM","is_transit":false,"line":6,"i_long":106.79689,"distance":0},{"transit":true,"i_long":106.811091,"station_name":"Tanah Abang","station_id":"THB","is_transit":true,"line":1,"time":6,"distance":3191,"i_lat":-6.185545},{"time":5,"i_lat":-6.20132,"i_long":106.816351,"station_id":"KAT","station_name":"Karet","is_transit":false,"distance":2029,"transit":false,"line":1},{"transit":false,"station_name":"Sudirman Baru","distance":471,"time":1,"i_lat":-6.201433,"is_transit":false,"i_long":106.819881,"line":1,"station_id":"SUDB"},{"distance":280,"time":1,"is_transit":false,"line":1,"station_name":"Sudirman","i_lat":-6.202263,"station_id":"SUD","transit":false,"i_long":106.822649},{"line":0,"is_transit":true,"time":4,"i_lat":-6.209883,"station_id":"MRI","distance":3186,"i_long":106.84912,"station_name":"Manggarai","transit":false},{"i_lat":-6.212485,"i_long":106.858896,"line":1,"station_name":"Matraman","distance":1275,"time":2,"is_transit":false,"station_id":"MTR","transit":false},{"station_name":"Jatinegara","transit":true,"is_transit":true,"i_long":106.86807400000001,"line":0,"distance":1377,"station_id":"JNG","time":8,"i_lat":-6.215091},{"transit":false,"i_long":106.861737,"station_name":"Pondok Jati","distance":1236,"line":11,"time":2,"is_transit":false,"station_id":"POK","i_lat":-6.209188},{"station_id":"KMT","station_name":"Kramat","transit":false,"time":2,"i_lat":-6.193792,"i_long":106.855437,"is_transit":false,"distance":1829,"line":11},{"station_name":"Gang Sentiong","time":1,"i_long":106.850107,"line":11,"is_transit":false,"station_id":"GST","i_lat":-6.185975,"distance":973,"transit":false},{"station_id":"PSE","line":11,"i_long":106.84368,"station_name":"Pasar Senen","is_transit":false,"distance":1567,"transit":false,"i_lat":-6.174784,"time":8},{"time":4,"i_long":106.839204,"station_id":"KMO","transit":false,"line":11,"station_name":"Kemayoran","is_transit":false,"distance":1436,"i_lat":-6.161728},{"station_name":"Rajawali","distance":1901,"station_id":"RJW","is_transit":false,"i_lat":-6.14505,"i_long":106.836569,"time":5,"transit":false,"line":11},{"station_id":"KPB","is_transit":true,"transit":false,"line":0,"distance":1444,"i_lat":-6.132549,"i_long":106.826365,"time":3,"station_name":"Kampung Bandan"}]]}