{"data":[[{"transit":false,"station_name":"Palmerah","distance":0,"i_lat":-6.207404,"time":0,"i_long":106.79689,"is_transit":false,"line":6,"station_id":"PLM"},{"station_name":"Tanah Abang","station_id":"THB","i_long":106.811091,"distance":3191,"is_transit":true,"line":1,"transit":true,"time":6,"i_lat":-6.185545},{"i_lat":-6.20132,"station_id":"KAT","is_transit":false,"i_long":106.816351,"transit":false,"station_name":"Karet","time":5,"distance":2029,"line":1}],[{"distance":0,"i_lat":-6.207404,"station_name":"Palmerah","time":0,"i_long":106.79689,"is_transit":false,"line":6,"station_id":"PLM","transit":false},{"is_transit":true,"i_long":106.811091,"station_id":"THB","time":6,"transit":true,"line":1,"distance":3191,"i_lat":-6.185545,"station_name":"Tanah Abang"},{"is_transit":false,"transit":false,"distance":3632,"i_lat":-6.155215,"station_name":"Duri","i_long":106.800832,"line":1,"time":8,"station_id":"DU"},{"i_long":106.79867,"is_transit":false,"transit":false,"time":4,"i_lat":-6.144674,"line":1,"station_id":"AK","distance":1230,"station_name":"Angke"},{"transit":true,"time":9,"distance":4102,"station_name":"Kampung Bandan","station_id":"KPB","i_long":106.826365,"is_transit":true,"i_lat":-6.132549,"line":4},{"is_transit":true,"i_long":106.812439,"line":2,"time":3,"i_lat":-6.137569,"station_name":"Jakarta Kota","station_id":"JAKK","transit":true,"distance":1364},{"station_name":"Jayakarta","distance":1264,"is_transit":false,"i_long":106.820901,"time":4,"line":2,"station_id":"JAY","i_lat":-6.141205,"transit":false},{"transit":false,"is_transit":false,"distance":1080,"line":2,"station_id":"MGB","time":2,"i_lat":-6.149769,"station_name":"Manggabesar","i_long":106.82482},{"line":2,"station_name":"Sawah Besar","is_transit":false,"i_long":106.827103,"i_lat":-6.160725,"time":2,"distance":906,"transit":false,"station_id":"SW"},{"time":2,"i_lat":-6.166716,"transit":false,"station_id":"JUA","line":2,"i_long":106.828284,"station_name":"Juanda","is_transit":false,"distance":1149},{"station_id":"GDD","transit":false,"is_transit":false,"time":4,"distance":2015,"i_long":106.832183,"line":2,"i_lat":-6.186295,"station_name":"Gondangdia"},{"i_lat":-6.198556,"distance":1750,"time":3,"i_long":106.840169,"station_name":"Cikini","line":2,"is_transit":false,"transit":false,"station_id":"CKI"},{"station_name":"Manggarai","time":4,"line":2,"station_id":"MRI","i_lat":-6.209883,"distance":1590,"i_long":106.84912,"transit":true,"is_transit":true},{"station_name":"Sudirman","is_transit":false,"i_long":106.822649,"station_id":"SUD","transit":false,"distance":3186,"time":4,"i_lat":-6.202263,"line":1},{"transit":false,"station_id":"SUDB","time":1,"station_name":"Sudirman Baru","line":1,"i_long":106.819881,"is_transit":false,"distance":280,"i_lat":-6.201433},{"is_transit":false,"transit":false,"distance":471,"i_long":106.816351,"time":1,"i_lat":-6.20132,"line":1,"station_name":"Karet","station_id":"KAT"}],[{"time":0,"station_id":"PLM","distance":0,"line":6,"is_transit":false,"transit":false,"station_name":"Palmerah","i_long":106.79689,"i_lat":-6.207404},{"distance":3191,"station_id":"THB","time":6,"i_lat":-6.185545,"i_long":106.811091,"station_name":"Tanah Abang","is_transit":true,"transit":true,"line":1},{"station_id":"DU","station_name":"Duri","distance":3632,"i_long":106.800832,"line":1,"time":8,"transit":false,"is_transit":false,"i_lat":-6.155215},{"transit":false,"distance":1230,"station_name":"Angke","time":4,"is_transit":false,"i_lat":-6.144674,"station_id":"AK","line":1,"i_long":106.79867},{"station_name":"Kampung Bandan","time":9,"distance":4102,"line":4,"i_long":106.826365,"is_transit":true,"transit":true,"station_id":"KPB","i_lat":-6.132549},{"station_name":"Rajawali","station_id":"RJW","distance":1444,"i_lat":-6.14505,"time":3,"line":11,"transit":false,"i_long":106.836569,"is_transit":false},{"i_long":106.839204,"distance":1901,"station_id":"KMO","station_name":"Kemayoran","is_transit":false,"line":11,"transit":false,"time":5,"i_lat":-6.161728},{"transit":false,"i_long":106.84368,"station_id":"PSE","is_transit":false,"station_name":"Pasar Senen","line":11,"time":4,"distance":1436,"i_lat":-6.174784},{"station_id":"GST","i_long":106.850107,"transit":false,"time":8,"i_lat":-6.185975,"line":11,"station_name":"Gang Sentiong","distance":1567,"is_transit":false},{"time":1,"line":11,"i_long":106.855437,"station_name":"Kramat","transit":false,"i_lat":-6.193792,"station_id":"KMT","is_transit":false,"distance":973},{"line":11,"station_name":"Pondok Jati","transit":false,"is_transit":false,"i_lat":-6.209188,"station_id":"POK","distance":1829,"time":2,"i_long":106.861737},{"station_name":"Jatinegara","i_lat":-6.215091,"line":1,"station_id":"JNG","distance":1236,"i_long":106.86807400000001,"is_transit":true,"time":9,"transit":true},{"is_transit":false,"line":1,"time":2,"transit":false,"distance":1377,"i_lat":-6.212485,"i_long":106.858896,"station_id":"MTR","station_name":"Matraman"},{"station_name":"Manggarai","time":2,"line":2,"is_transit":false,"station_id":"MRI","distance":1275,"i_lat":-6.209883,"transit":false,"i_long":106.84912},{"i_lat":-6.202263,"is_transit":false,"station_id":"SUD","time":4,"station_name":"Sudirman","distance":3186,"i_long":106.822649,"transit":false,"line":1},{"time":1,"i_long":106.819881,"line":1,"i_lat":-6.201433,"station_id":"SUDB","is_transit":false,"station_name":"Sudirman Baru","distance":280,"transit":false},{"station_id":"KAT","distance":471,"i_lat":-6.20132,"i_long":106.816351,"time":1,"line":1,"transit":false,"is_transit":false,"station_name":"Karet"}]]}