{"data":[[{"station_name":"Palmerah","time":0,"is_transit":false,"station_id":"PLM","distance":0,"line":6,"i_long":106.79689,"transit":false,"i_lat":-6.207404},{"line":1,"distance":3191,"i_long":106.811091,"time":6,"station_id":"THB","transit":true,"is_transit":true,"i_lat":-6.185545,"station_name":"Tanah Abang"},{"i_long":106.800832,"station_name":"Duri","distance":3632,"is_transit":false,"station_id":"DU","time":8,"i_lat":-6.155215,"transit":false,"line":1},{"transit":false,"line":1,"distance":1230,"is_transit":false,"station_id":"AK","time":4,"i_lat":-6.144674,"i_long":106.79867,"station_name":"Angke"},{"transit":true,"i_long":106.826365,"time":9,"distance":4102,"line":4,"station_id":"KPB","station_name":"Kampung Bandan","is_transit":true,"i_lat":-6.132549},{"i_long":106.836569,"transit":false,"is_transit":false,"time":3,"distance":1444,"station_id":"RJW","i_lat":-6.14505,"station_name":"Rajawali","line":11}],[{"distance":0,"i_long":106.79689,"is_transit":false,"transit":false,"line":6,"station_id":"PLM","station_name":"Palmerah","time":0,"i_lat":-6.207404},{"is_transit":true,"transit":true,"station_id":"THB","station_name":"Tanah Abang","time":6,"i_lat":-6.185545,"distance":3191,"line":1,"i_long":106.811091},{"transit":false,"i_lat":-6.20132,"i_long":106.816351,"station_name":"Karet","distance":2029,"is_transit":false,"station_id":"KAT","time":5,"line":1},{"i_lat":-6.201433,"i_long":106.819881,"line":1,"transit":false,"station_id":"SUDB","is_transit":false,"distance":471,"time":1,"station_name":"Sudirman Baru"},{"station_name":"Sudirman","line":1,"distance":280,"transit":false,"i_long":106.822649,"i_lat":-6.202263,"is_transit":false,"time":1,"station_id":"SUD"},{"station_name":"Manggarai","i_lat":-6.209883,"distance":3186,"i_long":106.84912,"is_transit":false,"time":4,"transit":false,"station_id":"MRI","line":2},{"transit":false,"station_id":"MTR","time":2,"line":1,"is_transit":false,"station_name":"Matraman","i_lat":-6.212485,"i_long":106.858896,"distance":1275},{"station_name":"Jatinegara","distance":1377,"i_long":106.86807400000001,"is_transit":true,"time":8,"transit":true,"i_lat":-6.215091,"line":1,"station_id":"JNG"},{"line":11,"is_transit":false,"station_id":"POK","transit":false,"i_lat":-6.209188,"distance":1236,"time":2,"i_long":106.861737,"station_name":"Pondok Jati"},{"station_name":"Kramat","time":2,"i_long":106.855437,"line":11,"is_transit":false,"distance":1829,"i_lat":-6.193792,"transit":false,"station_id":"KMT"},{"transit":false,"i_lat":-6.185975,"station_name":"Gang Sentiong","time":1,"station_id":"GST","is_transit":false,"line":11,"i_long":106.850107,"distance":973},{"i_long":106.84368,"line":11,"transit":false,"distance":1567,"i_lat":-6.174784,"station_id":"PSE","station_name":"Pasar Senen","time":8,"is_transit":false},{"station_name":"Kemayoran","distance":1436,"i_long":106.839204,"line":11,"is_transit":false,"i_lat":-6.161728,"time":4,"station_id":"KMO","transit":false},{"time":5,"line":11,"distance":1901,"station_id":"RJW","i_lat":-6.14505,"is_transit":false,"transit":false,"station_name":"Rajawali","i_long":106.836569}],[{"is_transit":false,"time":0,"i_long":106.79689,"transit":false,"station_name":"Palmerah","distance":0,"station_id":"PLM","i_lat":-6.207404,"line":6},{"line":1,"distance":3191,"i_lat":-6.185545,"transit":true,"station_id":"THB","is_transit":true,"time":6,"station_name":"Tanah Abang","i_long":106.811091},{"is_transit":false,"station_name":"Karet","time":5,"i_long":106.816351,"line":1,"distance":2029,"station_id":"KAT","i_lat":-6.20132,"transit":false},{"transit":false,"time":1,"station_id":"SUDB","is_transit":false,"i_lat":-6.201433,"station_name":"Sudirman Baru","distance":471,"line":1,"i_long":106.819881},{"station_id":"SUD","line":1,"is_transit":false,"distance":280,"transit":false,"i_lat":-6.202263,"station_name":"Sudirman","time":1,"i_long":106.822649},{"station_name":"Manggarai","transit":true,"station_id":"MRI","time":4,"i_lat":-6.209883,"i_long":106.84912,"distance":3186,"line":2,"is_transit":true},{"line":2,"is_transit":false,"station_id":"CKI","distance":1590,"i_lat":-6.198556,"transit":false,"i_long":106.840169,"station_name":"Cikini","time":4},{"time":3,"transit":false,"line":2,"i_long":106.832183,"i_lat":-6.186295,"station_name":"Gondangdia","distance":1750,"is_transit":false,"station_id":"GDD"},{"distance":2015,"i_long":106.828284,"station_name":"Juanda","line":2,"transit":false,"is_transit":false,"station_id":"JUA","i_lat":-6.166716,"time":4},{"distance":1149,"station_name":"Sawah Besar","i_lat":-6.160725,"i_long":106.827103,"transit":false,"station_id":"SW","time":2,"line":2,"is_transit":false},{"time":2,"line":2,"transit":false,"is_transit":false,"distance":906,"i_lat":-6.149769,"station_id":"MGB","i_long":106.82482,"station_name":"Manggabesar"},{"i_lat":-6.141205,"is_transit":false,"time":2,"transit":false,"i_long":106.820901,"station_name":"Jayakarta","distance":1080,"line":2,"station_id":"JAY"},{"station_name":"Jakarta Kota","is_transit":true,"station_id":"JAKK","i_lat":-6.137569,"distance":1264,"line":2,"transit":true,"time":4,"i_long":106.812439},{"station_id":"KPB","i_long":106.826365,"time":3,"distance":1364,"line":4,"i_lat":-6.132549,"transit":true,"is_transit":true,"station_name":"Kampung Bandan"},{"station_name":"Rajawali","transit":false,"is_transit":false,"i_long":106.836569,"distance":1444,"station_id":"RJW","time":3,"i_lat":-6.14505,"line":11}],[{"transit":false,"time":0,"distance":0,"is_transit":false,"line":6,"i_lat":-6.207404,"station_name":"Palmerah","i_long":106.79689,"station_id":"PLM"},{"station_id":"THB","station_name":"Tanah Abang","time":6,"distance":3191,"transit":true,"i_lat":-6.185545,"i_long":106.811091,"line":1,"is_transit":true},{"time":8,"station_id":"DU","distance":3632,"station_name":"Duri","i_lat":-6.155215,"transit":false,"i_long":106.800832,"line":1,"is_transit":false},{"time":4,"i_lat":-6.144674,"line":1,"distance":1230,"station_id":"AK","transit":false,"i_long":106.79867,"station_name":"Angke","is_transit":false},{"i_long":106.826365,"is_transit":true,"station_id":"KPB","time":9,"transit":true,"station_name":"Kampung Bandan","line":4,"distance":4102,"i_lat":-6.132549},{"line":2,"time":3,"station_name":"Jakarta Kota","distance":1364,"transit":true,"i_lat":-6.137569,"i_long":106.812439,"station_id":"JAKK","is_transit":true},{"i_lat":-6.141205,"is_transit":false,"i_long":106.820901,"line":2,"transit":false,"time":4,"distance":1264,"station_id":"JAY","station_name":"Jayakarta"},{"line":2,"i_lat":-6.149769,"distance":1080,"time":2,"transit":false,"station_id":"MGB","is_transit":false,"station_name":"Manggabesar","i_long":106.82482},{"is_transit":false,"time":2,"i_lat":-6.160725,"line":2,"distance":906,"transit":false,"station_id":"SW","station_name":"Sawah Besar","i_long":106.827103},{"line":2,"transit":false,"station_id":"JUA","is_transit":false,"i_lat":-6.166716,"station_name":"Juanda","time":2,"distance":1149,"i_long":106.828284},{"time":4,"station_name":"Gondangdia","transit":false,"i_lat":-6.186295,"line":2,"i_long":106.832183,"distance":2015,"station_id":"GDD","is_transit":false},{"station_name":"Cikini","is_transit":false,"station_id":"CKI","time":3,"i_lat":-6.198556,"transit":false,"i_long":106.840169,"distance":1750,"line":2},{"transit":true,"line":2,"i_lat":-6.209883,"is_transit":true,"station_id":"MRI","station_name":"Manggarai","distance":1590,"i_long":106.84912,"time":4},{"station_id":"MTR","is_transit":false,"i_lat":-6.212485,"i_long":106.858896,"distance":1275,"transit":false,"time":2,"station_name":"Matraman","line":1},{"transit":true,"time":8,"distance":1377,"station_name":"Jatinegara","line":1,"is_transit":true,"station_id":"JNG","i_lat":-6.215091,"i_long":106.86807400000001},{"i_long":106.861737,"transit":false,"line":11,"station_name":"Pondok Jati","station_id":"POK","time":2,"i_lat":-6.209188,"distance":1236,"is_transit":false},{"is_transit":false,"station_name":"Kramat","i_lat":-6.193792,"line":11,"transit":false,"distance":1829,"i_long":106.855437,"station_id":"KMT","time":2},{"line":11,"transit":false,"time":1,"distance":973,"is_transit":false,"i_long":106.850107,"station_id":"GST","station_name":"Gang Sentiong","i_lat":-6.185975},{"line":11,"station_id":"PSE","station_name":"Pasar Senen","transit":false,"time":8,"distance":1567,"i_lat":-6.174784,"is_transit":false,"i_long":106.84368},{"station_id":"KMO","station_name":"Kemayoran","time":4,"transit":false,"is_transit":false,"i_lat":-6.161728,"line":11,"distance":1436,"i_long":106.839204},{"time":5,"i_lat":-6.14505,"distance":1901,"transit":false,"station_name":"Rajawali","station_id":"RJW","is_transit":false,"line":11,"i_long":106.836569}]]}