{"data":[[{"transit":false,"i_lat":-6.207404,"i_long":106.79689,"line":6,"distance":0,"station_name":"Palmerah","station_id":"PLM","is_transit":false,"time":0},{"transit":false,"distance":3737,"line":6,"i_lat":-6.237242,"i_long":106.780334,"station_id":"KBY","time":7,"station_name":"Kebayoran","is_transit":false},{"station_id":"PDJ","station_name":"Pondokranji","i_long":106.74273,"is_transit":false,"line":6,"distance":6218,"time":8,"transit":false,"i_lat":-6.276362},{"i_lat":-6.288927,"line":6,"time":3,"distance":2179,"transit":false,"i_long":106.728916,"station_id":"JMU","is_transit":false,"station_name":"Jurangmangu"},{"station_name":"Sudimara","i_lat":-6.296963,"i_long":106.712277,"station_id":"SDM","time":4,"line":6,"transit":false,"distance":1994,"is_transit":false},{"station_id":"RU","transit":false,"i_lat":-6.314823,"is_transit":false,"time":6,"distance":4566,"station_name":"Rawa Buntu","i_long":106.675475,"line":6},{"station_name":"Serpong","distance":2413,"i_long":106.66566,"is_transit":false,"time":4,"i_lat":-6.319871,"station_id":"SRP","line":6,"transit":false},{"time":4,"i_lat":-6.32484,"distance":1784,"station_name":"Cisauk","station_id":"CSK","is_transit":false,"i_long":106.640411,"line":0,"transit":false},{"station_id":"CC","transit":false,"station_name":"Cicayur","time":4,"line":0,"i_long":106.617853,"distance":2519,"is_transit":false,"i_lat":-6.329547},{"i_long":106.568863,"station_name":"Parung Panjang","station_id":"PRP","distance":5968,"line":6,"time":8,"is_transit":false,"transit":false,"i_lat":-6.3441410000000005}]]}