{"data":[[{"line":6,"station_name":"Palmerah","station_id":"PLM","time":0,"transit":false,"is_transit":false,"i_lat":-6.207404,"i_long":106.79689,"distance":0},{"is_transit":true,"distance":3191,"transit":true,"station_id":"THB","station_name":"Tanah Abang","i_lat":-6.185545,"i_long":106.811091,"time":6,"line":1},{"transit":true,"distance":3632,"i_long":106.800832,"time":8,"line":1,"is_transit":true,"i_lat":-6.155215,"station_id":"DU","station_name":"Duri"},{"is_transit":false,"i_lat":-6.144674,"station_name":"Angke","time":4,"station_id":"AK","distance":1230,"i_long":106.79867,"transit":false,"line":0},{"i_long":106.826365,"i_lat":-6.132549,"line":0,"station_id":"KPB","time":9,"transit":true,"distance":4102,"is_transit":true,"station_name":"Kampung Bandan"},{"i_lat":-6.14505,"station_id":"RJW","distance":1444,"i_long":106.836569,"station_name":"Rajawali","line":11,"time":3,"transit":false,"is_transit":false}],[{"distance":0,"line":6,"station_name":"Palmerah","time":0,"i_lat":-6.207404,"station_id":"PLM","i_long":106.79689,"transit":false,"is_transit":false},{"transit":true,"station_name":"Tanah Abang","station_id":"THB","distance":3191,"i_long":106.811091,"is_transit":true,"i_lat":-6.185545,"time":6,"line":1},{"i_long":106.816351,"line":1,"i_lat":-6.20132,"station_name":"Karet","is_transit":false,"transit":false,"time":5,"station_id":"KAT","distance":2029},{"distance":471,"line":1,"station_id":"SUDB","time":1,"transit":false,"station_name":"Sudirman Baru","is_transit":false,"i_long":106.819881,"i_lat":-6.201433},{"station_id":"SUD","line":1,"time":1,"transit":false,"i_long":106.822649,"distance":280,"station_name":"Sudirman","i_lat":-6.202263,"is_transit":false},{"is_transit":true,"distance":3186,"time":4,"i_lat":-6.209883,"transit":false,"i_long":106.84912,"station_name":"Manggarai","line":0,"station_id":"MRI"},{"station_name":"Matraman","i_lat":-6.212485,"line":1,"transit":false,"time":2,"station_id":"MTR","i_long":106.858896,"is_transit":false,"distance":1275},{"time":8,"line":0,"distance":1377,"station_name":"Jatinegara","transit":true,"station_id":"JNG","i_lat":-6.215091,"i_long":106.86807400000001,"is_transit":true},{"station_name":"Pondok Jati","time":2,"transit":false,"line":11,"distance":1236,"i_long":106.861737,"i_lat":-6.209188,"is_transit":false,"station_id":"POK"},{"station_id":"KMT","distance":1829,"station_name":"Kramat","time":2,"i_lat":-6.193792,"i_long":106.855437,"line":11,"transit":false,"is_transit":false},{"station_name":"Gang Sentiong","i_long":106.850107,"is_transit":false,"transit":false,"i_lat":-6.185975,"line":11,"station_id":"GST","time":1,"distance":973},{"distance":1567,"is_transit":false,"time":8,"line":11,"station_name":"Pasar Senen","transit":false,"i_lat":-6.174784,"station_id":"PSE","i_long":106.84368},{"station_name":"Kemayoran","i_long":106.839204,"distance":1436,"i_lat":-6.161728,"time":4,"line":11,"is_transit":false,"station_id":"KMO","transit":false},{"line":11,"station_id":"RJW","station_name":"Rajawali","transit":false,"i_long":106.836569,"time":5,"distance":1901,"is_transit":false,"i_lat":-6.14505}],[{"station_id":"PLM","i_long":106.79689,"time":0,"line":6,"is_transit":false,"distance":0,"transit":false,"station_name":"Palmerah","i_lat":-6.207404},{"line":1,"transit":true,"is_transit":true,"station_name":"Tanah Abang","i_lat":-6.185545,"time":6,"i_long":106.811091,"distance":3191,"station_id":"THB"},{"station_name":"Karet","station_id":"KAT","line":1,"time":5,"i_lat":-6.20132,"i_long":106.816351,"is_transit":false,"transit":false,"distance":2029},{"line":1,"distance":471,"time":1,"transit":false,"i_long":106.819881,"station_id":"SUDB","i_lat":-6.201433,"is_transit":false,"station_name":"Sudirman Baru"},{"time":1,"line":1,"is_transit":false,"station_id":"SUD","distance":280,"transit":false,"station_name":"Sudirman","i_lat":-6.202263,"i_long":106.822649},{"is_transit":true,"transit":true,"time":4,"station_name":"Manggarai","distance":3186,"line":0,"i_long":106.84912,"station_id":"MRI","i_lat":-6.209883},{"is_transit":false,"transit":false,"i_lat":-6.198556,"i_long":106.840169,"station_id":"CKI","time":4,"distance":1590,"station_name":"Cikini","line":0},{"time":3,"distance":1750,"transit":false,"i_lat":-6.186295,"station_id":"GDD","line":2,"is_transit":false,"station_name":"Gondangdia","i_long":106.832183},{"time":4,"station_id":"JUA","i_lat":-6.166716,"distance":2015,"i_long":106.828284,"transit":false,"is_transit":false,"line":2,"station_name":"Juanda"},{"time":2,"station_name":"Sawah Besar","i_lat":-6.160725,"i_long":106.827103,"transit":false,"station_id":"SW","distance":1149,"line":2,"is_transit":false},{"distance":906,"transit":false,"time":2,"line":2,"station_name":"Manggabesar","i_lat":-6.149769,"is_transit":false,"station_id":"MGB","i_long":106.82482},{"is_transit":false,"i_long":106.820901,"station_id":"JAY","station_name":"Jayakarta","i_lat":-6.141205,"time":2,"distance":1080,"transit":false,"line":7},{"station_name":"Jakarta Kota","transit":true,"station_id":"JAKK","line":0,"time":4,"i_lat":-6.137569,"i_long":106.812439,"is_transit":true,"distance":1264},{"transit":true,"i_long":106.826365,"is_transit":true,"station_id":"KPB","time":3,"distance":1364,"i_lat":-6.132549,"station_name":"Kampung Bandan","line":0},{"is_transit":false,"station_id":"RJW","i_lat":-6.14505,"transit":false,"station_name":"Rajawali","distance":1444,"line":11,"time":3,"i_long":106.836569}],[{"time":0,"station_id":"PLM","distance":0,"is_transit":false,"transit":false,"line":6,"station_name":"Palmerah","i_lat":-6.207404,"i_long":106.79689},{"line":1,"i_lat":-6.185545,"station_name":"Tanah Abang","time":6,"station_id":"THB","i_long":106.811091,"is_transit":true,"transit":true,"distance":3191},{"distance":3632,"line":1,"transit":true,"i_long":106.800832,"is_transit":true,"station_id":"DU","i_lat":-6.155215,"station_name":"Duri","time":8},{"line":0,"time":4,"i_lat":-6.144674,"station_id":"AK","i_long":106.79867,"transit":false,"is_transit":false,"distance":1230,"station_name":"Angke"},{"is_transit":true,"station_name":"Kampung Bandan","i_lat":-6.132549,"station_id":"KPB","transit":false,"time":9,"line":0,"distance":4102,"i_long":106.826365},{"is_transit":true,"distance":1364,"station_name":"Jakarta Kota","station_id":"JAKK","i_long":106.812439,"line":0,"i_lat":-6.137569,"transit":true,"time":3},{"distance":1264,"transit":false,"station_name":"Jayakarta","i_lat":-6.141205,"line":7,"time":4,"i_long":106.820901,"is_transit":false,"station_id":"JAY"},{"transit":false,"distance":1080,"is_transit":false,"station_name":"Manggabesar","station_id":"MGB","time":2,"i_long":106.82482,"i_lat":-6.149769,"line":2},{"i_long":106.827103,"line":2,"is_transit":false,"distance":906,"time":2,"station_id":"SW","transit":false,"station_name":"Sawah Besar","i_lat":-6.160725},{"line":2,"is_transit":false,"i_long":106.828284,"station_id":"JUA","distance":1149,"transit":false,"station_name":"Juanda","time":2,"i_lat":-6.166716},{"transit":false,"station_name":"Gondangdia","distance":2015,"station_id":"GDD","time":4,"i_lat":-6.186295,"i_long":106.832183,"is_transit":false,"line":2},{"i_lat":-6.198556,"i_long":106.840169,"distance":1750,"line":0,"is_transit":false,"station_name":"Cikini","transit":false,"station_id":"CKI","time":3},{"i_long":106.84912,"line":0,"station_name":"Manggarai","i_lat":-6.209883,"distance":1590,"time":4,"station_id":"MRI","transit":true,"is_transit":true},{"transit":false,"station_name":"Matraman","is_transit":false,"i_lat":-6.212485,"time":2,"i_long":106.858896,"line":1,"station_id":"MTR","distance":1275},{"i_long":106.86807400000001,"transit":true,"station_name":"Jatinegara","i_lat":-6.215091,"distance":1377,"station_id":"JNG","line":0,"time":8,"is_transit":true},{"distance":1236,"is_transit":false,"i_long":106.861737,"time":2,"station_name":"Pondok Jati","line":11,"i_lat":-6.209188,"transit":false,"station_id":"POK"},{"i_lat":-6.193792,"is_transit":false,"i_long":106.855437,"transit":false,"line":11,"distance":1829,"station_id":"KMT","station_name":"Kramat","time":2},{"i_long":106.850107,"is_transit":false,"distance":973,"line":11,"station_id":"GST","transit":false,"station_name":"Gang Sentiong","time":1,"i_lat":-6.185975},{"i_lat":-6.174784,"is_transit":false,"line":11,"time":8,"i_long":106.84368,"transit":false,"station_name":"Pasar Senen","station_id":"PSE","distance":1567},{"time":4,"line":11,"is_transit":false,"station_id":"KMO","i_lat":-6.161728,"i_long":106.839204,"distance":1436,"transit":false,"station_name":"Kemayoran"},{"is_transit":false,"distance":1901,"transit":false,"i_long":106.836569,"time":5,"station_id":"RJW","station_name":"Rajawali","i_lat":-6.14505,"line":11}]]}