{"data":[[{"is_transit":false,"i_lat":-6.207404,"transit":false,"station_name":"Palmerah","distance":0,"i_long":106.79689,"line":6,"time":0,"station_id":"PLM"},{"line":1,"distance":3191,"station_id":"THB","station_name":"Tanah Abang","is_transit":true,"transit":true,"time":6,"i_lat":-6.185545,"i_long":106.811091},{"transit":false,"distance":2029,"station_name":"Karet","station_id":"KAT","i_long":106.816351,"i_lat":-6.20132,"time":5,"line":1,"is_transit":false},{"time":1,"is_transit":false,"transit":false,"i_long":106.819881,"station_name":"Sudirman Baru","i_lat":-6.201433,"line":1,"station_id":"SUDB","distance":471},{"line":1,"time":1,"is_transit":false,"i_lat":-6.202263,"station_id":"SUD","distance":280,"station_name":"Sudirman","transit":false,"i_long":106.822649},{"i_lat":-6.209883,"is_transit":true,"station_name":"Manggarai","transit":true,"i_long":106.84912,"line":2,"distance":3186,"station_id":"MRI","time":4},{"station_name":"Cikini","time":4,"i_long":106.840169,"is_transit":false,"distance":1590,"i_lat":-6.198556,"line":2,"transit":false,"station_id":"CKI"},{"time":3,"is_transit":false,"i_long":106.832183,"transit":false,"station_name":"Gondangdia","station_id":"GDD","distance":1750,"i_lat":-6.186295,"line":2},{"distance":2015,"i_lat":-6.166716,"i_long":106.828284,"time":4,"is_transit":false,"transit":false,"station_id":"JUA","line":2,"station_name":"Juanda"}],[{"station_name":"Palmerah","distance":0,"is_transit":false,"i_lat":-6.207404,"time":0,"line":6,"station_id":"PLM","i_long":106.79689,"transit":false},{"station_name":"Tanah Abang","i_long":106.811091,"station_id":"THB","transit":true,"distance":3191,"is_transit":true,"line":1,"i_lat":-6.185545,"time":6},{"station_name":"Duri","distance":3632,"i_lat":-6.155215,"station_id":"DU","i_long":106.800832,"transit":false,"line":1,"time":8,"is_transit":false},{"distance":1230,"station_name":"Angke","i_long":106.79867,"transit":false,"i_lat":-6.144674,"line":1,"station_id":"AK","is_transit":false,"time":4},{"line":4,"station_id":"KPB","time":9,"is_transit":true,"transit":true,"station_name":"Kampung Bandan","i_long":106.826365,"distance":4102,"i_lat":-6.132549},{"i_long":106.812439,"time":3,"i_lat":-6.137569,"station_id":"JAKK","station_name":"Jakarta Kota","line":2,"is_transit":true,"transit":true,"distance":1364},{"distance":1264,"station_id":"JAY","i_lat":-6.141205,"transit":false,"line":2,"station_name":"Jayakarta","time":4,"is_transit":false,"i_long":106.820901},{"time":2,"distance":1080,"i_lat":-6.149769,"line":2,"i_long":106.82482,"is_transit":false,"station_name":"Manggabesar","station_id":"MGB","transit":false},{"distance":906,"i_lat":-6.160725,"line":2,"time":2,"i_long":106.827103,"station_id":"SW","is_transit":false,"transit":false,"station_name":"Sawah Besar"},{"i_long":106.828284,"station_id":"JUA","station_name":"Juanda","transit":false,"time":2,"i_lat":-6.166716,"line":2,"is_transit":false,"distance":1149}],[{"station_name":"Palmerah","transit":false,"i_long":106.79689,"time":0,"i_lat":-6.207404,"station_id":"PLM","line":6,"distance":0,"is_transit":false},{"transit":true,"i_long":106.811091,"line":1,"station_id":"THB","distance":3191,"is_transit":true,"time":6,"i_lat":-6.185545,"station_name":"Tanah Abang"},{"station_id":"DU","is_transit":false,"distance":3632,"i_lat":-6.155215,"station_name":"Duri","i_long":106.800832,"time":8,"line":1,"transit":false},{"i_long":106.79867,"station_id":"AK","transit":false,"time":4,"i_lat":-6.144674,"is_transit":false,"station_name":"Angke","distance":1230,"line":1},{"time":9,"transit":true,"i_lat":-6.132549,"i_long":106.826365,"is_transit":true,"station_name":"Kampung Bandan","distance":4102,"line":4,"station_id":"KPB"},{"distance":1444,"i_long":106.836569,"is_transit":false,"line":11,"i_lat":-6.14505,"time":3,"station_name":"Rajawali","station_id":"RJW","transit":false},{"line":11,"station_name":"Kemayoran","is_transit":false,"time":5,"i_lat":-6.161728,"i_long":106.839204,"transit":false,"station_id":"KMO","distance":1901},{"time":4,"station_name":"Pasar Senen","is_transit":false,"distance":1436,"station_id":"PSE","i_lat":-6.174784,"i_long":106.84368,"line":11,"transit":false},{"transit":false,"distance":1567,"i_lat":-6.185975,"station_id":"GST","i_long":106.850107,"line":11,"station_name":"Gang Sentiong","is_transit":false,"time":8},{"i_lat":-6.193792,"station_id":"KMT","distance":973,"transit":false,"time":1,"is_transit":false,"i_long":106.855437,"line":11,"station_name":"Kramat"},{"is_transit":false,"time":2,"distance":1829,"i_lat":-6.209188,"i_long":106.861737,"line":11,"transit":false,"station_name":"Pondok Jati","station_id":"POK"},{"station_id":"JNG","station_name":"Jatinegara","is_transit":true,"transit":true,"time":9,"i_lat":-6.215091,"line":1,"distance":1236,"i_long":106.86807400000001},{"transit":false,"station_name":"Matraman","station_id":"MTR","i_long":106.858896,"time":2,"distance":1377,"line":1,"is_transit":false,"i_lat":-6.212485},{"time":2,"station_name":"Manggarai","transit":true,"i_lat":-6.209883,"i_long":106.84912,"station_id":"MRI","distance":1275,"is_transit":true,"line":2},{"is_transit":false,"station_id":"CKI","i_lat":-6.198556,"distance":1590,"station_name":"Cikini","i_long":106.840169,"line":2,"time":4,"transit":false},{"line":2,"time":3,"transit":false,"distance":1750,"station_name":"Gondangdia","station_id":"GDD","i_long":106.832183,"i_lat":-6.186295,"is_transit":false},{"station_id":"JUA","time":4,"i_long":106.828284,"is_transit":false,"station_name":"Juanda","i_lat":-6.166716,"transit":false,"line":2,"distance":2015}],[{"is_transit":false,"transit":false,"i_long":106.79689,"line":6,"time":0,"station_name":"Palmerah","distance":0,"station_id":"PLM","i_lat":-6.207404},{"i_lat":-6.185545,"i_long":106.811091,"station_name":"Tanah Abang","transit":true,"time":6,"station_id":"THB","is_transit":true,"line":1,"distance":3191},{"distance":2029,"i_lat":-6.20132,"i_long":106.816351,"transit":false,"is_transit":false,"line":1,"station_name":"Karet","station_id":"KAT","time":5},{"station_name":"Sudirman Baru","i_long":106.819881,"station_id":"SUDB","transit":false,"i_lat":-6.201433,"is_transit":false,"line":1,"time":1,"distance":471},{"distance":280,"is_transit":false,"transit":false,"i_long":106.822649,"i_lat":-6.202263,"station_id":"SUD","time":1,"line":1,"station_name":"Sudirman"},{"line":2,"transit":false,"time":4,"distance":3186,"i_lat":-6.209883,"is_transit":false,"station_name":"Manggarai","station_id":"MRI","i_long":106.84912},{"time":2,"distance":1275,"line":1,"station_id":"MTR","i_long":106.858896,"i_lat":-6.212485,"station_name":"Matraman","transit":false,"is_transit":false},{"station_name":"Jatinegara","distance":1377,"i_lat":-6.215091,"transit":true,"is_transit":true,"i_long":106.86807400000001,"time":8,"line":1,"station_id":"JNG"},{"station_name":"Pondok Jati","i_lat":-6.209188,"i_long":106.861737,"transit":false,"line":11,"station_id":"POK","is_transit":false,"time":2,"distance":1236},{"i_lat":-6.193792,"transit":false,"station_name":"Kramat","time":2,"distance":1829,"i_long":106.855437,"line":11,"is_transit":false,"station_id":"KMT"},{"line":11,"transit":false,"is_transit":false,"i_lat":-6.185975,"station_name":"Gang Sentiong","station_id":"GST","time":1,"distance":973,"i_long":106.850107},{"time":8,"distance":1567,"station_id":"PSE","i_long":106.84368,"i_lat":-6.174784,"transit":false,"station_name":"Pasar Senen","is_transit":false,"line":11},{"transit":false,"station_name":"Kemayoran","i_long":106.839204,"line":11,"is_transit":false,"station_id":"KMO","i_lat":-6.161728,"time":4,"distance":1436},{"station_id":"RJW","i_long":106.836569,"i_lat":-6.14505,"is_transit":false,"station_name":"Rajawali","distance":1901,"line":11,"transit":false,"time":5},{"time":3,"station_id":"KPB","station_name":"Kampung Bandan","distance":1444,"is_transit":true,"line":4,"i_long":106.826365,"transit":true,"i_lat":-6.132549},{"i_lat":-6.137569,"distance":1364,"i_long":106.812439,"time":3,"station_id":"JAKK","is_transit":true,"transit":true,"station_name":"Jakarta Kota","line":2},{"transit":false,"station_id":"JAY","time":4,"distance":1264,"i_long":106.820901,"station_name":"Jayakarta","is_transit":false,"i_lat":-6.141205,"line":2},{"station_id":"MGB","station_name":"Manggabesar","distance":1080,"is_transit":false,"i_long":106.82482,"time":2,"i_lat":-6.149769,"line":2,"transit":false},{"time":2,"transit":false,"is_transit":false,"station_name":"Sawah Besar","distance":906,"i_long":106.827103,"i_lat":-6.160725,"station_id":"SW","line":2},{"i_long":106.828284,"is_transit":false,"station_name":"Juanda","line":2,"station_id":"JUA","transit":false,"i_lat":-6.166716,"distance":1149,"time":2}]]}