{"data":[[{"is_transit":false,"station_id":"PLM","i_lat":-6.207404,"line":6,"time":0,"station_name":"Palmerah","i_long":106.79689,"distance":0,"transit":false},{"time":6,"transit":true,"is_transit":true,"station_id":"THB","station_name":"Tanah Abang","distance":3191,"i_lat":-6.185545,"line":1,"i_long":106.811091},{"transit":false,"line":1,"is_transit":false,"i_long":106.816351,"i_lat":-6.20132,"time":5,"station_name":"Karet","distance":2029,"station_id":"KAT"},{"distance":471,"is_transit":false,"i_long":106.819881,"line":1,"station_name":"Sudirman Baru","transit":false,"station_id":"SUDB","i_lat":-6.201433,"time":1},{"line":1,"station_id":"SUD","i_long":106.822649,"time":1,"i_lat":-6.202263,"station_name":"Sudirman","transit":false,"is_transit":false,"distance":280},{"i_lat":-6.209883,"line":2,"time":4,"distance":3186,"station_id":"MRI","is_transit":true,"transit":true,"station_name":"Manggarai","i_long":106.84912},{"i_lat":-6.198556,"i_long":106.840169,"station_id":"CKI","station_name":"Cikini","line":2,"is_transit":false,"transit":false,"time":4,"distance":1590},{"i_lat":-6.186295,"distance":1750,"is_transit":false,"i_long":106.832183,"station_name":"Gondangdia","line":2,"transit":false,"station_id":"GDD","time":3},{"transit":false,"station_name":"Juanda","time":4,"i_long":106.828284,"distance":2015,"i_lat":-6.166716,"is_transit":false,"line":2,"station_id":"JUA"}],[{"time":0,"i_long":106.79689,"i_lat":-6.207404,"station_id":"PLM","is_transit":false,"transit":false,"line":6,"station_name":"Palmerah","distance":0},{"transit":true,"line":1,"i_long":106.811091,"station_name":"Tanah Abang","distance":3191,"time":6,"station_id":"THB","is_transit":true,"i_lat":-6.185545},{"is_transit":false,"station_name":"Duri","station_id":"DU","time":8,"line":1,"transit":false,"i_long":106.800832,"i_lat":-6.155215,"distance":3632},{"station_id":"AK","line":1,"distance":1230,"i_long":106.79867,"transit":false,"station_name":"Angke","time":4,"i_lat":-6.144674,"is_transit":false},{"distance":4102,"transit":true,"i_long":106.826365,"station_id":"KPB","line":4,"station_name":"Kampung Bandan","time":9,"i_lat":-6.132549,"is_transit":true},{"time":3,"station_id":"JAKK","station_name":"Jakarta Kota","transit":true,"i_long":106.812439,"distance":1364,"line":2,"is_transit":true,"i_lat":-6.137569},{"i_lat":-6.141205,"i_long":106.820901,"distance":1264,"transit":false,"time":4,"is_transit":false,"station_id":"JAY","line":2,"station_name":"Jayakarta"},{"station_name":"Manggabesar","time":2,"line":2,"is_transit":false,"transit":false,"i_lat":-6.149769,"i_long":106.82482,"distance":1080,"station_id":"MGB"},{"time":2,"transit":false,"i_long":106.827103,"i_lat":-6.160725,"line":2,"station_name":"Sawah Besar","station_id":"SW","is_transit":false,"distance":906},{"time":2,"station_name":"Juanda","station_id":"JUA","distance":1149,"i_lat":-6.166716,"transit":false,"is_transit":false,"line":2,"i_long":106.828284}],[{"distance":0,"station_id":"PLM","i_lat":-6.207404,"time":0,"line":6,"transit":false,"i_long":106.79689,"station_name":"Palmerah","is_transit":false},{"time":6,"distance":3191,"i_lat":-6.185545,"i_long":106.811091,"station_name":"Tanah Abang","is_transit":true,"transit":true,"station_id":"THB","line":1},{"i_long":106.800832,"line":1,"transit":false,"i_lat":-6.155215,"time":8,"station_name":"Duri","is_transit":false,"station_id":"DU","distance":3632},{"distance":1230,"i_lat":-6.144674,"i_long":106.79867,"line":1,"station_id":"AK","station_name":"Angke","transit":false,"time":4,"is_transit":false},{"distance":4102,"station_name":"Kampung Bandan","station_id":"KPB","i_lat":-6.132549,"line":4,"is_transit":true,"i_long":106.826365,"time":9,"transit":true},{"station_name":"Rajawali","is_transit":false,"distance":1444,"time":3,"line":11,"transit":false,"station_id":"RJW","i_long":106.836569,"i_lat":-6.14505},{"transit":false,"station_name":"Kemayoran","is_transit":false,"time":5,"line":11,"station_id":"KMO","i_long":106.839204,"distance":1901,"i_lat":-6.161728},{"is_transit":false,"line":11,"i_lat":-6.174784,"station_id":"PSE","station_name":"Pasar Senen","time":4,"i_long":106.84368,"distance":1436,"transit":false},{"distance":1567,"station_name":"Gang Sentiong","transit":false,"i_lat":-6.185975,"i_long":106.850107,"is_transit":false,"station_id":"GST","line":11,"time":8},{"time":1,"line":11,"i_long":106.855437,"distance":973,"station_name":"Kramat","is_transit":false,"i_lat":-6.193792,"transit":false,"station_id":"KMT"},{"time":2,"distance":1829,"i_long":106.861737,"transit":false,"i_lat":-6.209188,"is_transit":false,"line":11,"station_name":"Pondok Jati","station_id":"POK"},{"is_transit":true,"time":9,"station_id":"JNG","distance":1236,"i_lat":-6.215091,"station_name":"Jatinegara","transit":true,"i_long":106.86807400000001,"line":1},{"i_lat":-6.212485,"station_id":"MTR","station_name":"Matraman","i_long":106.858896,"transit":false,"is_transit":false,"distance":1377,"line":1,"time":2},{"i_long":106.84912,"distance":1275,"i_lat":-6.209883,"line":2,"station_id":"MRI","transit":true,"station_name":"Manggarai","time":2,"is_transit":true},{"i_lat":-6.198556,"distance":1590,"station_id":"CKI","transit":false,"station_name":"Cikini","line":2,"i_long":106.840169,"is_transit":false,"time":4},{"line":2,"station_id":"GDD","is_transit":false,"i_lat":-6.186295,"distance":1750,"station_name":"Gondangdia","i_long":106.832183,"transit":false,"time":3},{"transit":false,"i_long":106.828284,"i_lat":-6.166716,"station_name":"Juanda","distance":2015,"time":4,"station_id":"JUA","line":2,"is_transit":false}],[{"line":6,"transit":false,"i_lat":-6.207404,"station_id":"PLM","station_name":"Palmerah","time":0,"distance":0,"is_transit":false,"i_long":106.79689},{"station_name":"Tanah Abang","time":6,"transit":true,"station_id":"THB","distance":3191,"is_transit":true,"i_long":106.811091,"line":1,"i_lat":-6.185545},{"station_name":"Karet","transit":false,"station_id":"KAT","i_long":106.816351,"time":5,"i_lat":-6.20132,"line":1,"is_transit":false,"distance":2029},{"distance":471,"time":1,"transit":false,"station_name":"Sudirman Baru","i_lat":-6.201433,"line":1,"station_id":"SUDB","is_transit":false,"i_long":106.819881},{"i_lat":-6.202263,"line":1,"time":1,"station_name":"Sudirman","is_transit":false,"distance":280,"transit":false,"station_id":"SUD","i_long":106.822649},{"line":2,"transit":false,"station_name":"Manggarai","time":4,"i_lat":-6.209883,"station_id":"MRI","is_transit":false,"i_long":106.84912,"distance":3186},{"station_name":"Matraman","distance":1275,"station_id":"MTR","line":1,"transit":false,"i_long":106.858896,"time":2,"is_transit":false,"i_lat":-6.212485},{"distance":1377,"time":8,"station_id":"JNG","i_long":106.86807400000001,"station_name":"Jatinegara","line":1,"transit":true,"is_transit":true,"i_lat":-6.215091},{"station_name":"Pondok Jati","i_lat":-6.209188,"line":11,"is_transit":false,"distance":1236,"transit":false,"time":2,"station_id":"POK","i_long":106.861737},{"distance":1829,"transit":false,"time":2,"i_long":106.855437,"i_lat":-6.193792,"line":11,"station_name":"Kramat","station_id":"KMT","is_transit":false},{"is_transit":false,"line":11,"i_long":106.850107,"distance":973,"station_name":"Gang Sentiong","transit":false,"i_lat":-6.185975,"time":1,"station_id":"GST"},{"distance":1567,"i_lat":-6.174784,"station_name":"Pasar Senen","transit":false,"is_transit":false,"station_id":"PSE","i_long":106.84368,"line":11,"time":8},{"station_name":"Kemayoran","is_transit":false,"distance":1436,"i_long":106.839204,"time":4,"transit":false,"station_id":"KMO","i_lat":-6.161728,"line":11},{"line":11,"station_name":"Rajawali","distance":1901,"station_id":"RJW","i_lat":-6.14505,"i_long":106.836569,"is_transit":false,"time":5,"transit":false},{"i_long":106.826365,"station_id":"KPB","transit":true,"distance":1444,"line":4,"is_transit":true,"station_name":"Kampung Bandan","time":3,"i_lat":-6.132549},{"i_lat":-6.137569,"station_name":"Jakarta Kota","distance":1364,"is_transit":true,"transit":true,"station_id":"JAKK","time":3,"line":2,"i_long":106.812439},{"line":2,"transit":false,"is_transit":false,"i_lat":-6.141205,"station_name":"Jayakarta","distance":1264,"time":4,"i_long":106.820901,"station_id":"JAY"},{"i_lat":-6.149769,"i_long":106.82482,"station_name":"Manggabesar","is_transit":false,"station_id":"MGB","transit":false,"line":2,"distance":1080,"time":2},{"i_long":106.827103,"is_transit":false,"time":2,"transit":false,"distance":906,"station_id":"SW","line":2,"i_lat":-6.160725,"station_name":"Sawah Besar"},{"station_name":"Juanda","time":2,"transit":false,"station_id":"JUA","i_long":106.828284,"line":2,"distance":1149,"i_lat":-6.166716,"is_transit":false}]]}