{"data":[[{"station_id":"PLM","station_name":"Palmerah","transit":false,"i_lat":-6.207404,"distance":0,"i_long":106.79689,"line":6,"is_transit":false,"time":0},{"time":6,"station_name":"Tanah Abang","is_transit":true,"transit":true,"i_lat":-6.185545,"distance":3191,"station_id":"THB","line":1,"i_long":106.811091},{"is_transit":false,"station_id":"DU","transit":false,"line":1,"i_lat":-6.155215,"time":8,"i_long":106.800832,"distance":3632,"station_name":"Duri"},{"station_name":"Angke","transit":false,"i_long":106.79867,"is_transit":false,"distance":1230,"time":4,"line":1,"station_id":"AK","i_lat":-6.144674},{"station_id":"KPB","is_transit":false,"transit":false,"time":9,"line":4,"i_lat":-6.132549,"station_name":"Kampung Bandan","i_long":106.826365,"distance":4102}],[{"time":0,"is_transit":false,"station_name":"Palmerah","distance":0,"station_id":"PLM","i_long":106.79689,"line":6,"transit":false,"i_lat":-6.207404},{"i_long":106.811091,"transit":true,"is_transit":true,"distance":3191,"time":6,"i_lat":-6.185545,"station_id":"THB","line":1,"station_name":"Tanah Abang"},{"time":5,"distance":2029,"is_transit":false,"transit":false,"station_id":"KAT","i_lat":-6.20132,"line":1,"i_long":106.816351,"station_name":"Karet"},{"is_transit":false,"i_lat":-6.201433,"i_long":106.819881,"transit":false,"time":1,"station_id":"SUDB","station_name":"Sudirman Baru","distance":471,"line":1},{"i_lat":-6.202263,"is_transit":false,"station_id":"SUD","station_name":"Sudirman","distance":280,"time":1,"i_long":106.822649,"transit":false,"line":1},{"transit":true,"i_lat":-6.209883,"i_long":106.84912,"time":4,"station_name":"Manggarai","station_id":"MRI","is_transit":true,"line":2,"distance":3186},{"transit":false,"station_id":"CKI","i_lat":-6.198556,"station_name":"Cikini","time":4,"is_transit":false,"i_long":106.840169,"distance":1590,"line":2},{"is_transit":false,"station_name":"Gondangdia","distance":1750,"station_id":"GDD","transit":false,"time":3,"i_long":106.832183,"i_lat":-6.186295,"line":2},{"station_name":"Juanda","distance":2015,"station_id":"JUA","transit":false,"i_lat":-6.166716,"time":4,"line":2,"i_long":106.828284,"is_transit":false},{"station_name":"Sawah Besar","distance":1149,"transit":false,"i_lat":-6.160725,"i_long":106.827103,"is_transit":false,"station_id":"SW","line":2,"time":2},{"i_lat":-6.149769,"line":2,"i_long":106.82482,"time":2,"is_transit":false,"station_name":"Manggabesar","transit":false,"station_id":"MGB","distance":906},{"time":2,"transit":false,"station_name":"Jayakarta","i_lat":-6.141205,"station_id":"JAY","is_transit":false,"i_long":106.820901,"distance":1080,"line":2},{"transit":true,"distance":1264,"i_lat":-6.137569,"i_long":106.812439,"is_transit":true,"station_name":"Jakarta Kota","station_id":"JAKK","time":4,"line":2},{"station_name":"Kampung Bandan","i_long":106.826365,"i_lat":-6.132549,"line":4,"transit":false,"station_id":"KPB","time":3,"distance":1364,"is_transit":false}],[{"is_transit":false,"line":6,"station_id":"PLM","transit":false,"i_long":106.79689,"time":0,"distance":0,"i_lat":-6.207404,"station_name":"Palmerah"},{"is_transit":true,"station_id":"THB","i_long":106.811091,"time":6,"station_name":"Tanah Abang","distance":3191,"i_lat":-6.185545,"line":1,"transit":true},{"i_lat":-6.20132,"line":1,"distance":2029,"station_id":"KAT","time":5,"transit":false,"station_name":"Karet","i_long":106.816351,"is_transit":false},{"station_id":"SUDB","is_transit":false,"transit":false,"station_name":"Sudirman Baru","time":1,"line":1,"i_lat":-6.201433,"distance":471,"i_long":106.819881},{"station_name":"Sudirman","is_transit":false,"i_lat":-6.202263,"i_long":106.822649,"transit":false,"station_id":"SUD","distance":280,"time":1,"line":1},{"transit":false,"is_transit":false,"i_lat":-6.209883,"line":2,"distance":3186,"time":4,"station_name":"Manggarai","station_id":"MRI","i_long":106.84912},{"time":2,"distance":1275,"i_lat":-6.212485,"i_long":106.858896,"transit":false,"is_transit":false,"line":1,"station_id":"MTR","station_name":"Matraman"},{"transit":true,"station_id":"JNG","i_long":106.86807400000001,"i_lat":-6.215091,"line":1,"station_name":"Jatinegara","time":8,"distance":1377,"is_transit":true},{"transit":false,"station_name":"Pondok Jati","station_id":"POK","i_lat":-6.209188,"line":11,"time":2,"distance":1236,"is_transit":false,"i_long":106.861737},{"i_lat":-6.193792,"line":11,"distance":1829,"transit":false,"station_name":"Kramat","i_long":106.855437,"station_id":"KMT","is_transit":false,"time":2},{"i_long":106.850107,"is_transit":false,"i_lat":-6.185975,"station_id":"GST","transit":false,"time":1,"station_name":"Gang Sentiong","line":11,"distance":973},{"time":8,"i_lat":-6.174784,"i_long":106.84368,"station_name":"Pasar Senen","transit":false,"station_id":"PSE","is_transit":false,"line":11,"distance":1567},{"transit":false,"time":4,"distance":1436,"line":11,"station_id":"KMO","is_transit":false,"i_long":106.839204,"i_lat":-6.161728,"station_name":"Kemayoran"},{"time":5,"distance":1901,"i_lat":-6.14505,"line":11,"i_long":106.836569,"station_name":"Rajawali","transit":false,"station_id":"RJW","is_transit":false},{"transit":false,"station_name":"Kampung Bandan","station_id":"KPB","time":3,"distance":1444,"line":4,"i_lat":-6.132549,"is_transit":false,"i_long":106.826365}]]}