{"data":[[{"i_lat":-6.207404,"i_long":106.79689,"is_transit":false,"station_name":"Palmerah","distance":0,"line":6,"station_id":"PLM","time":0,"transit":false},{"station_id":"KBY","station_name":"Kebayoran","time":7,"is_transit":false,"i_long":106.780334,"i_lat":-6.237242,"transit":false,"distance":3737,"line":6},{"station_id":"PDJ","time":8,"distance":6218,"transit":false,"i_long":106.74273,"line":6,"i_lat":-6.276362,"is_transit":false,"station_name":"Pondokranji"},{"station_id":"JMU","distance":2179,"transit":false,"station_name":"Jurangmangu","time":3,"i_lat":-6.288927,"i_long":106.728916,"is_transit":false,"line":6},{"i_lat":-6.296963,"distance":1994,"station_name":"Sudimara","line":6,"station_id":"SDM","transit":false,"is_transit":false,"time":4,"i_long":106.712277},{"is_transit":false,"distance":4566,"i_long":106.675475,"line":6,"transit":false,"station_name":"Rawa Buntu","station_id":"RU","time":6,"i_lat":-6.314823},{"is_transit":false,"station_id":"SRP","transit":false,"line":6,"distance":2413,"station_name":"Serpong","time":4,"i_lat":-6.319871,"i_long":106.66566},{"i_long":106.640411,"station_id":"CSK","is_transit":false,"transit":false,"station_name":"Cisauk","distance":1784,"line":3,"i_lat":-6.32484,"time":4},{"station_id":"CC","distance":2519,"is_transit":false,"time":4,"i_lat":-6.329547,"line":3,"transit":false,"station_name":"Cicayur","i_long":106.617853},{"time":8,"line":6,"i_lat":-6.3441410000000005,"distance":5968,"is_transit":false,"station_id":"PRP","transit":false,"station_name":"Parung Panjang","i_long":106.568863},{"is_transit":false,"distance":7025,"station_name":"Cilejit","time":9,"i_lat":-6.354349,"transit":false,"station_id":"CJT","line":3,"i_long":106.508482},{"is_transit":false,"transit":false,"station_id":"DAR","distance":2675,"i_long":106.491338,"i_lat":-6.338021,"line":0,"station_name":"Daru","time":6},{"line":6,"i_lat":-6.327251,"time":5,"transit":false,"distance":3902,"i_long":106.460812,"is_transit":false,"station_id":"TEJ","station_name":"Tenjo"},{"station_name":"Tigaraksa","line":6,"is_transit":false,"station_id":"TGS","time":5,"distance":2974,"transit":false,"i_long":106.425991,"i_lat":-6.328533},{"station_name":"Cikoya","i_long":106.411216,"i_lat":-6.33561,"time":3,"distance":2651,"line":3,"is_transit":false,"transit":false,"station_id":"CKY"}]]}