{"data":[[{"time":0,"i_long":106.79689,"line":6,"distance":0,"transit":false,"is_transit":false,"station_id":"PLM","i_lat":-6.207404,"station_name":"Palmerah"},{"i_lat":-6.185545,"transit":true,"is_transit":true,"distance":3191,"time":6,"station_name":"Tanah Abang","station_id":"THB","i_long":106.811091,"line":1},{"station_id":"DU","i_lat":-6.155215,"line":1,"station_name":"Duri","is_transit":false,"transit":false,"time":8,"i_long":106.800832,"distance":3632},{"station_id":"AK","transit":false,"distance":1230,"time":4,"i_lat":-6.144674,"i_long":106.79867,"is_transit":false,"line":1,"station_name":"Angke"},{"distance":4102,"station_id":"KPB","line":4,"time":9,"i_long":106.826365,"i_lat":-6.132549,"station_name":"Kampung Bandan","is_transit":true,"transit":true},{"is_transit":false,"station_name":"Ancol","transit":false,"distance":2185,"time":4,"i_lat":-6.128023,"station_id":"AC","line":4,"i_long":106.84464}],[{"station_name":"Palmerah","line":6,"i_lat":-6.207404,"distance":0,"transit":false,"is_transit":false,"i_long":106.79689,"time":0,"station_id":"PLM"},{"distance":3191,"transit":true,"station_name":"Tanah Abang","time":6,"i_lat":-6.185545,"line":1,"is_transit":true,"i_long":106.811091,"station_id":"THB"},{"i_long":106.816351,"is_transit":false,"distance":2029,"time":5,"station_name":"Karet","i_lat":-6.20132,"transit":false,"station_id":"KAT","line":1},{"distance":471,"transit":false,"time":1,"i_lat":-6.201433,"station_name":"Sudirman Baru","is_transit":false,"station_id":"SUDB","i_long":106.819881,"line":1},{"station_id":"SUD","time":1,"station_name":"Sudirman","line":1,"is_transit":false,"i_lat":-6.202263,"distance":280,"transit":false,"i_long":106.822649},{"is_transit":true,"i_long":106.84912,"i_lat":-6.209883,"transit":true,"line":2,"time":4,"distance":3186,"station_id":"MRI","station_name":"Manggarai"},{"i_long":106.840169,"i_lat":-6.198556,"station_id":"CKI","station_name":"Cikini","is_transit":false,"distance":1590,"transit":false,"line":2,"time":4},{"station_name":"Gondangdia","i_lat":-6.186295,"time":3,"is_transit":false,"i_long":106.832183,"station_id":"GDD","line":2,"distance":1750,"transit":false},{"distance":2015,"line":2,"station_name":"Juanda","is_transit":false,"i_long":106.828284,"transit":false,"time":4,"station_id":"JUA","i_lat":-6.166716},{"is_transit":false,"station_id":"SW","transit":false,"i_lat":-6.160725,"i_long":106.827103,"distance":1149,"station_name":"Sawah Besar","time":2,"line":2},{"line":2,"station_name":"Manggabesar","i_long":106.82482,"transit":false,"station_id":"MGB","distance":906,"is_transit":false,"i_lat":-6.149769,"time":2},{"station_name":"Jayakarta","station_id":"JAY","i_long":106.820901,"time":2,"i_lat":-6.141205,"is_transit":false,"line":2,"distance":1080,"transit":false},{"is_transit":true,"distance":1264,"time":4,"i_lat":-6.137569,"i_long":106.812439,"transit":true,"station_name":"Jakarta Kota","line":2,"station_id":"JAKK"},{"station_name":"Kampung Bandan","time":3,"i_lat":-6.132549,"i_long":106.826365,"line":4,"is_transit":true,"station_id":"KPB","distance":1364,"transit":true},{"line":4,"is_transit":false,"station_name":"Ancol","station_id":"AC","i_long":106.84464,"transit":false,"distance":2185,"time":4,"i_lat":-6.128023}],[{"station_name":"Palmerah","is_transit":false,"time":0,"transit":false,"distance":0,"i_long":106.79689,"i_lat":-6.207404,"station_id":"PLM","line":6},{"distance":3191,"station_id":"THB","transit":true,"station_name":"Tanah Abang","is_transit":true,"i_lat":-6.185545,"line":1,"i_long":106.811091,"time":6},{"is_transit":false,"i_long":106.816351,"station_name":"Karet","station_id":"KAT","line":1,"distance":2029,"transit":false,"i_lat":-6.20132,"time":5},{"time":1,"station_name":"Sudirman Baru","is_transit":false,"i_long":106.819881,"transit":false,"station_id":"SUDB","distance":471,"i_lat":-6.201433,"line":1},{"station_id":"SUD","distance":280,"line":1,"i_long":106.822649,"time":1,"i_lat":-6.202263,"transit":false,"is_transit":false,"station_name":"Sudirman"},{"distance":3186,"station_id":"MRI","station_name":"Manggarai","transit":false,"time":4,"i_lat":-6.209883,"line":2,"i_long":106.84912,"is_transit":false},{"time":2,"station_name":"Matraman","i_lat":-6.212485,"distance":1275,"station_id":"MTR","i_long":106.858896,"line":1,"transit":false,"is_transit":false},{"is_transit":true,"i_long":106.86807400000001,"time":8,"line":1,"station_name":"Jatinegara","i_lat":-6.215091,"transit":true,"distance":1377,"station_id":"JNG"},{"line":11,"i_long":106.861737,"is_transit":false,"station_id":"POK","time":2,"i_lat":-6.209188,"station_name":"Pondok Jati","distance":1236,"transit":false},{"time":2,"is_transit":false,"distance":1829,"station_name":"Kramat","station_id":"KMT","i_lat":-6.193792,"transit":false,"i_long":106.855437,"line":11},{"i_long":106.850107,"is_transit":false,"transit":false,"line":11,"i_lat":-6.185975,"time":1,"station_id":"GST","station_name":"Gang Sentiong","distance":973},{"time":8,"station_id":"PSE","i_lat":-6.174784,"line":11,"station_name":"Pasar Senen","is_transit":false,"i_long":106.84368,"transit":false,"distance":1567},{"transit":false,"distance":1436,"line":11,"station_name":"Kemayoran","station_id":"KMO","is_transit":false,"i_lat":-6.161728,"time":4,"i_long":106.839204},{"station_name":"Rajawali","i_lat":-6.14505,"distance":1901,"station_id":"RJW","is_transit":false,"i_long":106.836569,"line":11,"transit":false,"time":5},{"station_name":"Kampung Bandan","station_id":"KPB","distance":1444,"i_long":106.826365,"time":3,"is_transit":true,"line":4,"i_lat":-6.132549,"transit":true},{"distance":2185,"i_long":106.84464,"station_id":"AC","i_lat":-6.128023,"station_name":"Ancol","time":4,"transit":false,"is_transit":false,"line":4}]]}