{"data":[[{"i_lat":-6.207404,"line":6,"i_long":106.79689,"station_id":"PLM","station_name":"Palmerah","is_transit":false,"distance":0,"transit":false,"time":0},{"distance":3737,"i_lat":-6.237242,"transit":false,"line":6,"station_id":"KBY","time":7,"station_name":"Kebayoran","is_transit":false,"i_long":106.780334},{"line":6,"station_name":"Pondokranji","time":8,"distance":6218,"i_lat":-6.276362,"i_long":106.74273,"station_id":"PDJ","transit":false,"is_transit":false},{"station_id":"JMU","station_name":"Jurangmangu","line":6,"distance":2179,"i_lat":-6.288927,"transit":false,"is_transit":false,"time":3,"i_long":106.728916},{"i_long":106.712277,"is_transit":false,"distance":1994,"transit":false,"line":6,"time":4,"station_id":"SDM","station_name":"Sudimara","i_lat":-6.296963},{"station_id":"RU","i_long":106.675475,"time":6,"station_name":"Rawa Buntu","i_lat":-6.314823,"transit":false,"distance":4566,"is_transit":false,"line":6},{"station_name":"Serpong","time":4,"distance":2413,"i_long":106.66566,"station_id":"SRP","line":6,"transit":false,"i_lat":-6.319871,"is_transit":false},{"station_name":"Cisauk","i_long":106.640411,"transit":false,"i_lat":-6.32484,"station_id":"CSK","is_transit":false,"time":4,"distance":1784,"line":3}]]}