{"data":[[{"station_id":"PLM","i_long":106.79689,"is_transit":false,"line":6,"time":0,"distance":0,"i_lat":-6.207404,"transit":false,"station_name":"Palmerah"},{"i_lat":-6.185545,"transit":true,"time":6,"station_name":"Tanah Abang","distance":3191,"i_long":106.811091,"line":1,"station_id":"THB","is_transit":true},{"station_name":"Karet","station_id":"KAT","i_long":106.816351,"is_transit":false,"line":1,"distance":2029,"time":5,"i_lat":-6.20132,"transit":false}],[{"transit":false,"i_long":106.79689,"i_lat":-6.207404,"distance":0,"is_transit":false,"time":0,"line":6,"station_id":"PLM","station_name":"Palmerah"},{"i_lat":-6.185545,"distance":3191,"is_transit":true,"i_long":106.811091,"transit":true,"station_id":"THB","line":1,"station_name":"Tanah Abang","time":6},{"i_long":106.800832,"station_id":"DU","line":1,"i_lat":-6.155215,"distance":3632,"transit":false,"is_transit":false,"time":8,"station_name":"Duri"},{"station_name":"Angke","is_transit":false,"station_id":"AK","time":4,"distance":1230,"i_long":106.79867,"i_lat":-6.144674,"transit":false,"line":1},{"is_transit":true,"time":9,"line":4,"distance":4102,"i_long":106.826365,"i_lat":-6.132549,"station_name":"Kampung Bandan","transit":true,"station_id":"KPB"},{"time":3,"distance":1364,"transit":true,"station_id":"JAKK","station_name":"Jakarta Kota","line":2,"is_transit":true,"i_lat":-6.137569,"i_long":106.812439},{"i_long":106.820901,"station_name":"Jayakarta","distance":1264,"i_lat":-6.141205,"station_id":"JAY","transit":false,"time":4,"is_transit":false,"line":2},{"i_long":106.82482,"station_id":"MGB","time":2,"is_transit":false,"i_lat":-6.149769,"transit":false,"line":2,"station_name":"Manggabesar","distance":1080},{"line":2,"station_id":"SW","distance":906,"is_transit":false,"transit":false,"station_name":"Sawah Besar","i_lat":-6.160725,"time":2,"i_long":106.827103},{"time":2,"station_id":"JUA","i_long":106.828284,"line":2,"i_lat":-6.166716,"distance":1149,"transit":false,"station_name":"Juanda","is_transit":false},{"station_name":"Gondangdia","station_id":"GDD","i_lat":-6.186295,"distance":2015,"i_long":106.832183,"time":4,"line":2,"transit":false,"is_transit":false},{"station_id":"CKI","transit":false,"time":3,"i_long":106.840169,"distance":1750,"line":2,"is_transit":false,"i_lat":-6.198556,"station_name":"Cikini"},{"i_long":106.84912,"distance":1590,"station_name":"Manggarai","is_transit":true,"transit":true,"station_id":"MRI","time":4,"line":2,"i_lat":-6.209883},{"station_name":"Sudirman","i_long":106.822649,"transit":false,"i_lat":-6.202263,"is_transit":false,"time":4,"distance":3186,"line":1,"station_id":"SUD"},{"distance":280,"i_long":106.819881,"transit":false,"station_name":"Sudirman Baru","is_transit":false,"i_lat":-6.201433,"station_id":"SUDB","time":1,"line":1},{"is_transit":false,"line":1,"i_lat":-6.20132,"station_name":"Karet","station_id":"KAT","time":1,"distance":471,"i_long":106.816351,"transit":false}],[{"line":6,"station_name":"Palmerah","time":0,"station_id":"PLM","i_long":106.79689,"distance":0,"is_transit":false,"transit":false,"i_lat":-6.207404},{"line":1,"distance":3191,"i_lat":-6.185545,"transit":true,"time":6,"station_name":"Tanah Abang","is_transit":true,"i_long":106.811091,"station_id":"THB"},{"i_long":106.800832,"transit":false,"station_name":"Duri","line":1,"station_id":"DU","time":8,"i_lat":-6.155215,"is_transit":false,"distance":3632},{"i_lat":-6.144674,"transit":false,"is_transit":false,"time":4,"distance":1230,"station_id":"AK","line":1,"i_long":106.79867,"station_name":"Angke"},{"i_long":106.826365,"station_name":"Kampung Bandan","distance":4102,"is_transit":true,"i_lat":-6.132549,"line":4,"transit":true,"station_id":"KPB","time":9},{"i_lat":-6.14505,"transit":false,"i_long":106.836569,"time":3,"is_transit":false,"line":11,"station_id":"RJW","station_name":"Rajawali","distance":1444},{"i_long":106.839204,"distance":1901,"is_transit":false,"line":11,"transit":false,"station_name":"Kemayoran","i_lat":-6.161728,"station_id":"KMO","time":5},{"is_transit":false,"time":4,"station_name":"Pasar Senen","i_lat":-6.174784,"line":11,"i_long":106.84368,"distance":1436,"station_id":"PSE","transit":false},{"transit":false,"station_name":"Gang Sentiong","i_lat":-6.185975,"station_id":"GST","is_transit":false,"time":8,"distance":1567,"i_long":106.850107,"line":11},{"station_id":"KMT","line":11,"station_name":"Kramat","time":1,"i_long":106.855437,"i_lat":-6.193792,"is_transit":false,"transit":false,"distance":973},{"line":11,"station_name":"Pondok Jati","i_long":106.861737,"distance":1829,"is_transit":false,"i_lat":-6.209188,"station_id":"POK","transit":false,"time":2},{"station_id":"JNG","time":9,"i_lat":-6.215091,"station_name":"Jatinegara","is_transit":true,"i_long":106.86807400000001,"distance":1236,"transit":true,"line":1},{"i_long":106.858896,"distance":1377,"station_name":"Matraman","line":1,"transit":false,"time":2,"i_lat":-6.212485,"is_transit":false,"station_id":"MTR"},{"i_long":106.84912,"i_lat":-6.209883,"distance":1275,"station_id":"MRI","transit":false,"line":2,"time":2,"is_transit":false,"station_name":"Manggarai"},{"i_lat":-6.202263,"line":1,"distance":3186,"i_long":106.822649,"transit":false,"is_transit":false,"time":4,"station_name":"Sudirman","station_id":"SUD"},{"time":1,"i_long":106.819881,"station_id":"SUDB","transit":false,"distance":280,"i_lat":-6.201433,"line":1,"is_transit":false,"station_name":"Sudirman Baru"},{"distance":471,"i_long":106.816351,"line":1,"i_lat":-6.20132,"station_id":"KAT","transit":false,"is_transit":false,"station_name":"Karet","time":1}]]}