{"data":[[{"station_name":"Palmerah","i_lat":-6.207404,"i_long":106.79689,"line":6,"transit":false,"station_id":"PLM","time":0,"distance":0,"is_transit":false},{"is_transit":true,"i_long":106.811091,"line":1,"distance":3191,"station_name":"Tanah Abang","time":6,"station_id":"THB","i_lat":-6.185545,"transit":true},{"is_transit":false,"station_id":"KAT","station_name":"Karet","i_long":106.816351,"time":5,"distance":2029,"line":1,"i_lat":-6.20132,"transit":false},{"transit":false,"line":1,"distance":471,"i_lat":-6.201433,"is_transit":false,"time":1,"station_name":"Sudirman Baru","station_id":"SUDB","i_long":106.819881},{"time":1,"i_long":106.822649,"transit":false,"is_transit":false,"distance":280,"station_name":"Sudirman","station_id":"SUD","i_lat":-6.202263,"line":1},{"distance":3186,"transit":true,"is_transit":true,"time":4,"i_long":106.84912,"line":2,"station_id":"MRI","station_name":"Manggarai","i_lat":-6.209883},{"station_name":"Tebet","is_transit":false,"distance":2610,"station_id":"TEB","i_lat":-6.226659,"time":4,"i_long":106.857948,"line":2,"transit":false},{"station_name":"Cawang","transit":false,"is_transit":false,"time":2,"distance":1230,"i_lat":-6.242512,"line":2,"station_id":"CW","i_long":106.856607},{"i_lat":-6.255332,"is_transit":false,"time":3,"distance":1546,"transit":false,"station_name":"Duren Kalibata","station_id":"DRN","i_long":106.85449,"line":2},{"station_name":"Pasar Minggu Baru","transit":false,"line":2,"i_long":106.851577,"i_lat":-6.263214,"distance":824,"is_transit":false,"station_id":"PSMB","time":2},{"is_transit":false,"transit":false,"time":2,"line":2,"station_name":"Pasar Minggu","distance":2380,"i_lat":-6.2842400000000005,"i_long":106.843999,"station_id":"PSM"}],[{"distance":0,"line":6,"time":0,"i_lat":-6.207404,"is_transit":false,"station_id":"PLM","transit":false,"station_name":"Palmerah","i_long":106.79689},{"i_lat":-6.185545,"time":6,"distance":3191,"line":1,"station_id":"THB","transit":true,"station_name":"Tanah Abang","i_long":106.811091,"is_transit":true},{"is_transit":false,"transit":false,"station_name":"Duri","i_long":106.800832,"i_lat":-6.155215,"line":1,"time":8,"distance":3632,"station_id":"DU"},{"station_id":"AK","transit":false,"station_name":"Angke","is_transit":false,"distance":1230,"i_long":106.79867,"i_lat":-6.144674,"line":1,"time":4},{"station_id":"KPB","station_name":"Kampung Bandan","time":9,"i_lat":-6.132549,"distance":4102,"line":4,"is_transit":true,"i_long":106.826365,"transit":true},{"line":2,"distance":1364,"transit":true,"station_name":"Jakarta Kota","i_lat":-6.137569,"is_transit":true,"station_id":"JAKK","time":3,"i_long":106.812439},{"i_long":106.820901,"time":4,"station_name":"Jayakarta","line":2,"i_lat":-6.141205,"station_id":"JAY","transit":false,"distance":1264,"is_transit":false},{"transit":false,"station_id":"MGB","is_transit":false,"time":2,"distance":1080,"station_name":"Manggabesar","line":2,"i_long":106.82482,"i_lat":-6.149769},{"line":2,"time":2,"transit":false,"station_id":"SW","station_name":"Sawah Besar","is_transit":false,"distance":906,"i_lat":-6.160725,"i_long":106.827103},{"is_transit":false,"line":2,"station_id":"JUA","station_name":"Juanda","time":2,"i_long":106.828284,"transit":false,"distance":1149,"i_lat":-6.166716},{"station_id":"GDD","i_long":106.832183,"station_name":"Gondangdia","is_transit":false,"line":2,"time":4,"i_lat":-6.186295,"transit":false,"distance":2015},{"station_id":"CKI","distance":1750,"transit":false,"i_lat":-6.198556,"station_name":"Cikini","is_transit":false,"i_long":106.840169,"time":3,"line":2},{"line":2,"distance":1590,"i_long":106.84912,"station_id":"MRI","station_name":"Manggarai","is_transit":false,"time":4,"transit":false,"i_lat":-6.209883},{"distance":2610,"i_lat":-6.226659,"time":4,"station_id":"TEB","station_name":"Tebet","transit":false,"i_long":106.857948,"is_transit":false,"line":2},{"distance":1230,"i_lat":-6.242512,"time":2,"line":2,"is_transit":false,"station_name":"Cawang","transit":false,"station_id":"CW","i_long":106.856607},{"i_long":106.85449,"is_transit":false,"station_id":"DRN","time":3,"i_lat":-6.255332,"transit":false,"distance":1546,"line":2,"station_name":"Duren Kalibata"},{"line":2,"transit":false,"i_long":106.851577,"i_lat":-6.263214,"station_id":"PSMB","distance":824,"time":2,"station_name":"Pasar Minggu Baru","is_transit":false},{"station_name":"Pasar Minggu","is_transit":false,"transit":false,"i_lat":-6.2842400000000005,"i_long":106.843999,"station_id":"PSM","line":2,"distance":2380,"time":2}],[{"transit":false,"station_id":"PLM","i_lat":-6.207404,"distance":0,"is_transit":false,"station_name":"Palmerah","time":0,"i_long":106.79689,"line":6},{"i_long":106.811091,"i_lat":-6.185545,"distance":3191,"station_id":"THB","transit":true,"is_transit":true,"time":6,"line":1,"station_name":"Tanah Abang"},{"is_transit":false,"distance":3632,"i_long":106.800832,"time":8,"transit":false,"station_name":"Duri","line":1,"i_lat":-6.155215,"station_id":"DU"},{"time":4,"line":1,"transit":false,"is_transit":false,"i_lat":-6.144674,"distance":1230,"station_id":"AK","station_name":"Angke","i_long":106.79867},{"station_id":"KPB","distance":4102,"i_long":106.826365,"line":4,"i_lat":-6.132549,"is_transit":true,"transit":true,"station_name":"Kampung Bandan","time":9},{"station_name":"Rajawali","i_lat":-6.14505,"station_id":"RJW","line":11,"i_long":106.836569,"time":3,"is_transit":false,"transit":false,"distance":1444},{"time":5,"i_long":106.839204,"is_transit":false,"distance":1901,"transit":false,"station_name":"Kemayoran","station_id":"KMO","i_lat":-6.161728,"line":11},{"transit":false,"line":11,"i_long":106.84368,"distance":1436,"is_transit":false,"time":4,"i_lat":-6.174784,"station_id":"PSE","station_name":"Pasar Senen"},{"is_transit":false,"line":11,"time":8,"station_name":"Gang Sentiong","transit":false,"i_lat":-6.185975,"distance":1567,"i_long":106.850107,"station_id":"GST"},{"time":1,"i_lat":-6.193792,"i_long":106.855437,"line":11,"station_id":"KMT","is_transit":false,"transit":false,"distance":973,"station_name":"Kramat"},{"transit":false,"station_id":"POK","i_lat":-6.209188,"i_long":106.861737,"distance":1829,"time":2,"line":11,"station_name":"Pondok Jati","is_transit":false},{"transit":true,"distance":1236,"station_id":"JNG","is_transit":true,"i_long":106.86807400000001,"line":1,"station_name":"Jatinegara","time":9,"i_lat":-6.215091},{"time":2,"station_id":"MTR","i_lat":-6.212485,"transit":false,"distance":1377,"station_name":"Matraman","is_transit":false,"i_long":106.858896,"line":1},{"transit":true,"i_long":106.84912,"time":2,"is_transit":true,"line":2,"i_lat":-6.209883,"station_name":"Manggarai","distance":1275,"station_id":"MRI"},{"is_transit":false,"i_lat":-6.226659,"station_id":"TEB","line":2,"distance":2610,"station_name":"Tebet","time":4,"transit":false,"i_long":106.857948},{"transit":false,"distance":1230,"line":2,"is_transit":false,"i_lat":-6.242512,"station_id":"CW","time":2,"station_name":"Cawang","i_long":106.856607},{"time":3,"distance":1546,"station_id":"DRN","i_long":106.85449,"is_transit":false,"line":2,"transit":false,"station_name":"Duren Kalibata","i_lat":-6.255332},{"transit":false,"i_lat":-6.263214,"distance":824,"station_id":"PSMB","station_name":"Pasar Minggu Baru","line":2,"i_long":106.851577,"is_transit":false,"time":2},{"station_name":"Pasar Minggu","i_long":106.843999,"transit":false,"line":2,"station_id":"PSM","time":2,"distance":2380,"i_lat":-6.2842400000000005,"is_transit":false}]]}