{"data":[[{"is_transit":false,"line":6,"transit":false,"station_name":"Palmerah","station_id":"PLM","distance":0,"i_lat":-6.207404,"i_long":106.79689,"time":0},{"is_transit":true,"i_long":106.811091,"time":6,"transit":true,"i_lat":-6.185545,"station_id":"THB","line":1,"station_name":"Tanah Abang","distance":3191},{"transit":false,"distance":2029,"i_lat":-6.20132,"station_id":"KAT","i_long":106.816351,"is_transit":false,"station_name":"Karet","time":5,"line":1},{"i_lat":-6.201433,"i_long":106.819881,"station_id":"SUDB","station_name":"Sudirman Baru","is_transit":false,"transit":false,"line":1,"time":1,"distance":471},{"i_long":106.822649,"transit":false,"is_transit":false,"time":1,"distance":280,"station_id":"SUD","line":1,"i_lat":-6.202263,"station_name":"Sudirman"},{"transit":true,"station_id":"MRI","station_name":"Manggarai","time":4,"i_long":106.84912,"line":2,"distance":3186,"i_lat":-6.209883,"is_transit":true},{"transit":false,"distance":2610,"i_lat":-6.226659,"i_long":106.857948,"is_transit":false,"time":4,"station_id":"TEB","station_name":"Tebet","line":2},{"time":2,"transit":false,"distance":1230,"station_id":"CW","is_transit":false,"i_lat":-6.242512,"i_long":106.856607,"line":2,"station_name":"Cawang"},{"transit":false,"distance":1546,"station_id":"DRN","i_long":106.85449,"station_name":"Duren Kalibata","is_transit":false,"i_lat":-6.255332,"time":3,"line":2},{"station_id":"PSMB","i_lat":-6.263214,"station_name":"Pasar Minggu Baru","distance":824,"i_long":106.851577,"transit":false,"time":2,"is_transit":false,"line":2},{"i_long":106.843999,"station_id":"PSM","station_name":"Pasar Minggu","line":2,"transit":false,"i_lat":-6.2842400000000005,"is_transit":false,"distance":2380,"time":2},{"distance":2820,"i_long":106.838896,"time":4,"is_transit":false,"line":2,"station_name":"Tanjung Barat","i_lat":-6.3080680000000005,"station_id":"TNT","transit":false},{"time":3,"line":2,"transit":false,"i_long":106.832616,"is_transit":false,"i_lat":-6.330363,"distance":2671,"station_name":"Lenteng Agung","station_id":"LNA"},{"station_name":"Univ. Pancasila","transit":false,"line":2,"i_lat":-6.339291,"time":2,"distance":1029,"is_transit":false,"station_id":"UP","i_long":106.834175},{"is_transit":false,"time":3,"transit":false,"station_name":"Univ. Indonesia","i_lat":-6.360749,"station_id":"UI","i_long":106.831474,"line":2,"distance":2264},{"i_lat":-6.369073,"time":2,"transit":false,"distance":1109,"station_id":"POC","station_name":"Pondok Cina","is_transit":false,"i_long":106.831114,"line":2},{"station_name":"Depokbaru","is_transit":false,"distance":2727,"line":2,"transit":false,"station_id":"DPB","time":4,"i_lat":-6.391065,"i_long":106.819451},{"distance":1584,"line":2,"time":3,"i_lat":-6.405256,"is_transit":false,"i_long":106.816926,"station_name":"Depok","station_id":"DP","transit":false},{"i_long":106.800298,"is_transit":true,"time":6,"line":2,"i_lat":-6.448811,"station_id":"CTA","transit":true,"station_name":"Citayam","distance":5084},{"is_transit":false,"transit":false,"station_name":"Pondok Rajeg","i_lat":-6.460735,"time":0,"i_long":106.824374,"line":21,"distance":0,"station_id":"PDRG"}],[{"station_id":"PLM","line":6,"time":0,"transit":false,"station_name":"Palmerah","i_lat":-6.207404,"distance":0,"is_transit":false,"i_long":106.79689},{"is_transit":true,"time":6,"i_long":106.811091,"station_name":"Tanah Abang","line":1,"transit":true,"station_id":"THB","i_lat":-6.185545,"distance":3191},{"distance":3632,"station_id":"DU","time":8,"i_lat":-6.155215,"i_long":106.800832,"is_transit":false,"transit":false,"station_name":"Duri","line":1},{"i_lat":-6.144674,"is_transit":false,"station_name":"Angke","i_long":106.79867,"time":4,"line":1,"distance":1230,"station_id":"AK","transit":false},{"time":9,"distance":4102,"line":4,"i_long":106.826365,"i_lat":-6.132549,"station_id":"KPB","transit":true,"is_transit":true,"station_name":"Kampung Bandan"},{"distance":1364,"line":2,"time":3,"is_transit":true,"station_name":"Jakarta Kota","transit":true,"station_id":"JAKK","i_lat":-6.137569,"i_long":106.812439},{"i_long":106.820901,"i_lat":-6.141205,"transit":false,"line":2,"station_name":"Jayakarta","station_id":"JAY","distance":1264,"time":4,"is_transit":false},{"transit":false,"distance":1080,"station_id":"MGB","is_transit":false,"station_name":"Manggabesar","line":2,"i_lat":-6.149769,"time":2,"i_long":106.82482},{"distance":906,"i_lat":-6.160725,"line":2,"time":2,"is_transit":false,"station_id":"SW","station_name":"Sawah Besar","i_long":106.827103,"transit":false},{"transit":false,"line":2,"is_transit":false,"i_lat":-6.166716,"station_id":"JUA","i_long":106.828284,"time":2,"station_name":"Juanda","distance":1149},{"distance":2015,"station_id":"GDD","transit":false,"time":4,"i_lat":-6.186295,"i_long":106.832183,"line":2,"station_name":"Gondangdia","is_transit":false},{"station_name":"Cikini","time":3,"transit":false,"i_long":106.840169,"distance":1750,"station_id":"CKI","line":2,"i_lat":-6.198556,"is_transit":false},{"time":4,"station_name":"Manggarai","i_long":106.84912,"is_transit":false,"distance":1590,"station_id":"MRI","transit":false,"i_lat":-6.209883,"line":2},{"time":4,"transit":false,"i_lat":-6.226659,"line":2,"station_id":"TEB","i_long":106.857948,"station_name":"Tebet","is_transit":false,"distance":2610},{"transit":false,"i_long":106.856607,"distance":1230,"is_transit":false,"station_id":"CW","time":2,"station_name":"Cawang","i_lat":-6.242512,"line":2},{"distance":1546,"station_id":"DRN","i_long":106.85449,"station_name":"Duren Kalibata","is_transit":false,"transit":false,"i_lat":-6.255332,"line":2,"time":3},{"station_name":"Pasar Minggu Baru","time":2,"is_transit":false,"transit":false,"line":2,"distance":824,"i_lat":-6.263214,"station_id":"PSMB","i_long":106.851577},{"i_lat":-6.2842400000000005,"time":2,"station_id":"PSM","line":2,"is_transit":false,"i_long":106.843999,"station_name":"Pasar Minggu","transit":false,"distance":2380},{"station_name":"Tanjung Barat","transit":false,"distance":2820,"station_id":"TNT","i_long":106.838896,"is_transit":false,"i_lat":-6.3080680000000005,"line":2,"time":4},{"station_id":"LNA","time":3,"is_transit":false,"station_name":"Lenteng Agung","distance":2671,"i_long":106.832616,"i_lat":-6.330363,"line":2,"transit":false},{"line":2,"transit":false,"i_long":106.834175,"station_name":"Univ. Pancasila","time":2,"is_transit":false,"distance":1029,"i_lat":-6.339291,"station_id":"UP"},{"i_lat":-6.360749,"transit":false,"line":2,"station_name":"Univ. Indonesia","station_id":"UI","time":3,"i_long":106.831474,"is_transit":false,"distance":2264},{"i_long":106.831114,"station_id":"POC","i_lat":-6.369073,"distance":1109,"line":2,"is_transit":false,"time":2,"transit":false,"station_name":"Pondok Cina"},{"station_name":"Depokbaru","station_id":"DPB","i_lat":-6.391065,"i_long":106.819451,"transit":false,"line":2,"distance":2727,"time":4,"is_transit":false},{"distance":1584,"is_transit":false,"i_lat":-6.405256,"time":3,"station_id":"DP","transit":false,"station_name":"Depok","i_long":106.816926,"line":2},{"transit":true,"station_name":"Citayam","i_lat":-6.448811,"is_transit":true,"i_long":106.800298,"time":6,"station_id":"CTA","distance":5084,"line":2},{"transit":false,"distance":0,"station_id":"PDRG","time":0,"station_name":"Pondok Rajeg","i_lat":-6.460735,"is_transit":false,"i_long":106.824374,"line":21}],[{"i_lat":-6.207404,"distance":0,"i_long":106.79689,"line":6,"is_transit":false,"time":0,"transit":false,"station_name":"Palmerah","station_id":"PLM"},{"i_lat":-6.185545,"station_name":"Tanah Abang","is_transit":true,"time":6,"station_id":"THB","i_long":106.811091,"transit":true,"distance":3191,"line":1},{"station_name":"Duri","distance":3632,"i_long":106.800832,"line":1,"time":8,"station_id":"DU","is_transit":false,"transit":false,"i_lat":-6.155215},{"station_id":"AK","line":1,"distance":1230,"transit":false,"station_name":"Angke","is_transit":false,"i_lat":-6.144674,"time":4,"i_long":106.79867},{"i_long":106.826365,"distance":4102,"station_id":"KPB","time":9,"station_name":"Kampung Bandan","transit":true,"line":4,"is_transit":true,"i_lat":-6.132549},{"station_name":"Rajawali","transit":false,"i_long":106.836569,"i_lat":-6.14505,"line":11,"is_transit":false,"station_id":"RJW","time":3,"distance":1444},{"distance":1901,"line":11,"station_name":"Kemayoran","station_id":"KMO","i_lat":-6.161728,"time":5,"i_long":106.839204,"is_transit":false,"transit":false},{"time":4,"is_transit":false,"distance":1436,"transit":false,"station_name":"Pasar Senen","station_id":"PSE","i_lat":-6.174784,"i_long":106.84368,"line":11},{"station_id":"GST","station_name":"Gang Sentiong","i_long":106.850107,"is_transit":false,"time":8,"i_lat":-6.185975,"line":11,"distance":1567,"transit":false},{"time":1,"i_long":106.855437,"line":11,"station_id":"KMT","distance":973,"i_lat":-6.193792,"transit":false,"is_transit":false,"station_name":"Kramat"},{"line":11,"time":2,"station_name":"Pondok Jati","station_id":"POK","i_long":106.861737,"i_lat":-6.209188,"distance":1829,"is_transit":false,"transit":false},{"time":9,"transit":true,"station_name":"Jatinegara","i_lat":-6.215091,"i_long":106.86807400000001,"is_transit":true,"station_id":"JNG","line":1,"distance":1236},{"is_transit":false,"station_id":"MTR","station_name":"Matraman","i_lat":-6.212485,"distance":1377,"time":2,"i_long":106.858896,"line":1,"transit":false},{"station_name":"Manggarai","time":2,"i_long":106.84912,"transit":true,"station_id":"MRI","is_transit":true,"i_lat":-6.209883,"distance":1275,"line":2},{"line":2,"time":4,"transit":false,"distance":2610,"i_long":106.857948,"station_id":"TEB","is_transit":false,"i_lat":-6.226659,"station_name":"Tebet"},{"transit":false,"i_long":106.856607,"distance":1230,"time":2,"is_transit":false,"station_id":"CW","station_name":"Cawang","i_lat":-6.242512,"line":2},{"station_name":"Duren Kalibata","distance":1546,"time":3,"is_transit":false,"i_lat":-6.255332,"line":2,"station_id":"DRN","transit":false,"i_long":106.85449},{"distance":824,"time":2,"is_transit":false,"station_id":"PSMB","transit":false,"i_lat":-6.263214,"line":2,"i_long":106.851577,"station_name":"Pasar Minggu Baru"},{"line":2,"transit":false,"time":2,"station_id":"PSM","i_lat":-6.2842400000000005,"distance":2380,"is_transit":false,"station_name":"Pasar Minggu","i_long":106.843999},{"line":2,"transit":false,"time":4,"distance":2820,"station_name":"Tanjung Barat","is_transit":false,"station_id":"TNT","i_lat":-6.3080680000000005,"i_long":106.838896},{"transit":false,"station_name":"Lenteng Agung","time":3,"distance":2671,"i_long":106.832616,"station_id":"LNA","line":2,"is_transit":false,"i_lat":-6.330363},{"station_id":"UP","transit":false,"i_long":106.834175,"time":2,"distance":1029,"line":2,"station_name":"Univ. Pancasila","i_lat":-6.339291,"is_transit":false},{"distance":2264,"i_long":106.831474,"is_transit":false,"line":2,"station_id":"UI","transit":false,"i_lat":-6.360749,"time":3,"station_name":"Univ. Indonesia"},{"i_long":106.831114,"distance":1109,"i_lat":-6.369073,"line":2,"transit":false,"station_name":"Pondok Cina","time":2,"is_transit":false,"station_id":"POC"},{"i_long":106.819451,"line":2,"transit":false,"station_id":"DPB","is_transit":false,"distance":2727,"time":4,"station_name":"Depokbaru","i_lat":-6.391065},{"distance":1584,"is_transit":false,"station_id":"DP","time":3,"transit":false,"station_name":"Depok","i_lat":-6.405256,"i_long":106.816926,"line":2},{"transit":true,"i_long":106.800298,"is_transit":true,"distance":5084,"station_id":"CTA","time":6,"station_name":"Citayam","i_lat":-6.448811,"line":2},{"is_transit":false,"time":0,"i_lat":-6.460735,"line":21,"i_long":106.824374,"station_id":"PDRG","transit":false,"station_name":"Pondok Rajeg","distance":0}]]}