{"data":[[{"distance":0,"transit":false,"time":0,"i_lat":-6.207404,"line":6,"is_transit":false,"station_name":"Palmerah","station_id":"PLM","i_long":106.79689},{"i_long":106.811091,"transit":true,"line":1,"distance":3191,"i_lat":-6.185545,"is_transit":true,"time":6,"station_name":"Tanah Abang","station_id":"THB"},{"station_id":"KAT","i_long":106.816351,"transit":false,"is_transit":false,"station_name":"Karet","i_lat":-6.20132,"line":1,"distance":2029,"time":5},{"station_id":"SUDB","i_lat":-6.201433,"line":1,"distance":471,"transit":false,"station_name":"Sudirman Baru","time":1,"i_long":106.819881,"is_transit":false},{"is_transit":false,"distance":280,"station_id":"SUD","i_long":106.822649,"transit":false,"time":1,"station_name":"Sudirman","line":1,"i_lat":-6.202263},{"distance":3186,"station_id":"MRI","line":0,"station_name":"Manggarai","is_transit":true,"i_lat":-6.209883,"time":4,"transit":true,"i_long":106.84912},{"distance":2610,"station_id":"TEB","i_long":106.857948,"is_transit":false,"line":2,"i_lat":-6.226659,"station_name":"Tebet","transit":false,"time":4},{"station_id":"CW","is_transit":false,"i_lat":-6.242512,"station_name":"Cawang","i_long":106.856607,"distance":1230,"line":0,"time":2,"transit":false},{"station_id":"DRN","i_lat":-6.255332,"i_long":106.85449,"distance":1546,"station_name":"Duren Kalibata","is_transit":false,"line":0,"time":3,"transit":false}],[{"is_transit":false,"transit":false,"i_lat":-6.207404,"i_long":106.79689,"line":6,"time":0,"distance":0,"station_id":"PLM","station_name":"Palmerah"},{"distance":3191,"is_transit":true,"time":6,"i_long":106.811091,"line":1,"station_name":"Tanah Abang","station_id":"THB","i_lat":-6.185545,"transit":true},{"station_name":"Duri","station_id":"DU","i_long":106.800832,"is_transit":true,"distance":3632,"i_lat":-6.155215,"line":1,"time":8,"transit":true},{"station_id":"AK","transit":false,"station_name":"Angke","is_transit":false,"time":4,"i_lat":-6.144674,"distance":1230,"line":0,"i_long":106.79867},{"station_id":"KPB","distance":4102,"time":9,"i_lat":-6.132549,"line":0,"transit":false,"is_transit":true,"station_name":"Kampung Bandan","i_long":106.826365},{"i_long":106.812439,"time":3,"line":0,"distance":1364,"transit":true,"i_lat":-6.137569,"is_transit":true,"station_id":"JAKK","station_name":"Jakarta Kota"},{"station_id":"JAY","i_long":106.820901,"transit":false,"is_transit":false,"time":4,"station_name":"Jayakarta","distance":1264,"line":7,"i_lat":-6.141205},{"line":2,"transit":false,"is_transit":false,"distance":1080,"time":2,"station_name":"Manggabesar","i_long":106.82482,"i_lat":-6.149769,"station_id":"MGB"},{"is_transit":false,"i_lat":-6.160725,"distance":906,"time":2,"i_long":106.827103,"line":2,"station_id":"SW","station_name":"Sawah Besar","transit":false},{"line":2,"time":2,"i_lat":-6.166716,"station_id":"JUA","is_transit":false,"transit":false,"distance":1149,"station_name":"Juanda","i_long":106.828284},{"station_id":"GDD","transit":false,"is_transit":false,"station_name":"Gondangdia","i_lat":-6.186295,"i_long":106.832183,"time":4,"line":2,"distance":2015},{"time":3,"i_long":106.840169,"is_transit":false,"distance":1750,"line":0,"transit":false,"station_name":"Cikini","station_id":"CKI","i_lat":-6.198556},{"i_lat":-6.209883,"station_name":"Manggarai","line":0,"transit":true,"is_transit":true,"time":4,"distance":1590,"station_id":"MRI","i_long":106.84912},{"i_lat":-6.226659,"i_long":106.857948,"station_name":"Tebet","transit":false,"distance":2610,"time":4,"station_id":"TEB","is_transit":false,"line":2},{"station_name":"Cawang","is_transit":false,"transit":false,"i_long":106.856607,"line":0,"distance":1230,"time":2,"station_id":"CW","i_lat":-6.242512},{"i_lat":-6.255332,"station_id":"DRN","is_transit":false,"time":3,"i_long":106.85449,"transit":false,"distance":1546,"line":0,"station_name":"Duren Kalibata"}],[{"is_transit":false,"station_name":"Palmerah","time":0,"distance":0,"station_id":"PLM","i_lat":-6.207404,"line":6,"i_long":106.79689,"transit":false},{"time":6,"is_transit":true,"i_long":106.811091,"station_id":"THB","station_name":"Tanah Abang","i_lat":-6.185545,"transit":true,"line":1,"distance":3191},{"time":8,"distance":3632,"station_id":"DU","i_long":106.800832,"i_lat":-6.155215,"line":1,"station_name":"Duri","is_transit":true,"transit":true},{"i_lat":-6.144674,"line":0,"station_name":"Angke","time":4,"distance":1230,"station_id":"AK","transit":false,"is_transit":false,"i_long":106.79867},{"time":9,"line":0,"transit":true,"distance":4102,"i_lat":-6.132549,"i_long":106.826365,"is_transit":true,"station_id":"KPB","station_name":"Kampung Bandan"},{"station_name":"Rajawali","is_transit":false,"i_long":106.836569,"line":11,"distance":1444,"station_id":"RJW","i_lat":-6.14505,"time":3,"transit":false},{"station_id":"KMO","i_long":106.839204,"transit":false,"station_name":"Kemayoran","distance":1901,"is_transit":false,"time":5,"i_lat":-6.161728,"line":11},{"time":4,"station_name":"Pasar Senen","is_transit":false,"i_long":106.84368,"station_id":"PSE","i_lat":-6.174784,"line":11,"distance":1436,"transit":false},{"transit":false,"distance":1567,"i_lat":-6.185975,"station_id":"GST","is_transit":false,"time":8,"line":11,"i_long":106.850107,"station_name":"Gang Sentiong"},{"i_lat":-6.193792,"distance":973,"is_transit":false,"station_id":"KMT","time":1,"i_long":106.855437,"station_name":"Kramat","line":11,"transit":false},{"time":2,"i_long":106.861737,"distance":1829,"is_transit":false,"transit":false,"station_name":"Pondok Jati","station_id":"POK","i_lat":-6.209188,"line":11},{"transit":true,"station_name":"Jatinegara","distance":1236,"time":9,"line":0,"station_id":"JNG","i_lat":-6.215091,"i_long":106.86807400000001,"is_transit":true},{"station_id":"MTR","i_lat":-6.212485,"is_transit":false,"line":1,"transit":false,"i_long":106.858896,"distance":1377,"time":2,"station_name":"Matraman"},{"transit":true,"distance":1275,"station_name":"Manggarai","is_transit":true,"time":2,"station_id":"MRI","i_lat":-6.209883,"line":0,"i_long":106.84912},{"transit":false,"is_transit":false,"station_id":"TEB","i_long":106.857948,"distance":2610,"station_name":"Tebet","time":4,"i_lat":-6.226659,"line":2},{"station_name":"Cawang","i_lat":-6.242512,"time":2,"transit":false,"distance":1230,"station_id":"CW","i_long":106.856607,"line":0,"is_transit":false},{"distance":1546,"time":3,"line":0,"station_name":"Duren Kalibata","is_transit":false,"transit":false,"i_lat":-6.255332,"station_id":"DRN","i_long":106.85449}]]}