{"data":[[{"i_lat":-6.207404,"station_id":"PLM","line":6,"i_long":106.79689,"distance":0,"time":0,"station_name":"Palmerah","transit":false,"is_transit":false},{"transit":false,"line":6,"distance":3737,"time":7,"station_name":"Kebayoran","station_id":"KBY","i_long":106.780334,"i_lat":-6.237242,"is_transit":false},{"station_name":"Pondokranji","distance":6218,"i_long":106.74273,"station_id":"PDJ","is_transit":false,"time":8,"i_lat":-6.276362,"line":6,"transit":false},{"station_id":"JMU","i_lat":-6.288927,"i_long":106.728916,"station_name":"Jurangmangu","is_transit":false,"transit":false,"line":6,"time":3,"distance":2179},{"i_long":106.712277,"station_id":"SDM","transit":false,"i_lat":-6.296963,"is_transit":false,"station_name":"Sudimara","distance":1994,"time":4,"line":6},{"station_name":"Rawa Buntu","i_long":106.675475,"is_transit":false,"transit":false,"station_id":"RU","i_lat":-6.314823,"distance":4566,"time":6,"line":6},{"transit":false,"distance":2413,"station_id":"SRP","i_lat":-6.319871,"line":6,"i_long":106.66566,"station_name":"Serpong","is_transit":false,"time":4},{"i_long":106.640411,"station_name":"Cisauk","transit":false,"distance":1784,"time":4,"station_id":"CSK","line":3,"is_transit":false,"i_lat":-6.32484}]]}