{"data":[[{"station_name":"Palmerah","transit":false,"is_transit":false,"line":6,"time":0,"i_lat":-6.207404,"station_id":"PLM","distance":0,"i_long":106.79689},{"i_long":106.811091,"is_transit":true,"transit":true,"i_lat":-6.185545,"time":6,"station_name":"Tanah Abang","distance":3191,"station_id":"THB","line":1},{"line":1,"station_name":"Duri","i_long":106.800832,"station_id":"DU","transit":true,"is_transit":true,"time":8,"distance":3632,"i_lat":-6.155215},{"station_id":"GRG","station_name":"Grogol","distance":1700,"i_lat":-6.162021,"transit":false,"i_long":106.788277,"is_transit":false,"line":5,"time":3},{"i_long":106.771379,"distance":2036,"i_lat":-6.161433,"time":2,"is_transit":false,"transit":false,"station_name":"Pesing","line":5,"station_id":"PSG"},{"i_long":106.756522,"is_transit":false,"time":2,"station_id":"TKO","distance":1614,"station_name":"Taman Kota","transit":false,"line":5,"i_lat":-6.1587309999999995},{"is_transit":false,"i_long":106.737035,"i_lat":-6.159876,"line":5,"transit":false,"distance":2334,"station_id":"BOI","station_name":"Bojongindah","time":2},{"i_long":106.723064,"i_lat":-6.162758,"transit":false,"is_transit":false,"station_id":"RW","line":5,"station_name":"Rawa Buaya","time":4,"distance":1152},{"time":3,"i_lat":-6.166068,"transit":false,"station_id":"KDS","is_transit":false,"distance":2504,"i_long":106.701612,"station_name":"Kalideres","line":5},{"station_id":"PI","time":3,"line":5,"is_transit":false,"distance":2548,"station_name":"Poris","transit":false,"i_long":106.679458,"i_lat":-6.169933},{"is_transit":false,"station_name":"Batuceper","time":3,"i_lat":-6.171811,"i_long":106.665036,"line":5,"transit":false,"station_id":"BPR","distance":1834},{"time":3,"distance":2028,"i_long":106.64657,"transit":false,"station_name":"Tanah Tinggi","station_id":"TTI","line":5,"i_lat":-6.17331,"is_transit":false}],[{"time":0,"line":6,"station_id":"PLM","i_long":106.79689,"station_name":"Palmerah","distance":0,"i_lat":-6.207404,"transit":false,"is_transit":false},{"transit":true,"line":1,"is_transit":true,"time":6,"distance":3191,"station_id":"THB","i_long":106.811091,"station_name":"Tanah Abang","i_lat":-6.185545},{"is_transit":false,"station_name":"Karet","time":5,"i_lat":-6.20132,"i_long":106.816351,"distance":2029,"station_id":"KAT","transit":false,"line":1},{"station_name":"Sudirman Baru","transit":false,"i_lat":-6.201433,"line":1,"station_id":"SUDB","is_transit":false,"distance":471,"time":1,"i_long":106.819881},{"i_long":106.822649,"i_lat":-6.202263,"transit":false,"time":1,"station_id":"SUD","station_name":"Sudirman","is_transit":false,"distance":280,"line":1},{"i_lat":-6.209883,"station_name":"Manggarai","station_id":"MRI","time":4,"distance":3186,"i_long":106.84912,"is_transit":true,"line":2,"transit":true},{"i_long":106.840169,"line":2,"is_transit":false,"time":4,"distance":1590,"transit":false,"station_name":"Cikini","station_id":"CKI","i_lat":-6.198556},{"distance":1750,"time":3,"transit":false,"line":2,"is_transit":false,"i_lat":-6.186295,"station_id":"GDD","station_name":"Gondangdia","i_long":106.832183},{"station_name":"Juanda","distance":2015,"i_long":106.828284,"i_lat":-6.166716,"is_transit":false,"transit":false,"time":4,"line":2,"station_id":"JUA"},{"station_id":"SW","i_long":106.827103,"line":2,"station_name":"Sawah Besar","time":2,"i_lat":-6.160725,"transit":false,"is_transit":false,"distance":1149},{"i_long":106.82482,"distance":906,"i_lat":-6.149769,"line":2,"time":2,"is_transit":false,"transit":false,"station_id":"MGB","station_name":"Manggabesar"},{"is_transit":false,"time":2,"station_id":"JAY","transit":false,"i_lat":-6.141205,"station_name":"Jayakarta","distance":1080,"line":2,"i_long":106.820901},{"time":4,"station_name":"Jakarta Kota","i_long":106.812439,"distance":1264,"is_transit":true,"line":2,"station_id":"JAKK","transit":true,"i_lat":-6.137569},{"i_long":106.826365,"is_transit":true,"distance":1364,"time":3,"transit":true,"line":4,"station_name":"Kampung Bandan","i_lat":-6.132549,"station_id":"KPB"},{"line":1,"i_lat":-6.144674,"distance":4102,"time":9,"station_name":"Angke","is_transit":false,"i_long":106.79867,"transit":false,"station_id":"AK"},{"distance":1230,"transit":true,"i_long":106.800832,"time":4,"i_lat":-6.155215,"line":1,"station_name":"Duri","is_transit":true,"station_id":"DU"},{"transit":false,"is_transit":false,"time":3,"distance":1700,"line":5,"station_name":"Grogol","i_lat":-6.162021,"station_id":"GRG","i_long":106.788277},{"i_lat":-6.161433,"is_transit":false,"time":2,"transit":false,"i_long":106.771379,"line":5,"station_name":"Pesing","distance":2036,"station_id":"PSG"},{"time":2,"station_name":"Taman Kota","station_id":"TKO","distance":1614,"i_lat":-6.1587309999999995,"is_transit":false,"i_long":106.756522,"line":5,"transit":false},{"station_id":"BOI","line":5,"distance":2334,"i_long":106.737035,"station_name":"Bojongindah","i_lat":-6.159876,"is_transit":false,"transit":false,"time":2},{"station_id":"RW","distance":1152,"time":4,"station_name":"Rawa Buaya","i_lat":-6.162758,"is_transit":false,"transit":false,"i_long":106.723064,"line":5},{"station_id":"KDS","is_transit":false,"i_long":106.701612,"distance":2504,"line":5,"time":3,"station_name":"Kalideres","i_lat":-6.166068,"transit":false},{"station_id":"PI","is_transit":false,"i_lat":-6.169933,"station_name":"Poris","transit":false,"i_long":106.679458,"time":3,"line":5,"distance":2548},{"station_id":"BPR","line":5,"i_lat":-6.171811,"transit":false,"is_transit":false,"i_long":106.665036,"station_name":"Batuceper","distance":1834,"time":3},{"i_lat":-6.17331,"line":5,"i_long":106.64657,"station_id":"TTI","station_name":"Tanah Tinggi","distance":2028,"is_transit":false,"time":3,"transit":false}],[{"distance":0,"line":6,"station_id":"PLM","time":0,"i_lat":-6.207404,"i_long":106.79689,"station_name":"Palmerah","transit":false,"is_transit":false},{"i_lat":-6.185545,"line":1,"time":6,"station_name":"Tanah Abang","transit":true,"distance":3191,"i_long":106.811091,"station_id":"THB","is_transit":true},{"is_transit":false,"time":5,"i_lat":-6.20132,"transit":false,"i_long":106.816351,"station_name":"Karet","station_id":"KAT","distance":2029,"line":1},{"is_transit":false,"distance":471,"i_lat":-6.201433,"station_name":"Sudirman Baru","line":1,"transit":false,"time":1,"i_long":106.819881,"station_id":"SUDB"},{"time":1,"station_id":"SUD","is_transit":false,"transit":false,"distance":280,"i_long":106.822649,"station_name":"Sudirman","line":1,"i_lat":-6.202263},{"i_lat":-6.209883,"distance":3186,"line":2,"transit":false,"station_name":"Manggarai","time":4,"is_transit":false,"i_long":106.84912,"station_id":"MRI"},{"station_name":"Matraman","time":2,"station_id":"MTR","i_long":106.858896,"i_lat":-6.212485,"is_transit":false,"transit":false,"distance":1275,"line":1},{"is_transit":true,"i_lat":-6.215091,"station_name":"Jatinegara","distance":1377,"i_long":106.86807400000001,"line":1,"transit":true,"time":8,"station_id":"JNG"},{"station_id":"POK","time":2,"distance":1236,"station_name":"Pondok Jati","is_transit":false,"i_lat":-6.209188,"transit":false,"line":11,"i_long":106.861737},{"time":2,"station_id":"KMT","transit":false,"i_lat":-6.193792,"line":11,"i_long":106.855437,"station_name":"Kramat","distance":1829,"is_transit":false},{"is_transit":false,"distance":973,"i_lat":-6.185975,"transit":false,"i_long":106.850107,"station_name":"Gang Sentiong","line":11,"time":1,"station_id":"GST"},{"station_name":"Pasar Senen","is_transit":false,"distance":1567,"line":11,"transit":false,"i_lat":-6.174784,"station_id":"PSE","time":8,"i_long":106.84368},{"station_name":"Kemayoran","distance":1436,"transit":false,"i_lat":-6.161728,"line":11,"i_long":106.839204,"time":4,"station_id":"KMO","is_transit":false},{"time":5,"transit":false,"i_lat":-6.14505,"station_id":"RJW","station_name":"Rajawali","i_long":106.836569,"line":11,"is_transit":false,"distance":1901},{"time":3,"station_name":"Kampung Bandan","distance":1444,"transit":true,"is_transit":true,"i_long":106.826365,"i_lat":-6.132549,"station_id":"KPB","line":4},{"station_id":"AK","line":1,"i_long":106.79867,"transit":false,"station_name":"Angke","distance":4102,"i_lat":-6.144674,"time":9,"is_transit":false},{"line":1,"time":4,"station_name":"Duri","i_lat":-6.155215,"i_long":106.800832,"is_transit":true,"station_id":"DU","transit":true,"distance":1230},{"is_transit":false,"station_name":"Grogol","line":5,"i_long":106.788277,"station_id":"GRG","distance":1700,"transit":false,"i_lat":-6.162021,"time":3},{"distance":2036,"line":5,"station_id":"PSG","station_name":"Pesing","i_lat":-6.161433,"time":2,"transit":false,"i_long":106.771379,"is_transit":false},{"is_transit":false,"i_long":106.756522,"i_lat":-6.1587309999999995,"station_id":"TKO","line":5,"distance":1614,"transit":false,"time":2,"station_name":"Taman Kota"},{"distance":2334,"is_transit":false,"i_lat":-6.159876,"i_long":106.737035,"transit":false,"line":5,"station_id":"BOI","station_name":"Bojongindah","time":2},{"line":5,"is_transit":false,"transit":false,"i_lat":-6.162758,"i_long":106.723064,"station_name":"Rawa Buaya","time":4,"station_id":"RW","distance":1152},{"transit":false,"time":3,"i_long":106.701612,"line":5,"is_transit":false,"station_id":"KDS","station_name":"Kalideres","i_lat":-6.166068,"distance":2504},{"i_lat":-6.169933,"station_id":"PI","station_name":"Poris","distance":2548,"time":3,"i_long":106.679458,"transit":false,"line":5,"is_transit":false},{"line":5,"distance":1834,"station_id":"BPR","station_name":"Batuceper","time":3,"transit":false,"i_lat":-6.171811,"is_transit":false,"i_long":106.665036},{"i_lat":-6.17331,"is_transit":false,"station_name":"Tanah Tinggi","i_long":106.64657,"line":5,"station_id":"TTI","distance":2028,"transit":false,"time":3}]]}