{"data":[[{"transit":false,"i_long":106.79689,"distance":0,"station_name":"Palmerah","is_transit":false,"time":0,"i_lat":-6.207404,"line":6,"station_id":"PLM"},{"i_lat":-6.237242,"time":7,"station_name":"Kebayoran","line":6,"station_id":"KBY","i_long":106.780334,"transit":false,"distance":3737,"is_transit":false},{"i_long":106.74273,"distance":6218,"line":6,"is_transit":false,"transit":false,"station_name":"Pondokranji","time":8,"i_lat":-6.276362,"station_id":"PDJ"},{"is_transit":false,"i_long":106.728916,"i_lat":-6.288927,"station_id":"JMU","time":3,"station_name":"Jurangmangu","transit":false,"distance":2179,"line":6},{"i_lat":-6.296963,"station_name":"Sudimara","line":6,"i_long":106.712277,"transit":false,"distance":1994,"station_id":"SDM","is_transit":false,"time":4},{"station_name":"Rawa Buntu","station_id":"RU","line":6,"transit":false,"i_long":106.675475,"i_lat":-6.314823,"distance":4566,"is_transit":false,"time":6},{"station_name":"Serpong","station_id":"SRP","i_lat":-6.319871,"distance":2413,"is_transit":false,"i_long":106.66566,"transit":false,"time":4,"line":6},{"transit":false,"i_lat":-6.32484,"station_id":"CSK","i_long":106.640411,"is_transit":false,"station_name":"Cisauk","line":3,"time":4,"distance":1784},{"time":4,"line":3,"transit":false,"i_lat":-6.329547,"is_transit":false,"station_name":"Cicayur","distance":2519,"i_long":106.617853,"station_id":"CC"},{"transit":false,"station_id":"PRP","is_transit":false,"station_name":"Parung Panjang","i_lat":-6.3441410000000005,"time":8,"line":6,"i_long":106.568863,"distance":5968}]]}