{"data":[[{"station_name":"Palmerah","i_long":106.79689,"line":6,"is_transit":false,"distance":0,"i_lat":-6.207404,"station_id":"PLM","transit":false,"time":0},{"time":6,"distance":3191,"station_name":"Tanah Abang","i_long":106.811091,"line":1,"i_lat":-6.185545,"station_id":"THB","transit":true,"is_transit":true},{"station_id":"KAT","station_name":"Karet","is_transit":false,"line":1,"i_lat":-6.20132,"time":5,"transit":false,"distance":2029,"i_long":106.816351},{"is_transit":false,"station_id":"SUDB","time":1,"i_long":106.819881,"i_lat":-6.201433,"line":1,"station_name":"Sudirman Baru","transit":false,"distance":471},{"line":1,"distance":280,"i_long":106.822649,"i_lat":-6.202263,"station_name":"Sudirman","station_id":"SUD","transit":false,"is_transit":false,"time":1},{"i_lat":-6.209883,"station_id":"MRI","i_long":106.84912,"line":2,"transit":false,"time":4,"station_name":"Manggarai","distance":3186,"is_transit":false},{"time":2,"distance":1275,"station_id":"MTR","i_lat":-6.212485,"transit":false,"station_name":"Matraman","is_transit":false,"line":1,"i_long":106.858896},{"station_id":"JNG","is_transit":true,"i_long":106.86807400000001,"i_lat":-6.215091,"time":8,"station_name":"Jatinegara","distance":1377,"line":1,"transit":true},{"time":2,"is_transit":false,"transit":false,"distance":1236,"station_id":"POK","i_long":106.861737,"line":11,"station_name":"Pondok Jati","i_lat":-6.209188}],[{"distance":0,"i_lat":-6.207404,"station_name":"Palmerah","time":0,"i_long":106.79689,"transit":false,"is_transit":false,"line":6,"station_id":"PLM"},{"is_transit":true,"transit":true,"line":1,"station_name":"Tanah Abang","distance":3191,"time":6,"i_long":106.811091,"i_lat":-6.185545,"station_id":"THB"},{"station_id":"DU","distance":3632,"time":8,"line":1,"station_name":"Duri","i_lat":-6.155215,"is_transit":false,"transit":false,"i_long":106.800832},{"i_lat":-6.144674,"station_name":"Angke","distance":1230,"line":1,"is_transit":false,"time":4,"transit":false,"station_id":"AK","i_long":106.79867},{"station_id":"KPB","distance":4102,"i_lat":-6.132549,"line":4,"time":9,"station_name":"Kampung Bandan","i_long":106.826365,"is_transit":true,"transit":true},{"line":11,"time":3,"station_name":"Rajawali","is_transit":false,"transit":false,"distance":1444,"i_lat":-6.14505,"i_long":106.836569,"station_id":"RJW"},{"line":11,"is_transit":false,"station_id":"KMO","time":5,"i_lat":-6.161728,"i_long":106.839204,"distance":1901,"transit":false,"station_name":"Kemayoran"},{"station_name":"Pasar Senen","distance":1436,"transit":false,"line":11,"station_id":"PSE","time":4,"is_transit":false,"i_lat":-6.174784,"i_long":106.84368},{"time":8,"line":11,"station_id":"GST","station_name":"Gang Sentiong","i_lat":-6.185975,"distance":1567,"i_long":106.850107,"transit":false,"is_transit":false},{"is_transit":false,"time":1,"i_long":106.855437,"line":11,"i_lat":-6.193792,"distance":973,"station_id":"KMT","transit":false,"station_name":"Kramat"},{"i_lat":-6.209188,"time":2,"distance":1829,"i_long":106.861737,"line":11,"transit":false,"station_name":"Pondok Jati","is_transit":false,"station_id":"POK"}],[{"transit":false,"station_id":"PLM","i_lat":-6.207404,"is_transit":false,"line":6,"time":0,"distance":0,"i_long":106.79689,"station_name":"Palmerah"},{"station_name":"Tanah Abang","i_lat":-6.185545,"distance":3191,"transit":true,"i_long":106.811091,"line":1,"station_id":"THB","is_transit":true,"time":6},{"line":1,"station_id":"DU","time":8,"distance":3632,"transit":false,"station_name":"Duri","is_transit":false,"i_lat":-6.155215,"i_long":106.800832},{"i_lat":-6.144674,"i_long":106.79867,"station_name":"Angke","distance":1230,"station_id":"AK","transit":false,"time":4,"is_transit":false,"line":1},{"i_long":106.826365,"station_id":"KPB","distance":4102,"time":9,"i_lat":-6.132549,"station_name":"Kampung Bandan","transit":true,"is_transit":true,"line":4},{"time":3,"station_id":"JAKK","line":2,"i_long":106.812439,"i_lat":-6.137569,"distance":1364,"transit":true,"station_name":"Jakarta Kota","is_transit":true},{"station_name":"Jayakarta","transit":false,"line":2,"station_id":"JAY","time":4,"distance":1264,"i_lat":-6.141205,"i_long":106.820901,"is_transit":false},{"is_transit":false,"station_name":"Manggabesar","time":2,"line":2,"i_lat":-6.149769,"station_id":"MGB","transit":false,"i_long":106.82482,"distance":1080},{"is_transit":false,"i_lat":-6.160725,"line":2,"transit":false,"i_long":106.827103,"station_id":"SW","station_name":"Sawah Besar","distance":906,"time":2},{"line":2,"station_id":"JUA","station_name":"Juanda","i_lat":-6.166716,"transit":false,"is_transit":false,"i_long":106.828284,"time":2,"distance":1149},{"time":4,"station_id":"GDD","i_long":106.832183,"is_transit":false,"transit":false,"i_lat":-6.186295,"station_name":"Gondangdia","distance":2015,"line":2},{"time":3,"line":2,"station_name":"Cikini","distance":1750,"transit":false,"is_transit":false,"i_lat":-6.198556,"i_long":106.840169,"station_id":"CKI"},{"station_name":"Manggarai","line":2,"station_id":"MRI","transit":true,"time":4,"i_lat":-6.209883,"distance":1590,"is_transit":true,"i_long":106.84912},{"station_name":"Matraman","is_transit":false,"i_lat":-6.212485,"distance":1275,"line":1,"i_long":106.858896,"transit":false,"time":2,"station_id":"MTR"},{"is_transit":true,"distance":1377,"i_lat":-6.215091,"i_long":106.86807400000001,"station_id":"JNG","line":1,"transit":true,"station_name":"Jatinegara","time":8},{"distance":1236,"i_lat":-6.209188,"station_name":"Pondok Jati","line":11,"transit":false,"station_id":"POK","is_transit":false,"i_long":106.861737,"time":2}],[{"station_id":"PLM","distance":0,"i_lat":-6.207404,"i_long":106.79689,"station_name":"Palmerah","transit":false,"is_transit":false,"time":0,"line":6},{"distance":3191,"i_lat":-6.185545,"transit":true,"line":1,"is_transit":true,"i_long":106.811091,"station_name":"Tanah Abang","station_id":"THB","time":6},{"time":5,"i_long":106.816351,"is_transit":false,"distance":2029,"i_lat":-6.20132,"station_name":"Karet","line":1,"station_id":"KAT","transit":false},{"line":1,"i_long":106.819881,"transit":false,"i_lat":-6.201433,"station_id":"SUDB","station_name":"Sudirman Baru","time":1,"is_transit":false,"distance":471},{"transit":false,"i_lat":-6.202263,"i_long":106.822649,"line":1,"time":1,"distance":280,"station_id":"SUD","is_transit":false,"station_name":"Sudirman"},{"transit":true,"station_name":"Manggarai","i_long":106.84912,"i_lat":-6.209883,"is_transit":true,"station_id":"MRI","time":4,"line":2,"distance":3186},{"is_transit":false,"station_id":"CKI","i_long":106.840169,"line":2,"transit":false,"station_name":"Cikini","time":4,"i_lat":-6.198556,"distance":1590},{"distance":1750,"i_lat":-6.186295,"transit":false,"is_transit":false,"time":3,"line":2,"i_long":106.832183,"station_name":"Gondangdia","station_id":"GDD"},{"i_lat":-6.166716,"distance":2015,"time":4,"is_transit":false,"station_name":"Juanda","station_id":"JUA","line":2,"i_long":106.828284,"transit":false},{"line":2,"station_name":"Sawah Besar","is_transit":false,"time":2,"i_long":106.827103,"transit":false,"station_id":"SW","distance":1149,"i_lat":-6.160725},{"is_transit":false,"transit":false,"distance":906,"i_long":106.82482,"line":2,"station_name":"Manggabesar","station_id":"MGB","time":2,"i_lat":-6.149769},{"distance":1080,"time":2,"is_transit":false,"i_long":106.820901,"station_id":"JAY","line":2,"station_name":"Jayakarta","transit":false,"i_lat":-6.141205},{"transit":true,"station_name":"Jakarta Kota","line":2,"station_id":"JAKK","i_lat":-6.137569,"i_long":106.812439,"distance":1264,"is_transit":true,"time":4},{"station_name":"Kampung Bandan","distance":1364,"time":3,"i_lat":-6.132549,"is_transit":true,"line":4,"station_id":"KPB","transit":true,"i_long":106.826365},{"line":11,"transit":false,"i_long":106.836569,"is_transit":false,"time":3,"station_id":"RJW","i_lat":-6.14505,"station_name":"Rajawali","distance":1444},{"transit":false,"i_lat":-6.161728,"i_long":106.839204,"is_transit":false,"distance":1901,"line":11,"station_id":"KMO","time":5,"station_name":"Kemayoran"},{"station_name":"Pasar Senen","time":4,"is_transit":false,"i_lat":-6.174784,"transit":false,"i_long":106.84368,"line":11,"station_id":"PSE","distance":1436},{"station_name":"Gang Sentiong","line":11,"station_id":"GST","distance":1567,"i_long":106.850107,"time":8,"i_lat":-6.185975,"transit":false,"is_transit":false},{"i_lat":-6.193792,"station_name":"Kramat","distance":973,"is_transit":false,"line":11,"time":1,"i_long":106.855437,"transit":false,"station_id":"KMT"},{"i_long":106.861737,"station_id":"POK","time":2,"distance":1829,"i_lat":-6.209188,"line":11,"station_name":"Pondok Jati","is_transit":false,"transit":false}]]}