{"data":[[{"is_transit":false,"station_id":"PLM","time":0,"station_name":"Palmerah","distance":0,"line":6,"i_lat":-6.207404,"transit":false,"i_long":106.79689},{"station_name":"Tanah Abang","line":1,"distance":3191,"transit":true,"station_id":"THB","i_lat":-6.185545,"i_long":106.811091,"is_transit":true,"time":6},{"station_name":"Duri","transit":true,"station_id":"DU","i_long":106.800832,"is_transit":true,"time":8,"distance":3632,"i_lat":-6.155215,"line":1},{"station_name":"Grogol","i_long":106.788277,"line":5,"is_transit":false,"station_id":"GGL","time":3,"distance":1700,"i_lat":-6.162021,"transit":false},{"i_long":106.771379,"line":5,"time":2,"is_transit":false,"station_id":"PSG","i_lat":-6.161433,"station_name":"Pesing","transit":false,"distance":2036},{"transit":false,"is_transit":false,"station_name":"Taman Kota","i_long":106.756522,"distance":1614,"line":5,"time":2,"station_id":"TKO","i_lat":-6.1587309999999995},{"transit":false,"i_lat":-6.159876,"time":2,"i_long":106.737035,"line":5,"distance":2334,"station_name":"Bojongindah","station_id":"BOI","is_transit":false},{"is_transit":false,"line":5,"time":4,"i_long":106.723064,"station_name":"Rawa Buaya","distance":1152,"station_id":"RW","transit":false,"i_lat":-6.162758},{"time":3,"station_name":"Kalideres","line":5,"transit":false,"station_id":"KDS","distance":2504,"i_lat":-6.166068,"is_transit":false,"i_long":106.701612},{"station_name":"Poris","i_lat":-6.169933,"i_long":106.679458,"line":5,"station_id":"PI","transit":false,"distance":2548,"is_transit":false,"time":3},{"line":5,"distance":1834,"is_transit":false,"time":3,"station_id":"BPR","station_name":"Batuceper","i_lat":-6.171811,"i_long":106.665036,"transit":false},{"time":3,"i_lat":-6.17331,"line":5,"distance":2028,"station_id":"TTI","transit":false,"is_transit":false,"station_name":"Tanah Tinggi","i_long":106.64657}],[{"station_name":"Palmerah","station_id":"PLM","distance":0,"line":6,"i_lat":-6.207404,"is_transit":false,"i_long":106.79689,"time":0,"transit":false},{"is_transit":true,"distance":3191,"i_lat":-6.185545,"station_name":"Tanah Abang","i_long":106.811091,"station_id":"THB","line":1,"transit":true,"time":6},{"line":1,"distance":2029,"station_id":"KAT","transit":false,"is_transit":false,"i_lat":-6.20132,"station_name":"Karet","i_long":106.816351,"time":5},{"i_long":106.819881,"distance":471,"line":1,"time":1,"station_name":"Sudirman Baru","station_id":"SUDB","is_transit":false,"transit":false,"i_lat":-6.201433},{"station_name":"Sudirman","i_long":106.822649,"station_id":"SUD","line":1,"is_transit":false,"time":1,"distance":280,"transit":false,"i_lat":-6.202263},{"line":2,"station_id":"MRI","station_name":"Manggarai","distance":3186,"i_long":106.84912,"time":4,"is_transit":true,"i_lat":-6.209883,"transit":true},{"line":2,"station_name":"Cikini","distance":1590,"i_long":106.840169,"is_transit":false,"time":4,"station_id":"CKI","transit":false,"i_lat":-6.198556},{"transit":false,"distance":1750,"i_lat":-6.186295,"i_long":106.832183,"time":3,"is_transit":false,"line":2,"station_name":"Gondangdia","station_id":"GDD"},{"transit":false,"time":4,"station_name":"Juanda","i_long":106.828284,"is_transit":false,"line":2,"distance":2015,"i_lat":-6.166716,"station_id":"JUA"},{"line":2,"distance":1149,"i_lat":-6.160725,"i_long":106.827103,"station_name":"Sawah Besar","is_transit":false,"station_id":"SW","transit":false,"time":2},{"station_name":"Manggabesar","station_id":"MGB","distance":906,"transit":false,"is_transit":false,"i_lat":-6.149769,"i_long":106.82482,"time":2,"line":2},{"is_transit":false,"i_lat":-6.141205,"station_id":"JAY","transit":false,"distance":1080,"i_long":106.820901,"line":2,"time":2,"station_name":"Jayakarta"},{"i_long":106.812439,"station_id":"JAKK","is_transit":true,"station_name":"Jakarta Kota","transit":true,"line":2,"distance":1264,"i_lat":-6.137569,"time":4},{"station_name":"Kampung Bandan","distance":1364,"line":4,"i_long":106.826365,"is_transit":true,"transit":true,"i_lat":-6.132549,"time":3,"station_id":"KPB"},{"i_lat":-6.144674,"is_transit":false,"station_name":"Angke","distance":4102,"time":9,"transit":false,"i_long":106.79867,"line":1,"station_id":"AK"},{"station_id":"DU","is_transit":true,"i_lat":-6.155215,"time":4,"line":1,"transit":true,"distance":1230,"station_name":"Duri","i_long":106.800832},{"i_long":106.788277,"station_id":"GGL","i_lat":-6.162021,"time":3,"is_transit":false,"line":5,"station_name":"Grogol","distance":1700,"transit":false},{"i_long":106.771379,"distance":2036,"station_id":"PSG","is_transit":false,"station_name":"Pesing","i_lat":-6.161433,"time":2,"transit":false,"line":5},{"distance":1614,"line":5,"i_long":106.756522,"station_id":"TKO","transit":false,"station_name":"Taman Kota","i_lat":-6.1587309999999995,"is_transit":false,"time":2},{"transit":false,"line":5,"station_name":"Bojongindah","is_transit":false,"i_long":106.737035,"time":2,"station_id":"BOI","distance":2334,"i_lat":-6.159876},{"line":5,"distance":1152,"time":4,"is_transit":false,"station_id":"RW","transit":false,"station_name":"Rawa Buaya","i_lat":-6.162758,"i_long":106.723064},{"transit":false,"station_name":"Kalideres","time":3,"is_transit":false,"line":5,"distance":2504,"i_long":106.701612,"station_id":"KDS","i_lat":-6.166068},{"time":3,"i_long":106.679458,"is_transit":false,"station_name":"Poris","i_lat":-6.169933,"transit":false,"distance":2548,"station_id":"PI","line":5},{"line":5,"distance":1834,"transit":false,"i_lat":-6.171811,"i_long":106.665036,"station_id":"BPR","is_transit":false,"time":3,"station_name":"Batuceper"},{"is_transit":false,"time":3,"i_lat":-6.17331,"i_long":106.64657,"station_id":"TTI","line":5,"transit":false,"station_name":"Tanah Tinggi","distance":2028}],[{"i_long":106.79689,"station_name":"Palmerah","is_transit":false,"transit":false,"time":0,"station_id":"PLM","distance":0,"line":6,"i_lat":-6.207404},{"line":1,"transit":true,"station_name":"Tanah Abang","station_id":"THB","time":6,"distance":3191,"i_lat":-6.185545,"is_transit":true,"i_long":106.811091},{"station_id":"KAT","i_long":106.816351,"line":1,"station_name":"Karet","transit":false,"i_lat":-6.20132,"time":5,"distance":2029,"is_transit":false},{"line":1,"station_name":"Sudirman Baru","i_lat":-6.201433,"distance":471,"time":1,"transit":false,"i_long":106.819881,"is_transit":false,"station_id":"SUDB"},{"line":1,"station_name":"Sudirman","i_lat":-6.202263,"station_id":"SUD","i_long":106.822649,"time":1,"is_transit":false,"distance":280,"transit":false},{"time":4,"is_transit":false,"station_name":"Manggarai","i_long":106.84912,"i_lat":-6.209883,"line":2,"station_id":"MRI","distance":3186,"transit":false},{"time":2,"station_id":"MTR","i_long":106.858896,"station_name":"Matraman","is_transit":false,"transit":false,"distance":1275,"i_lat":-6.212485,"line":1},{"distance":1377,"is_transit":true,"line":1,"i_long":106.86807400000001,"time":8,"station_name":"Jatinegara","station_id":"JNG","transit":true,"i_lat":-6.215091},{"transit":false,"station_id":"POK","line":11,"distance":1236,"i_lat":-6.209188,"is_transit":false,"i_long":106.861737,"time":2,"station_name":"Pondok Jati"},{"station_id":"KMT","is_transit":false,"time":2,"distance":1829,"transit":false,"line":11,"station_name":"Kramat","i_long":106.855437,"i_lat":-6.193792},{"is_transit":false,"line":11,"i_long":106.850107,"distance":973,"station_id":"GST","time":1,"station_name":"Gang Sentiong","i_lat":-6.185975,"transit":false},{"i_lat":-6.174784,"i_long":106.84368,"is_transit":false,"time":8,"transit":false,"line":11,"distance":1567,"station_id":"PSE","station_name":"Pasar Senen"},{"distance":1436,"station_id":"KMO","i_long":106.839204,"i_lat":-6.161728,"time":4,"station_name":"Kemayoran","is_transit":false,"line":11,"transit":false},{"i_long":106.836569,"is_transit":false,"station_id":"RJW","time":5,"line":11,"distance":1901,"transit":false,"i_lat":-6.14505,"station_name":"Rajawali"},{"transit":true,"distance":1444,"station_id":"KPB","line":4,"i_lat":-6.132549,"time":3,"station_name":"Kampung Bandan","is_transit":true,"i_long":106.826365},{"station_id":"AK","is_transit":false,"station_name":"Angke","transit":false,"line":1,"i_long":106.79867,"i_lat":-6.144674,"distance":4102,"time":9},{"i_long":106.800832,"i_lat":-6.155215,"station_id":"DU","is_transit":true,"line":1,"station_name":"Duri","distance":1230,"transit":true,"time":4},{"i_lat":-6.162021,"i_long":106.788277,"distance":1700,"station_name":"Grogol","transit":false,"line":5,"time":3,"station_id":"GGL","is_transit":false},{"station_name":"Pesing","i_lat":-6.161433,"transit":false,"distance":2036,"line":5,"is_transit":false,"time":2,"i_long":106.771379,"station_id":"PSG"},{"distance":1614,"i_lat":-6.1587309999999995,"station_id":"TKO","station_name":"Taman Kota","i_long":106.756522,"is_transit":false,"time":2,"transit":false,"line":5},{"i_long":106.737035,"time":2,"distance":2334,"line":5,"station_name":"Bojongindah","is_transit":false,"transit":false,"station_id":"BOI","i_lat":-6.159876},{"station_id":"RW","i_long":106.723064,"transit":false,"line":5,"time":4,"is_transit":false,"distance":1152,"station_name":"Rawa Buaya","i_lat":-6.162758},{"i_long":106.701612,"is_transit":false,"distance":2504,"i_lat":-6.166068,"time":3,"station_name":"Kalideres","station_id":"KDS","transit":false,"line":5},{"distance":2548,"time":3,"transit":false,"station_name":"Poris","is_transit":false,"i_lat":-6.169933,"line":5,"i_long":106.679458,"station_id":"PI"},{"is_transit":false,"station_name":"Batuceper","station_id":"BPR","line":5,"distance":1834,"transit":false,"i_lat":-6.171811,"time":3,"i_long":106.665036},{"i_lat":-6.17331,"transit":false,"i_long":106.64657,"time":3,"station_id":"TTI","is_transit":false,"distance":2028,"station_name":"Tanah Tinggi","line":5}]]}