{"data":[[{"transit":false,"is_transit":false,"time":0,"station_name":"Palmerah","i_lat":-6.207404,"i_long":106.79689,"distance":0,"line":6,"station_id":"PLM"},{"station_name":"Tanah Abang","transit":true,"station_id":"THB","distance":3191,"i_long":106.811091,"line":1,"time":6,"i_lat":-6.185545,"is_transit":true},{"transit":false,"line":1,"is_transit":false,"i_long":106.816351,"station_id":"KAT","station_name":"Karet","time":5,"i_lat":-6.20132,"distance":2029},{"i_lat":-6.201433,"station_id":"SUDB","station_name":"Sudirman Baru","time":1,"i_long":106.819881,"line":1,"distance":471,"transit":false,"is_transit":false},{"station_name":"Sudirman","is_transit":false,"time":1,"station_id":"SUD","i_lat":-6.202263,"line":1,"distance":280,"transit":false,"i_long":106.822649},{"i_long":106.84912,"distance":3186,"station_name":"Manggarai","station_id":"MRI","time":4,"transit":true,"line":2,"i_lat":-6.209883,"is_transit":true},{"i_lat":-6.198556,"station_name":"Cikini","i_long":106.840169,"station_id":"CKI","transit":false,"distance":1590,"time":4,"is_transit":false,"line":2},{"station_name":"Gondangdia","station_id":"GDD","distance":1750,"i_lat":-6.186295,"is_transit":false,"transit":false,"line":2,"i_long":106.832183,"time":3},{"transit":false,"i_long":106.828284,"is_transit":false,"station_id":"JUA","line":2,"i_lat":-6.166716,"time":4,"distance":2015,"station_name":"Juanda"}],[{"station_id":"PLM","i_long":106.79689,"transit":false,"is_transit":false,"line":6,"distance":0,"i_lat":-6.207404,"station_name":"Palmerah","time":0},{"station_name":"Tanah Abang","station_id":"THB","i_long":106.811091,"time":6,"line":1,"distance":3191,"i_lat":-6.185545,"is_transit":true,"transit":true},{"distance":3632,"station_id":"DU","line":1,"is_transit":false,"i_long":106.800832,"transit":false,"station_name":"Duri","time":8,"i_lat":-6.155215},{"i_lat":-6.144674,"distance":1230,"time":4,"transit":false,"i_long":106.79867,"is_transit":false,"station_id":"AK","station_name":"Angke","line":1},{"is_transit":true,"i_lat":-6.132549,"station_id":"KPB","distance":4102,"station_name":"Kampung Bandan","i_long":106.826365,"time":9,"line":4,"transit":true},{"time":3,"line":2,"distance":1364,"station_id":"JAKK","is_transit":true,"station_name":"Jakarta Kota","transit":true,"i_long":106.812439,"i_lat":-6.137569},{"station_id":"JAY","line":2,"time":4,"i_lat":-6.141205,"transit":false,"i_long":106.820901,"station_name":"Jayakarta","distance":1264,"is_transit":false},{"i_lat":-6.149769,"is_transit":false,"station_id":"MGB","line":2,"time":2,"i_long":106.82482,"station_name":"Manggabesar","transit":false,"distance":1080},{"i_long":106.827103,"time":2,"transit":false,"is_transit":false,"i_lat":-6.160725,"station_name":"Sawah Besar","line":2,"station_id":"SW","distance":906},{"i_lat":-6.166716,"station_name":"Juanda","is_transit":false,"time":2,"i_long":106.828284,"transit":false,"station_id":"JUA","line":2,"distance":1149}],[{"distance":0,"i_lat":-6.207404,"line":6,"station_id":"PLM","station_name":"Palmerah","transit":false,"time":0,"is_transit":false,"i_long":106.79689},{"time":6,"transit":true,"is_transit":true,"station_id":"THB","station_name":"Tanah Abang","i_lat":-6.185545,"line":1,"i_long":106.811091,"distance":3191},{"transit":false,"i_lat":-6.155215,"i_long":106.800832,"line":1,"distance":3632,"is_transit":false,"station_id":"DU","station_name":"Duri","time":8},{"distance":1230,"line":1,"station_id":"AK","i_lat":-6.144674,"station_name":"Angke","i_long":106.79867,"time":4,"transit":false,"is_transit":false},{"line":4,"distance":4102,"i_lat":-6.132549,"i_long":106.826365,"station_name":"Kampung Bandan","time":9,"is_transit":true,"station_id":"KPB","transit":true},{"i_long":106.836569,"station_id":"RJW","i_lat":-6.14505,"time":3,"line":11,"station_name":"Rajawali","is_transit":false,"transit":false,"distance":1444},{"i_lat":-6.161728,"line":11,"i_long":106.839204,"time":5,"station_name":"Kemayoran","is_transit":false,"station_id":"KMO","transit":false,"distance":1901},{"is_transit":false,"time":4,"station_name":"Pasar Senen","line":11,"station_id":"PSE","distance":1436,"transit":false,"i_lat":-6.174784,"i_long":106.84368},{"distance":1567,"i_long":106.850107,"time":8,"transit":false,"line":11,"station_id":"GST","is_transit":false,"i_lat":-6.185975,"station_name":"Gang Sentiong"},{"i_lat":-6.193792,"time":1,"distance":973,"station_name":"Kramat","i_long":106.855437,"transit":false,"station_id":"KMT","is_transit":false,"line":11},{"time":2,"station_id":"POK","i_long":106.861737,"distance":1829,"station_name":"Pondok Jati","is_transit":false,"line":11,"i_lat":-6.209188,"transit":false},{"line":1,"is_transit":true,"station_name":"Jatinegara","i_lat":-6.215091,"station_id":"JNG","distance":1236,"i_long":106.86807400000001,"time":9,"transit":true},{"i_long":106.858896,"station_id":"MTR","station_name":"Matraman","transit":false,"line":1,"is_transit":false,"i_lat":-6.212485,"time":2,"distance":1377},{"is_transit":true,"i_lat":-6.209883,"i_long":106.84912,"transit":true,"line":2,"station_id":"MRI","time":2,"distance":1275,"station_name":"Manggarai"},{"i_lat":-6.198556,"distance":1590,"station_name":"Cikini","is_transit":false,"transit":false,"time":4,"station_id":"CKI","i_long":106.840169,"line":2},{"station_id":"GDD","time":3,"station_name":"Gondangdia","is_transit":false,"i_long":106.832183,"line":2,"distance":1750,"transit":false,"i_lat":-6.186295},{"time":4,"station_id":"JUA","transit":false,"line":2,"i_lat":-6.166716,"i_long":106.828284,"station_name":"Juanda","distance":2015,"is_transit":false}],[{"transit":false,"i_long":106.79689,"line":6,"station_id":"PLM","is_transit":false,"time":0,"station_name":"Palmerah","distance":0,"i_lat":-6.207404},{"station_id":"THB","i_long":106.811091,"is_transit":true,"i_lat":-6.185545,"time":6,"transit":true,"distance":3191,"station_name":"Tanah Abang","line":1},{"i_lat":-6.20132,"distance":2029,"station_id":"KAT","time":5,"is_transit":false,"transit":false,"i_long":106.816351,"line":1,"station_name":"Karet"},{"distance":471,"i_lat":-6.201433,"time":1,"station_name":"Sudirman Baru","line":1,"is_transit":false,"transit":false,"i_long":106.819881,"station_id":"SUDB"},{"is_transit":false,"station_id":"SUD","transit":false,"i_lat":-6.202263,"i_long":106.822649,"time":1,"distance":280,"station_name":"Sudirman","line":1},{"station_name":"Manggarai","distance":3186,"time":4,"transit":false,"i_long":106.84912,"is_transit":false,"i_lat":-6.209883,"station_id":"MRI","line":2},{"is_transit":false,"line":1,"time":2,"i_long":106.858896,"transit":false,"station_id":"MTR","distance":1275,"station_name":"Matraman","i_lat":-6.212485},{"station_id":"JNG","transit":true,"i_lat":-6.215091,"distance":1377,"line":1,"time":8,"i_long":106.86807400000001,"station_name":"Jatinegara","is_transit":true},{"time":2,"is_transit":false,"i_long":106.861737,"line":11,"distance":1236,"transit":false,"i_lat":-6.209188,"station_id":"POK","station_name":"Pondok Jati"},{"time":2,"is_transit":false,"line":11,"station_id":"KMT","distance":1829,"station_name":"Kramat","transit":false,"i_lat":-6.193792,"i_long":106.855437},{"is_transit":false,"time":1,"distance":973,"station_name":"Gang Sentiong","i_long":106.850107,"line":11,"station_id":"GST","transit":false,"i_lat":-6.185975},{"transit":false,"is_transit":false,"line":11,"station_id":"PSE","time":8,"station_name":"Pasar Senen","i_lat":-6.174784,"distance":1567,"i_long":106.84368},{"station_name":"Kemayoran","time":4,"station_id":"KMO","is_transit":false,"line":11,"i_long":106.839204,"i_lat":-6.161728,"distance":1436,"transit":false},{"time":5,"station_id":"RJW","i_lat":-6.14505,"distance":1901,"i_long":106.836569,"is_transit":false,"transit":false,"station_name":"Rajawali","line":11},{"time":3,"station_id":"KPB","is_transit":true,"line":4,"distance":1444,"i_lat":-6.132549,"transit":true,"i_long":106.826365,"station_name":"Kampung Bandan"},{"station_id":"JAKK","station_name":"Jakarta Kota","transit":true,"i_long":106.812439,"time":3,"i_lat":-6.137569,"is_transit":true,"distance":1364,"line":2},{"transit":false,"line":2,"station_id":"JAY","distance":1264,"time":4,"i_lat":-6.141205,"station_name":"Jayakarta","is_transit":false,"i_long":106.820901},{"i_lat":-6.149769,"distance":1080,"i_long":106.82482,"line":2,"is_transit":false,"time":2,"station_id":"MGB","station_name":"Manggabesar","transit":false},{"i_long":106.827103,"station_name":"Sawah Besar","station_id":"SW","is_transit":false,"distance":906,"transit":false,"line":2,"time":2,"i_lat":-6.160725},{"is_transit":false,"line":2,"station_name":"Juanda","distance":1149,"station_id":"JUA","i_lat":-6.166716,"transit":false,"time":2,"i_long":106.828284}]]}