{"data":[[{"line":6,"i_lat":-6.207404,"distance":0,"i_long":106.79689,"transit":false,"station_name":"Palmerah","station_id":"PLM","is_transit":false,"time":0},{"is_transit":false,"station_id":"KBY","station_name":"Kebayoran","i_lat":-6.237242,"transit":false,"line":6,"distance":3737,"time":7,"i_long":106.780334},{"time":8,"line":6,"i_long":106.74273,"distance":6218,"i_lat":-6.276362,"station_id":"PDJ","station_name":"Pondokranji","is_transit":false,"transit":false},{"line":6,"is_transit":false,"station_id":"JMU","i_lat":-6.288927,"transit":false,"distance":2179,"station_name":"Jurangmangu","time":3,"i_long":106.728916},{"is_transit":false,"distance":1994,"i_long":106.712277,"station_id":"SDM","i_lat":-6.296963,"time":4,"line":6,"station_name":"Sudimara","transit":false},{"line":6,"transit":false,"is_transit":false,"i_lat":-6.314823,"distance":4566,"station_id":"RU","station_name":"Rawa Buntu","i_long":106.675475,"time":6},{"i_lat":-6.319871,"station_name":"Serpong","line":6,"station_id":"SRP","time":4,"transit":false,"distance":2413,"is_transit":false,"i_long":106.66566},{"i_long":106.640411,"distance":1784,"station_id":"CSK","is_transit":false,"i_lat":-6.32484,"line":3,"transit":false,"time":4,"station_name":"Cisauk"},{"line":3,"i_lat":-6.329547,"station_id":"CC","station_name":"Cicayur","is_transit":false,"time":4,"transit":false,"distance":2519,"i_long":106.617853},{"i_lat":-6.3441410000000005,"time":8,"i_long":106.568863,"station_name":"Parung Panjang","is_transit":false,"station_id":"PRP","transit":false,"line":6,"distance":5968},{"i_long":106.508482,"is_transit":false,"station_id":"CJT","distance":7025,"line":3,"transit":false,"time":9,"i_lat":-6.354349,"station_name":"Cilejit"},{"station_id":"DAR","transit":false,"distance":2675,"is_transit":false,"station_name":"Daru","i_long":106.491338,"line":0,"i_lat":-6.338021,"time":6},{"station_id":"TEJ","transit":false,"i_lat":-6.327251,"distance":3902,"station_name":"Tenjo","time":5,"is_transit":false,"i_long":106.460812,"line":6},{"time":5,"i_long":106.425991,"transit":false,"station_id":"TGS","distance":2974,"station_name":"Tigaraksa","line":6,"i_lat":-6.328533,"is_transit":false},{"i_lat":-6.33561,"line":3,"i_long":106.411216,"distance":2651,"station_id":"CKY","station_name":"Cikoya","time":3,"transit":false,"is_transit":false}]]}