{"data":[[{"station_id":"PLM","is_transit":false,"line":6,"transit":false,"station_name":"Palmerah","i_long":106.79689,"i_lat":-6.207404,"distance":0,"time":0},{"distance":3191,"i_long":106.811091,"is_transit":true,"line":1,"transit":true,"time":6,"i_lat":-6.185545,"station_name":"Tanah Abang","station_id":"THB"},{"transit":false,"is_transit":false,"i_lat":-6.155215,"i_long":106.800832,"time":8,"line":1,"station_id":"DU","station_name":"Duri","distance":3632},{"transit":false,"time":4,"i_lat":-6.144674,"i_long":106.79867,"station_name":"Angke","station_id":"AK","is_transit":false,"line":1,"distance":1230}],[{"i_long":106.79689,"distance":0,"line":6,"transit":false,"station_name":"Palmerah","is_transit":false,"station_id":"PLM","time":0,"i_lat":-6.207404},{"station_id":"THB","distance":3191,"line":1,"i_lat":-6.185545,"time":6,"i_long":106.811091,"is_transit":true,"station_name":"Tanah Abang","transit":true},{"distance":2029,"i_lat":-6.20132,"line":1,"station_name":"Karet","is_transit":false,"time":5,"station_id":"KAT","i_long":106.816351,"transit":false},{"station_name":"Sudirman Baru","i_long":106.819881,"distance":471,"is_transit":false,"time":1,"transit":false,"station_id":"SUDB","i_lat":-6.201433,"line":1},{"i_long":106.822649,"is_transit":false,"line":1,"time":1,"i_lat":-6.202263,"station_id":"SUD","transit":false,"station_name":"Sudirman","distance":280},{"station_id":"MRI","distance":3186,"i_lat":-6.209883,"is_transit":true,"station_name":"Manggarai","time":4,"transit":true,"i_long":106.84912,"line":2},{"line":2,"station_id":"CKI","time":4,"is_transit":false,"transit":false,"distance":1590,"i_long":106.840169,"station_name":"Cikini","i_lat":-6.198556},{"station_name":"Gondangdia","is_transit":false,"transit":false,"station_id":"GDD","distance":1750,"i_long":106.832183,"time":3,"i_lat":-6.186295,"line":2},{"time":4,"station_id":"JUA","transit":false,"i_long":106.828284,"line":2,"station_name":"Juanda","distance":2015,"is_transit":false,"i_lat":-6.166716},{"distance":1149,"time":2,"station_name":"Sawah Besar","line":2,"station_id":"SW","i_lat":-6.160725,"transit":false,"i_long":106.827103,"is_transit":false},{"station_id":"MGB","time":2,"i_lat":-6.149769,"is_transit":false,"station_name":"Manggabesar","distance":906,"i_long":106.82482,"transit":false,"line":2},{"transit":false,"is_transit":false,"station_name":"Jayakarta","line":2,"distance":1080,"station_id":"JAY","time":2,"i_lat":-6.141205,"i_long":106.820901},{"is_transit":true,"station_name":"Jakarta Kota","i_long":106.812439,"transit":true,"time":4,"i_lat":-6.137569,"distance":1264,"line":2,"station_id":"JAKK"},{"station_name":"Kampung Bandan","transit":true,"is_transit":true,"time":3,"station_id":"KPB","i_lat":-6.132549,"distance":1364,"i_long":106.826365,"line":4},{"is_transit":false,"station_name":"Angke","transit":false,"line":1,"i_long":106.79867,"station_id":"AK","distance":4102,"time":9,"i_lat":-6.144674}],[{"distance":0,"time":0,"i_long":106.79689,"transit":false,"i_lat":-6.207404,"station_name":"Palmerah","is_transit":false,"line":6,"station_id":"PLM"},{"line":1,"station_name":"Tanah Abang","i_lat":-6.185545,"i_long":106.811091,"is_transit":true,"transit":true,"station_id":"THB","time":6,"distance":3191},{"station_name":"Karet","distance":2029,"i_lat":-6.20132,"i_long":106.816351,"transit":false,"is_transit":false,"line":1,"time":5,"station_id":"KAT"},{"station_id":"SUDB","i_long":106.819881,"is_transit":false,"distance":471,"transit":false,"line":1,"time":1,"station_name":"Sudirman Baru","i_lat":-6.201433},{"station_id":"SUD","line":1,"transit":false,"distance":280,"time":1,"i_lat":-6.202263,"i_long":106.822649,"is_transit":false,"station_name":"Sudirman"},{"station_name":"Manggarai","time":4,"transit":false,"station_id":"MRI","i_lat":-6.209883,"is_transit":false,"i_long":106.84912,"distance":3186,"line":2},{"i_lat":-6.212485,"is_transit":false,"time":2,"i_long":106.858896,"distance":1275,"station_name":"Matraman","transit":false,"station_id":"MTR","line":1},{"i_lat":-6.215091,"station_name":"Jatinegara","i_long":106.86807400000001,"transit":true,"line":1,"station_id":"JNG","is_transit":true,"distance":1377,"time":8},{"transit":false,"is_transit":false,"line":11,"i_long":106.861737,"station_id":"POK","station_name":"Pondok Jati","time":2,"i_lat":-6.209188,"distance":1236},{"distance":1829,"station_id":"KMT","time":2,"i_long":106.855437,"is_transit":false,"i_lat":-6.193792,"line":11,"station_name":"Kramat","transit":false},{"distance":973,"station_id":"GST","i_lat":-6.185975,"i_long":106.850107,"line":11,"station_name":"Gang Sentiong","time":1,"is_transit":false,"transit":false},{"station_name":"Pasar Senen","time":8,"i_long":106.84368,"i_lat":-6.174784,"line":11,"is_transit":false,"transit":false,"distance":1567,"station_id":"PSE"},{"station_name":"Kemayoran","line":11,"transit":false,"i_lat":-6.161728,"distance":1436,"station_id":"KMO","time":4,"i_long":106.839204,"is_transit":false},{"is_transit":false,"station_name":"Rajawali","distance":1901,"i_long":106.836569,"line":11,"i_lat":-6.14505,"transit":false,"time":5,"station_id":"RJW"},{"i_lat":-6.132549,"is_transit":true,"distance":1444,"line":4,"station_id":"KPB","i_long":106.826365,"station_name":"Kampung Bandan","transit":true,"time":3},{"line":1,"is_transit":false,"station_name":"Angke","station_id":"AK","transit":false,"distance":4102,"i_lat":-6.144674,"i_long":106.79867,"time":9}]]}