{"data":[[{"distance":0,"i_long":106.79689,"i_lat":-6.207404,"station_name":"Palmerah","station_id":"PLM","line":6,"time":0,"transit":false,"is_transit":false},{"i_long":106.780334,"transit":false,"time":7,"line":6,"is_transit":false,"distance":3737,"station_id":"KBY","station_name":"Kebayoran","i_lat":-6.237242},{"transit":false,"station_name":"Pondokranji","distance":6218,"time":8,"is_transit":false,"line":6,"station_id":"PDJ","i_lat":-6.276362,"i_long":106.74273},{"line":6,"station_id":"JMU","time":3,"transit":false,"is_transit":false,"station_name":"Jurangmangu","distance":2179,"i_lat":-6.288927,"i_long":106.728916},{"i_long":106.712277,"time":4,"i_lat":-6.296963,"station_id":"SDM","station_name":"Sudimara","transit":false,"is_transit":false,"distance":1994,"line":6},{"station_name":"Rawa Buntu","station_id":"RU","line":6,"i_lat":-6.314823,"is_transit":false,"transit":false,"time":6,"i_long":106.675475,"distance":4566},{"is_transit":false,"i_lat":-6.319871,"distance":2413,"time":4,"i_long":106.66566,"station_name":"Serpong","line":6,"station_id":"SRP","transit":false},{"line":3,"station_name":"Cisauk","time":4,"station_id":"CSK","is_transit":false,"i_long":106.640411,"transit":false,"distance":1784,"i_lat":-6.32484},{"i_lat":-6.329547,"station_name":"Cicayur","line":3,"transit":false,"time":4,"i_long":106.617853,"distance":2519,"station_id":"CC","is_transit":false},{"line":6,"station_id":"PRP","transit":false,"i_long":106.568863,"distance":5968,"station_name":"Parung Panjang","is_transit":false,"time":8,"i_lat":-6.3441410000000005},{"transit":false,"distance":7025,"i_lat":-6.354349,"station_name":"Cilejit","time":9,"i_long":106.508482,"is_transit":false,"line":3,"station_id":"CJT"},{"time":6,"distance":2675,"i_long":106.491338,"i_lat":-6.338021,"line":0,"transit":false,"is_transit":false,"station_id":"DAR","station_name":"Daru"},{"line":6,"is_transit":false,"station_id":"TEJ","station_name":"Tenjo","i_lat":-6.327251,"transit":false,"time":5,"i_long":106.460812,"distance":3902},{"i_long":106.425991,"is_transit":false,"time":5,"line":6,"transit":false,"i_lat":-6.328533,"station_id":"TGS","distance":2974,"station_name":"Tigaraksa"},{"transit":false,"time":3,"station_id":"CKY","is_transit":false,"line":3,"station_name":"Cikoya","i_long":106.411216,"distance":2651,"i_lat":-6.33561}]]}