{"data":[[{"i_long":106.79689,"time":0,"transit":false,"distance":0,"line":6,"station_id":"PLM","station_name":"Palmerah","is_transit":false,"i_lat":-6.207404},{"time":7,"distance":3737,"station_name":"Kebayoran","i_long":106.780334,"is_transit":false,"i_lat":-6.237242,"station_id":"KBY","transit":false,"line":6},{"station_id":"PDJ","time":8,"i_lat":-6.276362,"is_transit":false,"station_name":"Pondokranji","distance":6218,"i_long":106.74273,"line":6,"transit":false},{"line":6,"i_lat":-6.288927,"station_name":"Jurangmangu","distance":2179,"is_transit":false,"transit":false,"station_id":"JMU","time":3,"i_long":106.728916},{"i_lat":-6.296963,"i_long":106.712277,"transit":false,"distance":1994,"time":4,"is_transit":false,"line":6,"station_name":"Sudimara","station_id":"SDM"}]]}