{"data":[[{"i_lat":-6.207404,"distance":0,"is_transit":false,"time":0,"station_id":"PLM","line":6,"transit":false,"i_long":106.79689,"station_name":"Palmerah"},{"station_id":"THB","time":6,"transit":true,"station_name":"Tanah Abang","i_lat":-6.185545,"distance":3191,"line":1,"is_transit":true,"i_long":106.811091},{"i_lat":-6.20132,"time":5,"transit":false,"distance":2029,"i_long":106.816351,"station_name":"Karet","line":1,"is_transit":false,"station_id":"KAT"},{"station_id":"SUDB","line":1,"station_name":"Sudirman Baru","is_transit":false,"time":1,"distance":471,"i_lat":-6.201433,"i_long":106.819881,"transit":false},{"time":1,"is_transit":false,"station_name":"Sudirman","station_id":"SUD","line":1,"distance":280,"i_long":106.822649,"i_lat":-6.202263,"transit":false},{"station_id":"MRI","distance":3186,"station_name":"Manggarai","i_lat":-6.209883,"transit":true,"is_transit":true,"time":4,"line":2,"i_long":106.84912},{"i_lat":-6.226659,"line":2,"station_name":"Tebet","i_long":106.857948,"transit":false,"distance":2610,"station_id":"TEB","is_transit":false,"time":4},{"i_lat":-6.242512,"is_transit":false,"distance":1230,"time":2,"i_long":106.856607,"transit":false,"station_id":"CW","line":2,"station_name":"Cawang"},{"station_id":"DRN","distance":1546,"is_transit":false,"i_long":106.85449,"transit":false,"i_lat":-6.255332,"station_name":"Duren Kalibata","time":3,"line":2},{"station_name":"Pasar Minggu Baru","time":2,"is_transit":false,"transit":false,"distance":824,"i_long":106.851577,"i_lat":-6.263214,"line":2,"station_id":"PSMB"},{"transit":false,"distance":2380,"station_id":"PSM","i_lat":-6.2842400000000005,"line":2,"is_transit":false,"time":2,"station_name":"Pasar Minggu","i_long":106.843999}],[{"transit":false,"is_transit":false,"i_long":106.79689,"i_lat":-6.207404,"time":0,"line":6,"station_name":"Palmerah","distance":0,"station_id":"PLM"},{"is_transit":true,"line":1,"station_name":"Tanah Abang","transit":true,"station_id":"THB","time":6,"distance":3191,"i_long":106.811091,"i_lat":-6.185545},{"i_lat":-6.155215,"transit":false,"station_name":"Duri","station_id":"DU","time":8,"is_transit":false,"distance":3632,"i_long":106.800832,"line":1},{"line":1,"is_transit":false,"i_long":106.79867,"station_id":"AK","time":4,"transit":false,"station_name":"Angke","distance":1230,"i_lat":-6.144674},{"is_transit":true,"distance":4102,"i_long":106.826365,"station_name":"Kampung Bandan","transit":true,"i_lat":-6.132549,"line":4,"time":9,"station_id":"KPB"},{"line":2,"station_id":"JAKK","i_lat":-6.137569,"transit":true,"time":3,"i_long":106.812439,"is_transit":true,"station_name":"Jakarta Kota","distance":1364},{"is_transit":false,"line":2,"transit":false,"station_id":"JAY","i_long":106.820901,"distance":1264,"station_name":"Jayakarta","time":4,"i_lat":-6.141205},{"transit":false,"line":2,"i_lat":-6.149769,"i_long":106.82482,"is_transit":false,"time":2,"station_name":"Manggabesar","station_id":"MGB","distance":1080},{"station_name":"Sawah Besar","i_long":106.827103,"is_transit":false,"time":2,"i_lat":-6.160725,"line":2,"distance":906,"station_id":"SW","transit":false},{"time":2,"distance":1149,"station_name":"Juanda","transit":false,"is_transit":false,"line":2,"station_id":"JUA","i_long":106.828284,"i_lat":-6.166716},{"station_name":"Gondangdia","station_id":"GDD","transit":false,"distance":2015,"line":2,"time":4,"i_lat":-6.186295,"i_long":106.832183,"is_transit":false},{"is_transit":false,"time":3,"station_id":"CKI","i_long":106.840169,"transit":false,"station_name":"Cikini","distance":1750,"line":2,"i_lat":-6.198556},{"distance":1590,"is_transit":false,"time":4,"i_long":106.84912,"station_id":"MRI","i_lat":-6.209883,"transit":false,"station_name":"Manggarai","line":2},{"transit":false,"is_transit":false,"i_lat":-6.226659,"station_name":"Tebet","i_long":106.857948,"distance":2610,"station_id":"TEB","time":4,"line":2},{"distance":1230,"time":2,"i_long":106.856607,"station_id":"CW","i_lat":-6.242512,"station_name":"Cawang","line":2,"transit":false,"is_transit":false},{"time":3,"station_name":"Duren Kalibata","i_lat":-6.255332,"i_long":106.85449,"transit":false,"is_transit":false,"line":2,"station_id":"DRN","distance":1546},{"time":2,"i_lat":-6.263214,"transit":false,"line":2,"station_name":"Pasar Minggu Baru","station_id":"PSMB","is_transit":false,"i_long":106.851577,"distance":824},{"station_name":"Pasar Minggu","station_id":"PSM","time":2,"distance":2380,"i_long":106.843999,"transit":false,"i_lat":-6.2842400000000005,"is_transit":false,"line":2}],[{"time":0,"transit":false,"station_name":"Palmerah","line":6,"distance":0,"is_transit":false,"i_long":106.79689,"i_lat":-6.207404,"station_id":"PLM"},{"station_id":"THB","time":6,"i_lat":-6.185545,"i_long":106.811091,"is_transit":true,"line":1,"transit":true,"station_name":"Tanah Abang","distance":3191},{"is_transit":false,"station_id":"DU","distance":3632,"time":8,"station_name":"Duri","i_lat":-6.155215,"transit":false,"i_long":106.800832,"line":1},{"station_name":"Angke","time":4,"distance":1230,"station_id":"AK","transit":false,"i_lat":-6.144674,"i_long":106.79867,"line":1,"is_transit":false},{"i_lat":-6.132549,"station_id":"KPB","distance":4102,"is_transit":true,"transit":true,"line":4,"i_long":106.826365,"station_name":"Kampung Bandan","time":9},{"is_transit":false,"i_long":106.836569,"time":3,"station_id":"RJW","line":11,"station_name":"Rajawali","i_lat":-6.14505,"distance":1444,"transit":false},{"distance":1901,"i_lat":-6.161728,"line":11,"station_name":"Kemayoran","station_id":"KMO","is_transit":false,"time":5,"transit":false,"i_long":106.839204},{"line":11,"i_lat":-6.174784,"time":4,"transit":false,"station_name":"Pasar Senen","distance":1436,"station_id":"PSE","i_long":106.84368,"is_transit":false},{"station_name":"Gang Sentiong","station_id":"GST","time":8,"line":11,"is_transit":false,"distance":1567,"i_lat":-6.185975,"i_long":106.850107,"transit":false},{"transit":false,"time":1,"line":11,"station_name":"Kramat","distance":973,"station_id":"KMT","is_transit":false,"i_lat":-6.193792,"i_long":106.855437},{"transit":false,"station_id":"POK","i_long":106.861737,"is_transit":false,"time":2,"i_lat":-6.209188,"station_name":"Pondok Jati","line":11,"distance":1829},{"transit":true,"station_id":"JNG","station_name":"Jatinegara","is_transit":true,"time":9,"distance":1236,"i_long":106.86807400000001,"i_lat":-6.215091,"line":1},{"i_lat":-6.212485,"line":1,"transit":false,"distance":1377,"is_transit":false,"station_id":"MTR","i_long":106.858896,"time":2,"station_name":"Matraman"},{"line":2,"distance":1275,"station_id":"MRI","i_long":106.84912,"i_lat":-6.209883,"transit":true,"time":2,"station_name":"Manggarai","is_transit":true},{"i_long":106.857948,"transit":false,"station_id":"TEB","time":4,"is_transit":false,"distance":2610,"i_lat":-6.226659,"line":2,"station_name":"Tebet"},{"time":2,"line":2,"station_name":"Cawang","station_id":"CW","i_lat":-6.242512,"i_long":106.856607,"is_transit":false,"distance":1230,"transit":false},{"station_id":"DRN","station_name":"Duren Kalibata","i_lat":-6.255332,"distance":1546,"i_long":106.85449,"is_transit":false,"line":2,"time":3,"transit":false},{"i_lat":-6.263214,"station_id":"PSMB","transit":false,"is_transit":false,"distance":824,"i_long":106.851577,"line":2,"station_name":"Pasar Minggu Baru","time":2},{"line":2,"station_id":"PSM","is_transit":false,"time":2,"i_lat":-6.2842400000000005,"i_long":106.843999,"station_name":"Pasar Minggu","distance":2380,"transit":false}]]}