{"data":[[{"is_transit":false,"i_long":106.79689,"line":6,"distance":0,"station_id":"PLM","station_name":"Palmerah","transit":false,"time":0,"i_lat":-6.207404},{"transit":true,"is_transit":true,"time":6,"distance":3191,"station_name":"Tanah Abang","i_lat":-6.185545,"i_long":106.811091,"line":1,"station_id":"THB"},{"is_transit":false,"time":5,"line":1,"distance":2029,"transit":false,"i_long":106.816351,"station_id":"KAT","station_name":"Karet","i_lat":-6.20132},{"line":1,"transit":false,"station_name":"Sudirman Baru","time":1,"distance":471,"station_id":"SUDB","is_transit":false,"i_lat":-6.201433,"i_long":106.819881},{"i_lat":-6.202263,"line":1,"i_long":106.822649,"station_id":"SUD","time":1,"distance":280,"transit":false,"station_name":"Sudirman","is_transit":false},{"line":2,"station_id":"MRI","is_transit":true,"distance":3186,"time":4,"transit":true,"station_name":"Manggarai","i_lat":-6.209883,"i_long":106.84912},{"line":2,"i_long":106.857948,"time":4,"station_id":"TEB","distance":2610,"is_transit":false,"transit":false,"station_name":"Tebet","i_lat":-6.226659},{"line":2,"transit":false,"is_transit":false,"station_name":"Cawang","i_lat":-6.242512,"station_id":"CW","time":2,"i_long":106.856607,"distance":1230},{"i_lat":-6.255332,"distance":1546,"is_transit":false,"time":3,"line":2,"transit":false,"i_long":106.85449,"station_id":"DRN","station_name":"Duren Kalibata"}],[{"transit":false,"line":6,"station_id":"PLM","i_long":106.79689,"station_name":"Palmerah","time":0,"distance":0,"is_transit":false,"i_lat":-6.207404},{"i_long":106.811091,"line":1,"time":6,"station_id":"THB","transit":true,"i_lat":-6.185545,"station_name":"Tanah Abang","distance":3191,"is_transit":true},{"is_transit":false,"time":8,"line":1,"transit":false,"distance":3632,"i_lat":-6.155215,"station_name":"Duri","i_long":106.800832,"station_id":"DU"},{"time":4,"line":1,"distance":1230,"station_name":"Angke","is_transit":false,"transit":false,"i_lat":-6.144674,"station_id":"AK","i_long":106.79867},{"station_name":"Kampung Bandan","line":4,"i_lat":-6.132549,"station_id":"KPB","i_long":106.826365,"time":9,"transit":true,"is_transit":true,"distance":4102},{"line":2,"station_name":"Jakarta Kota","i_lat":-6.137569,"transit":true,"time":3,"station_id":"JAKK","i_long":106.812439,"distance":1364,"is_transit":true},{"is_transit":false,"station_name":"Jayakarta","time":4,"i_lat":-6.141205,"station_id":"JAY","i_long":106.820901,"transit":false,"distance":1264,"line":2},{"station_name":"Manggabesar","i_lat":-6.149769,"i_long":106.82482,"is_transit":false,"distance":1080,"station_id":"MGB","line":2,"time":2,"transit":false},{"i_lat":-6.160725,"station_name":"Sawah Besar","time":2,"transit":false,"line":2,"station_id":"SW","is_transit":false,"i_long":106.827103,"distance":906},{"distance":1149,"station_name":"Juanda","line":2,"i_long":106.828284,"time":2,"i_lat":-6.166716,"transit":false,"is_transit":false,"station_id":"JUA"},{"line":2,"i_long":106.832183,"station_id":"GDD","time":4,"distance":2015,"transit":false,"station_name":"Gondangdia","i_lat":-6.186295,"is_transit":false},{"transit":false,"station_id":"CKI","station_name":"Cikini","time":3,"distance":1750,"line":2,"is_transit":false,"i_long":106.840169,"i_lat":-6.198556},{"distance":1590,"transit":false,"station_id":"MRI","is_transit":false,"i_lat":-6.209883,"i_long":106.84912,"line":2,"time":4,"station_name":"Manggarai"},{"distance":2610,"i_long":106.857948,"station_name":"Tebet","line":2,"i_lat":-6.226659,"time":4,"station_id":"TEB","is_transit":false,"transit":false},{"station_id":"CW","line":2,"time":2,"transit":false,"station_name":"Cawang","distance":1230,"i_long":106.856607,"i_lat":-6.242512,"is_transit":false},{"station_name":"Duren Kalibata","station_id":"DRN","is_transit":false,"time":3,"line":2,"i_long":106.85449,"distance":1546,"transit":false,"i_lat":-6.255332}],[{"distance":0,"i_lat":-6.207404,"is_transit":false,"transit":false,"station_id":"PLM","line":6,"i_long":106.79689,"station_name":"Palmerah","time":0},{"station_id":"THB","transit":true,"is_transit":true,"i_lat":-6.185545,"time":6,"station_name":"Tanah Abang","distance":3191,"i_long":106.811091,"line":1},{"line":1,"station_id":"DU","i_lat":-6.155215,"station_name":"Duri","distance":3632,"transit":false,"i_long":106.800832,"is_transit":false,"time":8},{"transit":false,"distance":1230,"i_long":106.79867,"is_transit":false,"time":4,"station_id":"AK","i_lat":-6.144674,"station_name":"Angke","line":1},{"time":9,"is_transit":true,"station_id":"KPB","station_name":"Kampung Bandan","line":4,"i_long":106.826365,"transit":true,"distance":4102,"i_lat":-6.132549},{"time":3,"i_long":106.836569,"station_id":"RJW","station_name":"Rajawali","line":11,"transit":false,"distance":1444,"i_lat":-6.14505,"is_transit":false},{"station_name":"Kemayoran","transit":false,"line":11,"i_lat":-6.161728,"i_long":106.839204,"time":5,"is_transit":false,"distance":1901,"station_id":"KMO"},{"i_lat":-6.174784,"is_transit":false,"time":4,"i_long":106.84368,"station_name":"Pasar Senen","station_id":"PSE","distance":1436,"line":11,"transit":false},{"transit":false,"station_id":"GST","is_transit":false,"i_long":106.850107,"i_lat":-6.185975,"distance":1567,"line":11,"time":8,"station_name":"Gang Sentiong"},{"distance":973,"i_lat":-6.193792,"line":11,"i_long":106.855437,"transit":false,"station_name":"Kramat","station_id":"KMT","is_transit":false,"time":1},{"line":11,"time":2,"is_transit":false,"i_lat":-6.209188,"i_long":106.861737,"transit":false,"station_name":"Pondok Jati","distance":1829,"station_id":"POK"},{"station_id":"JNG","i_long":106.86807400000001,"transit":true,"line":1,"station_name":"Jatinegara","time":9,"is_transit":true,"i_lat":-6.215091,"distance":1236},{"station_name":"Matraman","distance":1377,"is_transit":false,"i_lat":-6.212485,"line":1,"transit":false,"station_id":"MTR","time":2,"i_long":106.858896},{"transit":true,"station_id":"MRI","i_lat":-6.209883,"station_name":"Manggarai","time":2,"i_long":106.84912,"is_transit":true,"distance":1275,"line":2},{"time":4,"distance":2610,"line":2,"transit":false,"i_lat":-6.226659,"i_long":106.857948,"station_id":"TEB","is_transit":false,"station_name":"Tebet"},{"distance":1230,"station_name":"Cawang","transit":false,"i_long":106.856607,"line":2,"time":2,"is_transit":false,"station_id":"CW","i_lat":-6.242512},{"station_id":"DRN","line":2,"i_long":106.85449,"is_transit":false,"distance":1546,"time":3,"station_name":"Duren Kalibata","i_lat":-6.255332,"transit":false}]]}