{"data":[[{"i_long":106.79689,"station_name":"Palmerah","line":6,"time":0,"station_id":"PLM","transit":false,"distance":0,"is_transit":false,"i_lat":-6.207404},{"i_lat":-6.185545,"i_long":106.811091,"station_name":"Tanah Abang","time":6,"line":1,"is_transit":true,"station_id":"THB","transit":true,"distance":3191},{"i_long":106.816351,"distance":2029,"transit":false,"i_lat":-6.20132,"line":1,"time":5,"is_transit":false,"station_name":"Karet","station_id":"KAT"},{"distance":471,"station_id":"SUDB","i_lat":-6.201433,"i_long":106.819881,"station_name":"Sudirman Baru","line":1,"transit":false,"is_transit":false,"time":1},{"i_long":106.822649,"line":1,"distance":280,"transit":false,"station_name":"Sudirman","station_id":"SUD","time":1,"i_lat":-6.202263,"is_transit":false},{"is_transit":false,"i_lat":-6.209883,"distance":3186,"station_name":"Manggarai","station_id":"MRI","transit":false,"i_long":106.84912,"line":2,"time":4},{"i_lat":-6.212485,"i_long":106.858896,"distance":1275,"line":1,"station_name":"Matraman","is_transit":false,"time":2,"station_id":"MTR","transit":false},{"line":1,"station_name":"Jatinegara","station_id":"JNG","i_lat":-6.215091,"i_long":106.86807400000001,"is_transit":true,"distance":1377,"transit":true,"time":8},{"is_transit":false,"station_name":"Pondok Jati","transit":false,"i_long":106.861737,"line":11,"i_lat":-6.209188,"station_id":"POK","time":2,"distance":1236}],[{"line":6,"is_transit":false,"station_name":"Palmerah","transit":false,"i_long":106.79689,"distance":0,"time":0,"station_id":"PLM","i_lat":-6.207404},{"i_lat":-6.185545,"transit":true,"station_name":"Tanah Abang","time":6,"i_long":106.811091,"station_id":"THB","line":1,"is_transit":true,"distance":3191},{"transit":false,"line":1,"time":8,"station_name":"Duri","is_transit":false,"station_id":"DU","distance":3632,"i_lat":-6.155215,"i_long":106.800832},{"transit":false,"time":4,"i_lat":-6.144674,"line":1,"is_transit":false,"i_long":106.79867,"distance":1230,"station_name":"Angke","station_id":"AK"},{"is_transit":true,"transit":true,"station_name":"Kampung Bandan","time":9,"station_id":"KPB","i_lat":-6.132549,"line":4,"distance":4102,"i_long":106.826365},{"station_name":"Rajawali","station_id":"RJW","i_long":106.836569,"distance":1444,"time":3,"is_transit":false,"transit":false,"i_lat":-6.14505,"line":11},{"station_name":"Kemayoran","i_long":106.839204,"station_id":"KMO","line":11,"transit":false,"i_lat":-6.161728,"distance":1901,"is_transit":false,"time":5},{"station_name":"Pasar Senen","station_id":"PSE","transit":false,"time":4,"is_transit":false,"distance":1436,"i_lat":-6.174784,"i_long":106.84368,"line":11},{"is_transit":false,"i_long":106.850107,"distance":1567,"station_id":"GST","transit":false,"station_name":"Gang Sentiong","time":8,"i_lat":-6.185975,"line":11},{"transit":false,"station_name":"Kramat","distance":973,"station_id":"KMT","i_lat":-6.193792,"is_transit":false,"i_long":106.855437,"time":1,"line":11},{"station_id":"POK","i_lat":-6.209188,"is_transit":false,"line":11,"transit":false,"time":2,"i_long":106.861737,"station_name":"Pondok Jati","distance":1829}],[{"distance":0,"i_lat":-6.207404,"transit":false,"station_id":"PLM","i_long":106.79689,"time":0,"line":6,"station_name":"Palmerah","is_transit":false},{"i_long":106.811091,"distance":3191,"time":6,"line":1,"is_transit":true,"station_id":"THB","station_name":"Tanah Abang","i_lat":-6.185545,"transit":true},{"line":1,"transit":false,"is_transit":false,"time":8,"i_lat":-6.155215,"distance":3632,"station_name":"Duri","station_id":"DU","i_long":106.800832},{"transit":false,"distance":1230,"station_name":"Angke","i_lat":-6.144674,"is_transit":false,"i_long":106.79867,"line":1,"station_id":"AK","time":4},{"i_lat":-6.132549,"line":4,"i_long":106.826365,"station_id":"KPB","is_transit":true,"distance":4102,"station_name":"Kampung Bandan","transit":true,"time":9},{"station_name":"Jakarta Kota","station_id":"JAKK","i_lat":-6.137569,"distance":1364,"is_transit":true,"transit":true,"time":3,"i_long":106.812439,"line":2},{"time":4,"line":2,"station_name":"Jayakarta","station_id":"JAY","i_lat":-6.141205,"is_transit":false,"i_long":106.820901,"distance":1264,"transit":false},{"is_transit":false,"i_long":106.82482,"station_name":"Manggabesar","transit":false,"line":2,"station_id":"MGB","time":2,"distance":1080,"i_lat":-6.149769},{"station_name":"Sawah Besar","transit":false,"station_id":"SW","time":2,"line":2,"i_lat":-6.160725,"distance":906,"is_transit":false,"i_long":106.827103},{"is_transit":false,"station_name":"Juanda","transit":false,"line":2,"distance":1149,"time":2,"i_lat":-6.166716,"i_long":106.828284,"station_id":"JUA"},{"distance":2015,"time":4,"i_lat":-6.186295,"station_id":"GDD","transit":false,"i_long":106.832183,"line":2,"is_transit":false,"station_name":"Gondangdia"},{"transit":false,"i_long":106.840169,"station_name":"Cikini","i_lat":-6.198556,"station_id":"CKI","is_transit":false,"time":3,"distance":1750,"line":2},{"time":4,"is_transit":true,"station_id":"MRI","transit":true,"distance":1590,"i_lat":-6.209883,"i_long":106.84912,"line":2,"station_name":"Manggarai"},{"transit":false,"line":1,"station_name":"Matraman","station_id":"MTR","is_transit":false,"distance":1275,"i_long":106.858896,"time":2,"i_lat":-6.212485},{"time":8,"station_name":"Jatinegara","transit":true,"i_lat":-6.215091,"station_id":"JNG","i_long":106.86807400000001,"is_transit":true,"distance":1377,"line":1},{"is_transit":false,"station_name":"Pondok Jati","i_long":106.861737,"time":2,"line":11,"distance":1236,"i_lat":-6.209188,"station_id":"POK","transit":false}],[{"time":0,"distance":0,"station_id":"PLM","station_name":"Palmerah","line":6,"is_transit":false,"transit":false,"i_lat":-6.207404,"i_long":106.79689},{"station_id":"THB","station_name":"Tanah Abang","distance":3191,"transit":true,"line":1,"i_long":106.811091,"i_lat":-6.185545,"is_transit":true,"time":6},{"transit":false,"station_name":"Karet","time":5,"line":1,"is_transit":false,"distance":2029,"station_id":"KAT","i_lat":-6.20132,"i_long":106.816351},{"distance":471,"time":1,"i_long":106.819881,"line":1,"station_id":"SUDB","is_transit":false,"transit":false,"i_lat":-6.201433,"station_name":"Sudirman Baru"},{"line":1,"station_name":"Sudirman","is_transit":false,"transit":false,"time":1,"i_lat":-6.202263,"distance":280,"i_long":106.822649,"station_id":"SUD"},{"station_id":"MRI","station_name":"Manggarai","time":4,"transit":true,"line":2,"distance":3186,"i_lat":-6.209883,"is_transit":true,"i_long":106.84912},{"line":2,"distance":1590,"station_id":"CKI","station_name":"Cikini","i_long":106.840169,"time":4,"i_lat":-6.198556,"is_transit":false,"transit":false},{"line":2,"i_long":106.832183,"i_lat":-6.186295,"transit":false,"is_transit":false,"time":3,"station_name":"Gondangdia","distance":1750,"station_id":"GDD"},{"time":4,"is_transit":false,"station_name":"Juanda","station_id":"JUA","i_lat":-6.166716,"line":2,"i_long":106.828284,"transit":false,"distance":2015},{"station_name":"Sawah Besar","station_id":"SW","transit":false,"i_long":106.827103,"distance":1149,"time":2,"i_lat":-6.160725,"is_transit":false,"line":2},{"is_transit":false,"station_name":"Manggabesar","time":2,"distance":906,"transit":false,"line":2,"i_long":106.82482,"station_id":"MGB","i_lat":-6.149769},{"i_lat":-6.141205,"line":2,"station_id":"JAY","distance":1080,"transit":false,"i_long":106.820901,"is_transit":false,"station_name":"Jayakarta","time":2},{"distance":1264,"time":4,"station_name":"Jakarta Kota","station_id":"JAKK","i_long":106.812439,"transit":true,"line":2,"i_lat":-6.137569,"is_transit":true},{"distance":1364,"station_id":"KPB","transit":true,"i_lat":-6.132549,"line":4,"station_name":"Kampung Bandan","time":3,"is_transit":true,"i_long":106.826365},{"station_id":"RJW","is_transit":false,"i_lat":-6.14505,"line":11,"transit":false,"distance":1444,"i_long":106.836569,"time":3,"station_name":"Rajawali"},{"is_transit":false,"station_id":"KMO","i_lat":-6.161728,"line":11,"distance":1901,"time":5,"transit":false,"i_long":106.839204,"station_name":"Kemayoran"},{"station_name":"Pasar Senen","distance":1436,"is_transit":false,"transit":false,"i_long":106.84368,"time":4,"station_id":"PSE","i_lat":-6.174784,"line":11},{"i_lat":-6.185975,"is_transit":false,"time":8,"distance":1567,"line":11,"i_long":106.850107,"station_id":"GST","station_name":"Gang Sentiong","transit":false},{"line":11,"i_lat":-6.193792,"distance":973,"transit":false,"time":1,"station_name":"Kramat","is_transit":false,"station_id":"KMT","i_long":106.855437},{"station_id":"POK","time":2,"distance":1829,"i_long":106.861737,"station_name":"Pondok Jati","line":11,"transit":false,"is_transit":false,"i_lat":-6.209188}]]}