{"data":[[{"is_transit":false,"station_name":"Palmerah","i_lat":-6.207404,"time":0,"distance":0,"i_long":106.79689,"line":6,"station_id":"PLM","transit":false},{"is_transit":false,"station_id":"KBY","distance":3737,"line":6,"station_name":"Kebayoran","transit":false,"i_long":106.780334,"time":7,"i_lat":-6.237242},{"distance":6218,"time":8,"station_id":"PDJ","is_transit":false,"i_lat":-6.276362,"i_long":106.74273,"station_name":"Pondokranji","line":6,"transit":false},{"i_lat":-6.288927,"i_long":106.728916,"station_id":"JMU","distance":2179,"station_name":"Jurangmangu","line":6,"is_transit":false,"time":3,"transit":false},{"transit":false,"station_name":"Sudimara","i_long":106.712277,"distance":1994,"time":4,"line":6,"is_transit":false,"i_lat":-6.296963,"station_id":"SDM"}]]}