{"data":[[{"station_id":"PLM","i_long":106.79689,"station_name":"Palmerah","is_transit":false,"time":0,"distance":0,"i_lat":-6.207404,"line":6,"transit":false},{"transit":true,"station_name":"Tanah Abang","is_transit":true,"station_id":"THB","time":6,"distance":3191,"i_lat":-6.185545,"i_long":106.811091,"line":1},{"i_lat":-6.155215,"is_transit":false,"time":8,"station_name":"Duri","station_id":"DU","transit":false,"i_long":106.800832,"line":1,"distance":3632},{"i_long":106.79867,"station_name":"Angke","i_lat":-6.144674,"is_transit":false,"line":1,"distance":1230,"time":4,"station_id":"AK","transit":false},{"time":9,"station_id":"KPB","distance":4102,"is_transit":false,"station_name":"Kampung Bandan","transit":false,"i_lat":-6.132549,"line":4,"i_long":106.826365}],[{"distance":0,"time":0,"station_name":"Palmerah","i_lat":-6.207404,"line":6,"i_long":106.79689,"transit":false,"is_transit":false,"station_id":"PLM"},{"time":6,"distance":3191,"i_lat":-6.185545,"i_long":106.811091,"transit":true,"is_transit":true,"line":1,"station_id":"THB","station_name":"Tanah Abang"},{"distance":2029,"i_lat":-6.20132,"time":5,"is_transit":false,"i_long":106.816351,"station_name":"Karet","transit":false,"station_id":"KAT","line":1},{"is_transit":false,"i_long":106.819881,"time":1,"station_name":"Sudirman Baru","transit":false,"i_lat":-6.201433,"line":1,"distance":471,"station_id":"SUDB"},{"is_transit":false,"line":1,"distance":280,"time":1,"station_id":"SUD","i_long":106.822649,"station_name":"Sudirman","i_lat":-6.202263,"transit":false},{"time":4,"transit":true,"i_lat":-6.209883,"distance":3186,"i_long":106.84912,"station_id":"MRI","line":2,"is_transit":true,"station_name":"Manggarai"},{"time":4,"is_transit":false,"i_long":106.840169,"distance":1590,"i_lat":-6.198556,"station_name":"Cikini","transit":false,"line":2,"station_id":"CKI"},{"station_name":"Gondangdia","i_long":106.832183,"time":3,"station_id":"GDD","distance":1750,"is_transit":false,"i_lat":-6.186295,"line":2,"transit":false},{"station_name":"Juanda","line":2,"distance":2015,"i_lat":-6.166716,"transit":false,"i_long":106.828284,"time":4,"station_id":"JUA","is_transit":false},{"distance":1149,"line":2,"transit":false,"is_transit":false,"station_id":"SW","time":2,"i_long":106.827103,"i_lat":-6.160725,"station_name":"Sawah Besar"},{"line":2,"is_transit":false,"station_id":"MGB","time":2,"i_lat":-6.149769,"distance":906,"transit":false,"i_long":106.82482,"station_name":"Manggabesar"},{"line":2,"distance":1080,"i_long":106.820901,"transit":false,"time":2,"station_name":"Jayakarta","is_transit":false,"station_id":"JAY","i_lat":-6.141205},{"distance":1264,"i_lat":-6.137569,"is_transit":true,"station_name":"Jakarta Kota","station_id":"JAKK","line":2,"transit":true,"time":4,"i_long":106.812439},{"is_transit":false,"i_lat":-6.132549,"station_id":"KPB","time":3,"station_name":"Kampung Bandan","line":4,"transit":false,"distance":1364,"i_long":106.826365}],[{"station_id":"PLM","station_name":"Palmerah","transit":false,"i_long":106.79689,"time":0,"is_transit":false,"i_lat":-6.207404,"line":6,"distance":0},{"line":1,"i_long":106.811091,"station_id":"THB","i_lat":-6.185545,"distance":3191,"station_name":"Tanah Abang","is_transit":true,"time":6,"transit":true},{"transit":false,"i_lat":-6.20132,"station_name":"Karet","is_transit":false,"station_id":"KAT","line":1,"distance":2029,"i_long":106.816351,"time":5},{"station_id":"SUDB","time":1,"i_long":106.819881,"i_lat":-6.201433,"is_transit":false,"station_name":"Sudirman Baru","distance":471,"line":1,"transit":false},{"station_id":"SUD","distance":280,"i_lat":-6.202263,"transit":false,"line":1,"station_name":"Sudirman","is_transit":false,"i_long":106.822649,"time":1},{"distance":3186,"station_name":"Manggarai","transit":false,"line":2,"i_lat":-6.209883,"i_long":106.84912,"station_id":"MRI","time":4,"is_transit":false},{"is_transit":false,"distance":1275,"station_name":"Matraman","time":2,"station_id":"MTR","i_lat":-6.212485,"transit":false,"i_long":106.858896,"line":1},{"time":8,"i_lat":-6.215091,"distance":1377,"station_name":"Jatinegara","transit":true,"station_id":"JNG","i_long":106.86807400000001,"line":1,"is_transit":true},{"line":11,"station_name":"Pondok Jati","is_transit":false,"i_lat":-6.209188,"distance":1236,"i_long":106.861737,"transit":false,"time":2,"station_id":"POK"},{"is_transit":false,"i_long":106.855437,"distance":1829,"station_id":"KMT","transit":false,"station_name":"Kramat","line":11,"time":2,"i_lat":-6.193792},{"distance":973,"is_transit":false,"station_name":"Gang Sentiong","time":1,"transit":false,"station_id":"GST","i_lat":-6.185975,"i_long":106.850107,"line":11},{"i_lat":-6.174784,"is_transit":false,"line":11,"station_id":"PSE","i_long":106.84368,"station_name":"Pasar Senen","time":8,"transit":false,"distance":1567},{"i_long":106.839204,"line":11,"i_lat":-6.161728,"transit":false,"is_transit":false,"station_id":"KMO","time":4,"distance":1436,"station_name":"Kemayoran"},{"line":11,"is_transit":false,"i_lat":-6.14505,"distance":1901,"station_id":"RJW","i_long":106.836569,"station_name":"Rajawali","transit":false,"time":5},{"i_long":106.826365,"line":4,"transit":false,"station_id":"KPB","i_lat":-6.132549,"station_name":"Kampung Bandan","distance":1444,"time":3,"is_transit":false}]]}