{"data":[[{"i_lat":-6.207404,"transit":false,"distance":0,"i_long":106.79689,"line":6,"is_transit":false,"station_name":"Palmerah","time":0,"station_id":"PLM"},{"station_name":"Tanah Abang","line":1,"transit":true,"i_long":106.811091,"distance":3191,"time":6,"is_transit":true,"i_lat":-6.185545,"station_id":"THB"},{"station_id":"KAT","transit":false,"i_lat":-6.20132,"line":1,"i_long":106.816351,"is_transit":false,"time":5,"distance":2029,"station_name":"Karet"},{"transit":false,"time":1,"i_lat":-6.201433,"station_id":"SUDB","line":1,"distance":471,"i_long":106.819881,"is_transit":false,"station_name":"Sudirman Baru"},{"is_transit":false,"time":1,"distance":280,"transit":false,"station_id":"SUD","i_lat":-6.202263,"station_name":"Sudirman","line":1,"i_long":106.822649},{"station_id":"MRI","line":0,"i_long":106.84912,"distance":3186,"is_transit":true,"station_name":"Manggarai","i_lat":-6.209883,"transit":true,"time":4},{"i_lat":-6.226659,"transit":false,"is_transit":false,"distance":2610,"station_id":"TEB","time":4,"i_long":106.857948,"station_name":"Tebet","line":2},{"transit":false,"i_lat":-6.242512,"line":0,"time":2,"station_name":"Cawang","station_id":"CW","is_transit":false,"distance":1230,"i_long":106.856607},{"is_transit":false,"station_name":"Duren Kalibata","i_lat":-6.255332,"time":3,"station_id":"DRN","i_long":106.85449,"distance":1546,"line":0,"transit":false},{"i_long":106.851577,"is_transit":false,"line":2,"station_id":"PSMB","transit":false,"station_name":"Pasar Minggu Baru","time":2,"distance":824,"i_lat":-6.263214},{"time":2,"station_id":"PSM","i_long":106.843999,"i_lat":-6.2842400000000005,"is_transit":false,"line":2,"transit":false,"distance":2380,"station_name":"Pasar Minggu"},{"i_lat":-6.3080680000000005,"transit":false,"line":2,"station_name":"Tanjung Barat","time":4,"is_transit":false,"i_long":106.838896,"station_id":"TNT","distance":2820},{"distance":2671,"station_id":"LNA","i_long":106.832616,"line":2,"is_transit":false,"i_lat":-6.330363,"station_name":"Lenteng Agung","transit":false,"time":3},{"i_lat":-6.339291,"distance":1029,"i_long":106.834175,"line":2,"is_transit":false,"station_name":"Univ. Pancasila","transit":false,"station_id":"UP","time":2},{"i_long":106.831474,"distance":2264,"transit":false,"time":3,"i_lat":-6.360749,"station_id":"UI","station_name":"Univ. Indonesia","is_transit":false,"line":2},{"station_id":"POC","transit":false,"line":2,"i_lat":-6.369073,"i_long":106.831114,"distance":1109,"station_name":"Pondok Cina","time":2,"is_transit":false}],[{"station_name":"Palmerah","time":0,"transit":false,"distance":0,"station_id":"PLM","is_transit":false,"i_long":106.79689,"i_lat":-6.207404,"line":6},{"is_transit":true,"distance":3191,"line":1,"i_lat":-6.185545,"i_long":106.811091,"time":6,"station_name":"Tanah Abang","station_id":"THB","transit":true},{"station_id":"DU","distance":3632,"transit":true,"station_name":"Duri","i_lat":-6.155215,"line":1,"is_transit":true,"i_long":106.800832,"time":8},{"distance":1230,"line":0,"station_id":"AK","time":4,"station_name":"Angke","i_lat":-6.144674,"transit":false,"i_long":106.79867,"is_transit":false},{"station_name":"Kampung Bandan","distance":4102,"time":9,"i_long":106.826365,"line":0,"station_id":"KPB","i_lat":-6.132549,"transit":false,"is_transit":true},{"transit":true,"i_long":106.812439,"line":0,"is_transit":true,"time":3,"station_id":"JAKK","station_name":"Jakarta Kota","i_lat":-6.137569,"distance":1364},{"transit":false,"distance":1264,"i_lat":-6.141205,"time":4,"i_long":106.820901,"line":7,"is_transit":false,"station_id":"JAY","station_name":"Jayakarta"},{"is_transit":false,"time":2,"station_id":"MGB","distance":1080,"i_lat":-6.149769,"transit":false,"i_long":106.82482,"line":2,"station_name":"Manggabesar"},{"station_name":"Sawah Besar","transit":false,"time":2,"i_long":106.827103,"is_transit":false,"i_lat":-6.160725,"line":2,"distance":906,"station_id":"SW"},{"station_name":"Juanda","i_lat":-6.166716,"station_id":"JUA","transit":false,"time":2,"i_long":106.828284,"line":2,"is_transit":false,"distance":1149},{"distance":2015,"i_lat":-6.186295,"station_name":"Gondangdia","line":2,"time":4,"is_transit":false,"i_long":106.832183,"station_id":"GDD","transit":false},{"time":3,"i_long":106.840169,"station_id":"CKI","is_transit":false,"line":0,"transit":false,"station_name":"Cikini","i_lat":-6.198556,"distance":1750},{"time":4,"i_lat":-6.209883,"distance":1590,"station_id":"MRI","i_long":106.84912,"transit":true,"station_name":"Manggarai","is_transit":true,"line":0},{"distance":2610,"station_id":"TEB","is_transit":false,"station_name":"Tebet","time":4,"i_lat":-6.226659,"transit":false,"i_long":106.857948,"line":2},{"transit":false,"station_name":"Cawang","time":2,"is_transit":false,"station_id":"CW","i_long":106.856607,"line":0,"i_lat":-6.242512,"distance":1230},{"is_transit":false,"distance":1546,"i_lat":-6.255332,"time":3,"transit":false,"line":0,"station_name":"Duren Kalibata","station_id":"DRN","i_long":106.85449},{"line":2,"is_transit":false,"distance":824,"station_id":"PSMB","station_name":"Pasar Minggu Baru","time":2,"transit":false,"i_lat":-6.263214,"i_long":106.851577},{"i_long":106.843999,"station_id":"PSM","i_lat":-6.2842400000000005,"transit":false,"station_name":"Pasar Minggu","is_transit":false,"time":2,"distance":2380,"line":2},{"transit":false,"time":4,"station_id":"TNT","line":2,"i_lat":-6.3080680000000005,"i_long":106.838896,"is_transit":false,"station_name":"Tanjung Barat","distance":2820},{"station_id":"LNA","station_name":"Lenteng Agung","distance":2671,"time":3,"i_lat":-6.330363,"transit":false,"i_long":106.832616,"is_transit":false,"line":2},{"distance":1029,"station_id":"UP","i_long":106.834175,"transit":false,"line":2,"time":2,"i_lat":-6.339291,"station_name":"Univ. Pancasila","is_transit":false},{"transit":false,"i_long":106.831474,"distance":2264,"time":3,"station_id":"UI","line":2,"station_name":"Univ. Indonesia","is_transit":false,"i_lat":-6.360749},{"distance":1109,"time":2,"i_lat":-6.369073,"is_transit":false,"line":2,"i_long":106.831114,"station_name":"Pondok Cina","transit":false,"station_id":"POC"}],[{"is_transit":false,"line":6,"station_id":"PLM","time":0,"i_lat":-6.207404,"i_long":106.79689,"distance":0,"transit":false,"station_name":"Palmerah"},{"transit":true,"station_id":"THB","line":1,"station_name":"Tanah Abang","i_long":106.811091,"i_lat":-6.185545,"distance":3191,"time":6,"is_transit":true},{"station_id":"DU","distance":3632,"is_transit":true,"station_name":"Duri","transit":true,"i_lat":-6.155215,"i_long":106.800832,"time":8,"line":1},{"i_long":106.79867,"time":4,"is_transit":false,"i_lat":-6.144674,"transit":false,"station_name":"Angke","distance":1230,"station_id":"AK","line":0},{"is_transit":true,"station_name":"Kampung Bandan","transit":true,"time":9,"i_long":106.826365,"distance":4102,"station_id":"KPB","line":0,"i_lat":-6.132549},{"i_lat":-6.14505,"time":3,"station_name":"Rajawali","distance":1444,"i_long":106.836569,"line":11,"station_id":"RJW","transit":false,"is_transit":false},{"station_id":"KMO","i_lat":-6.161728,"i_long":106.839204,"line":11,"is_transit":false,"time":5,"station_name":"Kemayoran","transit":false,"distance":1901},{"station_id":"PSE","is_transit":false,"line":11,"distance":1436,"i_long":106.84368,"time":4,"transit":false,"station_name":"Pasar Senen","i_lat":-6.174784},{"station_id":"GST","time":8,"line":11,"station_name":"Gang Sentiong","i_lat":-6.185975,"i_long":106.850107,"transit":false,"distance":1567,"is_transit":false},{"station_id":"KMT","i_long":106.855437,"line":11,"i_lat":-6.193792,"is_transit":false,"time":1,"distance":973,"transit":false,"station_name":"Kramat"},{"line":11,"station_id":"POK","transit":false,"distance":1829,"is_transit":false,"time":2,"station_name":"Pondok Jati","i_long":106.861737,"i_lat":-6.209188},{"distance":1236,"station_id":"JNG","transit":true,"station_name":"Jatinegara","time":9,"i_lat":-6.215091,"line":0,"is_transit":true,"i_long":106.86807400000001},{"station_id":"MTR","station_name":"Matraman","line":1,"i_lat":-6.212485,"distance":1377,"is_transit":false,"time":2,"transit":false,"i_long":106.858896},{"station_id":"MRI","line":0,"i_lat":-6.209883,"distance":1275,"transit":true,"i_long":106.84912,"is_transit":true,"station_name":"Manggarai","time":2},{"line":2,"station_id":"TEB","distance":2610,"time":4,"is_transit":false,"station_name":"Tebet","i_lat":-6.226659,"i_long":106.857948,"transit":false},{"line":0,"station_id":"CW","distance":1230,"is_transit":false,"i_lat":-6.242512,"transit":false,"station_name":"Cawang","time":2,"i_long":106.856607},{"time":3,"is_transit":false,"line":0,"station_id":"DRN","station_name":"Duren Kalibata","i_long":106.85449,"transit":false,"i_lat":-6.255332,"distance":1546},{"station_name":"Pasar Minggu Baru","i_long":106.851577,"station_id":"PSMB","distance":824,"line":2,"time":2,"transit":false,"is_transit":false,"i_lat":-6.263214},{"station_id":"PSM","distance":2380,"is_transit":false,"time":2,"i_lat":-6.2842400000000005,"i_long":106.843999,"transit":false,"line":2,"station_name":"Pasar Minggu"},{"i_long":106.838896,"is_transit":false,"time":4,"distance":2820,"station_id":"TNT","transit":false,"i_lat":-6.3080680000000005,"station_name":"Tanjung Barat","line":2},{"time":3,"i_lat":-6.330363,"station_id":"LNA","transit":false,"distance":2671,"station_name":"Lenteng Agung","line":2,"i_long":106.832616,"is_transit":false},{"line":2,"station_name":"Univ. Pancasila","i_long":106.834175,"station_id":"UP","transit":false,"i_lat":-6.339291,"time":2,"is_transit":false,"distance":1029},{"station_id":"UI","transit":false,"station_name":"Univ. Indonesia","time":3,"i_lat":-6.360749,"i_long":106.831474,"line":2,"is_transit":false,"distance":2264},{"i_lat":-6.369073,"time":2,"i_long":106.831114,"station_id":"POC","transit":false,"distance":1109,"is_transit":false,"station_name":"Pondok Cina","line":2}]]}