{"data":[[{"distance":0,"line":6,"i_lat":-6.207404,"station_id":"PLM","is_transit":false,"transit":false,"station_name":"Palmerah","i_long":106.79689,"time":0},{"transit":true,"station_name":"Tanah Abang","is_transit":true,"station_id":"THB","time":6,"i_long":106.811091,"i_lat":-6.185545,"distance":3191,"line":1},{"distance":2029,"station_name":"Karet","station_id":"KAT","i_lat":-6.20132,"i_long":106.816351,"line":1,"transit":false,"is_transit":false,"time":5},{"i_long":106.819881,"i_lat":-6.201433,"station_name":"Sudirman Baru","transit":false,"is_transit":false,"line":1,"distance":471,"station_id":"SUDB","time":1}],[{"transit":false,"station_name":"Palmerah","line":6,"time":0,"distance":0,"i_long":106.79689,"i_lat":-6.207404,"station_id":"PLM","is_transit":false},{"time":6,"distance":3191,"i_lat":-6.185545,"i_long":106.811091,"transit":true,"is_transit":true,"line":1,"station_name":"Tanah Abang","station_id":"THB"},{"line":1,"station_name":"Duri","i_long":106.800832,"transit":false,"station_id":"DU","is_transit":false,"distance":3632,"time":8,"i_lat":-6.155215},{"line":1,"time":4,"transit":false,"station_id":"AK","i_lat":-6.144674,"i_long":106.79867,"station_name":"Angke","is_transit":false,"distance":1230},{"station_id":"KPB","time":9,"i_long":106.826365,"line":4,"station_name":"Kampung Bandan","transit":true,"distance":4102,"is_transit":true,"i_lat":-6.132549},{"station_id":"JAKK","line":2,"station_name":"Jakarta Kota","distance":1364,"time":3,"is_transit":true,"i_long":106.812439,"i_lat":-6.137569,"transit":true},{"i_lat":-6.141205,"station_id":"JAY","transit":false,"is_transit":false,"distance":1264,"i_long":106.820901,"line":2,"station_name":"Jayakarta","time":4},{"line":2,"station_id":"MGB","is_transit":false,"time":2,"i_lat":-6.149769,"i_long":106.82482,"station_name":"Manggabesar","distance":1080,"transit":false},{"i_lat":-6.160725,"station_id":"SW","is_transit":false,"distance":906,"line":2,"station_name":"Sawah Besar","i_long":106.827103,"transit":false,"time":2},{"is_transit":false,"line":2,"station_name":"Juanda","i_long":106.828284,"distance":1149,"transit":false,"station_id":"JUA","i_lat":-6.166716,"time":2},{"time":4,"transit":false,"station_id":"GDD","is_transit":false,"i_lat":-6.186295,"station_name":"Gondangdia","i_long":106.832183,"distance":2015,"line":2},{"i_long":106.840169,"distance":1750,"i_lat":-6.198556,"station_name":"Cikini","is_transit":false,"transit":false,"line":2,"station_id":"CKI","time":3},{"i_long":106.84912,"station_id":"MRI","station_name":"Manggarai","time":4,"line":2,"transit":true,"distance":1590,"i_lat":-6.209883,"is_transit":true},{"distance":3186,"i_long":106.822649,"line":1,"transit":false,"is_transit":false,"i_lat":-6.202263,"time":4,"station_name":"Sudirman","station_id":"SUD"},{"distance":280,"is_transit":false,"station_name":"Sudirman Baru","i_long":106.819881,"time":1,"i_lat":-6.201433,"station_id":"SUDB","transit":false,"line":1}],[{"time":0,"is_transit":false,"distance":0,"i_long":106.79689,"station_name":"Palmerah","transit":false,"station_id":"PLM","i_lat":-6.207404,"line":6},{"line":1,"station_name":"Tanah Abang","station_id":"THB","i_long":106.811091,"time":6,"distance":3191,"i_lat":-6.185545,"transit":true,"is_transit":true},{"line":1,"distance":3632,"is_transit":false,"i_lat":-6.155215,"i_long":106.800832,"station_name":"Duri","station_id":"DU","transit":false,"time":8},{"line":1,"distance":1230,"transit":false,"time":4,"station_name":"Angke","is_transit":false,"i_lat":-6.144674,"station_id":"AK","i_long":106.79867},{"time":9,"i_long":106.826365,"station_name":"Kampung Bandan","line":4,"station_id":"KPB","transit":true,"distance":4102,"is_transit":true,"i_lat":-6.132549},{"is_transit":false,"distance":1444,"i_long":106.836569,"time":3,"line":11,"i_lat":-6.14505,"station_name":"Rajawali","transit":false,"station_id":"RJW"},{"transit":false,"time":5,"i_lat":-6.161728,"station_name":"Kemayoran","i_long":106.839204,"distance":1901,"line":11,"is_transit":false,"station_id":"KMO"},{"distance":1436,"i_lat":-6.174784,"time":4,"transit":false,"station_id":"PSE","i_long":106.84368,"line":11,"is_transit":false,"station_name":"Pasar Senen"},{"station_id":"GST","line":11,"is_transit":false,"distance":1567,"i_lat":-6.185975,"time":8,"transit":false,"i_long":106.850107,"station_name":"Gang Sentiong"},{"time":1,"station_name":"Kramat","is_transit":false,"i_long":106.855437,"line":11,"transit":false,"station_id":"KMT","distance":973,"i_lat":-6.193792},{"i_lat":-6.209188,"station_id":"POK","transit":false,"time":2,"station_name":"Pondok Jati","i_long":106.861737,"is_transit":false,"line":11,"distance":1829},{"line":1,"distance":1236,"station_id":"JNG","i_long":106.86807400000001,"transit":true,"station_name":"Jatinegara","is_transit":true,"time":9,"i_lat":-6.215091},{"station_name":"Matraman","station_id":"MTR","distance":1377,"time":2,"i_long":106.858896,"is_transit":false,"i_lat":-6.212485,"transit":false,"line":1},{"time":2,"i_lat":-6.209883,"i_long":106.84912,"line":2,"is_transit":false,"distance":1275,"station_id":"MRI","transit":false,"station_name":"Manggarai"},{"is_transit":false,"line":1,"station_id":"SUD","transit":false,"station_name":"Sudirman","i_lat":-6.202263,"time":4,"distance":3186,"i_long":106.822649},{"station_id":"SUDB","is_transit":false,"transit":false,"i_lat":-6.201433,"line":1,"time":1,"distance":280,"i_long":106.819881,"station_name":"Sudirman Baru"}]]}