{"data":[[{"time":0,"line":6,"station_id":"PLM","station_name":"Palmerah","i_lat":-6.207404,"transit":false,"is_transit":false,"distance":0,"i_long":106.79689},{"transit":true,"is_transit":true,"i_long":106.811091,"line":1,"time":6,"station_id":"THB","station_name":"Tanah Abang","i_lat":-6.185545,"distance":3191},{"time":5,"transit":false,"i_long":106.816351,"line":1,"distance":2029,"i_lat":-6.20132,"is_transit":false,"station_id":"KAT","station_name":"Karet"},{"station_id":"SUDB","transit":false,"line":1,"is_transit":false,"time":1,"distance":471,"station_name":"Sudirman Baru","i_long":106.819881,"i_lat":-6.201433},{"station_id":"SUD","time":1,"distance":280,"station_name":"Sudirman","line":1,"transit":false,"i_lat":-6.202263,"i_long":106.822649,"is_transit":false},{"distance":3186,"station_id":"MRI","is_transit":true,"time":4,"line":2,"i_long":106.84912,"i_lat":-6.209883,"transit":true,"station_name":"Manggarai"},{"line":2,"is_transit":false,"i_lat":-6.226659,"station_name":"Tebet","time":4,"distance":2610,"station_id":"TEB","transit":false,"i_long":106.857948},{"station_name":"Cawang","is_transit":false,"i_lat":-6.242512,"transit":false,"line":2,"station_id":"CW","time":2,"i_long":106.856607,"distance":1230},{"is_transit":false,"distance":1546,"i_long":106.85449,"transit":false,"station_name":"Duren Kalibata","i_lat":-6.255332,"station_id":"DRN","time":3,"line":2},{"i_long":106.851577,"i_lat":-6.263214,"station_id":"PSMB","transit":false,"station_name":"Pasar Minggu Baru","line":2,"is_transit":false,"time":2,"distance":824},{"i_long":106.843999,"transit":false,"line":2,"distance":2380,"station_name":"Pasar Minggu","is_transit":false,"time":2,"station_id":"PSM","i_lat":-6.2842400000000005},{"station_id":"TNT","station_name":"Tanjung Barat","distance":2820,"i_lat":-6.3080680000000005,"i_long":106.838896,"time":4,"line":2,"is_transit":false,"transit":false},{"distance":2671,"line":2,"transit":false,"i_lat":-6.330363,"is_transit":false,"i_long":106.832616,"station_id":"LNA","station_name":"Lenteng Agung","time":3},{"time":2,"station_name":"Univ. Pancasila","distance":1029,"transit":false,"station_id":"UP","i_lat":-6.339291,"line":2,"is_transit":false,"i_long":106.834175},{"i_lat":-6.360749,"transit":false,"time":3,"i_long":106.831474,"station_id":"UI","line":2,"is_transit":false,"station_name":"Univ. Indonesia","distance":2264},{"station_id":"POC","distance":1109,"time":2,"i_lat":-6.369073,"transit":false,"is_transit":false,"i_long":106.831114,"line":2,"station_name":"Pondok Cina"},{"station_id":"DPB","i_long":106.819451,"time":4,"station_name":"Depokbaru","distance":2727,"is_transit":false,"i_lat":-6.391065,"line":2,"transit":false},{"station_id":"DP","is_transit":false,"time":3,"transit":false,"i_long":106.816926,"line":2,"i_lat":-6.405256,"station_name":"Depok","distance":1584},{"station_name":"Citayam","transit":true,"distance":5084,"i_lat":-6.448811,"i_long":106.800298,"line":2,"station_id":"CTA","time":6,"is_transit":true},{"time":0,"transit":false,"station_id":"PDRG","i_lat":-6.460735,"station_name":"Pondok Rajeg","line":21,"i_long":106.824374,"is_transit":false,"distance":0},{"is_transit":false,"station_name":"Cibinong","i_lat":-6.46424,"transit":false,"distance":0,"station_id":"CBN","i_long":106.851978,"line":21,"time":0},{"i_lat":-6.466285,"transit":false,"is_transit":false,"time":10,"line":21,"i_long":106.905196,"station_id":"NMO","distance":6527,"station_name":"Nambo"}],[{"distance":0,"is_transit":false,"line":6,"i_long":106.79689,"i_lat":-6.207404,"station_id":"PLM","station_name":"Palmerah","transit":false,"time":0},{"station_name":"Tanah Abang","is_transit":true,"time":6,"distance":3191,"line":1,"station_id":"THB","i_lat":-6.185545,"transit":true,"i_long":106.811091},{"i_lat":-6.155215,"distance":3632,"is_transit":false,"time":8,"station_id":"DU","station_name":"Duri","i_long":106.800832,"transit":false,"line":1},{"time":4,"distance":1230,"station_name":"Angke","station_id":"AK","transit":false,"i_long":106.79867,"i_lat":-6.144674,"line":1,"is_transit":false},{"station_name":"Kampung Bandan","time":9,"i_lat":-6.132549,"is_transit":true,"i_long":106.826365,"line":4,"station_id":"KPB","distance":4102,"transit":true},{"i_long":106.812439,"transit":true,"line":2,"station_id":"JAKK","time":3,"station_name":"Jakarta Kota","is_transit":true,"distance":1364,"i_lat":-6.137569},{"is_transit":false,"distance":1264,"i_lat":-6.141205,"time":4,"transit":false,"i_long":106.820901,"line":2,"station_id":"JAY","station_name":"Jayakarta"},{"station_id":"MGB","distance":1080,"i_lat":-6.149769,"station_name":"Manggabesar","time":2,"line":2,"transit":false,"is_transit":false,"i_long":106.82482},{"station_name":"Sawah Besar","distance":906,"i_lat":-6.160725,"line":2,"time":2,"transit":false,"i_long":106.827103,"station_id":"SW","is_transit":false},{"distance":1149,"time":2,"i_lat":-6.166716,"i_long":106.828284,"transit":false,"is_transit":false,"station_id":"JUA","line":2,"station_name":"Juanda"},{"i_lat":-6.186295,"transit":false,"time":4,"line":2,"distance":2015,"station_name":"Gondangdia","station_id":"GDD","is_transit":false,"i_long":106.832183},{"station_id":"CKI","station_name":"Cikini","i_lat":-6.198556,"time":3,"i_long":106.840169,"is_transit":false,"distance":1750,"line":2,"transit":false},{"transit":false,"station_id":"MRI","i_long":106.84912,"distance":1590,"i_lat":-6.209883,"time":4,"line":2,"is_transit":false,"station_name":"Manggarai"},{"time":4,"station_id":"TEB","i_long":106.857948,"distance":2610,"is_transit":false,"i_lat":-6.226659,"station_name":"Tebet","line":2,"transit":false},{"time":2,"i_lat":-6.242512,"i_long":106.856607,"is_transit":false,"line":2,"transit":false,"station_id":"CW","station_name":"Cawang","distance":1230},{"time":3,"transit":false,"station_name":"Duren Kalibata","i_long":106.85449,"i_lat":-6.255332,"line":2,"station_id":"DRN","is_transit":false,"distance":1546},{"distance":824,"transit":false,"station_name":"Pasar Minggu Baru","i_lat":-6.263214,"i_long":106.851577,"station_id":"PSMB","time":2,"is_transit":false,"line":2},{"station_id":"PSM","is_transit":false,"time":2,"station_name":"Pasar Minggu","distance":2380,"transit":false,"i_lat":-6.2842400000000005,"i_long":106.843999,"line":2},{"is_transit":false,"i_long":106.838896,"station_id":"TNT","time":4,"station_name":"Tanjung Barat","distance":2820,"transit":false,"i_lat":-6.3080680000000005,"line":2},{"i_lat":-6.330363,"i_long":106.832616,"is_transit":false,"distance":2671,"station_id":"LNA","line":2,"station_name":"Lenteng Agung","time":3,"transit":false},{"i_long":106.834175,"distance":1029,"line":2,"is_transit":false,"time":2,"i_lat":-6.339291,"transit":false,"station_id":"UP","station_name":"Univ. Pancasila"},{"distance":2264,"i_lat":-6.360749,"time":3,"line":2,"transit":false,"i_long":106.831474,"station_id":"UI","station_name":"Univ. Indonesia","is_transit":false},{"is_transit":false,"i_long":106.831114,"transit":false,"i_lat":-6.369073,"station_name":"Pondok Cina","distance":1109,"station_id":"POC","time":2,"line":2},{"station_id":"DPB","i_long":106.819451,"is_transit":false,"time":4,"distance":2727,"transit":false,"i_lat":-6.391065,"station_name":"Depokbaru","line":2},{"is_transit":false,"i_long":106.816926,"station_id":"DP","transit":false,"i_lat":-6.405256,"distance":1584,"line":2,"station_name":"Depok","time":3},{"station_name":"Citayam","is_transit":true,"i_long":106.800298,"time":6,"station_id":"CTA","line":2,"distance":5084,"transit":true,"i_lat":-6.448811},{"transit":false,"station_name":"Pondok Rajeg","i_lat":-6.460735,"line":21,"station_id":"PDRG","i_long":106.824374,"time":0,"is_transit":false,"distance":0},{"station_id":"CBN","i_lat":-6.46424,"is_transit":false,"i_long":106.851978,"time":0,"line":21,"distance":0,"station_name":"Cibinong","transit":false},{"is_transit":false,"i_lat":-6.466285,"station_name":"Nambo","i_long":106.905196,"station_id":"NMO","time":10,"transit":false,"line":21,"distance":6527}],[{"station_id":"PLM","station_name":"Palmerah","time":0,"transit":false,"i_long":106.79689,"line":6,"distance":0,"is_transit":false,"i_lat":-6.207404},{"station_name":"Tanah Abang","distance":3191,"i_lat":-6.185545,"transit":true,"is_transit":true,"station_id":"THB","line":1,"time":6,"i_long":106.811091},{"line":1,"time":8,"station_id":"DU","transit":false,"i_lat":-6.155215,"distance":3632,"i_long":106.800832,"station_name":"Duri","is_transit":false},{"is_transit":false,"station_id":"AK","i_lat":-6.144674,"station_name":"Angke","transit":false,"distance":1230,"time":4,"line":1,"i_long":106.79867},{"distance":4102,"station_id":"KPB","i_long":106.826365,"line":4,"is_transit":true,"i_lat":-6.132549,"station_name":"Kampung Bandan","time":9,"transit":true},{"i_long":106.836569,"is_transit":false,"station_id":"RJW","station_name":"Rajawali","time":3,"distance":1444,"transit":false,"i_lat":-6.14505,"line":11},{"i_long":106.839204,"is_transit":false,"station_id":"KMO","transit":false,"station_name":"Kemayoran","distance":1901,"time":5,"line":11,"i_lat":-6.161728},{"distance":1436,"station_name":"Pasar Senen","transit":false,"time":4,"i_long":106.84368,"line":11,"is_transit":false,"i_lat":-6.174784,"station_id":"PSE"},{"station_id":"GST","is_transit":false,"distance":1567,"transit":false,"time":8,"i_long":106.850107,"i_lat":-6.185975,"line":11,"station_name":"Gang Sentiong"},{"time":1,"line":11,"i_lat":-6.193792,"station_id":"KMT","i_long":106.855437,"distance":973,"is_transit":false,"station_name":"Kramat","transit":false},{"time":2,"station_name":"Pondok Jati","station_id":"POK","i_lat":-6.209188,"line":11,"is_transit":false,"transit":false,"distance":1829,"i_long":106.861737},{"i_lat":-6.215091,"line":1,"station_name":"Jatinegara","time":9,"is_transit":true,"transit":true,"distance":1236,"station_id":"JNG","i_long":106.86807400000001},{"station_name":"Matraman","time":2,"is_transit":false,"transit":false,"i_long":106.858896,"distance":1377,"i_lat":-6.212485,"station_id":"MTR","line":1},{"distance":1275,"i_lat":-6.209883,"transit":true,"i_long":106.84912,"station_id":"MRI","line":2,"time":2,"is_transit":true,"station_name":"Manggarai"},{"i_long":106.857948,"transit":false,"distance":2610,"line":2,"is_transit":false,"station_name":"Tebet","i_lat":-6.226659,"station_id":"TEB","time":4},{"line":2,"station_name":"Cawang","distance":1230,"time":2,"is_transit":false,"i_lat":-6.242512,"station_id":"CW","i_long":106.856607,"transit":false},{"station_name":"Duren Kalibata","distance":1546,"i_lat":-6.255332,"station_id":"DRN","line":2,"transit":false,"i_long":106.85449,"time":3,"is_transit":false},{"is_transit":false,"time":2,"i_long":106.851577,"transit":false,"i_lat":-6.263214,"station_name":"Pasar Minggu Baru","line":2,"distance":824,"station_id":"PSMB"},{"distance":2380,"is_transit":false,"i_lat":-6.2842400000000005,"i_long":106.843999,"station_name":"Pasar Minggu","line":2,"transit":false,"station_id":"PSM","time":2},{"distance":2820,"is_transit":false,"time":4,"transit":false,"i_lat":-6.3080680000000005,"i_long":106.838896,"line":2,"station_id":"TNT","station_name":"Tanjung Barat"},{"i_lat":-6.330363,"transit":false,"is_transit":false,"distance":2671,"i_long":106.832616,"time":3,"line":2,"station_name":"Lenteng Agung","station_id":"LNA"},{"transit":false,"station_id":"UP","time":2,"i_lat":-6.339291,"line":2,"i_long":106.834175,"is_transit":false,"station_name":"Univ. Pancasila","distance":1029},{"i_lat":-6.360749,"line":2,"transit":false,"station_name":"Univ. Indonesia","is_transit":false,"i_long":106.831474,"station_id":"UI","time":3,"distance":2264},{"i_lat":-6.369073,"i_long":106.831114,"line":2,"is_transit":false,"transit":false,"station_name":"Pondok Cina","distance":1109,"station_id":"POC","time":2},{"time":4,"is_transit":false,"i_long":106.819451,"line":2,"station_name":"Depokbaru","distance":2727,"station_id":"DPB","transit":false,"i_lat":-6.391065},{"time":3,"distance":1584,"transit":false,"station_id":"DP","is_transit":false,"station_name":"Depok","i_long":106.816926,"line":2,"i_lat":-6.405256},{"station_name":"Citayam","time":6,"station_id":"CTA","i_lat":-6.448811,"is_transit":true,"transit":true,"distance":5084,"i_long":106.800298,"line":2},{"i_lat":-6.460735,"i_long":106.824374,"station_name":"Pondok Rajeg","time":0,"station_id":"PDRG","is_transit":false,"transit":false,"line":21,"distance":0},{"line":21,"station_id":"CBN","station_name":"Cibinong","transit":false,"is_transit":false,"distance":0,"i_lat":-6.46424,"time":0,"i_long":106.851978},{"station_name":"Nambo","distance":6527,"i_lat":-6.466285,"time":10,"transit":false,"i_long":106.905196,"line":21,"is_transit":false,"station_id":"NMO"}]]}