{"data":[[{"station_id":"PLM","i_lat":-6.207404,"distance":0,"i_long":106.79689,"time":0,"is_transit":false,"transit":false,"line":6,"station_name":"Palmerah"},{"time":6,"i_long":106.811091,"transit":true,"distance":3191,"is_transit":true,"station_name":"Tanah Abang","station_id":"THB","line":1,"i_lat":-6.185545},{"is_transit":false,"line":1,"station_id":"DU","time":8,"i_lat":-6.155215,"transit":false,"i_long":106.800832,"station_name":"Duri","distance":3632},{"distance":1230,"transit":false,"time":4,"i_long":106.79867,"station_name":"Angke","i_lat":-6.144674,"station_id":"AK","is_transit":false,"line":1},{"i_lat":-6.132549,"transit":true,"line":4,"time":9,"i_long":106.826365,"station_id":"KPB","station_name":"Kampung Bandan","is_transit":true,"distance":4102},{"is_transit":false,"time":3,"i_long":106.836569,"station_name":"Rajawali","station_id":"RJW","transit":false,"i_lat":-6.14505,"line":11,"distance":1444}],[{"transit":false,"line":6,"is_transit":false,"time":0,"station_id":"PLM","station_name":"Palmerah","distance":0,"i_lat":-6.207404,"i_long":106.79689},{"i_lat":-6.185545,"is_transit":true,"i_long":106.811091,"station_name":"Tanah Abang","line":1,"transit":true,"station_id":"THB","time":6,"distance":3191},{"station_id":"KAT","transit":false,"distance":2029,"time":5,"i_lat":-6.20132,"is_transit":false,"i_long":106.816351,"line":1,"station_name":"Karet"},{"i_long":106.819881,"station_name":"Sudirman Baru","line":1,"i_lat":-6.201433,"time":1,"distance":471,"transit":false,"station_id":"SUDB","is_transit":false},{"is_transit":false,"transit":false,"i_long":106.822649,"distance":280,"station_id":"SUD","time":1,"station_name":"Sudirman","i_lat":-6.202263,"line":1},{"i_lat":-6.209883,"station_name":"Manggarai","time":4,"i_long":106.84912,"transit":false,"distance":3186,"line":2,"is_transit":false,"station_id":"MRI"},{"time":2,"line":1,"i_lat":-6.212485,"station_name":"Matraman","station_id":"MTR","transit":false,"i_long":106.858896,"is_transit":false,"distance":1275},{"time":8,"i_long":106.86807400000001,"line":1,"is_transit":true,"i_lat":-6.215091,"station_name":"Jatinegara","transit":true,"distance":1377,"station_id":"JNG"},{"is_transit":false,"i_long":106.861737,"time":2,"distance":1236,"i_lat":-6.209188,"line":11,"transit":false,"station_id":"POK","station_name":"Pondok Jati"},{"time":2,"line":11,"station_name":"Kramat","station_id":"KMT","i_long":106.855437,"is_transit":false,"i_lat":-6.193792,"transit":false,"distance":1829},{"station_name":"Gang Sentiong","station_id":"GST","distance":973,"i_lat":-6.185975,"i_long":106.850107,"transit":false,"time":1,"line":11,"is_transit":false},{"is_transit":false,"distance":1567,"i_long":106.84368,"station_name":"Pasar Senen","time":8,"transit":false,"line":11,"i_lat":-6.174784,"station_id":"PSE"},{"i_lat":-6.161728,"distance":1436,"station_id":"KMO","station_name":"Kemayoran","is_transit":false,"time":4,"transit":false,"i_long":106.839204,"line":11},{"i_long":106.836569,"transit":false,"station_name":"Rajawali","station_id":"RJW","is_transit":false,"time":5,"distance":1901,"i_lat":-6.14505,"line":11}],[{"distance":0,"is_transit":false,"station_id":"PLM","transit":false,"i_long":106.79689,"station_name":"Palmerah","i_lat":-6.207404,"line":6,"time":0},{"station_id":"THB","time":6,"distance":3191,"line":1,"i_lat":-6.185545,"transit":true,"station_name":"Tanah Abang","is_transit":true,"i_long":106.811091},{"line":1,"station_name":"Karet","transit":false,"time":5,"i_long":106.816351,"is_transit":false,"station_id":"KAT","i_lat":-6.20132,"distance":2029},{"station_name":"Sudirman Baru","distance":471,"i_lat":-6.201433,"is_transit":false,"i_long":106.819881,"line":1,"transit":false,"station_id":"SUDB","time":1},{"distance":280,"time":1,"i_lat":-6.202263,"station_name":"Sudirman","i_long":106.822649,"station_id":"SUD","transit":false,"is_transit":false,"line":1},{"line":2,"distance":3186,"i_lat":-6.209883,"transit":true,"station_id":"MRI","time":4,"is_transit":true,"i_long":106.84912,"station_name":"Manggarai"},{"is_transit":false,"i_lat":-6.198556,"line":2,"distance":1590,"time":4,"transit":false,"station_id":"CKI","station_name":"Cikini","i_long":106.840169},{"station_id":"GDD","i_long":106.832183,"line":2,"transit":false,"time":3,"i_lat":-6.186295,"station_name":"Gondangdia","distance":1750,"is_transit":false},{"distance":2015,"i_long":106.828284,"line":2,"station_name":"Juanda","transit":false,"is_transit":false,"station_id":"JUA","time":4,"i_lat":-6.166716},{"line":2,"time":2,"is_transit":false,"i_long":106.827103,"transit":false,"distance":1149,"station_name":"Sawah Besar","station_id":"SW","i_lat":-6.160725},{"is_transit":false,"time":2,"line":2,"transit":false,"station_id":"MGB","i_lat":-6.149769,"i_long":106.82482,"distance":906,"station_name":"Manggabesar"},{"line":2,"i_long":106.820901,"transit":false,"is_transit":false,"station_id":"JAY","time":2,"distance":1080,"station_name":"Jayakarta","i_lat":-6.141205},{"i_lat":-6.137569,"line":2,"time":4,"transit":true,"i_long":106.812439,"is_transit":true,"station_name":"Jakarta Kota","station_id":"JAKK","distance":1264},{"transit":true,"is_transit":true,"time":3,"distance":1364,"line":4,"i_lat":-6.132549,"station_id":"KPB","station_name":"Kampung Bandan","i_long":106.826365},{"is_transit":false,"line":11,"i_long":106.836569,"i_lat":-6.14505,"time":3,"station_id":"RJW","transit":false,"station_name":"Rajawali","distance":1444}],[{"station_name":"Palmerah","is_transit":false,"i_long":106.79689,"line":6,"time":0,"distance":0,"transit":false,"i_lat":-6.207404,"station_id":"PLM"},{"line":1,"distance":3191,"is_transit":true,"station_name":"Tanah Abang","time":6,"i_lat":-6.185545,"station_id":"THB","i_long":106.811091,"transit":true},{"transit":false,"time":8,"is_transit":false,"i_long":106.800832,"i_lat":-6.155215,"line":1,"station_name":"Duri","distance":3632,"station_id":"DU"},{"distance":1230,"time":4,"line":1,"station_id":"AK","station_name":"Angke","is_transit":false,"i_lat":-6.144674,"transit":false,"i_long":106.79867},{"transit":true,"line":4,"distance":4102,"i_lat":-6.132549,"station_id":"KPB","is_transit":true,"station_name":"Kampung Bandan","i_long":106.826365,"time":9},{"transit":true,"time":3,"distance":1364,"i_long":106.812439,"is_transit":true,"line":2,"i_lat":-6.137569,"station_name":"Jakarta Kota","station_id":"JAKK"},{"i_lat":-6.141205,"is_transit":false,"time":4,"line":2,"transit":false,"i_long":106.820901,"station_name":"Jayakarta","distance":1264,"station_id":"JAY"},{"i_lat":-6.149769,"line":2,"i_long":106.82482,"is_transit":false,"time":2,"distance":1080,"station_id":"MGB","transit":false,"station_name":"Manggabesar"},{"station_name":"Sawah Besar","i_long":106.827103,"time":2,"is_transit":false,"transit":false,"station_id":"SW","line":2,"i_lat":-6.160725,"distance":906},{"time":2,"station_name":"Juanda","i_lat":-6.166716,"is_transit":false,"line":2,"transit":false,"station_id":"JUA","distance":1149,"i_long":106.828284},{"is_transit":false,"time":4,"i_long":106.832183,"transit":false,"distance":2015,"station_id":"GDD","i_lat":-6.186295,"station_name":"Gondangdia","line":2},{"distance":1750,"i_long":106.840169,"time":3,"line":2,"station_id":"CKI","is_transit":false,"station_name":"Cikini","transit":false,"i_lat":-6.198556},{"station_name":"Manggarai","station_id":"MRI","distance":1590,"time":4,"line":2,"transit":true,"i_lat":-6.209883,"i_long":106.84912,"is_transit":true},{"transit":false,"is_transit":false,"station_name":"Matraman","station_id":"MTR","time":2,"i_lat":-6.212485,"i_long":106.858896,"distance":1275,"line":1},{"i_lat":-6.215091,"station_name":"Jatinegara","transit":true,"is_transit":true,"distance":1377,"i_long":106.86807400000001,"line":1,"station_id":"JNG","time":8},{"i_lat":-6.209188,"line":11,"is_transit":false,"distance":1236,"i_long":106.861737,"transit":false,"station_name":"Pondok Jati","station_id":"POK","time":2},{"i_long":106.855437,"distance":1829,"time":2,"is_transit":false,"i_lat":-6.193792,"transit":false,"station_name":"Kramat","line":11,"station_id":"KMT"},{"is_transit":false,"time":1,"distance":973,"i_long":106.850107,"line":11,"transit":false,"station_id":"GST","station_name":"Gang Sentiong","i_lat":-6.185975},{"i_long":106.84368,"time":8,"distance":1567,"line":11,"transit":false,"station_name":"Pasar Senen","i_lat":-6.174784,"station_id":"PSE","is_transit":false},{"transit":false,"time":4,"station_id":"KMO","i_lat":-6.161728,"line":11,"i_long":106.839204,"is_transit":false,"distance":1436,"station_name":"Kemayoran"},{"is_transit":false,"time":5,"station_name":"Rajawali","i_lat":-6.14505,"distance":1901,"station_id":"RJW","i_long":106.836569,"line":11,"transit":false}]]}