{"data":[[{"i_long":106.79689,"is_transit":false,"time":0,"transit":false,"station_id":"PLM","i_lat":-6.207404,"station_name":"Palmerah","distance":0,"line":6},{"i_long":106.811091,"station_name":"Tanah Abang","time":6,"is_transit":true,"station_id":"THB","distance":3191,"i_lat":-6.185545,"line":1,"transit":true},{"station_id":"KAT","i_lat":-6.20132,"line":1,"transit":false,"distance":2029,"station_name":"Karet","time":5,"i_long":106.816351,"is_transit":false},{"is_transit":false,"i_lat":-6.201433,"distance":471,"station_id":"SUDB","line":1,"transit":false,"station_name":"Sudirman Baru","i_long":106.819881,"time":1},{"station_name":"Sudirman","line":1,"i_lat":-6.202263,"distance":280,"time":1,"is_transit":false,"i_long":106.822649,"station_id":"SUD","transit":false},{"i_lat":-6.209883,"line":2,"transit":true,"distance":3186,"station_name":"Manggarai","is_transit":true,"time":4,"i_long":106.84912,"station_id":"MRI"},{"line":2,"station_name":"Tebet","is_transit":false,"distance":2610,"transit":false,"time":4,"i_lat":-6.226659,"i_long":106.857948,"station_id":"TEB"},{"is_transit":false,"time":2,"i_long":106.856607,"transit":false,"i_lat":-6.242512,"station_name":"Cawang","station_id":"CW","line":2,"distance":1230},{"is_transit":false,"station_id":"DRN","time":3,"line":2,"i_long":106.85449,"transit":false,"i_lat":-6.255332,"station_name":"Duren Kalibata","distance":1546},{"station_name":"Pasar Minggu Baru","line":2,"i_lat":-6.263214,"station_id":"PSMB","transit":false,"is_transit":false,"time":2,"distance":824,"i_long":106.851577},{"distance":2380,"i_lat":-6.2842400000000005,"station_name":"Pasar Minggu","is_transit":false,"transit":false,"time":2,"line":2,"station_id":"PSM","i_long":106.843999},{"transit":false,"i_long":106.838896,"station_name":"Tanjung Barat","time":4,"distance":2820,"station_id":"TNT","i_lat":-6.3080680000000005,"is_transit":false,"line":2},{"i_lat":-6.330363,"station_id":"LNA","transit":false,"distance":2671,"i_long":106.832616,"is_transit":false,"time":3,"line":2,"station_name":"Lenteng Agung"},{"distance":1029,"i_lat":-6.339291,"i_long":106.834175,"line":2,"station_id":"UP","is_transit":false,"transit":false,"station_name":"Univ. Pancasila","time":2},{"station_name":"Univ. Indonesia","station_id":"UI","line":2,"is_transit":false,"time":3,"i_lat":-6.360749,"i_long":106.831474,"distance":2264,"transit":false},{"i_lat":-6.369073,"station_id":"POC","distance":1109,"i_long":106.831114,"line":2,"time":2,"station_name":"Pondok Cina","is_transit":false,"transit":false},{"is_transit":false,"distance":2727,"station_id":"DPB","i_lat":-6.391065,"transit":false,"station_name":"Depokbaru","time":4,"line":2,"i_long":106.819451},{"i_long":106.816926,"station_id":"DP","i_lat":-6.405256,"station_name":"Depok","distance":1584,"time":3,"is_transit":false,"line":2,"transit":false},{"is_transit":true,"i_long":106.800298,"distance":5084,"transit":true,"time":6,"station_id":"CTA","i_lat":-6.448811,"station_name":"Citayam","line":2},{"is_transit":false,"i_lat":-6.460735,"station_id":"PDRG","station_name":"Pondok Rajeg","distance":0,"time":0,"i_long":106.824374,"transit":false,"line":21}],[{"distance":0,"time":0,"transit":false,"i_long":106.79689,"line":6,"i_lat":-6.207404,"station_name":"Palmerah","is_transit":false,"station_id":"PLM"},{"transit":true,"i_lat":-6.185545,"is_transit":true,"i_long":106.811091,"line":1,"distance":3191,"station_name":"Tanah Abang","station_id":"THB","time":6},{"line":1,"station_name":"Duri","distance":3632,"station_id":"DU","transit":false,"time":8,"i_lat":-6.155215,"is_transit":false,"i_long":106.800832},{"transit":false,"station_id":"AK","i_lat":-6.144674,"i_long":106.79867,"station_name":"Angke","line":1,"distance":1230,"time":4,"is_transit":false},{"is_transit":true,"transit":true,"station_id":"KPB","i_lat":-6.132549,"time":9,"i_long":106.826365,"station_name":"Kampung Bandan","distance":4102,"line":4},{"distance":1364,"station_name":"Jakarta Kota","time":3,"transit":true,"i_long":106.812439,"i_lat":-6.137569,"line":2,"is_transit":true,"station_id":"JAKK"},{"line":2,"i_long":106.820901,"i_lat":-6.141205,"station_name":"Jayakarta","is_transit":false,"distance":1264,"time":4,"station_id":"JAY","transit":false},{"i_long":106.82482,"is_transit":false,"line":2,"station_id":"MGB","time":2,"i_lat":-6.149769,"distance":1080,"station_name":"Manggabesar","transit":false},{"station_id":"SW","distance":906,"i_long":106.827103,"time":2,"station_name":"Sawah Besar","transit":false,"is_transit":false,"line":2,"i_lat":-6.160725},{"line":2,"station_name":"Juanda","transit":false,"i_lat":-6.166716,"station_id":"JUA","time":2,"i_long":106.828284,"distance":1149,"is_transit":false},{"i_lat":-6.186295,"distance":2015,"i_long":106.832183,"line":2,"station_id":"GDD","station_name":"Gondangdia","time":4,"transit":false,"is_transit":false},{"line":2,"i_long":106.840169,"i_lat":-6.198556,"station_name":"Cikini","is_transit":false,"transit":false,"time":3,"station_id":"CKI","distance":1750},{"is_transit":false,"distance":1590,"line":2,"i_lat":-6.209883,"transit":false,"station_id":"MRI","time":4,"i_long":106.84912,"station_name":"Manggarai"},{"is_transit":false,"transit":false,"i_long":106.857948,"distance":2610,"station_id":"TEB","time":4,"i_lat":-6.226659,"line":2,"station_name":"Tebet"},{"distance":1230,"time":2,"i_lat":-6.242512,"i_long":106.856607,"is_transit":false,"line":2,"station_name":"Cawang","transit":false,"station_id":"CW"},{"is_transit":false,"station_id":"DRN","distance":1546,"i_long":106.85449,"i_lat":-6.255332,"transit":false,"station_name":"Duren Kalibata","time":3,"line":2},{"station_name":"Pasar Minggu Baru","distance":824,"is_transit":false,"transit":false,"line":2,"time":2,"station_id":"PSMB","i_lat":-6.263214,"i_long":106.851577},{"distance":2380,"time":2,"station_name":"Pasar Minggu","transit":false,"is_transit":false,"i_long":106.843999,"line":2,"i_lat":-6.2842400000000005,"station_id":"PSM"},{"station_id":"TNT","distance":2820,"is_transit":false,"line":2,"i_lat":-6.3080680000000005,"i_long":106.838896,"time":4,"transit":false,"station_name":"Tanjung Barat"},{"time":3,"station_name":"Lenteng Agung","is_transit":false,"line":2,"distance":2671,"station_id":"LNA","transit":false,"i_long":106.832616,"i_lat":-6.330363},{"station_name":"Univ. Pancasila","is_transit":false,"transit":false,"time":2,"distance":1029,"i_lat":-6.339291,"i_long":106.834175,"line":2,"station_id":"UP"},{"station_name":"Univ. Indonesia","transit":false,"time":3,"distance":2264,"i_long":106.831474,"station_id":"UI","is_transit":false,"i_lat":-6.360749,"line":2},{"station_id":"POC","time":2,"i_lat":-6.369073,"is_transit":false,"transit":false,"distance":1109,"i_long":106.831114,"station_name":"Pondok Cina","line":2},{"time":4,"distance":2727,"station_name":"Depokbaru","line":2,"is_transit":false,"i_long":106.819451,"station_id":"DPB","i_lat":-6.391065,"transit":false},{"transit":false,"line":2,"time":3,"station_id":"DP","is_transit":false,"i_lat":-6.405256,"distance":1584,"i_long":106.816926,"station_name":"Depok"},{"distance":5084,"transit":true,"is_transit":true,"line":2,"time":6,"station_name":"Citayam","i_lat":-6.448811,"i_long":106.800298,"station_id":"CTA"},{"i_long":106.824374,"line":21,"transit":false,"i_lat":-6.460735,"is_transit":false,"distance":0,"station_name":"Pondok Rajeg","time":0,"station_id":"PDRG"}],[{"i_lat":-6.207404,"transit":false,"distance":0,"station_id":"PLM","station_name":"Palmerah","time":0,"i_long":106.79689,"is_transit":false,"line":6},{"station_name":"Tanah Abang","i_lat":-6.185545,"station_id":"THB","transit":true,"is_transit":true,"distance":3191,"time":6,"line":1,"i_long":106.811091},{"station_id":"DU","transit":false,"time":8,"station_name":"Duri","i_lat":-6.155215,"line":1,"is_transit":false,"distance":3632,"i_long":106.800832},{"station_name":"Angke","transit":false,"i_lat":-6.144674,"is_transit":false,"line":1,"station_id":"AK","time":4,"i_long":106.79867,"distance":1230},{"distance":4102,"station_name":"Kampung Bandan","transit":true,"station_id":"KPB","time":9,"i_lat":-6.132549,"i_long":106.826365,"line":4,"is_transit":true},{"time":3,"i_lat":-6.14505,"transit":false,"station_id":"RJW","is_transit":false,"line":11,"distance":1444,"i_long":106.836569,"station_name":"Rajawali"},{"i_lat":-6.161728,"line":11,"time":5,"station_name":"Kemayoran","station_id":"KMO","i_long":106.839204,"transit":false,"is_transit":false,"distance":1901},{"line":11,"is_transit":false,"distance":1436,"i_long":106.84368,"station_name":"Pasar Senen","i_lat":-6.174784,"station_id":"PSE","time":4,"transit":false},{"time":8,"transit":false,"distance":1567,"station_name":"Gang Sentiong","station_id":"GST","i_lat":-6.185975,"i_long":106.850107,"line":11,"is_transit":false},{"station_id":"KMT","station_name":"Kramat","i_lat":-6.193792,"transit":false,"distance":973,"time":1,"line":11,"is_transit":false,"i_long":106.855437},{"i_lat":-6.209188,"line":11,"station_name":"Pondok Jati","distance":1829,"transit":false,"i_long":106.861737,"is_transit":false,"time":2,"station_id":"POK"},{"station_id":"JNG","i_long":106.86807400000001,"i_lat":-6.215091,"is_transit":true,"transit":true,"time":9,"station_name":"Jatinegara","line":1,"distance":1236},{"line":1,"transit":false,"is_transit":false,"i_lat":-6.212485,"i_long":106.858896,"station_id":"MTR","distance":1377,"time":2,"station_name":"Matraman"},{"station_name":"Manggarai","transit":true,"i_long":106.84912,"line":2,"time":2,"station_id":"MRI","i_lat":-6.209883,"distance":1275,"is_transit":true},{"is_transit":false,"station_name":"Tebet","station_id":"TEB","transit":false,"distance":2610,"i_lat":-6.226659,"time":4,"i_long":106.857948,"line":2},{"distance":1230,"i_lat":-6.242512,"time":2,"station_id":"CW","transit":false,"station_name":"Cawang","line":2,"is_transit":false,"i_long":106.856607},{"transit":false,"distance":1546,"line":2,"time":3,"station_name":"Duren Kalibata","i_long":106.85449,"is_transit":false,"station_id":"DRN","i_lat":-6.255332},{"station_id":"PSMB","i_lat":-6.263214,"distance":824,"time":2,"is_transit":false,"station_name":"Pasar Minggu Baru","i_long":106.851577,"line":2,"transit":false},{"distance":2380,"station_id":"PSM","i_lat":-6.2842400000000005,"is_transit":false,"time":2,"i_long":106.843999,"line":2,"station_name":"Pasar Minggu","transit":false},{"i_long":106.838896,"transit":false,"line":2,"time":4,"i_lat":-6.3080680000000005,"station_id":"TNT","is_transit":false,"station_name":"Tanjung Barat","distance":2820},{"i_lat":-6.330363,"distance":2671,"station_id":"LNA","time":3,"station_name":"Lenteng Agung","is_transit":false,"transit":false,"line":2,"i_long":106.832616},{"transit":false,"i_lat":-6.339291,"station_id":"UP","station_name":"Univ. Pancasila","time":2,"distance":1029,"i_long":106.834175,"line":2,"is_transit":false},{"station_name":"Univ. Indonesia","is_transit":false,"station_id":"UI","transit":false,"i_long":106.831474,"i_lat":-6.360749,"line":2,"distance":2264,"time":3},{"time":2,"is_transit":false,"station_name":"Pondok Cina","station_id":"POC","distance":1109,"transit":false,"i_lat":-6.369073,"line":2,"i_long":106.831114},{"i_long":106.819451,"distance":2727,"station_name":"Depokbaru","transit":false,"line":2,"station_id":"DPB","is_transit":false,"time":4,"i_lat":-6.391065},{"i_lat":-6.405256,"line":2,"distance":1584,"time":3,"is_transit":false,"transit":false,"station_name":"Depok","station_id":"DP","i_long":106.816926},{"time":6,"transit":true,"is_transit":true,"distance":5084,"i_long":106.800298,"line":2,"i_lat":-6.448811,"station_name":"Citayam","station_id":"CTA"},{"time":0,"transit":false,"line":21,"distance":0,"station_id":"PDRG","station_name":"Pondok Rajeg","is_transit":false,"i_long":106.824374,"i_lat":-6.460735}]]}