{"data":[[{"time":0,"is_transit":false,"line":6,"i_lat":-6.207404,"distance":0,"station_name":"Palmerah","i_long":106.79689,"station_id":"PLM","transit":false},{"i_lat":-6.185545,"station_id":"THB","is_transit":true,"transit":true,"time":6,"distance":3191,"i_long":106.811091,"line":1,"station_name":"Tanah Abang"},{"time":5,"line":1,"station_name":"Karet","transit":false,"i_lat":-6.20132,"is_transit":false,"station_id":"KAT","i_long":106.816351,"distance":2029},{"distance":471,"station_name":"Sudirman Baru","line":1,"i_lat":-6.201433,"i_long":106.819881,"is_transit":false,"station_id":"SUDB","transit":false,"time":1},{"station_id":"SUD","line":1,"time":1,"station_name":"Sudirman","transit":false,"distance":280,"is_transit":false,"i_lat":-6.202263,"i_long":106.822649},{"is_transit":true,"i_lat":-6.209883,"time":4,"station_id":"MRI","distance":3186,"line":2,"i_long":106.84912,"transit":true,"station_name":"Manggarai"},{"transit":false,"station_id":"TEB","i_lat":-6.226659,"distance":2610,"i_long":106.857948,"time":4,"station_name":"Tebet","is_transit":false,"line":2},{"is_transit":false,"i_long":106.856607,"station_name":"Cawang","transit":false,"i_lat":-6.242512,"line":2,"time":2,"distance":1230,"station_id":"CW"},{"line":2,"i_long":106.85449,"i_lat":-6.255332,"station_id":"DRN","time":3,"is_transit":false,"distance":1546,"station_name":"Duren Kalibata","transit":false},{"i_lat":-6.263214,"station_name":"Pasar Minggu Baru","time":2,"i_long":106.851577,"transit":false,"line":2,"distance":824,"station_id":"PSMB","is_transit":false},{"i_lat":-6.2842400000000005,"time":2,"distance":2380,"station_name":"Pasar Minggu","transit":false,"station_id":"PSM","is_transit":false,"i_long":106.843999,"line":2}],[{"transit":false,"i_lat":-6.207404,"station_id":"PLM","time":0,"station_name":"Palmerah","is_transit":false,"i_long":106.79689,"line":6,"distance":0},{"i_lat":-6.185545,"station_id":"THB","station_name":"Tanah Abang","transit":true,"line":1,"i_long":106.811091,"distance":3191,"time":6,"is_transit":true},{"i_long":106.800832,"transit":false,"station_id":"DU","is_transit":false,"line":1,"station_name":"Duri","i_lat":-6.155215,"time":8,"distance":3632},{"i_lat":-6.144674,"is_transit":false,"transit":false,"station_id":"AK","station_name":"Angke","i_long":106.79867,"distance":1230,"line":1,"time":4},{"transit":true,"i_long":106.826365,"line":4,"is_transit":true,"i_lat":-6.132549,"time":9,"station_id":"KPB","distance":4102,"station_name":"Kampung Bandan"},{"station_name":"Jakarta Kota","i_lat":-6.137569,"i_long":106.812439,"time":3,"station_id":"JAKK","distance":1364,"is_transit":true,"line":2,"transit":true},{"time":4,"i_lat":-6.141205,"line":2,"distance":1264,"is_transit":false,"station_id":"JAY","transit":false,"station_name":"Jayakarta","i_long":106.820901},{"station_name":"Manggabesar","station_id":"MGB","line":2,"i_lat":-6.149769,"time":2,"distance":1080,"transit":false,"is_transit":false,"i_long":106.82482},{"time":2,"station_id":"SW","transit":false,"distance":906,"i_long":106.827103,"station_name":"Sawah Besar","i_lat":-6.160725,"is_transit":false,"line":2},{"i_long":106.828284,"station_id":"JUA","distance":1149,"i_lat":-6.166716,"is_transit":false,"station_name":"Juanda","time":2,"transit":false,"line":2},{"time":4,"distance":2015,"station_id":"GDD","station_name":"Gondangdia","transit":false,"is_transit":false,"i_lat":-6.186295,"line":2,"i_long":106.832183},{"distance":1750,"time":3,"is_transit":false,"i_long":106.840169,"station_name":"Cikini","line":2,"i_lat":-6.198556,"station_id":"CKI","transit":false},{"station_name":"Manggarai","i_long":106.84912,"i_lat":-6.209883,"station_id":"MRI","distance":1590,"line":2,"time":4,"transit":false,"is_transit":false},{"transit":false,"station_name":"Tebet","station_id":"TEB","i_lat":-6.226659,"i_long":106.857948,"is_transit":false,"distance":2610,"time":4,"line":2},{"station_name":"Cawang","line":2,"i_long":106.856607,"station_id":"CW","time":2,"transit":false,"distance":1230,"is_transit":false,"i_lat":-6.242512},{"transit":false,"is_transit":false,"distance":1546,"time":3,"i_lat":-6.255332,"line":2,"i_long":106.85449,"station_id":"DRN","station_name":"Duren Kalibata"},{"station_name":"Pasar Minggu Baru","transit":false,"time":2,"station_id":"PSMB","distance":824,"is_transit":false,"i_long":106.851577,"i_lat":-6.263214,"line":2},{"time":2,"station_name":"Pasar Minggu","transit":false,"i_lat":-6.2842400000000005,"station_id":"PSM","i_long":106.843999,"distance":2380,"is_transit":false,"line":2}],[{"is_transit":false,"station_name":"Palmerah","i_long":106.79689,"time":0,"line":6,"distance":0,"i_lat":-6.207404,"station_id":"PLM","transit":false},{"time":6,"distance":3191,"station_id":"THB","station_name":"Tanah Abang","line":1,"is_transit":true,"transit":true,"i_lat":-6.185545,"i_long":106.811091},{"station_id":"DU","station_name":"Duri","distance":3632,"transit":false,"line":1,"i_long":106.800832,"i_lat":-6.155215,"is_transit":false,"time":8},{"transit":false,"time":4,"station_name":"Angke","line":1,"is_transit":false,"distance":1230,"station_id":"AK","i_lat":-6.144674,"i_long":106.79867},{"distance":4102,"time":9,"i_long":106.826365,"line":4,"station_id":"KPB","transit":true,"is_transit":true,"i_lat":-6.132549,"station_name":"Kampung Bandan"},{"line":11,"station_name":"Rajawali","time":3,"transit":false,"is_transit":false,"i_lat":-6.14505,"distance":1444,"i_long":106.836569,"station_id":"RJW"},{"station_id":"KMO","station_name":"Kemayoran","time":5,"transit":false,"line":11,"distance":1901,"i_lat":-6.161728,"is_transit":false,"i_long":106.839204},{"line":11,"distance":1436,"station_id":"PSE","station_name":"Pasar Senen","i_long":106.84368,"time":4,"i_lat":-6.174784,"transit":false,"is_transit":false},{"line":11,"i_long":106.850107,"i_lat":-6.185975,"transit":false,"is_transit":false,"time":8,"station_name":"Gang Sentiong","distance":1567,"station_id":"GST"},{"time":1,"is_transit":false,"station_id":"KMT","station_name":"Kramat","i_lat":-6.193792,"line":11,"i_long":106.855437,"transit":false,"distance":973},{"station_name":"Pondok Jati","station_id":"POK","transit":false,"i_long":106.861737,"distance":1829,"time":2,"i_lat":-6.209188,"is_transit":false,"line":11},{"time":9,"station_name":"Jatinegara","is_transit":true,"distance":1236,"transit":true,"line":1,"i_long":106.86807400000001,"station_id":"JNG","i_lat":-6.215091},{"i_lat":-6.212485,"line":1,"station_id":"MTR","distance":1377,"transit":false,"i_long":106.858896,"is_transit":false,"station_name":"Matraman","time":2},{"is_transit":true,"time":2,"station_name":"Manggarai","station_id":"MRI","i_long":106.84912,"transit":true,"line":2,"i_lat":-6.209883,"distance":1275},{"distance":2610,"station_id":"TEB","transit":false,"i_lat":-6.226659,"line":2,"station_name":"Tebet","time":4,"is_transit":false,"i_long":106.857948},{"station_id":"CW","is_transit":false,"i_lat":-6.242512,"line":2,"transit":false,"distance":1230,"i_long":106.856607,"time":2,"station_name":"Cawang"},{"station_id":"DRN","is_transit":false,"i_lat":-6.255332,"line":2,"distance":1546,"time":3,"transit":false,"i_long":106.85449,"station_name":"Duren Kalibata"},{"line":2,"is_transit":false,"distance":824,"time":2,"transit":false,"station_id":"PSMB","i_lat":-6.263214,"i_long":106.851577,"station_name":"Pasar Minggu Baru"},{"i_lat":-6.2842400000000005,"time":2,"is_transit":false,"distance":2380,"line":2,"i_long":106.843999,"station_id":"PSM","station_name":"Pasar Minggu","transit":false}]]}