{"data":[[{"i_long":106.79689,"is_transit":false,"line":6,"time":0,"transit":false,"station_id":"PLM","station_name":"Palmerah","distance":0,"i_lat":-6.207404},{"station_id":"THB","time":6,"is_transit":true,"i_long":106.811091,"i_lat":-6.185545,"line":1,"transit":true,"distance":3191,"station_name":"Tanah Abang"},{"station_id":"KAT","time":5,"i_long":106.816351,"station_name":"Karet","i_lat":-6.20132,"line":1,"transit":false,"is_transit":false,"distance":2029},{"transit":false,"i_long":106.819881,"time":1,"station_id":"SUDB","distance":471,"line":1,"is_transit":false,"i_lat":-6.201433,"station_name":"Sudirman Baru"},{"i_lat":-6.202263,"line":1,"i_long":106.822649,"transit":false,"is_transit":false,"station_id":"SUD","distance":280,"station_name":"Sudirman","time":1},{"is_transit":true,"transit":true,"station_id":"MRI","time":4,"i_lat":-6.209883,"distance":3186,"station_name":"Manggarai","i_long":106.84912,"line":2},{"i_long":106.857948,"is_transit":false,"line":2,"time":4,"station_id":"TEB","transit":false,"station_name":"Tebet","distance":2610,"i_lat":-6.226659},{"is_transit":false,"time":2,"i_long":106.856607,"distance":1230,"station_name":"Cawang","line":2,"i_lat":-6.242512,"transit":false,"station_id":"CW"},{"is_transit":false,"i_lat":-6.255332,"line":2,"transit":false,"station_id":"DRN","time":3,"distance":1546,"station_name":"Duren Kalibata","i_long":106.85449},{"i_long":106.851577,"distance":824,"transit":false,"line":2,"station_id":"PSMB","time":2,"i_lat":-6.263214,"station_name":"Pasar Minggu Baru","is_transit":false},{"i_lat":-6.2842400000000005,"transit":false,"time":2,"line":2,"distance":2380,"is_transit":false,"station_name":"Pasar Minggu","station_id":"PSM","i_long":106.843999},{"line":2,"station_id":"TNT","i_long":106.838896,"distance":2820,"is_transit":false,"station_name":"Tanjung Barat","time":4,"transit":false,"i_lat":-6.3080680000000005},{"i_lat":-6.330363,"transit":false,"line":2,"i_long":106.832616,"is_transit":false,"station_name":"Lenteng Agung","station_id":"LNA","time":3,"distance":2671},{"distance":1029,"station_id":"UP","i_long":106.834175,"i_lat":-6.339291,"time":2,"transit":false,"is_transit":false,"line":2,"station_name":"Univ. Pancasila"},{"is_transit":false,"distance":2264,"station_id":"UI","transit":false,"station_name":"Univ. Indonesia","i_lat":-6.360749,"time":3,"line":2,"i_long":106.831474},{"line":2,"distance":1109,"station_name":"Pondok Cina","station_id":"POC","is_transit":false,"time":2,"i_long":106.831114,"i_lat":-6.369073,"transit":false},{"transit":false,"time":4,"i_lat":-6.391065,"is_transit":false,"station_name":"Depokbaru","i_long":106.819451,"line":2,"distance":2727,"station_id":"DPB"},{"station_id":"DP","is_transit":false,"line":2,"transit":false,"station_name":"Depok","distance":1584,"i_lat":-6.405256,"i_long":106.816926,"time":3},{"i_long":106.800298,"distance":5084,"transit":true,"time":6,"line":2,"station_id":"CTA","i_lat":-6.448811,"station_name":"Citayam","is_transit":true},{"transit":false,"time":0,"line":21,"station_name":"Pondok Rajeg","i_long":106.824374,"station_id":"PDRG","i_lat":-6.460735,"is_transit":false,"distance":0}],[{"time":0,"distance":0,"i_long":106.79689,"i_lat":-6.207404,"line":6,"is_transit":false,"transit":false,"station_name":"Palmerah","station_id":"PLM"},{"line":1,"station_name":"Tanah Abang","i_long":106.811091,"i_lat":-6.185545,"station_id":"THB","time":6,"distance":3191,"is_transit":true,"transit":true},{"i_long":106.800832,"station_name":"Duri","is_transit":false,"i_lat":-6.155215,"line":1,"station_id":"DU","transit":false,"distance":3632,"time":8},{"line":1,"station_name":"Angke","transit":false,"time":4,"i_long":106.79867,"distance":1230,"station_id":"AK","i_lat":-6.144674,"is_transit":false},{"station_name":"Kampung Bandan","line":4,"time":9,"transit":true,"distance":4102,"i_long":106.826365,"station_id":"KPB","i_lat":-6.132549,"is_transit":true},{"i_lat":-6.137569,"is_transit":true,"time":3,"line":2,"station_name":"Jakarta Kota","i_long":106.812439,"transit":true,"station_id":"JAKK","distance":1364},{"i_long":106.820901,"station_name":"Jayakarta","time":4,"line":2,"station_id":"JAY","transit":false,"is_transit":false,"i_lat":-6.141205,"distance":1264},{"time":2,"i_long":106.82482,"distance":1080,"line":2,"i_lat":-6.149769,"station_id":"MGB","transit":false,"station_name":"Manggabesar","is_transit":false},{"time":2,"station_name":"Sawah Besar","is_transit":false,"i_long":106.827103,"line":2,"distance":906,"station_id":"SW","i_lat":-6.160725,"transit":false},{"i_lat":-6.166716,"distance":1149,"transit":false,"station_name":"Juanda","station_id":"JUA","i_long":106.828284,"line":2,"is_transit":false,"time":2},{"station_id":"GDD","i_long":106.832183,"line":2,"transit":false,"station_name":"Gondangdia","is_transit":false,"i_lat":-6.186295,"time":4,"distance":2015},{"time":3,"station_name":"Cikini","i_long":106.840169,"is_transit":false,"distance":1750,"line":2,"station_id":"CKI","i_lat":-6.198556,"transit":false},{"station_name":"Manggarai","i_lat":-6.209883,"station_id":"MRI","is_transit":false,"transit":false,"line":2,"time":4,"i_long":106.84912,"distance":1590},{"time":4,"line":2,"i_lat":-6.226659,"station_name":"Tebet","i_long":106.857948,"station_id":"TEB","distance":2610,"transit":false,"is_transit":false},{"station_id":"CW","distance":1230,"time":2,"is_transit":false,"line":2,"transit":false,"station_name":"Cawang","i_lat":-6.242512,"i_long":106.856607},{"transit":false,"line":2,"i_long":106.85449,"station_name":"Duren Kalibata","is_transit":false,"distance":1546,"time":3,"i_lat":-6.255332,"station_id":"DRN"},{"line":2,"is_transit":false,"time":2,"distance":824,"i_long":106.851577,"station_name":"Pasar Minggu Baru","transit":false,"i_lat":-6.263214,"station_id":"PSMB"},{"station_id":"PSM","line":2,"transit":false,"time":2,"distance":2380,"i_long":106.843999,"station_name":"Pasar Minggu","is_transit":false,"i_lat":-6.2842400000000005},{"distance":2820,"time":4,"station_id":"TNT","i_lat":-6.3080680000000005,"is_transit":false,"i_long":106.838896,"station_name":"Tanjung Barat","line":2,"transit":false},{"station_id":"LNA","time":3,"i_long":106.832616,"line":2,"station_name":"Lenteng Agung","is_transit":false,"transit":false,"distance":2671,"i_lat":-6.330363},{"station_id":"UP","time":2,"i_lat":-6.339291,"is_transit":false,"line":2,"transit":false,"station_name":"Univ. Pancasila","distance":1029,"i_long":106.834175},{"distance":2264,"i_long":106.831474,"station_id":"UI","transit":false,"is_transit":false,"time":3,"station_name":"Univ. Indonesia","i_lat":-6.360749,"line":2},{"station_name":"Pondok Cina","is_transit":false,"transit":false,"distance":1109,"i_lat":-6.369073,"i_long":106.831114,"time":2,"station_id":"POC","line":2},{"is_transit":false,"i_lat":-6.391065,"time":4,"transit":false,"distance":2727,"station_name":"Depokbaru","station_id":"DPB","line":2,"i_long":106.819451},{"distance":1584,"station_name":"Depok","is_transit":false,"line":2,"i_lat":-6.405256,"i_long":106.816926,"transit":false,"station_id":"DP","time":3},{"distance":5084,"time":6,"station_id":"CTA","transit":true,"station_name":"Citayam","i_long":106.800298,"line":2,"is_transit":true,"i_lat":-6.448811},{"is_transit":false,"station_id":"PDRG","station_name":"Pondok Rajeg","distance":0,"transit":false,"line":21,"time":0,"i_lat":-6.460735,"i_long":106.824374}],[{"is_transit":false,"distance":0,"i_long":106.79689,"line":6,"station_name":"Palmerah","time":0,"station_id":"PLM","i_lat":-6.207404,"transit":false},{"distance":3191,"station_id":"THB","time":6,"line":1,"i_lat":-6.185545,"station_name":"Tanah Abang","transit":true,"is_transit":true,"i_long":106.811091},{"i_long":106.800832,"is_transit":false,"distance":3632,"transit":false,"station_name":"Duri","time":8,"line":1,"station_id":"DU","i_lat":-6.155215},{"distance":1230,"line":1,"transit":false,"is_transit":false,"i_lat":-6.144674,"station_id":"AK","i_long":106.79867,"time":4,"station_name":"Angke"},{"is_transit":true,"station_name":"Kampung Bandan","line":4,"time":9,"distance":4102,"station_id":"KPB","i_lat":-6.132549,"transit":true,"i_long":106.826365},{"station_name":"Rajawali","transit":false,"i_lat":-6.14505,"time":3,"station_id":"RJW","distance":1444,"is_transit":false,"i_long":106.836569,"line":11},{"transit":false,"line":11,"is_transit":false,"station_id":"KMO","i_long":106.839204,"distance":1901,"station_name":"Kemayoran","i_lat":-6.161728,"time":5},{"distance":1436,"i_lat":-6.174784,"station_name":"Pasar Senen","line":11,"station_id":"PSE","i_long":106.84368,"transit":false,"time":4,"is_transit":false},{"station_id":"GST","is_transit":false,"time":8,"i_long":106.850107,"distance":1567,"i_lat":-6.185975,"line":11,"transit":false,"station_name":"Gang Sentiong"},{"i_lat":-6.193792,"is_transit":false,"station_name":"Kramat","station_id":"KMT","i_long":106.855437,"transit":false,"distance":973,"line":11,"time":1},{"i_long":106.861737,"is_transit":false,"i_lat":-6.209188,"distance":1829,"station_name":"Pondok Jati","station_id":"POK","line":11,"transit":false,"time":2},{"station_name":"Jatinegara","time":9,"line":1,"station_id":"JNG","distance":1236,"is_transit":true,"i_lat":-6.215091,"i_long":106.86807400000001,"transit":true},{"station_name":"Matraman","is_transit":false,"time":2,"line":1,"distance":1377,"i_lat":-6.212485,"station_id":"MTR","transit":false,"i_long":106.858896},{"is_transit":true,"station_name":"Manggarai","time":2,"distance":1275,"station_id":"MRI","line":2,"i_long":106.84912,"transit":true,"i_lat":-6.209883},{"transit":false,"is_transit":false,"distance":2610,"time":4,"line":2,"i_lat":-6.226659,"station_id":"TEB","station_name":"Tebet","i_long":106.857948},{"station_name":"Cawang","time":2,"is_transit":false,"transit":false,"i_long":106.856607,"i_lat":-6.242512,"station_id":"CW","distance":1230,"line":2},{"station_id":"DRN","is_transit":false,"i_long":106.85449,"line":2,"station_name":"Duren Kalibata","i_lat":-6.255332,"time":3,"distance":1546,"transit":false},{"is_transit":false,"i_long":106.851577,"line":2,"time":2,"station_name":"Pasar Minggu Baru","i_lat":-6.263214,"distance":824,"transit":false,"station_id":"PSMB"},{"station_name":"Pasar Minggu","i_long":106.843999,"is_transit":false,"time":2,"distance":2380,"i_lat":-6.2842400000000005,"line":2,"transit":false,"station_id":"PSM"},{"station_name":"Tanjung Barat","is_transit":false,"i_lat":-6.3080680000000005,"i_long":106.838896,"distance":2820,"time":4,"line":2,"transit":false,"station_id":"TNT"},{"i_lat":-6.330363,"line":2,"distance":2671,"station_name":"Lenteng Agung","is_transit":false,"i_long":106.832616,"transit":false,"time":3,"station_id":"LNA"},{"time":2,"i_lat":-6.339291,"i_long":106.834175,"distance":1029,"station_id":"UP","station_name":"Univ. Pancasila","is_transit":false,"line":2,"transit":false},{"i_lat":-6.360749,"station_name":"Univ. Indonesia","transit":false,"distance":2264,"time":3,"i_long":106.831474,"is_transit":false,"line":2,"station_id":"UI"},{"time":2,"i_lat":-6.369073,"line":2,"i_long":106.831114,"distance":1109,"station_name":"Pondok Cina","station_id":"POC","transit":false,"is_transit":false},{"line":2,"distance":2727,"transit":false,"is_transit":false,"station_name":"Depokbaru","station_id":"DPB","time":4,"i_long":106.819451,"i_lat":-6.391065},{"distance":1584,"transit":false,"i_long":106.816926,"is_transit":false,"line":2,"time":3,"station_name":"Depok","station_id":"DP","i_lat":-6.405256},{"time":6,"i_long":106.800298,"i_lat":-6.448811,"station_name":"Citayam","is_transit":true,"station_id":"CTA","distance":5084,"transit":true,"line":2},{"station_name":"Pondok Rajeg","time":0,"i_long":106.824374,"station_id":"PDRG","is_transit":false,"i_lat":-6.460735,"distance":0,"transit":false,"line":21}]]}