{"data":[[{"transit":false,"time":0,"i_lat":-6.207404,"i_long":106.79689,"distance":0,"station_name":"Palmerah","is_transit":false,"line":6,"station_id":"PLM"},{"station_name":"Tanah Abang","i_lat":-6.185545,"station_id":"THB","transit":true,"line":1,"is_transit":true,"distance":3191,"i_long":106.811091,"time":6},{"i_lat":-6.20132,"station_id":"KAT","is_transit":false,"transit":false,"station_name":"Karet","distance":2029,"line":1,"time":5,"i_long":106.816351}],[{"i_lat":-6.207404,"line":6,"time":0,"station_name":"Palmerah","transit":false,"distance":0,"is_transit":false,"i_long":106.79689,"station_id":"PLM"},{"is_transit":true,"station_id":"THB","i_long":106.811091,"time":6,"station_name":"Tanah Abang","i_lat":-6.185545,"line":1,"distance":3191,"transit":true},{"time":8,"transit":true,"line":1,"i_long":106.800832,"station_id":"DU","station_name":"Duri","distance":3632,"i_lat":-6.155215,"is_transit":true},{"time":4,"is_transit":false,"station_name":"Angke","distance":1230,"i_long":106.79867,"station_id":"AK","i_lat":-6.144674,"line":0,"transit":false},{"distance":4102,"transit":false,"station_id":"KPB","is_transit":true,"i_lat":-6.132549,"time":9,"i_long":106.826365,"station_name":"Kampung Bandan","line":0},{"time":3,"distance":1364,"is_transit":true,"station_name":"Jakarta Kota","i_lat":-6.137569,"station_id":"JAKK","transit":true,"i_long":106.812439,"line":0},{"station_id":"JAY","station_name":"Jayakarta","time":4,"distance":1264,"i_lat":-6.141205,"i_long":106.820901,"line":7,"is_transit":false,"transit":false},{"line":2,"station_id":"MGB","i_lat":-6.149769,"station_name":"Manggabesar","i_long":106.82482,"is_transit":false,"distance":1080,"time":2,"transit":false},{"station_name":"Sawah Besar","distance":906,"is_transit":false,"station_id":"SW","time":2,"line":2,"i_lat":-6.160725,"transit":false,"i_long":106.827103},{"i_lat":-6.166716,"is_transit":false,"station_id":"JUA","distance":1149,"i_long":106.828284,"transit":false,"station_name":"Juanda","line":2,"time":2},{"station_name":"Gondangdia","transit":false,"line":2,"distance":2015,"station_id":"GDD","is_transit":false,"i_lat":-6.186295,"i_long":106.832183,"time":4},{"station_name":"Cikini","distance":1750,"is_transit":false,"transit":false,"i_lat":-6.198556,"i_long":106.840169,"line":0,"station_id":"CKI","time":3},{"distance":1590,"transit":true,"i_long":106.84912,"station_name":"Manggarai","i_lat":-6.209883,"line":0,"time":4,"is_transit":true,"station_id":"MRI"},{"line":1,"is_transit":false,"distance":3186,"i_long":106.822649,"transit":false,"i_lat":-6.202263,"station_name":"Sudirman","station_id":"SUD","time":4},{"i_lat":-6.201433,"distance":280,"line":1,"transit":false,"station_id":"SUDB","is_transit":false,"i_long":106.819881,"time":1,"station_name":"Sudirman Baru"},{"is_transit":false,"line":1,"transit":false,"station_name":"Karet","station_id":"KAT","i_long":106.816351,"distance":471,"i_lat":-6.20132,"time":1}],[{"i_long":106.79689,"station_name":"Palmerah","time":0,"is_transit":false,"transit":false,"distance":0,"line":6,"i_lat":-6.207404,"station_id":"PLM"},{"distance":3191,"time":6,"is_transit":true,"i_long":106.811091,"i_lat":-6.185545,"station_id":"THB","transit":true,"station_name":"Tanah Abang","line":1},{"station_id":"DU","distance":3632,"line":1,"station_name":"Duri","is_transit":true,"transit":true,"i_long":106.800832,"i_lat":-6.155215,"time":8},{"station_name":"Angke","time":4,"distance":1230,"line":0,"is_transit":false,"station_id":"AK","i_long":106.79867,"i_lat":-6.144674,"transit":false},{"station_name":"Kampung Bandan","station_id":"KPB","i_lat":-6.132549,"distance":4102,"is_transit":true,"i_long":106.826365,"time":9,"transit":true,"line":0},{"i_lat":-6.14505,"distance":1444,"time":3,"station_id":"RJW","transit":false,"i_long":106.836569,"is_transit":false,"line":11,"station_name":"Rajawali"},{"i_long":106.839204,"is_transit":false,"station_id":"KMO","time":5,"transit":false,"distance":1901,"station_name":"Kemayoran","i_lat":-6.161728,"line":11},{"station_name":"Pasar Senen","i_long":106.84368,"time":4,"line":11,"is_transit":false,"distance":1436,"station_id":"PSE","transit":false,"i_lat":-6.174784},{"i_long":106.850107,"is_transit":false,"distance":1567,"station_name":"Gang Sentiong","station_id":"GST","line":11,"i_lat":-6.185975,"transit":false,"time":8},{"line":11,"station_id":"KMT","station_name":"Kramat","transit":false,"time":1,"i_long":106.855437,"is_transit":false,"i_lat":-6.193792,"distance":973},{"i_long":106.861737,"transit":false,"station_id":"POK","distance":1829,"is_transit":false,"time":2,"i_lat":-6.209188,"line":11,"station_name":"Pondok Jati"},{"distance":1236,"transit":true,"station_name":"Jatinegara","i_lat":-6.215091,"i_long":106.86807400000001,"time":9,"is_transit":true,"station_id":"JNG","line":0},{"transit":false,"is_transit":false,"line":1,"i_long":106.858896,"time":2,"station_id":"MTR","station_name":"Matraman","i_lat":-6.212485,"distance":1377},{"is_transit":true,"i_lat":-6.209883,"time":2,"i_long":106.84912,"station_id":"MRI","station_name":"Manggarai","line":0,"transit":false,"distance":1275},{"is_transit":false,"transit":false,"station_id":"SUD","station_name":"Sudirman","line":1,"time":4,"i_long":106.822649,"distance":3186,"i_lat":-6.202263},{"i_lat":-6.201433,"station_name":"Sudirman Baru","station_id":"SUDB","i_long":106.819881,"line":1,"is_transit":false,"transit":false,"time":1,"distance":280},{"station_name":"Karet","i_lat":-6.20132,"station_id":"KAT","transit":false,"line":1,"time":1,"distance":471,"is_transit":false,"i_long":106.816351}]]}