{"data":[[{"transit":false,"distance":0,"i_long":106.79689,"station_name":"Palmerah","is_transit":false,"time":0,"i_lat":-6.207404,"line":6,"station_id":"PLM"},{"line":1,"station_name":"Tanah Abang","i_long":106.811091,"transit":true,"distance":3191,"is_transit":true,"time":6,"station_id":"THB","i_lat":-6.185545},{"is_transit":false,"transit":false,"station_name":"Karet","i_lat":-6.20132,"i_long":106.816351,"time":5,"station_id":"KAT","line":1,"distance":2029},{"i_lat":-6.201433,"transit":false,"station_name":"Sudirman Baru","distance":471,"is_transit":false,"i_long":106.819881,"line":1,"station_id":"SUDB","time":1}],[{"distance":0,"time":0,"station_id":"PLM","i_long":106.79689,"line":6,"station_name":"Palmerah","transit":false,"is_transit":false,"i_lat":-6.207404},{"station_name":"Tanah Abang","transit":true,"time":6,"i_long":106.811091,"line":1,"distance":3191,"i_lat":-6.185545,"is_transit":true,"station_id":"THB"},{"i_lat":-6.155215,"i_long":106.800832,"transit":false,"station_id":"DU","station_name":"Duri","time":8,"is_transit":false,"line":1,"distance":3632},{"time":4,"station_id":"AK","distance":1230,"is_transit":false,"i_long":106.79867,"station_name":"Angke","i_lat":-6.144674,"transit":false,"line":1},{"is_transit":true,"station_id":"KPB","distance":4102,"station_name":"Kampung Bandan","line":4,"time":9,"transit":true,"i_lat":-6.132549,"i_long":106.826365},{"i_long":106.812439,"station_name":"Jakarta Kota","is_transit":true,"distance":1364,"station_id":"JAKK","line":2,"time":3,"transit":true,"i_lat":-6.137569},{"station_id":"JAY","transit":false,"station_name":"Jayakarta","time":4,"line":2,"is_transit":false,"distance":1264,"i_lat":-6.141205,"i_long":106.820901},{"time":2,"station_id":"MGB","station_name":"Manggabesar","line":2,"i_lat":-6.149769,"is_transit":false,"i_long":106.82482,"distance":1080,"transit":false},{"i_long":106.827103,"line":2,"i_lat":-6.160725,"transit":false,"distance":906,"station_id":"SW","station_name":"Sawah Besar","time":2,"is_transit":false},{"station_name":"Juanda","station_id":"JUA","is_transit":false,"time":2,"distance":1149,"i_lat":-6.166716,"transit":false,"i_long":106.828284,"line":2},{"transit":false,"i_long":106.832183,"is_transit":false,"line":2,"station_id":"GDD","time":4,"i_lat":-6.186295,"station_name":"Gondangdia","distance":2015},{"distance":1750,"is_transit":false,"line":2,"time":3,"i_lat":-6.198556,"station_name":"Cikini","i_long":106.840169,"station_id":"CKI","transit":false},{"time":4,"station_id":"MRI","i_lat":-6.209883,"line":2,"transit":true,"distance":1590,"i_long":106.84912,"is_transit":true,"station_name":"Manggarai"},{"transit":false,"station_id":"SUD","i_lat":-6.202263,"i_long":106.822649,"distance":3186,"station_name":"Sudirman","is_transit":false,"line":1,"time":4},{"i_lat":-6.201433,"is_transit":false,"i_long":106.819881,"station_name":"Sudirman Baru","time":1,"station_id":"SUDB","distance":280,"transit":false,"line":1}],[{"i_long":106.79689,"line":6,"station_name":"Palmerah","time":0,"station_id":"PLM","distance":0,"is_transit":false,"transit":false,"i_lat":-6.207404},{"is_transit":true,"time":6,"station_name":"Tanah Abang","i_long":106.811091,"i_lat":-6.185545,"station_id":"THB","transit":true,"line":1,"distance":3191},{"station_id":"DU","station_name":"Duri","transit":false,"i_lat":-6.155215,"time":8,"line":1,"distance":3632,"i_long":106.800832,"is_transit":false},{"transit":false,"distance":1230,"time":4,"station_name":"Angke","i_lat":-6.144674,"line":1,"is_transit":false,"station_id":"AK","i_long":106.79867},{"distance":4102,"is_transit":true,"line":4,"station_id":"KPB","i_long":106.826365,"station_name":"Kampung Bandan","time":9,"i_lat":-6.132549,"transit":true},{"is_transit":false,"i_lat":-6.14505,"time":3,"i_long":106.836569,"line":11,"station_id":"RJW","distance":1444,"transit":false,"station_name":"Rajawali"},{"i_long":106.839204,"is_transit":false,"station_id":"KMO","i_lat":-6.161728,"time":5,"station_name":"Kemayoran","distance":1901,"transit":false,"line":11},{"station_id":"PSE","transit":false,"is_transit":false,"distance":1436,"time":4,"i_long":106.84368,"line":11,"station_name":"Pasar Senen","i_lat":-6.174784},{"station_name":"Gang Sentiong","line":11,"distance":1567,"i_long":106.850107,"i_lat":-6.185975,"time":8,"is_transit":false,"transit":false,"station_id":"GST"},{"i_long":106.855437,"line":11,"is_transit":false,"transit":false,"time":1,"distance":973,"station_id":"KMT","station_name":"Kramat","i_lat":-6.193792},{"station_name":"Pondok Jati","transit":false,"station_id":"POK","is_transit":false,"distance":1829,"time":2,"i_long":106.861737,"line":11,"i_lat":-6.209188},{"distance":1236,"time":9,"station_id":"JNG","is_transit":true,"i_lat":-6.215091,"i_long":106.86807400000001,"station_name":"Jatinegara","transit":true,"line":1},{"line":1,"distance":1377,"station_name":"Matraman","i_lat":-6.212485,"transit":false,"is_transit":false,"station_id":"MTR","i_long":106.858896,"time":2},{"i_lat":-6.209883,"time":2,"distance":1275,"is_transit":false,"transit":false,"station_name":"Manggarai","station_id":"MRI","i_long":106.84912,"line":2},{"station_id":"SUD","distance":3186,"is_transit":false,"transit":false,"station_name":"Sudirman","time":4,"i_lat":-6.202263,"i_long":106.822649,"line":1},{"is_transit":false,"station_name":"Sudirman Baru","i_long":106.819881,"i_lat":-6.201433,"line":1,"station_id":"SUDB","distance":280,"transit":false,"time":1}]]}