{"data":[[{"distance":0,"station_name":"Palmerah","station_id":"PLM","transit":false,"time":0,"is_transit":false,"i_lat":-6.207404,"i_long":106.79689,"line":6},{"i_lat":-6.185545,"station_id":"THB","time":6,"i_long":106.811091,"line":1,"is_transit":true,"station_name":"Tanah Abang","transit":true,"distance":3191},{"station_name":"Karet","time":5,"transit":false,"distance":2029,"i_long":106.816351,"is_transit":false,"i_lat":-6.20132,"line":1,"station_id":"KAT"},{"station_id":"SUDB","station_name":"Sudirman Baru","transit":false,"distance":471,"i_lat":-6.201433,"time":1,"line":1,"i_long":106.819881,"is_transit":false}],[{"station_id":"PLM","i_long":106.79689,"transit":false,"line":6,"distance":0,"i_lat":-6.207404,"time":0,"is_transit":false,"station_name":"Palmerah"},{"time":6,"station_name":"Tanah Abang","transit":true,"distance":3191,"i_lat":-6.185545,"i_long":106.811091,"line":1,"is_transit":true,"station_id":"THB"},{"i_lat":-6.155215,"time":8,"is_transit":true,"station_id":"DU","distance":3632,"transit":true,"station_name":"Duri","i_long":106.800832,"line":1},{"station_name":"Angke","transit":false,"i_lat":-6.144674,"distance":1230,"time":4,"i_long":106.79867,"station_id":"AK","line":0,"is_transit":false},{"station_name":"Kampung Bandan","line":0,"transit":false,"i_lat":-6.132549,"i_long":106.826365,"is_transit":true,"time":9,"station_id":"KPB","distance":4102},{"i_lat":-6.137569,"is_transit":true,"i_long":106.812439,"station_id":"JAKK","distance":1364,"station_name":"Jakarta Kota","time":3,"transit":true,"line":0},{"station_id":"JAY","station_name":"Jayakarta","i_long":106.820901,"distance":1264,"time":4,"is_transit":false,"transit":false,"i_lat":-6.141205,"line":7},{"station_name":"Manggabesar","distance":1080,"station_id":"MGB","time":2,"line":2,"transit":false,"i_long":106.82482,"i_lat":-6.149769,"is_transit":false},{"is_transit":false,"station_name":"Sawah Besar","transit":false,"time":2,"i_lat":-6.160725,"i_long":106.827103,"line":2,"station_id":"SW","distance":906},{"distance":1149,"station_name":"Juanda","is_transit":false,"time":2,"i_lat":-6.166716,"i_long":106.828284,"station_id":"JUA","transit":false,"line":2},{"distance":2015,"is_transit":false,"line":2,"station_id":"GDD","time":4,"transit":false,"station_name":"Gondangdia","i_lat":-6.186295,"i_long":106.832183},{"station_id":"CKI","is_transit":false,"transit":false,"line":0,"distance":1750,"station_name":"Cikini","i_lat":-6.198556,"time":3,"i_long":106.840169},{"station_name":"Manggarai","i_lat":-6.209883,"is_transit":true,"line":0,"time":4,"transit":true,"i_long":106.84912,"station_id":"MRI","distance":1590},{"station_id":"SUD","transit":false,"time":4,"station_name":"Sudirman","is_transit":false,"i_lat":-6.202263,"line":1,"distance":3186,"i_long":106.822649},{"distance":280,"i_lat":-6.201433,"station_id":"SUDB","time":1,"station_name":"Sudirman Baru","transit":false,"i_long":106.819881,"is_transit":false,"line":1}],[{"station_name":"Palmerah","distance":0,"i_long":106.79689,"line":6,"transit":false,"is_transit":false,"time":0,"station_id":"PLM","i_lat":-6.207404},{"is_transit":true,"distance":3191,"i_lat":-6.185545,"line":1,"transit":true,"i_long":106.811091,"station_id":"THB","time":6,"station_name":"Tanah Abang"},{"station_id":"DU","station_name":"Duri","time":8,"distance":3632,"transit":true,"is_transit":true,"i_lat":-6.155215,"i_long":106.800832,"line":1},{"distance":1230,"i_lat":-6.144674,"i_long":106.79867,"is_transit":false,"station_id":"AK","line":0,"time":4,"transit":false,"station_name":"Angke"},{"distance":4102,"line":0,"time":9,"is_transit":true,"transit":true,"station_id":"KPB","i_lat":-6.132549,"i_long":106.826365,"station_name":"Kampung Bandan"},{"station_id":"RJW","transit":false,"i_long":106.836569,"station_name":"Rajawali","line":11,"time":3,"i_lat":-6.14505,"distance":1444,"is_transit":false},{"station_name":"Kemayoran","is_transit":false,"line":11,"time":5,"distance":1901,"transit":false,"i_lat":-6.161728,"i_long":106.839204,"station_id":"KMO"},{"transit":false,"is_transit":false,"station_name":"Pasar Senen","time":4,"i_long":106.84368,"i_lat":-6.174784,"station_id":"PSE","distance":1436,"line":11},{"station_id":"GST","station_name":"Gang Sentiong","time":8,"is_transit":false,"i_long":106.850107,"i_lat":-6.185975,"distance":1567,"line":11,"transit":false},{"station_id":"KMT","transit":false,"i_lat":-6.193792,"time":1,"station_name":"Kramat","i_long":106.855437,"line":11,"is_transit":false,"distance":973},{"i_lat":-6.209188,"transit":false,"is_transit":false,"time":2,"distance":1829,"i_long":106.861737,"line":11,"station_id":"POK","station_name":"Pondok Jati"},{"time":9,"distance":1236,"i_long":106.86807400000001,"transit":true,"i_lat":-6.215091,"is_transit":true,"station_id":"JNG","line":0,"station_name":"Jatinegara"},{"station_name":"Matraman","station_id":"MTR","distance":1377,"time":2,"i_lat":-6.212485,"i_long":106.858896,"transit":false,"is_transit":false,"line":1},{"distance":1275,"i_lat":-6.209883,"station_name":"Manggarai","time":2,"i_long":106.84912,"station_id":"MRI","transit":false,"line":0,"is_transit":true},{"station_name":"Sudirman","transit":false,"time":4,"i_lat":-6.202263,"station_id":"SUD","is_transit":false,"line":1,"distance":3186,"i_long":106.822649},{"transit":false,"line":1,"is_transit":false,"station_name":"Sudirman Baru","i_long":106.819881,"distance":280,"i_lat":-6.201433,"station_id":"SUDB","time":1}]]}