{"data":[[{"distance":0,"i_long":106.79689,"transit":false,"station_id":"PLM","time":0,"i_lat":-6.207404,"line":6,"is_transit":false,"station_name":"Palmerah"},{"i_lat":-6.185545,"distance":3191,"time":6,"line":1,"is_transit":true,"i_long":106.811091,"station_name":"Tanah Abang","transit":true,"station_id":"THB"},{"transit":false,"station_id":"KAT","i_long":106.816351,"station_name":"Karet","time":5,"distance":2029,"line":1,"i_lat":-6.20132,"is_transit":false},{"station_name":"Sudirman Baru","time":1,"i_lat":-6.201433,"distance":471,"is_transit":false,"i_long":106.819881,"line":1,"station_id":"SUDB","transit":false},{"i_long":106.822649,"station_name":"Sudirman","station_id":"SUD","is_transit":false,"time":1,"i_lat":-6.202263,"transit":false,"line":1,"distance":280},{"station_id":"MRI","is_transit":true,"time":4,"station_name":"Manggarai","i_lat":-6.209883,"distance":3186,"i_long":106.84912,"transit":true,"line":2},{"time":4,"i_lat":-6.226659,"line":2,"is_transit":false,"distance":2610,"station_id":"TEB","i_long":106.857948,"station_name":"Tebet","transit":false},{"station_id":"CW","time":2,"i_long":106.856607,"station_name":"Cawang","distance":1230,"transit":false,"i_lat":-6.242512,"line":2,"is_transit":false},{"is_transit":false,"time":3,"station_id":"DRN","i_lat":-6.255332,"transit":false,"station_name":"Duren Kalibata","i_long":106.85449,"distance":1546,"line":2}],[{"is_transit":false,"distance":0,"line":6,"transit":false,"station_id":"PLM","time":0,"i_long":106.79689,"station_name":"Palmerah","i_lat":-6.207404},{"is_transit":true,"time":6,"distance":3191,"station_name":"Tanah Abang","i_lat":-6.185545,"i_long":106.811091,"line":1,"station_id":"THB","transit":true},{"station_name":"Duri","station_id":"DU","line":1,"i_long":106.800832,"transit":false,"time":8,"distance":3632,"is_transit":false,"i_lat":-6.155215},{"time":4,"transit":false,"line":1,"i_long":106.79867,"distance":1230,"station_id":"AK","is_transit":false,"station_name":"Angke","i_lat":-6.144674},{"distance":4102,"station_id":"KPB","i_lat":-6.132549,"time":9,"transit":true,"i_long":106.826365,"station_name":"Kampung Bandan","is_transit":true,"line":4},{"station_id":"JAKK","i_lat":-6.137569,"time":3,"line":2,"station_name":"Jakarta Kota","transit":true,"distance":1364,"is_transit":true,"i_long":106.812439},{"is_transit":false,"station_name":"Jayakarta","transit":false,"i_long":106.820901,"line":2,"time":4,"distance":1264,"station_id":"JAY","i_lat":-6.141205},{"station_id":"MGB","transit":false,"time":2,"line":2,"is_transit":false,"i_long":106.82482,"station_name":"Manggabesar","distance":1080,"i_lat":-6.149769},{"transit":false,"station_id":"SW","time":2,"distance":906,"i_lat":-6.160725,"station_name":"Sawah Besar","is_transit":false,"i_long":106.827103,"line":2},{"transit":false,"station_id":"JUA","is_transit":false,"i_long":106.828284,"station_name":"Juanda","distance":1149,"time":2,"i_lat":-6.166716,"line":2},{"time":4,"line":2,"distance":2015,"i_long":106.832183,"transit":false,"i_lat":-6.186295,"station_name":"Gondangdia","station_id":"GDD","is_transit":false},{"i_lat":-6.198556,"is_transit":false,"time":3,"transit":false,"line":2,"i_long":106.840169,"station_id":"CKI","distance":1750,"station_name":"Cikini"},{"station_id":"MRI","transit":false,"is_transit":false,"distance":1590,"station_name":"Manggarai","i_long":106.84912,"time":4,"i_lat":-6.209883,"line":2},{"line":2,"station_id":"TEB","i_long":106.857948,"i_lat":-6.226659,"time":4,"station_name":"Tebet","is_transit":false,"transit":false,"distance":2610},{"is_transit":false,"station_name":"Cawang","station_id":"CW","distance":1230,"line":2,"transit":false,"i_long":106.856607,"time":2,"i_lat":-6.242512},{"line":2,"time":3,"is_transit":false,"station_name":"Duren Kalibata","distance":1546,"transit":false,"station_id":"DRN","i_lat":-6.255332,"i_long":106.85449}],[{"i_long":106.79689,"station_name":"Palmerah","transit":false,"station_id":"PLM","i_lat":-6.207404,"is_transit":false,"time":0,"distance":0,"line":6},{"station_id":"THB","time":6,"line":1,"i_long":106.811091,"i_lat":-6.185545,"transit":true,"station_name":"Tanah Abang","is_transit":true,"distance":3191},{"station_id":"DU","time":8,"is_transit":false,"line":1,"i_lat":-6.155215,"distance":3632,"i_long":106.800832,"transit":false,"station_name":"Duri"},{"station_id":"AK","i_lat":-6.144674,"time":4,"line":1,"is_transit":false,"i_long":106.79867,"transit":false,"distance":1230,"station_name":"Angke"},{"i_long":106.826365,"i_lat":-6.132549,"station_id":"KPB","line":4,"station_name":"Kampung Bandan","is_transit":true,"time":9,"distance":4102,"transit":true},{"station_name":"Rajawali","i_lat":-6.14505,"i_long":106.836569,"is_transit":false,"line":11,"distance":1444,"time":3,"transit":false,"station_id":"RJW"},{"i_lat":-6.161728,"transit":false,"distance":1901,"i_long":106.839204,"line":11,"is_transit":false,"station_id":"KMO","station_name":"Kemayoran","time":5},{"is_transit":false,"time":4,"distance":1436,"transit":false,"i_long":106.84368,"line":11,"i_lat":-6.174784,"station_name":"Pasar Senen","station_id":"PSE"},{"time":8,"station_name":"Gang Sentiong","station_id":"GST","transit":false,"distance":1567,"is_transit":false,"i_long":106.850107,"line":11,"i_lat":-6.185975},{"line":11,"station_id":"KMT","time":1,"transit":false,"is_transit":false,"distance":973,"i_long":106.855437,"station_name":"Kramat","i_lat":-6.193792},{"transit":false,"station_id":"POK","station_name":"Pondok Jati","distance":1829,"time":2,"i_lat":-6.209188,"i_long":106.861737,"is_transit":false,"line":11},{"station_id":"JNG","is_transit":true,"time":9,"station_name":"Jatinegara","distance":1236,"i_long":106.86807400000001,"transit":true,"line":1,"i_lat":-6.215091},{"time":2,"distance":1377,"is_transit":false,"station_id":"MTR","i_lat":-6.212485,"transit":false,"station_name":"Matraman","i_long":106.858896,"line":1},{"time":2,"i_lat":-6.209883,"is_transit":true,"line":2,"station_id":"MRI","i_long":106.84912,"distance":1275,"station_name":"Manggarai","transit":true},{"transit":false,"station_name":"Tebet","is_transit":false,"station_id":"TEB","time":4,"line":2,"i_lat":-6.226659,"i_long":106.857948,"distance":2610},{"i_long":106.856607,"transit":false,"line":2,"i_lat":-6.242512,"distance":1230,"station_id":"CW","station_name":"Cawang","is_transit":false,"time":2},{"transit":false,"station_id":"DRN","distance":1546,"time":3,"line":2,"i_lat":-6.255332,"station_name":"Duren Kalibata","is_transit":false,"i_long":106.85449}]]}