{"data":[[{"line":6,"is_transit":false,"transit":false,"time":0,"i_lat":-6.207404,"i_long":106.79689,"station_name":"Palmerah","station_id":"PLM","distance":0},{"station_name":"Tanah Abang","transit":true,"station_id":"THB","is_transit":true,"line":1,"time":6,"i_long":106.811091,"distance":3191,"i_lat":-6.185545},{"is_transit":false,"i_long":106.800832,"distance":3632,"station_id":"DU","line":1,"transit":false,"time":8,"station_name":"Duri","i_lat":-6.155215},{"station_name":"Angke","station_id":"AK","is_transit":false,"i_long":106.79867,"line":1,"transit":false,"time":4,"distance":1230,"i_lat":-6.144674},{"time":9,"i_long":106.826365,"line":4,"distance":4102,"is_transit":true,"station_name":"Kampung Bandan","transit":true,"station_id":"KPB","i_lat":-6.132549},{"station_id":"RJW","transit":false,"i_lat":-6.14505,"distance":1444,"is_transit":false,"time":3,"i_long":106.836569,"line":11,"station_name":"Rajawali"}],[{"i_lat":-6.207404,"distance":0,"station_id":"PLM","is_transit":false,"transit":false,"i_long":106.79689,"line":6,"time":0,"station_name":"Palmerah"},{"station_id":"THB","time":6,"line":1,"i_lat":-6.185545,"station_name":"Tanah Abang","distance":3191,"i_long":106.811091,"is_transit":true,"transit":true},{"transit":false,"i_lat":-6.20132,"i_long":106.816351,"line":1,"time":5,"is_transit":false,"station_id":"KAT","station_name":"Karet","distance":2029},{"time":1,"distance":471,"station_id":"SUDB","i_long":106.819881,"line":1,"transit":false,"i_lat":-6.201433,"station_name":"Sudirman Baru","is_transit":false},{"station_name":"Sudirman","time":1,"station_id":"SUD","distance":280,"is_transit":false,"i_long":106.822649,"i_lat":-6.202263,"line":1,"transit":false},{"time":4,"distance":3186,"is_transit":false,"line":2,"transit":false,"station_name":"Manggarai","i_long":106.84912,"station_id":"MRI","i_lat":-6.209883},{"i_long":106.858896,"station_id":"MTR","transit":false,"line":1,"distance":1275,"is_transit":false,"time":2,"station_name":"Matraman","i_lat":-6.212485},{"i_long":106.86807400000001,"i_lat":-6.215091,"distance":1377,"transit":true,"line":1,"time":8,"station_id":"JNG","station_name":"Jatinegara","is_transit":true},{"time":2,"distance":1236,"is_transit":false,"i_long":106.861737,"i_lat":-6.209188,"station_name":"Pondok Jati","station_id":"POK","transit":false,"line":11},{"station_id":"KMT","i_long":106.855437,"time":2,"distance":1829,"station_name":"Kramat","i_lat":-6.193792,"transit":false,"line":11,"is_transit":false},{"transit":false,"i_long":106.850107,"station_id":"GST","station_name":"Gang Sentiong","distance":973,"time":1,"line":11,"is_transit":false,"i_lat":-6.185975},{"station_name":"Pasar Senen","transit":false,"is_transit":false,"i_lat":-6.174784,"distance":1567,"station_id":"PSE","i_long":106.84368,"line":11,"time":8},{"line":11,"distance":1436,"station_id":"KMO","station_name":"Kemayoran","transit":false,"is_transit":false,"i_lat":-6.161728,"i_long":106.839204,"time":4},{"station_id":"RJW","i_lat":-6.14505,"time":5,"station_name":"Rajawali","line":11,"is_transit":false,"i_long":106.836569,"distance":1901,"transit":false}],[{"is_transit":false,"i_long":106.79689,"station_id":"PLM","line":6,"distance":0,"station_name":"Palmerah","transit":false,"i_lat":-6.207404,"time":0},{"distance":3191,"transit":true,"station_name":"Tanah Abang","i_lat":-6.185545,"line":1,"time":6,"station_id":"THB","is_transit":true,"i_long":106.811091},{"i_long":106.816351,"transit":false,"distance":2029,"station_id":"KAT","station_name":"Karet","is_transit":false,"time":5,"i_lat":-6.20132,"line":1},{"distance":471,"transit":false,"station_name":"Sudirman Baru","line":1,"station_id":"SUDB","i_lat":-6.201433,"i_long":106.819881,"is_transit":false,"time":1},{"is_transit":false,"i_long":106.822649,"station_id":"SUD","i_lat":-6.202263,"station_name":"Sudirman","time":1,"distance":280,"line":1,"transit":false},{"line":2,"distance":3186,"i_lat":-6.209883,"transit":true,"station_id":"MRI","time":4,"station_name":"Manggarai","is_transit":true,"i_long":106.84912},{"distance":1590,"transit":false,"time":4,"i_long":106.840169,"station_name":"Cikini","station_id":"CKI","is_transit":false,"i_lat":-6.198556,"line":2},{"i_lat":-6.186295,"time":3,"line":2,"i_long":106.832183,"station_id":"GDD","distance":1750,"is_transit":false,"station_name":"Gondangdia","transit":false},{"time":4,"is_transit":false,"distance":2015,"station_name":"Juanda","i_long":106.828284,"line":2,"station_id":"JUA","transit":false,"i_lat":-6.166716},{"i_lat":-6.160725,"time":2,"station_id":"SW","is_transit":false,"station_name":"Sawah Besar","i_long":106.827103,"line":2,"distance":1149,"transit":false},{"time":2,"distance":906,"is_transit":false,"i_lat":-6.149769,"i_long":106.82482,"station_name":"Manggabesar","transit":false,"station_id":"MGB","line":2},{"distance":1080,"station_id":"JAY","transit":false,"i_long":106.820901,"line":2,"time":2,"station_name":"Jayakarta","is_transit":false,"i_lat":-6.141205},{"transit":true,"line":2,"i_lat":-6.137569,"time":4,"station_id":"JAKK","is_transit":true,"i_long":106.812439,"distance":1264,"station_name":"Jakarta Kota"},{"station_id":"KPB","transit":true,"i_lat":-6.132549,"i_long":106.826365,"distance":1364,"is_transit":true,"time":3,"line":4,"station_name":"Kampung Bandan"},{"is_transit":false,"line":11,"time":3,"transit":false,"distance":1444,"station_id":"RJW","station_name":"Rajawali","i_lat":-6.14505,"i_long":106.836569}],[{"transit":false,"station_name":"Palmerah","distance":0,"is_transit":false,"line":6,"station_id":"PLM","time":0,"i_lat":-6.207404,"i_long":106.79689},{"is_transit":true,"i_long":106.811091,"i_lat":-6.185545,"distance":3191,"time":6,"station_id":"THB","transit":true,"station_name":"Tanah Abang","line":1},{"i_lat":-6.155215,"station_id":"DU","station_name":"Duri","distance":3632,"line":1,"time":8,"i_long":106.800832,"is_transit":false,"transit":false},{"station_id":"AK","is_transit":false,"transit":false,"distance":1230,"i_lat":-6.144674,"line":1,"i_long":106.79867,"time":4,"station_name":"Angke"},{"time":9,"i_lat":-6.132549,"station_id":"KPB","line":4,"transit":true,"station_name":"Kampung Bandan","i_long":106.826365,"is_transit":true,"distance":4102},{"time":3,"station_name":"Jakarta Kota","line":2,"is_transit":true,"station_id":"JAKK","transit":true,"distance":1364,"i_long":106.812439,"i_lat":-6.137569},{"transit":false,"is_transit":false,"i_lat":-6.141205,"i_long":106.820901,"time":4,"distance":1264,"station_name":"Jayakarta","line":2,"station_id":"JAY"},{"i_long":106.82482,"time":2,"station_name":"Manggabesar","transit":false,"i_lat":-6.149769,"is_transit":false,"station_id":"MGB","line":2,"distance":1080},{"i_long":106.827103,"i_lat":-6.160725,"distance":906,"station_id":"SW","transit":false,"line":2,"station_name":"Sawah Besar","time":2,"is_transit":false},{"is_transit":false,"line":2,"station_name":"Juanda","time":2,"distance":1149,"i_lat":-6.166716,"i_long":106.828284,"transit":false,"station_id":"JUA"},{"i_long":106.832183,"distance":2015,"time":4,"is_transit":false,"transit":false,"station_name":"Gondangdia","i_lat":-6.186295,"station_id":"GDD","line":2},{"i_lat":-6.198556,"station_name":"Cikini","i_long":106.840169,"is_transit":false,"line":2,"time":3,"station_id":"CKI","distance":1750,"transit":false},{"station_name":"Manggarai","station_id":"MRI","transit":true,"distance":1590,"i_lat":-6.209883,"is_transit":true,"time":4,"line":2,"i_long":106.84912},{"i_long":106.858896,"i_lat":-6.212485,"station_id":"MTR","time":2,"line":1,"station_name":"Matraman","is_transit":false,"distance":1275,"transit":false},{"station_id":"JNG","is_transit":true,"transit":true,"line":1,"i_lat":-6.215091,"i_long":106.86807400000001,"time":8,"distance":1377,"station_name":"Jatinegara"},{"transit":false,"time":2,"i_long":106.861737,"is_transit":false,"i_lat":-6.209188,"station_id":"POK","station_name":"Pondok Jati","line":11,"distance":1236},{"station_id":"KMT","line":11,"is_transit":false,"i_lat":-6.193792,"transit":false,"distance":1829,"i_long":106.855437,"time":2,"station_name":"Kramat"},{"i_lat":-6.185975,"transit":false,"station_id":"GST","distance":973,"time":1,"station_name":"Gang Sentiong","is_transit":false,"i_long":106.850107,"line":11},{"time":8,"is_transit":false,"transit":false,"station_id":"PSE","i_lat":-6.174784,"station_name":"Pasar Senen","distance":1567,"line":11,"i_long":106.84368},{"transit":false,"distance":1436,"station_name":"Kemayoran","station_id":"KMO","time":4,"i_lat":-6.161728,"line":11,"is_transit":false,"i_long":106.839204},{"station_id":"RJW","transit":false,"i_long":106.836569,"is_transit":false,"line":11,"time":5,"station_name":"Rajawali","i_lat":-6.14505,"distance":1901}]]}