{"data":[[{"station_name":"Palmerah","distance":0,"i_lat":-6.207404,"is_transit":false,"station_id":"PLM","i_long":106.79689,"line":6,"time":0,"transit":false},{"time":6,"station_name":"Tanah Abang","is_transit":true,"distance":3191,"station_id":"THB","line":1,"transit":true,"i_lat":-6.185545,"i_long":106.811091},{"i_lat":-6.20132,"i_long":106.816351,"station_id":"KAT","transit":false,"time":5,"is_transit":false,"line":1,"station_name":"Karet","distance":2029},{"station_name":"Sudirman Baru","line":1,"station_id":"SUDB","distance":471,"i_lat":-6.201433,"is_transit":false,"transit":false,"time":1,"i_long":106.819881},{"i_lat":-6.202263,"line":1,"time":1,"transit":false,"distance":280,"i_long":106.822649,"station_id":"SUD","is_transit":false,"station_name":"Sudirman"},{"i_long":106.84912,"time":4,"transit":true,"line":2,"station_id":"MRI","station_name":"Manggarai","distance":3186,"i_lat":-6.209883,"is_transit":true},{"i_lat":-6.226659,"line":2,"station_name":"Tebet","transit":false,"distance":2610,"station_id":"TEB","is_transit":false,"i_long":106.857948,"time":4},{"i_long":106.856607,"time":2,"distance":1230,"i_lat":-6.242512,"is_transit":false,"line":2,"transit":false,"station_id":"CW","station_name":"Cawang"},{"is_transit":false,"transit":false,"i_long":106.85449,"station_id":"DRN","i_lat":-6.255332,"distance":1546,"line":2,"time":3,"station_name":"Duren Kalibata"}],[{"transit":false,"i_lat":-6.207404,"i_long":106.79689,"line":6,"time":0,"station_name":"Palmerah","is_transit":false,"distance":0,"station_id":"PLM"},{"station_name":"Tanah Abang","station_id":"THB","i_long":106.811091,"i_lat":-6.185545,"time":6,"line":1,"transit":true,"is_transit":true,"distance":3191},{"transit":false,"time":8,"line":1,"i_lat":-6.155215,"i_long":106.800832,"is_transit":false,"distance":3632,"station_name":"Duri","station_id":"DU"},{"distance":1230,"line":1,"station_id":"AK","i_long":106.79867,"i_lat":-6.144674,"time":4,"station_name":"Angke","transit":false,"is_transit":false},{"is_transit":true,"station_id":"KPB","line":4,"transit":true,"time":9,"distance":4102,"i_lat":-6.132549,"i_long":106.826365,"station_name":"Kampung Bandan"},{"line":2,"i_lat":-6.137569,"is_transit":true,"station_name":"Jakarta Kota","i_long":106.812439,"distance":1364,"time":3,"station_id":"JAKK","transit":true},{"time":4,"station_id":"JAY","transit":false,"distance":1264,"i_lat":-6.141205,"station_name":"Jayakarta","is_transit":false,"i_long":106.820901,"line":2},{"distance":1080,"is_transit":false,"station_id":"MGB","i_lat":-6.149769,"i_long":106.82482,"line":2,"time":2,"transit":false,"station_name":"Manggabesar"},{"is_transit":false,"line":2,"time":2,"station_name":"Sawah Besar","i_lat":-6.160725,"transit":false,"distance":906,"station_id":"SW","i_long":106.827103},{"line":2,"is_transit":false,"i_lat":-6.166716,"distance":1149,"transit":false,"i_long":106.828284,"station_id":"JUA","time":2,"station_name":"Juanda"},{"distance":2015,"is_transit":false,"i_long":106.832183,"station_id":"GDD","time":4,"i_lat":-6.186295,"line":2,"station_name":"Gondangdia","transit":false},{"station_id":"CKI","line":2,"transit":false,"i_long":106.840169,"is_transit":false,"station_name":"Cikini","time":3,"distance":1750,"i_lat":-6.198556},{"time":4,"station_name":"Manggarai","distance":1590,"i_lat":-6.209883,"transit":false,"is_transit":false,"line":2,"station_id":"MRI","i_long":106.84912},{"transit":false,"i_lat":-6.226659,"line":2,"i_long":106.857948,"station_id":"TEB","station_name":"Tebet","is_transit":false,"time":4,"distance":2610},{"station_name":"Cawang","transit":false,"distance":1230,"i_long":106.856607,"i_lat":-6.242512,"is_transit":false,"station_id":"CW","line":2,"time":2},{"is_transit":false,"station_name":"Duren Kalibata","distance":1546,"i_lat":-6.255332,"transit":false,"i_long":106.85449,"time":3,"line":2,"station_id":"DRN"}],[{"line":6,"transit":false,"station_name":"Palmerah","distance":0,"time":0,"is_transit":false,"station_id":"PLM","i_long":106.79689,"i_lat":-6.207404},{"i_long":106.811091,"transit":true,"is_transit":true,"distance":3191,"station_name":"Tanah Abang","time":6,"line":1,"i_lat":-6.185545,"station_id":"THB"},{"line":1,"time":8,"transit":false,"i_lat":-6.155215,"distance":3632,"station_name":"Duri","is_transit":false,"station_id":"DU","i_long":106.800832},{"transit":false,"is_transit":false,"station_id":"AK","distance":1230,"time":4,"station_name":"Angke","i_long":106.79867,"i_lat":-6.144674,"line":1},{"is_transit":true,"i_lat":-6.132549,"i_long":106.826365,"line":4,"station_id":"KPB","distance":4102,"station_name":"Kampung Bandan","time":9,"transit":true},{"station_name":"Rajawali","line":11,"i_long":106.836569,"station_id":"RJW","distance":1444,"is_transit":false,"time":3,"i_lat":-6.14505,"transit":false},{"station_id":"KMO","station_name":"Kemayoran","distance":1901,"transit":false,"is_transit":false,"time":5,"i_lat":-6.161728,"line":11,"i_long":106.839204},{"station_id":"PSE","line":11,"is_transit":false,"station_name":"Pasar Senen","distance":1436,"transit":false,"time":4,"i_lat":-6.174784,"i_long":106.84368},{"station_name":"Gang Sentiong","line":11,"station_id":"GST","distance":1567,"time":8,"i_long":106.850107,"transit":false,"i_lat":-6.185975,"is_transit":false},{"is_transit":false,"station_name":"Kramat","time":1,"line":11,"distance":973,"station_id":"KMT","i_long":106.855437,"transit":false,"i_lat":-6.193792},{"is_transit":false,"transit":false,"line":11,"i_long":106.861737,"i_lat":-6.209188,"station_name":"Pondok Jati","station_id":"POK","time":2,"distance":1829},{"is_transit":true,"i_long":106.86807400000001,"transit":true,"station_id":"JNG","i_lat":-6.215091,"line":1,"time":9,"station_name":"Jatinegara","distance":1236},{"station_name":"Matraman","i_lat":-6.212485,"time":2,"i_long":106.858896,"distance":1377,"station_id":"MTR","transit":false,"is_transit":false,"line":1},{"transit":true,"line":2,"station_name":"Manggarai","time":2,"i_lat":-6.209883,"i_long":106.84912,"distance":1275,"is_transit":true,"station_id":"MRI"},{"station_name":"Tebet","transit":false,"is_transit":false,"station_id":"TEB","i_lat":-6.226659,"i_long":106.857948,"time":4,"line":2,"distance":2610},{"station_name":"Cawang","distance":1230,"line":2,"transit":false,"i_long":106.856607,"is_transit":false,"time":2,"i_lat":-6.242512,"station_id":"CW"},{"station_name":"Duren Kalibata","i_lat":-6.255332,"time":3,"i_long":106.85449,"line":2,"station_id":"DRN","is_transit":false,"transit":false,"distance":1546}]]}