{"data":[[{"i_lat":-6.207404,"distance":0,"transit":false,"station_id":"PLM","line":6,"time":0,"station_name":"Palmerah","is_transit":false,"i_long":106.79689},{"is_transit":true,"time":6,"i_lat":-6.185545,"i_long":106.811091,"distance":3191,"station_name":"Tanah Abang","line":1,"station_id":"THB","transit":true},{"i_lat":-6.20132,"i_long":106.816351,"time":5,"transit":false,"is_transit":false,"station_name":"Karet","station_id":"KAT","line":1,"distance":2029},{"i_long":106.819881,"i_lat":-6.201433,"transit":false,"station_id":"SUDB","line":1,"station_name":"Sudirman Baru","time":1,"is_transit":false,"distance":471},{"i_lat":-6.202263,"line":1,"time":1,"is_transit":false,"transit":false,"i_long":106.822649,"distance":280,"station_name":"Sudirman","station_id":"SUD"},{"station_id":"MRI","station_name":"Manggarai","distance":3186,"time":4,"is_transit":true,"i_long":106.84912,"transit":true,"line":2,"i_lat":-6.209883},{"i_lat":-6.226659,"time":4,"i_long":106.857948,"station_id":"TEB","is_transit":false,"line":2,"station_name":"Tebet","distance":2610,"transit":false},{"station_id":"CW","is_transit":false,"time":2,"i_long":106.856607,"line":2,"distance":1230,"transit":false,"station_name":"Cawang","i_lat":-6.242512},{"time":3,"station_id":"DRN","is_transit":false,"station_name":"Duren Kalibata","line":2,"transit":false,"distance":1546,"i_long":106.85449,"i_lat":-6.255332},{"station_id":"PSMB","time":2,"i_long":106.851577,"line":2,"transit":false,"station_name":"Pasar Minggu Baru","distance":824,"i_lat":-6.263214,"is_transit":false},{"station_id":"PSM","is_transit":false,"transit":false,"distance":2380,"station_name":"Pasar Minggu","i_long":106.843999,"line":2,"i_lat":-6.2842400000000005,"time":2},{"station_id":"TNT","is_transit":false,"time":4,"station_name":"Tanjung Barat","transit":false,"i_lat":-6.3080680000000005,"distance":2820,"i_long":106.838896,"line":2},{"time":3,"is_transit":false,"station_id":"LNA","i_long":106.832616,"line":2,"distance":2671,"transit":false,"i_lat":-6.330363,"station_name":"Lenteng Agung"},{"i_long":106.834175,"i_lat":-6.339291,"station_name":"Univ. Pancasila","distance":1029,"station_id":"UP","is_transit":false,"line":2,"transit":false,"time":2},{"time":3,"transit":false,"station_id":"UI","line":2,"is_transit":false,"station_name":"Univ. Indonesia","i_long":106.831474,"distance":2264,"i_lat":-6.360749},{"station_id":"POC","station_name":"Pondok Cina","transit":false,"distance":1109,"time":2,"is_transit":false,"i_lat":-6.369073,"line":2,"i_long":106.831114},{"line":2,"distance":2727,"transit":false,"i_long":106.819451,"is_transit":false,"station_id":"DPB","time":4,"station_name":"Depokbaru","i_lat":-6.391065},{"line":2,"station_name":"Depok","time":3,"distance":1584,"station_id":"DP","i_long":106.816926,"transit":false,"i_lat":-6.405256,"is_transit":false},{"station_name":"Citayam","i_lat":-6.448811,"i_long":106.800298,"station_id":"CTA","distance":5084,"transit":false,"is_transit":false,"time":6,"line":2},{"transit":false,"station_id":"BJD","station_name":"Bojonggede","i_long":106.792719,"time":5,"line":2,"i_lat":-6.493243,"distance":5197,"is_transit":false}],[{"transit":false,"time":0,"i_long":106.79689,"is_transit":false,"station_name":"Palmerah","distance":0,"station_id":"PLM","i_lat":-6.207404,"line":6},{"is_transit":true,"station_id":"THB","station_name":"Tanah Abang","line":1,"i_lat":-6.185545,"distance":3191,"transit":true,"time":6,"i_long":106.811091},{"i_long":106.800832,"transit":false,"is_transit":false,"i_lat":-6.155215,"line":1,"station_name":"Duri","distance":3632,"time":8,"station_id":"DU"},{"station_name":"Angke","distance":1230,"time":4,"transit":false,"is_transit":false,"i_lat":-6.144674,"i_long":106.79867,"station_id":"AK","line":1},{"is_transit":true,"distance":4102,"transit":true,"i_lat":-6.132549,"i_long":106.826365,"station_name":"Kampung Bandan","time":9,"line":4,"station_id":"KPB"},{"transit":true,"station_name":"Jakarta Kota","i_long":106.812439,"line":2,"time":3,"station_id":"JAKK","distance":1364,"i_lat":-6.137569,"is_transit":true},{"station_id":"JAY","station_name":"Jayakarta","distance":1264,"i_long":106.820901,"transit":false,"i_lat":-6.141205,"line":2,"time":4,"is_transit":false},{"station_name":"Manggabesar","transit":false,"is_transit":false,"distance":1080,"i_lat":-6.149769,"station_id":"MGB","time":2,"i_long":106.82482,"line":2},{"transit":false,"is_transit":false,"distance":906,"station_name":"Sawah Besar","line":2,"time":2,"i_lat":-6.160725,"station_id":"SW","i_long":106.827103},{"station_id":"JUA","i_long":106.828284,"time":2,"is_transit":false,"transit":false,"distance":1149,"i_lat":-6.166716,"line":2,"station_name":"Juanda"},{"time":4,"line":2,"i_lat":-6.186295,"is_transit":false,"i_long":106.832183,"station_name":"Gondangdia","distance":2015,"transit":false,"station_id":"GDD"},{"distance":1750,"time":3,"transit":false,"station_name":"Cikini","i_lat":-6.198556,"i_long":106.840169,"is_transit":false,"line":2,"station_id":"CKI"},{"i_long":106.84912,"station_id":"MRI","transit":false,"station_name":"Manggarai","distance":1590,"i_lat":-6.209883,"time":4,"is_transit":false,"line":2},{"is_transit":false,"line":2,"station_name":"Tebet","transit":false,"time":4,"i_long":106.857948,"i_lat":-6.226659,"distance":2610,"station_id":"TEB"},{"distance":1230,"station_name":"Cawang","i_lat":-6.242512,"is_transit":false,"station_id":"CW","transit":false,"time":2,"i_long":106.856607,"line":2},{"line":2,"i_lat":-6.255332,"is_transit":false,"transit":false,"station_id":"DRN","distance":1546,"station_name":"Duren Kalibata","time":3,"i_long":106.85449},{"i_lat":-6.263214,"i_long":106.851577,"station_id":"PSMB","time":2,"line":2,"station_name":"Pasar Minggu Baru","distance":824,"transit":false,"is_transit":false},{"time":2,"station_id":"PSM","station_name":"Pasar Minggu","is_transit":false,"i_long":106.843999,"distance":2380,"transit":false,"i_lat":-6.2842400000000005,"line":2},{"distance":2820,"i_long":106.838896,"line":2,"transit":false,"time":4,"i_lat":-6.3080680000000005,"station_id":"TNT","is_transit":false,"station_name":"Tanjung Barat"},{"i_long":106.832616,"line":2,"distance":2671,"time":3,"is_transit":false,"station_id":"LNA","station_name":"Lenteng Agung","transit":false,"i_lat":-6.330363},{"station_name":"Univ. Pancasila","station_id":"UP","i_long":106.834175,"is_transit":false,"time":2,"i_lat":-6.339291,"distance":1029,"transit":false,"line":2},{"time":3,"station_name":"Univ. Indonesia","i_lat":-6.360749,"transit":false,"i_long":106.831474,"line":2,"distance":2264,"is_transit":false,"station_id":"UI"},{"transit":false,"is_transit":false,"station_name":"Pondok Cina","distance":1109,"line":2,"i_lat":-6.369073,"i_long":106.831114,"station_id":"POC","time":2},{"i_long":106.819451,"station_id":"DPB","distance":2727,"station_name":"Depokbaru","transit":false,"time":4,"is_transit":false,"i_lat":-6.391065,"line":2},{"station_name":"Depok","i_long":106.816926,"station_id":"DP","time":3,"is_transit":false,"line":2,"distance":1584,"transit":false,"i_lat":-6.405256},{"transit":false,"i_lat":-6.448811,"line":2,"distance":5084,"time":6,"is_transit":false,"station_id":"CTA","i_long":106.800298,"station_name":"Citayam"},{"transit":false,"line":2,"station_name":"Bojonggede","time":5,"station_id":"BJD","i_lat":-6.493243,"is_transit":false,"distance":5197,"i_long":106.792719}],[{"transit":false,"line":6,"distance":0,"station_name":"Palmerah","time":0,"is_transit":false,"i_lat":-6.207404,"station_id":"PLM","i_long":106.79689},{"i_long":106.811091,"transit":true,"i_lat":-6.185545,"station_id":"THB","is_transit":true,"station_name":"Tanah Abang","line":1,"distance":3191,"time":6},{"transit":false,"station_name":"Duri","time":8,"distance":3632,"line":1,"is_transit":false,"i_lat":-6.155215,"i_long":106.800832,"station_id":"DU"},{"transit":false,"i_long":106.79867,"i_lat":-6.144674,"is_transit":false,"station_id":"AK","line":1,"time":4,"distance":1230,"station_name":"Angke"},{"i_long":106.826365,"time":9,"i_lat":-6.132549,"transit":true,"is_transit":true,"distance":4102,"station_id":"KPB","line":4,"station_name":"Kampung Bandan"},{"is_transit":false,"distance":1444,"time":3,"station_name":"Rajawali","i_lat":-6.14505,"i_long":106.836569,"line":11,"station_id":"RJW","transit":false},{"distance":1901,"is_transit":false,"transit":false,"station_id":"KMO","time":5,"station_name":"Kemayoran","i_lat":-6.161728,"line":11,"i_long":106.839204},{"is_transit":false,"line":11,"time":4,"i_lat":-6.174784,"distance":1436,"transit":false,"station_id":"PSE","i_long":106.84368,"station_name":"Pasar Senen"},{"station_id":"GST","i_lat":-6.185975,"time":8,"line":11,"station_name":"Gang Sentiong","transit":false,"distance":1567,"is_transit":false,"i_long":106.850107},{"is_transit":false,"time":1,"i_long":106.855437,"line":11,"station_name":"Kramat","i_lat":-6.193792,"station_id":"KMT","transit":false,"distance":973},{"line":11,"station_id":"POK","station_name":"Pondok Jati","distance":1829,"is_transit":false,"i_lat":-6.209188,"i_long":106.861737,"transit":false,"time":2},{"time":9,"transit":true,"station_name":"Jatinegara","i_long":106.86807400000001,"line":1,"station_id":"JNG","i_lat":-6.215091,"distance":1236,"is_transit":true},{"i_lat":-6.212485,"station_id":"MTR","line":1,"i_long":106.858896,"station_name":"Matraman","is_transit":false,"distance":1377,"time":2,"transit":false},{"i_lat":-6.209883,"station_id":"MRI","station_name":"Manggarai","line":2,"transit":true,"time":2,"i_long":106.84912,"distance":1275,"is_transit":true},{"is_transit":false,"distance":2610,"transit":false,"time":4,"i_lat":-6.226659,"station_name":"Tebet","line":2,"i_long":106.857948,"station_id":"TEB"},{"time":2,"station_name":"Cawang","distance":1230,"is_transit":false,"transit":false,"i_lat":-6.242512,"station_id":"CW","i_long":106.856607,"line":2},{"i_lat":-6.255332,"i_long":106.85449,"line":2,"distance":1546,"transit":false,"time":3,"station_id":"DRN","is_transit":false,"station_name":"Duren Kalibata"},{"i_long":106.851577,"line":2,"distance":824,"transit":false,"station_id":"PSMB","station_name":"Pasar Minggu Baru","time":2,"i_lat":-6.263214,"is_transit":false},{"is_transit":false,"i_lat":-6.2842400000000005,"station_name":"Pasar Minggu","station_id":"PSM","distance":2380,"transit":false,"i_long":106.843999,"line":2,"time":2},{"i_lat":-6.3080680000000005,"i_long":106.838896,"distance":2820,"line":2,"station_name":"Tanjung Barat","is_transit":false,"time":4,"station_id":"TNT","transit":false},{"line":2,"station_name":"Lenteng Agung","station_id":"LNA","i_lat":-6.330363,"i_long":106.832616,"is_transit":false,"distance":2671,"transit":false,"time":3},{"is_transit":false,"station_name":"Univ. Pancasila","transit":false,"i_long":106.834175,"line":2,"i_lat":-6.339291,"station_id":"UP","time":2,"distance":1029},{"line":2,"is_transit":false,"station_name":"Univ. Indonesia","transit":false,"i_long":106.831474,"distance":2264,"time":3,"station_id":"UI","i_lat":-6.360749},{"i_lat":-6.369073,"transit":false,"station_name":"Pondok Cina","time":2,"i_long":106.831114,"station_id":"POC","line":2,"is_transit":false,"distance":1109},{"transit":false,"line":2,"time":4,"station_name":"Depokbaru","is_transit":false,"station_id":"DPB","distance":2727,"i_lat":-6.391065,"i_long":106.819451},{"transit":false,"time":3,"i_lat":-6.405256,"line":2,"is_transit":false,"i_long":106.816926,"distance":1584,"station_name":"Depok","station_id":"DP"},{"is_transit":false,"transit":false,"station_name":"Citayam","time":6,"station_id":"CTA","i_lat":-6.448811,"line":2,"distance":5084,"i_long":106.800298},{"station_name":"Bojonggede","station_id":"BJD","i_long":106.792719,"distance":5197,"time":5,"is_transit":false,"transit":false,"i_lat":-6.493243,"line":2}]]}