{"data":[[{"time":0,"i_long":106.79689,"i_lat":-6.207404,"line":6,"distance":0,"station_id":"PLM","station_name":"Palmerah","is_transit":false,"transit":false},{"station_id":"THB","station_name":"Tanah Abang","i_lat":-6.185545,"line":1,"transit":true,"is_transit":true,"time":6,"i_long":106.811091,"distance":3191},{"line":1,"i_lat":-6.20132,"distance":2029,"i_long":106.816351,"is_transit":false,"station_id":"KAT","time":5,"transit":false,"station_name":"Karet"},{"is_transit":false,"distance":471,"i_lat":-6.201433,"time":1,"i_long":106.819881,"station_name":"Sudirman Baru","line":1,"station_id":"SUDB","transit":false},{"is_transit":false,"i_lat":-6.202263,"line":1,"time":1,"distance":280,"station_id":"SUD","i_long":106.822649,"station_name":"Sudirman","transit":false},{"distance":3186,"transit":true,"station_id":"MRI","i_lat":-6.209883,"i_long":106.84912,"time":4,"line":0,"station_name":"Manggarai","is_transit":true},{"i_long":106.840169,"line":0,"i_lat":-6.198556,"station_name":"Cikini","is_transit":false,"transit":false,"distance":1590,"station_id":"CKI","time":4},{"distance":1750,"station_id":"GDD","transit":false,"station_name":"Gondangdia","i_long":106.832183,"is_transit":false,"line":2,"i_lat":-6.186295,"time":3},{"station_name":"Juanda","station_id":"JUA","transit":false,"i_lat":-6.166716,"i_long":106.828284,"distance":2015,"line":2,"time":4,"is_transit":false}],[{"distance":0,"i_lat":-6.207404,"station_id":"PLM","is_transit":false,"station_name":"Palmerah","transit":false,"time":0,"i_long":106.79689,"line":6},{"station_id":"THB","distance":3191,"station_name":"Tanah Abang","time":6,"i_lat":-6.185545,"is_transit":true,"transit":true,"i_long":106.811091,"line":1},{"station_name":"Duri","line":1,"i_long":106.800832,"transit":true,"time":8,"station_id":"DU","distance":3632,"i_lat":-6.155215,"is_transit":true},{"i_lat":-6.144674,"station_name":"Angke","distance":1230,"i_long":106.79867,"station_id":"AK","line":0,"transit":false,"time":4,"is_transit":false},{"time":9,"transit":false,"station_name":"Kampung Bandan","station_id":"KPB","i_lat":-6.132549,"i_long":106.826365,"is_transit":true,"line":0,"distance":4102},{"line":0,"station_name":"Jakarta Kota","time":3,"i_long":106.812439,"transit":true,"distance":1364,"is_transit":true,"station_id":"JAKK","i_lat":-6.137569},{"station_id":"JAY","transit":false,"is_transit":false,"distance":1264,"station_name":"Jayakarta","time":4,"i_lat":-6.141205,"i_long":106.820901,"line":7},{"station_name":"Manggabesar","i_long":106.82482,"line":2,"is_transit":false,"distance":1080,"i_lat":-6.149769,"time":2,"station_id":"MGB","transit":false},{"i_lat":-6.160725,"distance":906,"station_id":"SW","is_transit":false,"i_long":106.827103,"line":2,"transit":false,"time":2,"station_name":"Sawah Besar"},{"i_long":106.828284,"transit":false,"station_id":"JUA","time":2,"i_lat":-6.166716,"line":2,"distance":1149,"station_name":"Juanda","is_transit":false}],[{"distance":0,"is_transit":false,"station_id":"PLM","time":0,"i_long":106.79689,"station_name":"Palmerah","i_lat":-6.207404,"line":6,"transit":false},{"i_long":106.811091,"distance":3191,"station_name":"Tanah Abang","transit":true,"station_id":"THB","time":6,"line":1,"i_lat":-6.185545,"is_transit":true},{"i_long":106.800832,"time":8,"transit":true,"line":1,"distance":3632,"is_transit":true,"station_id":"DU","i_lat":-6.155215,"station_name":"Duri"},{"station_id":"AK","i_long":106.79867,"station_name":"Angke","is_transit":false,"distance":1230,"transit":false,"time":4,"i_lat":-6.144674,"line":0},{"i_long":106.826365,"is_transit":true,"station_id":"KPB","time":9,"transit":true,"station_name":"Kampung Bandan","distance":4102,"i_lat":-6.132549,"line":0},{"is_transit":false,"time":3,"station_name":"Rajawali","i_lat":-6.14505,"station_id":"RJW","line":11,"distance":1444,"transit":false,"i_long":106.836569},{"i_lat":-6.161728,"station_name":"Kemayoran","i_long":106.839204,"transit":false,"distance":1901,"time":5,"station_id":"KMO","line":11,"is_transit":false},{"station_name":"Pasar Senen","distance":1436,"transit":false,"line":11,"is_transit":false,"i_lat":-6.174784,"i_long":106.84368,"station_id":"PSE","time":4},{"station_name":"Gang Sentiong","transit":false,"time":8,"distance":1567,"i_lat":-6.185975,"line":11,"station_id":"GST","is_transit":false,"i_long":106.850107},{"distance":973,"i_long":106.855437,"line":11,"time":1,"station_id":"KMT","station_name":"Kramat","i_lat":-6.193792,"transit":false,"is_transit":false},{"station_name":"Pondok Jati","line":11,"i_long":106.861737,"i_lat":-6.209188,"is_transit":false,"station_id":"POK","transit":false,"distance":1829,"time":2},{"station_name":"Jatinegara","is_transit":true,"time":9,"i_lat":-6.215091,"distance":1236,"station_id":"JNG","i_long":106.86807400000001,"transit":true,"line":0},{"transit":false,"station_id":"MTR","is_transit":false,"i_lat":-6.212485,"station_name":"Matraman","time":2,"i_long":106.858896,"distance":1377,"line":1},{"transit":true,"station_name":"Manggarai","i_long":106.84912,"station_id":"MRI","time":2,"distance":1275,"line":0,"i_lat":-6.209883,"is_transit":true},{"line":0,"station_id":"CKI","station_name":"Cikini","time":4,"i_long":106.840169,"transit":false,"is_transit":false,"distance":1590,"i_lat":-6.198556},{"transit":false,"distance":1750,"station_id":"GDD","station_name":"Gondangdia","line":2,"i_long":106.832183,"i_lat":-6.186295,"is_transit":false,"time":3},{"station_id":"JUA","is_transit":false,"distance":2015,"line":2,"time":4,"i_lat":-6.166716,"transit":false,"i_long":106.828284,"station_name":"Juanda"}],[{"distance":0,"transit":false,"station_id":"PLM","time":0,"i_long":106.79689,"line":6,"i_lat":-6.207404,"station_name":"Palmerah","is_transit":false},{"time":6,"station_name":"Tanah Abang","station_id":"THB","line":1,"i_lat":-6.185545,"is_transit":true,"transit":true,"distance":3191,"i_long":106.811091},{"is_transit":false,"distance":2029,"station_name":"Karet","i_lat":-6.20132,"line":1,"transit":false,"time":5,"station_id":"KAT","i_long":106.816351},{"transit":false,"time":1,"station_id":"SUDB","station_name":"Sudirman Baru","is_transit":false,"i_long":106.819881,"line":1,"distance":471,"i_lat":-6.201433},{"distance":280,"time":1,"i_lat":-6.202263,"transit":false,"i_long":106.822649,"line":1,"station_name":"Sudirman","station_id":"SUD","is_transit":false},{"station_id":"MRI","time":4,"is_transit":true,"i_long":106.84912,"i_lat":-6.209883,"transit":false,"line":0,"station_name":"Manggarai","distance":3186},{"distance":1275,"i_long":106.858896,"time":2,"is_transit":false,"line":1,"station_id":"MTR","i_lat":-6.212485,"transit":false,"station_name":"Matraman"},{"is_transit":true,"station_id":"JNG","i_long":106.86807400000001,"time":8,"line":0,"station_name":"Jatinegara","transit":true,"distance":1377,"i_lat":-6.215091},{"station_id":"POK","i_long":106.861737,"distance":1236,"i_lat":-6.209188,"transit":false,"station_name":"Pondok Jati","time":2,"line":11,"is_transit":false},{"station_name":"Kramat","time":2,"i_lat":-6.193792,"distance":1829,"station_id":"KMT","is_transit":false,"i_long":106.855437,"transit":false,"line":11},{"i_long":106.850107,"station_id":"GST","distance":973,"station_name":"Gang Sentiong","is_transit":false,"transit":false,"line":11,"i_lat":-6.185975,"time":1},{"line":11,"i_long":106.84368,"distance":1567,"station_name":"Pasar Senen","station_id":"PSE","time":8,"transit":false,"is_transit":false,"i_lat":-6.174784},{"station_name":"Kemayoran","time":4,"distance":1436,"i_lat":-6.161728,"is_transit":false,"i_long":106.839204,"station_id":"KMO","line":11,"transit":false},{"transit":false,"station_name":"Rajawali","line":11,"time":5,"station_id":"RJW","i_lat":-6.14505,"i_long":106.836569,"is_transit":false,"distance":1901},{"is_transit":true,"station_id":"KPB","line":0,"distance":1444,"transit":true,"time":3,"i_long":106.826365,"station_name":"Kampung Bandan","i_lat":-6.132549},{"station_id":"JAKK","is_transit":true,"i_lat":-6.137569,"i_long":106.812439,"line":0,"distance":1364,"time":3,"transit":true,"station_name":"Jakarta Kota"},{"transit":false,"station_name":"Jayakarta","station_id":"JAY","time":4,"distance":1264,"i_lat":-6.141205,"i_long":106.820901,"line":7,"is_transit":false},{"time":2,"line":2,"station_name":"Manggabesar","is_transit":false,"station_id":"MGB","i_lat":-6.149769,"transit":false,"i_long":106.82482,"distance":1080},{"time":2,"i_lat":-6.160725,"station_id":"SW","station_name":"Sawah Besar","transit":false,"is_transit":false,"distance":906,"i_long":106.827103,"line":2},{"time":2,"i_lat":-6.166716,"i_long":106.828284,"station_name":"Juanda","is_transit":false,"station_id":"JUA","transit":false,"line":2,"distance":1149}]]}