{"data":[[{"line":6,"station_id":"PLM","i_long":106.79689,"transit":false,"station_name":"Palmerah","time":0,"distance":0,"i_lat":-6.207404,"is_transit":false},{"time":6,"distance":3191,"is_transit":true,"i_long":106.811091,"transit":true,"i_lat":-6.185545,"station_name":"Tanah Abang","station_id":"THB","line":1},{"is_transit":false,"station_id":"KAT","transit":false,"distance":2029,"i_lat":-6.20132,"i_long":106.816351,"station_name":"Karet","line":1,"time":5},{"station_id":"SUDB","station_name":"Sudirman Baru","transit":false,"is_transit":false,"distance":471,"i_lat":-6.201433,"i_long":106.819881,"line":1,"time":1},{"station_name":"Sudirman","transit":false,"is_transit":false,"i_lat":-6.202263,"station_id":"SUD","distance":280,"i_long":106.822649,"line":1,"time":1},{"distance":3186,"time":4,"station_id":"MRI","is_transit":false,"i_lat":-6.209883,"i_long":106.84912,"line":2,"station_name":"Manggarai","transit":false}],[{"i_long":106.79689,"time":0,"line":6,"distance":0,"transit":false,"station_id":"PLM","is_transit":false,"i_lat":-6.207404,"station_name":"Palmerah"},{"line":1,"is_transit":true,"distance":3191,"station_name":"Tanah Abang","transit":true,"i_long":106.811091,"station_id":"THB","time":6,"i_lat":-6.185545},{"transit":false,"i_long":106.800832,"station_name":"Duri","is_transit":false,"time":8,"i_lat":-6.155215,"distance":3632,"line":1,"station_id":"DU"},{"station_name":"Angke","transit":false,"i_lat":-6.144674,"is_transit":false,"time":4,"distance":1230,"line":1,"i_long":106.79867,"station_id":"AK"},{"line":4,"transit":true,"time":9,"i_long":106.826365,"distance":4102,"station_id":"KPB","i_lat":-6.132549,"station_name":"Kampung Bandan","is_transit":true},{"station_name":"Jakarta Kota","i_long":106.812439,"is_transit":true,"station_id":"JAKK","distance":1364,"i_lat":-6.137569,"transit":true,"time":3,"line":2},{"station_id":"JAY","transit":false,"distance":1264,"station_name":"Jayakarta","is_transit":false,"i_lat":-6.141205,"line":2,"i_long":106.820901,"time":4},{"is_transit":false,"time":2,"line":2,"transit":false,"station_id":"MGB","station_name":"Manggabesar","distance":1080,"i_long":106.82482,"i_lat":-6.149769},{"i_lat":-6.160725,"is_transit":false,"transit":false,"station_name":"Sawah Besar","distance":906,"i_long":106.827103,"line":2,"time":2,"station_id":"SW"},{"is_transit":false,"distance":1149,"i_long":106.828284,"transit":false,"station_name":"Juanda","time":2,"i_lat":-6.166716,"line":2,"station_id":"JUA"},{"i_lat":-6.186295,"line":2,"station_id":"GDD","distance":2015,"transit":false,"station_name":"Gondangdia","time":4,"is_transit":false,"i_long":106.832183},{"i_lat":-6.198556,"station_name":"Cikini","station_id":"CKI","i_long":106.840169,"time":3,"transit":false,"distance":1750,"line":2,"is_transit":false},{"i_lat":-6.209883,"line":2,"i_long":106.84912,"time":4,"distance":1590,"station_name":"Manggarai","transit":false,"station_id":"MRI","is_transit":false}],[{"i_lat":-6.207404,"distance":0,"station_id":"PLM","station_name":"Palmerah","transit":false,"is_transit":false,"time":0,"i_long":106.79689,"line":6},{"transit":true,"time":6,"station_id":"THB","station_name":"Tanah Abang","i_long":106.811091,"distance":3191,"line":1,"i_lat":-6.185545,"is_transit":true},{"distance":3632,"line":1,"is_transit":false,"i_lat":-6.155215,"station_id":"DU","station_name":"Duri","time":8,"i_long":106.800832,"transit":false},{"is_transit":false,"i_long":106.79867,"transit":false,"time":4,"distance":1230,"i_lat":-6.144674,"station_id":"AK","line":1,"station_name":"Angke"},{"distance":4102,"station_id":"KPB","i_long":106.826365,"transit":true,"time":9,"line":4,"i_lat":-6.132549,"is_transit":true,"station_name":"Kampung Bandan"},{"time":3,"distance":1444,"i_long":106.836569,"line":11,"i_lat":-6.14505,"station_name":"Rajawali","station_id":"RJW","is_transit":false,"transit":false},{"i_long":106.839204,"time":5,"transit":false,"distance":1901,"station_id":"KMO","station_name":"Kemayoran","line":11,"i_lat":-6.161728,"is_transit":false},{"station_id":"PSE","line":11,"distance":1436,"i_long":106.84368,"time":4,"is_transit":false,"i_lat":-6.174784,"transit":false,"station_name":"Pasar Senen"},{"time":8,"i_lat":-6.185975,"is_transit":false,"transit":false,"station_name":"Gang Sentiong","distance":1567,"i_long":106.850107,"line":11,"station_id":"GST"},{"distance":973,"line":11,"transit":false,"station_id":"KMT","i_long":106.855437,"is_transit":false,"i_lat":-6.193792,"station_name":"Kramat","time":1},{"is_transit":false,"line":11,"distance":1829,"i_lat":-6.209188,"transit":false,"i_long":106.861737,"station_id":"POK","station_name":"Pondok Jati","time":2},{"distance":1236,"i_long":106.86807400000001,"is_transit":true,"i_lat":-6.215091,"station_id":"JNG","line":1,"station_name":"Jatinegara","transit":true,"time":9},{"is_transit":false,"i_long":106.858896,"time":2,"transit":false,"line":1,"i_lat":-6.212485,"distance":1377,"station_name":"Matraman","station_id":"MTR"},{"station_id":"MRI","distance":1275,"transit":false,"i_long":106.84912,"line":2,"is_transit":false,"i_lat":-6.209883,"time":2,"station_name":"Manggarai"}]]}