{"data":[[{"is_transit":false,"distance":0,"line":6,"i_long":106.79689,"time":0,"transit":false,"i_lat":-6.207404,"station_name":"Palmerah","station_id":"PLM"},{"station_id":"KBY","i_lat":-6.237242,"transit":false,"distance":3737,"time":7,"station_name":"Kebayoran","line":6,"is_transit":false,"i_long":106.780334},{"i_long":106.74273,"is_transit":false,"i_lat":-6.276362,"line":6,"distance":6218,"time":8,"transit":false,"station_id":"PDJ","station_name":"Pondokranji"},{"is_transit":false,"i_lat":-6.288927,"time":3,"station_id":"JMU","distance":2179,"i_long":106.728916,"station_name":"Jurangmangu","transit":false,"line":6},{"station_name":"Sudimara","transit":false,"line":6,"is_transit":false,"distance":1994,"i_lat":-6.296963,"time":4,"i_long":106.712277,"station_id":"SDM"},{"time":6,"distance":4566,"transit":false,"i_long":106.675475,"i_lat":-6.314823,"is_transit":false,"station_id":"RU","line":6,"station_name":"Rawa Buntu"},{"transit":false,"distance":2413,"i_lat":-6.319871,"station_id":"SRP","station_name":"Serpong","i_long":106.66566,"line":6,"is_transit":false,"time":4},{"station_name":"Cisauk","time":4,"distance":1784,"transit":false,"i_lat":-6.32484,"is_transit":false,"i_long":106.640411,"line":3,"station_id":"CSK"}]]}