{"data":[[{"time":0,"transit":false,"station_id":"PLM","i_long":106.79689,"i_lat":-6.207404,"is_transit":false,"station_name":"Palmerah","distance":0,"line":6},{"is_transit":false,"i_lat":-6.237242,"i_long":106.780334,"station_id":"KBY","transit":false,"distance":3737,"station_name":"Kebayoran","line":6,"time":7},{"station_name":"Pondokranji","transit":false,"i_lat":-6.276362,"time":8,"distance":6218,"station_id":"PDJ","is_transit":false,"line":6,"i_long":106.74273},{"distance":2179,"is_transit":false,"line":6,"i_lat":-6.288927,"station_id":"JMU","transit":false,"time":3,"station_name":"Jurangmangu","i_long":106.728916},{"time":4,"is_transit":false,"i_lat":-6.296963,"line":6,"station_name":"Sudimara","station_id":"SDM","distance":1994,"transit":false,"i_long":106.712277},{"line":6,"transit":false,"station_name":"Rawa Buntu","station_id":"RU","distance":4566,"i_lat":-6.314823,"time":6,"is_transit":false,"i_long":106.675475},{"i_lat":-6.319871,"transit":false,"i_long":106.66566,"is_transit":false,"station_id":"SRP","station_name":"Serpong","distance":2413,"time":4,"line":6},{"i_long":106.640411,"line":3,"distance":1784,"is_transit":false,"station_id":"CSK","time":4,"i_lat":-6.32484,"transit":false,"station_name":"Cisauk"},{"station_id":"CC","i_long":106.617853,"line":3,"station_name":"Cicayur","is_transit":false,"i_lat":-6.329547,"time":4,"transit":false,"distance":2519},{"station_id":"PRP","i_long":106.568863,"transit":false,"line":6,"is_transit":false,"time":8,"i_lat":-6.3441410000000005,"station_name":"Parung Panjang","distance":5968}]]}