{"data":[[{"is_transit":false,"i_long":106.79689,"line":6,"distance":0,"station_id":"PLM","station_name":"Palmerah","transit":false,"i_lat":-6.207404,"time":0},{"transit":true,"distance":3191,"i_lat":-6.185545,"line":1,"station_name":"Tanah Abang","time":6,"station_id":"THB","is_transit":true,"i_long":106.811091},{"distance":2029,"is_transit":false,"i_long":106.816351,"station_id":"KAT","transit":false,"time":5,"station_name":"Karet","i_lat":-6.20132,"line":1},{"is_transit":false,"station_name":"Sudirman Baru","distance":471,"i_long":106.819881,"time":1,"station_id":"SUDB","transit":false,"line":1,"i_lat":-6.201433},{"i_lat":-6.202263,"station_id":"SUD","transit":false,"line":1,"station_name":"Sudirman","time":1,"is_transit":false,"i_long":106.822649,"distance":280},{"station_name":"Manggarai","distance":3186,"i_lat":-6.209883,"time":4,"station_id":"MRI","is_transit":true,"transit":true,"i_long":106.84912,"line":2},{"is_transit":false,"i_lat":-6.226659,"line":2,"time":4,"transit":false,"i_long":106.857948,"station_name":"Tebet","distance":2610,"station_id":"TEB"},{"i_long":106.856607,"distance":1230,"station_name":"Cawang","station_id":"CW","is_transit":false,"line":2,"time":2,"i_lat":-6.242512,"transit":false},{"station_id":"DRN","station_name":"Duren Kalibata","line":2,"transit":false,"time":3,"is_transit":false,"i_lat":-6.255332,"distance":1546,"i_long":106.85449},{"station_name":"Pasar Minggu Baru","transit":false,"time":2,"station_id":"PSMB","is_transit":false,"i_long":106.851577,"line":2,"distance":824,"i_lat":-6.263214},{"is_transit":false,"station_id":"PSM","station_name":"Pasar Minggu","distance":2380,"transit":false,"line":2,"i_long":106.843999,"time":2,"i_lat":-6.2842400000000005},{"transit":false,"line":2,"time":4,"station_name":"Tanjung Barat","is_transit":false,"i_long":106.838896,"i_lat":-6.3080680000000005,"station_id":"TNT","distance":2820},{"station_id":"LNA","distance":2671,"transit":false,"line":2,"is_transit":false,"time":3,"i_lat":-6.330363,"i_long":106.832616,"station_name":"Lenteng Agung"},{"transit":false,"i_lat":-6.339291,"time":2,"station_name":"Univ. Pancasila","distance":1029,"i_long":106.834175,"line":2,"station_id":"UP","is_transit":false},{"i_lat":-6.360749,"station_id":"UI","is_transit":false,"time":3,"station_name":"Univ. Indonesia","i_long":106.831474,"line":2,"distance":2264,"transit":false},{"i_long":106.831114,"time":2,"station_name":"Pondok Cina","is_transit":false,"transit":false,"i_lat":-6.369073,"distance":1109,"station_id":"POC","line":2}],[{"time":0,"is_transit":false,"transit":false,"line":6,"distance":0,"station_id":"PLM","i_long":106.79689,"station_name":"Palmerah","i_lat":-6.207404},{"station_name":"Tanah Abang","time":6,"station_id":"THB","transit":true,"i_lat":-6.185545,"i_long":106.811091,"line":1,"distance":3191,"is_transit":true},{"distance":3632,"i_lat":-6.155215,"i_long":106.800832,"transit":false,"station_id":"DU","is_transit":false,"time":8,"station_name":"Duri","line":1},{"i_long":106.79867,"is_transit":false,"station_id":"AK","i_lat":-6.144674,"time":4,"transit":false,"line":1,"station_name":"Angke","distance":1230},{"time":9,"station_id":"KPB","transit":true,"distance":4102,"line":4,"i_long":106.826365,"station_name":"Kampung Bandan","is_transit":true,"i_lat":-6.132549},{"distance":1364,"is_transit":true,"transit":true,"station_name":"Jakarta Kota","station_id":"JAKK","i_lat":-6.137569,"line":2,"time":3,"i_long":106.812439},{"i_lat":-6.141205,"station_name":"Jayakarta","transit":false,"distance":1264,"i_long":106.820901,"station_id":"JAY","is_transit":false,"time":4,"line":2},{"is_transit":false,"time":2,"distance":1080,"station_name":"Manggabesar","station_id":"MGB","i_lat":-6.149769,"i_long":106.82482,"line":2,"transit":false},{"station_name":"Sawah Besar","transit":false,"i_lat":-6.160725,"line":2,"time":2,"distance":906,"station_id":"SW","i_long":106.827103,"is_transit":false},{"line":2,"transit":false,"is_transit":false,"i_lat":-6.166716,"time":2,"station_id":"JUA","distance":1149,"i_long":106.828284,"station_name":"Juanda"},{"i_lat":-6.186295,"station_name":"Gondangdia","i_long":106.832183,"station_id":"GDD","time":4,"line":2,"transit":false,"distance":2015,"is_transit":false},{"station_name":"Cikini","is_transit":false,"time":3,"i_lat":-6.198556,"transit":false,"station_id":"CKI","i_long":106.840169,"line":2,"distance":1750},{"station_id":"MRI","station_name":"Manggarai","i_lat":-6.209883,"transit":false,"is_transit":false,"i_long":106.84912,"line":2,"time":4,"distance":1590},{"i_long":106.857948,"is_transit":false,"distance":2610,"i_lat":-6.226659,"line":2,"time":4,"station_id":"TEB","transit":false,"station_name":"Tebet"},{"station_name":"Cawang","distance":1230,"i_lat":-6.242512,"station_id":"CW","i_long":106.856607,"time":2,"line":2,"transit":false,"is_transit":false},{"i_lat":-6.255332,"station_id":"DRN","line":2,"time":3,"station_name":"Duren Kalibata","is_transit":false,"distance":1546,"transit":false,"i_long":106.85449},{"is_transit":false,"line":2,"station_id":"PSMB","time":2,"station_name":"Pasar Minggu Baru","distance":824,"transit":false,"i_lat":-6.263214,"i_long":106.851577},{"i_lat":-6.2842400000000005,"i_long":106.843999,"station_name":"Pasar Minggu","line":2,"distance":2380,"station_id":"PSM","time":2,"is_transit":false,"transit":false},{"i_long":106.838896,"station_id":"TNT","line":2,"transit":false,"time":4,"distance":2820,"i_lat":-6.3080680000000005,"is_transit":false,"station_name":"Tanjung Barat"},{"line":2,"station_id":"LNA","distance":2671,"is_transit":false,"i_lat":-6.330363,"transit":false,"i_long":106.832616,"time":3,"station_name":"Lenteng Agung"},{"distance":1029,"station_name":"Univ. Pancasila","transit":false,"station_id":"UP","line":2,"is_transit":false,"time":2,"i_lat":-6.339291,"i_long":106.834175},{"i_lat":-6.360749,"distance":2264,"is_transit":false,"station_name":"Univ. Indonesia","station_id":"UI","line":2,"transit":false,"i_long":106.831474,"time":3},{"is_transit":false,"time":2,"station_name":"Pondok Cina","distance":1109,"transit":false,"line":2,"station_id":"POC","i_lat":-6.369073,"i_long":106.831114}],[{"i_long":106.79689,"time":0,"station_name":"Palmerah","is_transit":false,"transit":false,"i_lat":-6.207404,"station_id":"PLM","line":6,"distance":0},{"line":1,"time":6,"is_transit":true,"i_lat":-6.185545,"station_name":"Tanah Abang","distance":3191,"station_id":"THB","transit":true,"i_long":106.811091},{"is_transit":false,"distance":3632,"i_lat":-6.155215,"station_id":"DU","i_long":106.800832,"line":1,"transit":false,"time":8,"station_name":"Duri"},{"is_transit":false,"i_long":106.79867,"line":1,"distance":1230,"station_id":"AK","transit":false,"time":4,"station_name":"Angke","i_lat":-6.144674},{"time":9,"is_transit":true,"i_long":106.826365,"line":4,"i_lat":-6.132549,"transit":true,"station_name":"Kampung Bandan","distance":4102,"station_id":"KPB"},{"i_long":106.836569,"i_lat":-6.14505,"line":11,"station_id":"RJW","time":3,"station_name":"Rajawali","distance":1444,"is_transit":false,"transit":false},{"station_id":"KMO","station_name":"Kemayoran","transit":false,"time":5,"distance":1901,"is_transit":false,"i_lat":-6.161728,"line":11,"i_long":106.839204},{"station_name":"Pasar Senen","line":11,"distance":1436,"time":4,"station_id":"PSE","transit":false,"i_lat":-6.174784,"i_long":106.84368,"is_transit":false},{"station_name":"Gang Sentiong","is_transit":false,"time":8,"transit":false,"i_long":106.850107,"line":11,"distance":1567,"station_id":"GST","i_lat":-6.185975},{"station_name":"Kramat","station_id":"KMT","is_transit":false,"i_long":106.855437,"line":11,"distance":973,"transit":false,"i_lat":-6.193792,"time":1},{"station_name":"Pondok Jati","i_long":106.861737,"i_lat":-6.209188,"is_transit":false,"transit":false,"station_id":"POK","time":2,"line":11,"distance":1829},{"is_transit":true,"i_long":106.86807400000001,"transit":true,"i_lat":-6.215091,"time":9,"station_name":"Jatinegara","station_id":"JNG","line":1,"distance":1236},{"station_id":"MTR","i_lat":-6.212485,"line":1,"i_long":106.858896,"time":2,"station_name":"Matraman","transit":false,"is_transit":false,"distance":1377},{"is_transit":true,"transit":true,"distance":1275,"i_long":106.84912,"station_name":"Manggarai","time":2,"station_id":"MRI","i_lat":-6.209883,"line":2},{"station_id":"TEB","distance":2610,"i_lat":-6.226659,"is_transit":false,"time":4,"line":2,"i_long":106.857948,"transit":false,"station_name":"Tebet"},{"transit":false,"line":2,"station_id":"CW","time":2,"distance":1230,"station_name":"Cawang","is_transit":false,"i_long":106.856607,"i_lat":-6.242512},{"is_transit":false,"transit":false,"time":3,"i_long":106.85449,"line":2,"station_name":"Duren Kalibata","i_lat":-6.255332,"distance":1546,"station_id":"DRN"},{"line":2,"is_transit":false,"i_long":106.851577,"distance":824,"station_id":"PSMB","station_name":"Pasar Minggu Baru","time":2,"i_lat":-6.263214,"transit":false},{"i_long":106.843999,"distance":2380,"station_id":"PSM","time":2,"line":2,"transit":false,"i_lat":-6.2842400000000005,"station_name":"Pasar Minggu","is_transit":false},{"station_id":"TNT","is_transit":false,"station_name":"Tanjung Barat","distance":2820,"i_lat":-6.3080680000000005,"i_long":106.838896,"line":2,"time":4,"transit":false},{"transit":false,"line":2,"is_transit":false,"station_id":"LNA","i_long":106.832616,"time":3,"station_name":"Lenteng Agung","distance":2671,"i_lat":-6.330363},{"i_lat":-6.339291,"station_name":"Univ. Pancasila","distance":1029,"time":2,"station_id":"UP","i_long":106.834175,"is_transit":false,"transit":false,"line":2},{"i_lat":-6.360749,"station_id":"UI","time":3,"distance":2264,"line":2,"station_name":"Univ. Indonesia","transit":false,"is_transit":false,"i_long":106.831474},{"time":2,"station_name":"Pondok Cina","is_transit":false,"i_long":106.831114,"distance":1109,"transit":false,"i_lat":-6.369073,"line":2,"station_id":"POC"}]]}