{"data":[[{"station_id":"PLM","transit":false,"time":0,"distance":0,"i_long":106.79689,"line":6,"is_transit":false,"i_lat":-6.207404,"station_name":"Palmerah"},{"is_transit":true,"distance":3191,"i_long":106.811091,"i_lat":-6.185545,"line":1,"station_id":"THB","time":6,"transit":true,"station_name":"Tanah Abang"},{"i_lat":-6.20132,"i_long":106.816351,"time":5,"is_transit":false,"station_name":"Karet","distance":2029,"transit":false,"station_id":"KAT","line":1},{"is_transit":false,"i_lat":-6.201433,"time":1,"transit":false,"distance":471,"station_id":"SUDB","i_long":106.819881,"station_name":"Sudirman Baru","line":1},{"is_transit":false,"i_lat":-6.202263,"i_long":106.822649,"time":1,"station_id":"SUD","station_name":"Sudirman","distance":280,"line":1,"transit":false},{"station_id":"MRI","i_long":106.84912,"transit":true,"station_name":"Manggarai","time":4,"distance":3186,"i_lat":-6.209883,"line":2,"is_transit":true},{"station_id":"TEB","time":4,"transit":false,"i_lat":-6.226659,"distance":2610,"i_long":106.857948,"station_name":"Tebet","is_transit":false,"line":2},{"time":2,"line":2,"transit":false,"i_long":106.856607,"is_transit":false,"station_id":"CW","station_name":"Cawang","distance":1230,"i_lat":-6.242512},{"i_long":106.85449,"time":3,"i_lat":-6.255332,"line":2,"station_id":"DRN","station_name":"Duren Kalibata","is_transit":false,"transit":false,"distance":1546},{"is_transit":false,"time":2,"distance":824,"line":2,"i_long":106.851577,"transit":false,"station_id":"PSMB","station_name":"Pasar Minggu Baru","i_lat":-6.263214},{"i_long":106.843999,"line":2,"transit":false,"i_lat":-6.2842400000000005,"station_id":"PSM","time":2,"is_transit":false,"distance":2380,"station_name":"Pasar Minggu"},{"is_transit":false,"i_long":106.838896,"line":2,"transit":false,"station_name":"Tanjung Barat","i_lat":-6.3080680000000005,"distance":2820,"time":4,"station_id":"TNT"},{"distance":2671,"station_name":"Lenteng Agung","time":3,"is_transit":false,"line":2,"i_lat":-6.330363,"transit":false,"i_long":106.832616,"station_id":"LNA"},{"station_id":"UP","station_name":"Univ. Pancasila","line":2,"is_transit":false,"time":2,"distance":1029,"transit":false,"i_long":106.834175,"i_lat":-6.339291},{"transit":false,"time":3,"station_name":"Univ. Indonesia","is_transit":false,"i_lat":-6.360749,"line":2,"station_id":"UI","distance":2264,"i_long":106.831474},{"i_lat":-6.369073,"line":2,"station_name":"Pondok Cina","transit":false,"station_id":"POC","distance":1109,"i_long":106.831114,"is_transit":false,"time":2},{"distance":2727,"station_id":"DPB","line":2,"transit":false,"station_name":"Depokbaru","is_transit":false,"i_lat":-6.391065,"i_long":106.819451,"time":4},{"time":3,"line":2,"station_name":"Depok","i_long":106.816926,"transit":false,"i_lat":-6.405256,"station_id":"DP","is_transit":false,"distance":1584},{"time":6,"i_long":106.800298,"line":2,"station_id":"CTA","transit":false,"is_transit":false,"i_lat":-6.448811,"station_name":"Citayam","distance":5084},{"i_long":106.792719,"transit":false,"time":5,"station_id":"BJD","i_lat":-6.493243,"line":2,"is_transit":false,"station_name":"Bojonggede","distance":5197}],[{"time":0,"is_transit":false,"station_name":"Palmerah","transit":false,"i_lat":-6.207404,"line":6,"distance":0,"i_long":106.79689,"station_id":"PLM"},{"distance":3191,"is_transit":true,"i_lat":-6.185545,"line":1,"transit":true,"i_long":106.811091,"time":6,"station_name":"Tanah Abang","station_id":"THB"},{"line":1,"is_transit":false,"station_name":"Duri","time":8,"i_lat":-6.155215,"i_long":106.800832,"distance":3632,"station_id":"DU","transit":false},{"i_long":106.79867,"is_transit":false,"line":1,"time":4,"i_lat":-6.144674,"station_name":"Angke","distance":1230,"transit":false,"station_id":"AK"},{"distance":4102,"i_lat":-6.132549,"station_name":"Kampung Bandan","i_long":106.826365,"is_transit":true,"transit":true,"station_id":"KPB","line":4,"time":9},{"transit":true,"station_name":"Jakarta Kota","distance":1364,"i_long":106.812439,"time":3,"station_id":"JAKK","is_transit":true,"i_lat":-6.137569,"line":2},{"i_lat":-6.141205,"line":2,"i_long":106.820901,"station_name":"Jayakarta","is_transit":false,"station_id":"JAY","distance":1264,"transit":false,"time":4},{"i_long":106.82482,"time":2,"transit":false,"i_lat":-6.149769,"line":2,"station_id":"MGB","station_name":"Manggabesar","is_transit":false,"distance":1080},{"is_transit":false,"distance":906,"i_lat":-6.160725,"i_long":106.827103,"station_name":"Sawah Besar","time":2,"station_id":"SW","transit":false,"line":2},{"transit":false,"station_name":"Juanda","time":2,"line":2,"i_long":106.828284,"station_id":"JUA","distance":1149,"is_transit":false,"i_lat":-6.166716},{"transit":false,"i_lat":-6.186295,"time":4,"station_name":"Gondangdia","station_id":"GDD","line":2,"i_long":106.832183,"is_transit":false,"distance":2015},{"is_transit":false,"time":3,"line":2,"station_name":"Cikini","distance":1750,"i_lat":-6.198556,"i_long":106.840169,"transit":false,"station_id":"CKI"},{"station_id":"MRI","station_name":"Manggarai","i_lat":-6.209883,"is_transit":false,"distance":1590,"i_long":106.84912,"line":2,"transit":false,"time":4},{"line":2,"station_name":"Tebet","transit":false,"distance":2610,"is_transit":false,"station_id":"TEB","time":4,"i_lat":-6.226659,"i_long":106.857948},{"is_transit":false,"i_lat":-6.242512,"i_long":106.856607,"station_name":"Cawang","transit":false,"line":2,"time":2,"distance":1230,"station_id":"CW"},{"distance":1546,"is_transit":false,"station_name":"Duren Kalibata","i_long":106.85449,"time":3,"i_lat":-6.255332,"line":2,"station_id":"DRN","transit":false},{"station_id":"PSMB","station_name":"Pasar Minggu Baru","i_lat":-6.263214,"line":2,"transit":false,"time":2,"i_long":106.851577,"distance":824,"is_transit":false},{"transit":false,"station_id":"PSM","i_long":106.843999,"station_name":"Pasar Minggu","line":2,"time":2,"is_transit":false,"distance":2380,"i_lat":-6.2842400000000005},{"station_name":"Tanjung Barat","time":4,"distance":2820,"transit":false,"station_id":"TNT","i_long":106.838896,"i_lat":-6.3080680000000005,"line":2,"is_transit":false},{"i_long":106.832616,"line":2,"i_lat":-6.330363,"is_transit":false,"distance":2671,"transit":false,"station_id":"LNA","station_name":"Lenteng Agung","time":3},{"transit":false,"station_id":"UP","time":2,"i_long":106.834175,"station_name":"Univ. Pancasila","is_transit":false,"distance":1029,"line":2,"i_lat":-6.339291},{"i_long":106.831474,"line":2,"station_name":"Univ. Indonesia","distance":2264,"is_transit":false,"transit":false,"time":3,"station_id":"UI","i_lat":-6.360749},{"time":2,"station_name":"Pondok Cina","transit":false,"distance":1109,"i_lat":-6.369073,"station_id":"POC","line":2,"i_long":106.831114,"is_transit":false},{"is_transit":false,"transit":false,"i_lat":-6.391065,"i_long":106.819451,"station_name":"Depokbaru","time":4,"distance":2727,"line":2,"station_id":"DPB"},{"i_long":106.816926,"transit":false,"i_lat":-6.405256,"is_transit":false,"distance":1584,"station_name":"Depok","time":3,"line":2,"station_id":"DP"},{"is_transit":false,"i_lat":-6.448811,"i_long":106.800298,"station_name":"Citayam","transit":false,"station_id":"CTA","time":6,"distance":5084,"line":2},{"i_long":106.792719,"line":2,"is_transit":false,"time":5,"distance":5197,"transit":false,"station_name":"Bojonggede","station_id":"BJD","i_lat":-6.493243}],[{"station_name":"Palmerah","transit":false,"is_transit":false,"station_id":"PLM","distance":0,"i_long":106.79689,"line":6,"i_lat":-6.207404,"time":0},{"station_id":"THB","time":6,"distance":3191,"line":1,"i_lat":-6.185545,"transit":true,"is_transit":true,"i_long":106.811091,"station_name":"Tanah Abang"},{"station_id":"DU","line":1,"i_long":106.800832,"i_lat":-6.155215,"distance":3632,"station_name":"Duri","transit":false,"time":8,"is_transit":false},{"is_transit":false,"time":4,"distance":1230,"station_name":"Angke","station_id":"AK","i_long":106.79867,"line":1,"i_lat":-6.144674,"transit":false},{"i_lat":-6.132549,"time":9,"station_name":"Kampung Bandan","transit":true,"i_long":106.826365,"is_transit":true,"distance":4102,"line":4,"station_id":"KPB"},{"i_lat":-6.14505,"line":11,"is_transit":false,"distance":1444,"station_id":"RJW","i_long":106.836569,"time":3,"transit":false,"station_name":"Rajawali"},{"i_lat":-6.161728,"distance":1901,"time":5,"transit":false,"i_long":106.839204,"is_transit":false,"station_name":"Kemayoran","line":11,"station_id":"KMO"},{"transit":false,"is_transit":false,"distance":1436,"station_name":"Pasar Senen","time":4,"i_lat":-6.174784,"line":11,"station_id":"PSE","i_long":106.84368},{"i_lat":-6.185975,"time":8,"distance":1567,"transit":false,"station_id":"GST","line":11,"station_name":"Gang Sentiong","i_long":106.850107,"is_transit":false},{"i_long":106.855437,"time":1,"station_name":"Kramat","line":11,"distance":973,"transit":false,"is_transit":false,"station_id":"KMT","i_lat":-6.193792},{"distance":1829,"line":11,"time":2,"station_name":"Pondok Jati","station_id":"POK","i_lat":-6.209188,"i_long":106.861737,"transit":false,"is_transit":false},{"distance":1236,"station_id":"JNG","time":9,"station_name":"Jatinegara","transit":true,"i_lat":-6.215091,"i_long":106.86807400000001,"line":1,"is_transit":true},{"station_id":"MTR","transit":false,"i_long":106.858896,"is_transit":false,"distance":1377,"line":1,"time":2,"station_name":"Matraman","i_lat":-6.212485},{"station_name":"Manggarai","transit":true,"is_transit":true,"station_id":"MRI","i_long":106.84912,"line":2,"time":2,"distance":1275,"i_lat":-6.209883},{"line":2,"is_transit":false,"time":4,"distance":2610,"station_name":"Tebet","i_lat":-6.226659,"i_long":106.857948,"transit":false,"station_id":"TEB"},{"transit":false,"distance":1230,"i_lat":-6.242512,"station_id":"CW","i_long":106.856607,"station_name":"Cawang","is_transit":false,"time":2,"line":2},{"is_transit":false,"station_name":"Duren Kalibata","station_id":"DRN","time":3,"i_long":106.85449,"line":2,"distance":1546,"transit":false,"i_lat":-6.255332},{"station_id":"PSMB","is_transit":false,"distance":824,"i_lat":-6.263214,"time":2,"station_name":"Pasar Minggu Baru","i_long":106.851577,"line":2,"transit":false},{"is_transit":false,"time":2,"distance":2380,"station_id":"PSM","i_long":106.843999,"i_lat":-6.2842400000000005,"line":2,"station_name":"Pasar Minggu","transit":false},{"i_lat":-6.3080680000000005,"line":2,"i_long":106.838896,"distance":2820,"station_name":"Tanjung Barat","is_transit":false,"time":4,"station_id":"TNT","transit":false},{"distance":2671,"line":2,"time":3,"station_name":"Lenteng Agung","station_id":"LNA","i_lat":-6.330363,"i_long":106.832616,"transit":false,"is_transit":false},{"station_name":"Univ. Pancasila","i_lat":-6.339291,"station_id":"UP","i_long":106.834175,"transit":false,"line":2,"is_transit":false,"time":2,"distance":1029},{"line":2,"is_transit":false,"station_name":"Univ. Indonesia","distance":2264,"transit":false,"station_id":"UI","time":3,"i_lat":-6.360749,"i_long":106.831474},{"distance":1109,"time":2,"i_long":106.831114,"line":2,"i_lat":-6.369073,"transit":false,"station_id":"POC","station_name":"Pondok Cina","is_transit":false},{"line":2,"i_lat":-6.391065,"is_transit":false,"transit":false,"station_id":"DPB","station_name":"Depokbaru","distance":2727,"i_long":106.819451,"time":4},{"distance":1584,"station_name":"Depok","i_lat":-6.405256,"i_long":106.816926,"transit":false,"station_id":"DP","time":3,"line":2,"is_transit":false},{"station_id":"CTA","time":6,"distance":5084,"is_transit":false,"station_name":"Citayam","transit":false,"i_lat":-6.448811,"i_long":106.800298,"line":2},{"time":5,"station_name":"Bojonggede","i_long":106.792719,"line":2,"distance":5197,"is_transit":false,"transit":false,"i_lat":-6.493243,"station_id":"BJD"}]]}