{"data":[[{"distance":0,"i_long":106.79689,"i_lat":-6.207404,"time":0,"line":6,"station_name":"Palmerah","is_transit":false,"station_id":"PLM","transit":false},{"station_id":"THB","i_lat":-6.185545,"i_long":106.811091,"distance":3191,"time":6,"line":1,"transit":true,"is_transit":true,"station_name":"Tanah Abang"},{"station_id":"DU","time":8,"i_lat":-6.155215,"i_long":106.800832,"transit":true,"distance":3632,"station_name":"Duri","line":1,"is_transit":true},{"transit":false,"distance":1700,"time":3,"line":5,"station_name":"Grogol","i_long":106.788277,"station_id":"GGL","is_transit":false,"i_lat":-6.162021},{"i_long":106.771379,"transit":false,"station_id":"PSG","distance":2036,"i_lat":-6.161433,"time":2,"is_transit":false,"station_name":"Pesing","line":5},{"is_transit":false,"i_lat":-6.1587309999999995,"distance":1614,"transit":false,"time":2,"station_id":"TKO","i_long":106.756522,"station_name":"Taman Kota","line":5},{"i_long":106.737035,"time":2,"i_lat":-6.159876,"station_name":"Bojongindah","is_transit":false,"line":0,"station_id":"BOI","transit":false,"distance":2334},{"time":4,"is_transit":false,"distance":1152,"station_name":"Rawa Buaya","i_long":106.723064,"station_id":"RW","i_lat":-6.162758,"line":5,"transit":false},{"line":5,"i_lat":-6.166068,"i_long":106.701612,"station_name":"Kalideres","transit":false,"distance":2504,"station_id":"KDS","is_transit":false,"time":3},{"distance":2548,"station_name":"Poris","i_lat":-6.169933,"i_long":106.679458,"station_id":"PI","line":5,"transit":false,"is_transit":false,"time":3},{"station_id":"BPR","time":3,"distance":1834,"i_long":106.665036,"transit":false,"is_transit":false,"line":0,"i_lat":-6.171811,"station_name":"Batuceper"},{"i_long":106.64657,"transit":false,"line":5,"station_id":"TTI","distance":2028,"station_name":"Tanah Tinggi","time":3,"i_lat":-6.17331,"is_transit":false}],[{"i_lat":-6.207404,"station_name":"Palmerah","is_transit":false,"station_id":"PLM","distance":0,"transit":false,"time":0,"line":6,"i_long":106.79689},{"station_name":"Tanah Abang","transit":true,"is_transit":true,"i_long":106.811091,"station_id":"THB","line":1,"time":6,"distance":3191,"i_lat":-6.185545},{"is_transit":false,"i_lat":-6.20132,"line":1,"time":5,"i_long":106.816351,"transit":false,"station_id":"KAT","station_name":"Karet","distance":2029},{"is_transit":false,"transit":false,"i_long":106.819881,"line":1,"i_lat":-6.201433,"distance":471,"time":1,"station_name":"Sudirman Baru","station_id":"SUDB"},{"is_transit":false,"station_id":"SUD","station_name":"Sudirman","i_lat":-6.202263,"time":1,"line":1,"i_long":106.822649,"transit":false,"distance":280},{"i_lat":-6.209883,"station_id":"MRI","distance":3186,"line":0,"transit":true,"is_transit":true,"station_name":"Manggarai","i_long":106.84912,"time":4},{"time":4,"line":0,"transit":false,"is_transit":false,"distance":1590,"i_long":106.840169,"station_id":"CKI","station_name":"Cikini","i_lat":-6.198556},{"i_lat":-6.186295,"is_transit":false,"station_name":"Gondangdia","time":3,"line":2,"transit":false,"distance":1750,"station_id":"GDD","i_long":106.832183},{"station_name":"Juanda","transit":false,"station_id":"JUA","is_transit":false,"time":4,"line":2,"i_lat":-6.166716,"i_long":106.828284,"distance":2015},{"distance":1149,"transit":false,"station_id":"SW","is_transit":false,"time":2,"i_lat":-6.160725,"line":2,"i_long":106.827103,"station_name":"Sawah Besar"},{"station_id":"MGB","distance":906,"time":2,"transit":false,"is_transit":false,"i_lat":-6.149769,"station_name":"Manggabesar","i_long":106.82482,"line":2},{"station_name":"Jayakarta","distance":1080,"station_id":"JAY","i_lat":-6.141205,"i_long":106.820901,"line":7,"is_transit":false,"time":2,"transit":false},{"distance":1264,"time":4,"station_name":"Jakarta Kota","is_transit":true,"i_lat":-6.137569,"station_id":"JAKK","i_long":106.812439,"transit":true,"line":0},{"station_id":"KPB","time":3,"is_transit":true,"i_lat":-6.132549,"station_name":"Kampung Bandan","transit":false,"i_long":106.826365,"line":0,"distance":1364},{"time":9,"line":0,"distance":4102,"is_transit":false,"station_name":"Angke","transit":false,"i_lat":-6.144674,"station_id":"AK","i_long":106.79867},{"is_transit":true,"time":4,"distance":1230,"station_id":"DU","transit":true,"station_name":"Duri","line":1,"i_long":106.800832,"i_lat":-6.155215},{"station_name":"Grogol","station_id":"GGL","line":5,"transit":false,"distance":1700,"is_transit":false,"time":3,"i_long":106.788277,"i_lat":-6.162021},{"line":5,"i_long":106.771379,"transit":false,"station_id":"PSG","time":2,"i_lat":-6.161433,"station_name":"Pesing","is_transit":false,"distance":2036},{"line":5,"i_lat":-6.1587309999999995,"time":2,"station_name":"Taman Kota","is_transit":false,"distance":1614,"i_long":106.756522,"transit":false,"station_id":"TKO"},{"station_name":"Bojongindah","i_lat":-6.159876,"i_long":106.737035,"station_id":"BOI","line":0,"is_transit":false,"transit":false,"distance":2334,"time":2},{"transit":false,"is_transit":false,"i_lat":-6.162758,"i_long":106.723064,"station_name":"Rawa Buaya","time":4,"line":5,"station_id":"RW","distance":1152},{"is_transit":false,"transit":false,"station_name":"Kalideres","station_id":"KDS","time":3,"i_lat":-6.166068,"distance":2504,"i_long":106.701612,"line":5},{"station_name":"Poris","i_lat":-6.169933,"transit":false,"station_id":"PI","is_transit":false,"line":5,"distance":2548,"i_long":106.679458,"time":3},{"distance":1834,"i_long":106.665036,"station_id":"BPR","time":3,"transit":false,"is_transit":false,"i_lat":-6.171811,"line":0,"station_name":"Batuceper"},{"i_lat":-6.17331,"distance":2028,"time":3,"station_id":"TTI","transit":false,"station_name":"Tanah Tinggi","i_long":106.64657,"line":5,"is_transit":false}],[{"station_id":"PLM","distance":0,"i_long":106.79689,"station_name":"Palmerah","i_lat":-6.207404,"is_transit":false,"time":0,"line":6,"transit":false},{"time":6,"is_transit":true,"station_name":"Tanah Abang","transit":true,"station_id":"THB","line":1,"i_lat":-6.185545,"i_long":106.811091,"distance":3191},{"i_long":106.816351,"transit":false,"distance":2029,"station_name":"Karet","line":1,"time":5,"is_transit":false,"station_id":"KAT","i_lat":-6.20132},{"transit":false,"station_name":"Sudirman Baru","distance":471,"time":1,"line":1,"is_transit":false,"i_lat":-6.201433,"i_long":106.819881,"station_id":"SUDB"},{"station_name":"Sudirman","i_long":106.822649,"time":1,"transit":false,"distance":280,"station_id":"SUD","line":1,"is_transit":false,"i_lat":-6.202263},{"station_name":"Manggarai","i_lat":-6.209883,"time":4,"i_long":106.84912,"line":0,"distance":3186,"is_transit":true,"station_id":"MRI","transit":false},{"station_name":"Matraman","station_id":"MTR","is_transit":false,"time":2,"transit":false,"i_long":106.858896,"i_lat":-6.212485,"line":1,"distance":1275},{"is_transit":true,"station_id":"JNG","i_long":106.86807400000001,"i_lat":-6.215091,"time":8,"distance":1377,"transit":true,"line":0,"station_name":"Jatinegara"},{"station_id":"POK","station_name":"Pondok Jati","i_long":106.861737,"is_transit":false,"time":2,"line":11,"i_lat":-6.209188,"transit":false,"distance":1236},{"i_long":106.855437,"time":2,"is_transit":false,"line":11,"station_id":"KMT","distance":1829,"station_name":"Kramat","transit":false,"i_lat":-6.193792},{"i_long":106.850107,"transit":false,"station_name":"Gang Sentiong","station_id":"GST","is_transit":false,"time":1,"line":11,"i_lat":-6.185975,"distance":973},{"transit":false,"line":11,"distance":1567,"i_long":106.84368,"is_transit":false,"station_id":"PSE","station_name":"Pasar Senen","i_lat":-6.174784,"time":8},{"i_lat":-6.161728,"transit":false,"distance":1436,"time":4,"line":11,"is_transit":false,"i_long":106.839204,"station_id":"KMO","station_name":"Kemayoran"},{"time":5,"line":11,"transit":false,"distance":1901,"station_id":"RJW","i_lat":-6.14505,"station_name":"Rajawali","is_transit":false,"i_long":106.836569},{"distance":1444,"i_long":106.826365,"transit":true,"station_id":"KPB","is_transit":true,"station_name":"Kampung Bandan","time":3,"i_lat":-6.132549,"line":0},{"i_long":106.79867,"time":9,"distance":4102,"i_lat":-6.144674,"station_name":"Angke","transit":false,"station_id":"AK","is_transit":false,"line":0},{"station_name":"Duri","distance":1230,"station_id":"DU","i_long":106.800832,"line":1,"transit":true,"i_lat":-6.155215,"is_transit":true,"time":4},{"station_name":"Grogol","station_id":"GGL","distance":1700,"transit":false,"line":5,"time":3,"i_long":106.788277,"is_transit":false,"i_lat":-6.162021},{"time":2,"station_id":"PSG","transit":false,"station_name":"Pesing","i_lat":-6.161433,"line":5,"distance":2036,"i_long":106.771379,"is_transit":false},{"distance":1614,"station_name":"Taman Kota","is_transit":false,"station_id":"TKO","time":2,"i_lat":-6.1587309999999995,"i_long":106.756522,"line":5,"transit":false},{"station_id":"BOI","transit":false,"time":2,"i_lat":-6.159876,"line":0,"is_transit":false,"station_name":"Bojongindah","i_long":106.737035,"distance":2334},{"transit":false,"station_id":"RW","i_lat":-6.162758,"time":4,"is_transit":false,"distance":1152,"i_long":106.723064,"line":5,"station_name":"Rawa Buaya"},{"is_transit":false,"i_long":106.701612,"station_name":"Kalideres","station_id":"KDS","transit":false,"distance":2504,"i_lat":-6.166068,"line":5,"time":3},{"time":3,"i_long":106.679458,"transit":false,"station_name":"Poris","is_transit":false,"station_id":"PI","i_lat":-6.169933,"line":5,"distance":2548},{"time":3,"is_transit":false,"station_name":"Batuceper","i_long":106.665036,"transit":false,"line":0,"station_id":"BPR","i_lat":-6.171811,"distance":1834},{"station_name":"Tanah Tinggi","distance":2028,"i_lat":-6.17331,"i_long":106.64657,"transit":false,"line":5,"time":3,"station_id":"TTI","is_transit":false}]]}