{"data":[[{"i_long":106.79689,"line":6,"station_id":"PLM","distance":0,"is_transit":false,"time":0,"station_name":"Palmerah","transit":false,"i_lat":-6.207404},{"distance":3191,"station_name":"Tanah Abang","is_transit":true,"time":6,"i_lat":-6.185545,"line":1,"transit":true,"i_long":106.811091,"station_id":"THB"},{"line":1,"time":8,"i_long":106.800832,"transit":true,"is_transit":true,"station_name":"Duri","station_id":"DU","i_lat":-6.155215,"distance":3632},{"i_long":106.788277,"station_id":"GGL","i_lat":-6.162021,"line":5,"transit":false,"distance":1700,"is_transit":false,"time":3,"station_name":"Grogol"}],[{"is_transit":false,"distance":0,"transit":false,"station_id":"PLM","line":6,"time":0,"station_name":"Palmerah","i_lat":-6.207404,"i_long":106.79689},{"station_id":"THB","station_name":"Tanah Abang","i_lat":-6.185545,"is_transit":true,"line":1,"time":6,"transit":true,"i_long":106.811091,"distance":3191},{"i_lat":-6.20132,"station_name":"Karet","transit":false,"i_long":106.816351,"is_transit":false,"distance":2029,"time":5,"station_id":"KAT","line":1},{"is_transit":false,"station_id":"SUDB","distance":471,"i_lat":-6.201433,"time":1,"transit":false,"i_long":106.819881,"line":1,"station_name":"Sudirman Baru"},{"transit":false,"time":1,"distance":280,"is_transit":false,"station_name":"Sudirman","i_lat":-6.202263,"i_long":106.822649,"station_id":"SUD","line":1},{"line":2,"i_lat":-6.209883,"time":4,"station_name":"Manggarai","is_transit":true,"i_long":106.84912,"station_id":"MRI","distance":3186,"transit":true},{"station_name":"Cikini","i_lat":-6.198556,"station_id":"CKI","time":4,"transit":false,"line":2,"is_transit":false,"i_long":106.840169,"distance":1590},{"i_lat":-6.186295,"time":3,"transit":false,"station_name":"Gondangdia","is_transit":false,"station_id":"GDD","i_long":106.832183,"line":2,"distance":1750},{"distance":2015,"station_name":"Juanda","transit":false,"station_id":"JUA","i_long":106.828284,"time":4,"i_lat":-6.166716,"is_transit":false,"line":2},{"i_long":106.827103,"is_transit":false,"distance":1149,"station_name":"Sawah Besar","i_lat":-6.160725,"line":2,"station_id":"SW","time":2,"transit":false},{"i_lat":-6.149769,"transit":false,"station_name":"Manggabesar","i_long":106.82482,"line":2,"station_id":"MGB","time":2,"is_transit":false,"distance":906},{"is_transit":false,"i_lat":-6.141205,"i_long":106.820901,"distance":1080,"line":2,"time":2,"station_name":"Jayakarta","transit":false,"station_id":"JAY"},{"station_id":"JAKK","i_long":106.812439,"transit":true,"distance":1264,"i_lat":-6.137569,"station_name":"Jakarta Kota","is_transit":true,"time":4,"line":2},{"time":3,"distance":1364,"i_lat":-6.132549,"transit":true,"is_transit":true,"station_id":"KPB","i_long":106.826365,"station_name":"Kampung Bandan","line":4},{"i_long":106.79867,"transit":false,"i_lat":-6.144674,"line":1,"station_name":"Angke","station_id":"AK","is_transit":false,"time":9,"distance":4102},{"transit":true,"i_lat":-6.155215,"time":4,"distance":1230,"line":1,"station_name":"Duri","is_transit":true,"i_long":106.800832,"station_id":"DU"},{"is_transit":false,"distance":1700,"i_long":106.788277,"station_name":"Grogol","station_id":"GGL","i_lat":-6.162021,"line":5,"transit":false,"time":3}],[{"station_name":"Palmerah","transit":false,"station_id":"PLM","i_lat":-6.207404,"i_long":106.79689,"is_transit":false,"time":0,"distance":0,"line":6},{"time":6,"distance":3191,"i_long":106.811091,"is_transit":true,"station_id":"THB","station_name":"Tanah Abang","transit":true,"i_lat":-6.185545,"line":1},{"line":1,"station_name":"Karet","station_id":"KAT","distance":2029,"transit":false,"i_long":106.816351,"time":5,"is_transit":false,"i_lat":-6.20132},{"transit":false,"station_name":"Sudirman Baru","i_lat":-6.201433,"i_long":106.819881,"station_id":"SUDB","distance":471,"time":1,"line":1,"is_transit":false},{"is_transit":false,"transit":false,"i_lat":-6.202263,"station_id":"SUD","distance":280,"time":1,"station_name":"Sudirman","line":1,"i_long":106.822649},{"is_transit":false,"transit":false,"station_id":"MRI","distance":3186,"i_long":106.84912,"line":2,"i_lat":-6.209883,"station_name":"Manggarai","time":4},{"is_transit":false,"station_id":"MTR","time":2,"i_lat":-6.212485,"station_name":"Matraman","line":1,"i_long":106.858896,"distance":1275,"transit":false},{"distance":1377,"i_lat":-6.215091,"time":8,"i_long":106.86807400000001,"line":1,"is_transit":true,"station_name":"Jatinegara","station_id":"JNG","transit":true},{"is_transit":false,"i_lat":-6.209188,"transit":false,"station_id":"POK","distance":1236,"line":11,"time":2,"station_name":"Pondok Jati","i_long":106.861737},{"i_lat":-6.193792,"transit":false,"distance":1829,"station_id":"KMT","station_name":"Kramat","is_transit":false,"i_long":106.855437,"line":11,"time":2},{"line":11,"station_id":"GST","is_transit":false,"distance":973,"station_name":"Gang Sentiong","time":1,"transit":false,"i_lat":-6.185975,"i_long":106.850107},{"station_id":"PSE","line":11,"i_long":106.84368,"is_transit":false,"time":8,"distance":1567,"station_name":"Pasar Senen","i_lat":-6.174784,"transit":false},{"time":4,"i_lat":-6.161728,"transit":false,"distance":1436,"station_name":"Kemayoran","is_transit":false,"i_long":106.839204,"line":11,"station_id":"KMO"},{"station_name":"Rajawali","distance":1901,"station_id":"RJW","line":11,"time":5,"i_long":106.836569,"is_transit":false,"i_lat":-6.14505,"transit":false},{"distance":1444,"i_long":106.826365,"i_lat":-6.132549,"station_id":"KPB","time":3,"station_name":"Kampung Bandan","line":4,"transit":true,"is_transit":true},{"time":9,"station_name":"Angke","transit":false,"i_long":106.79867,"is_transit":false,"distance":4102,"line":1,"i_lat":-6.144674,"station_id":"AK"},{"station_name":"Duri","time":4,"transit":true,"i_lat":-6.155215,"distance":1230,"station_id":"DU","is_transit":true,"i_long":106.800832,"line":1},{"i_lat":-6.162021,"line":5,"distance":1700,"i_long":106.788277,"is_transit":false,"transit":false,"time":3,"station_id":"GGL","station_name":"Grogol"}]]}