{"data":[[{"i_lat":-6.207404,"transit":false,"station_id":"PLM","distance":0,"i_long":106.79689,"station_name":"Palmerah","is_transit":false,"line":6,"time":0},{"is_transit":false,"time":7,"i_long":106.780334,"station_name":"Kebayoran","i_lat":-6.237242,"distance":3737,"line":6,"transit":false,"station_id":"KBY"},{"time":8,"transit":false,"is_transit":false,"line":6,"station_id":"PDJ","distance":6218,"i_lat":-6.276362,"station_name":"Pondokranji","i_long":106.74273},{"line":6,"station_name":"Jurangmangu","is_transit":false,"i_lat":-6.288927,"station_id":"JMU","transit":false,"time":3,"i_long":106.728916,"distance":2179},{"is_transit":false,"time":4,"transit":false,"line":6,"i_long":106.712277,"i_lat":-6.296963,"distance":1994,"station_id":"SDM","station_name":"Sudimara"},{"transit":false,"is_transit":false,"distance":4566,"station_id":"RU","time":6,"i_lat":-6.314823,"i_long":106.675475,"station_name":"Rawa Buntu","line":6},{"station_id":"SRP","is_transit":false,"i_long":106.66566,"station_name":"Serpong","transit":false,"time":4,"line":6,"i_lat":-6.319871,"distance":2413},{"i_long":106.640411,"station_name":"Cisauk","is_transit":false,"station_id":"CSK","distance":1784,"i_lat":-6.32484,"line":3,"time":4,"transit":false},{"i_lat":-6.329547,"transit":false,"station_id":"CC","i_long":106.617853,"time":4,"station_name":"Cicayur","is_transit":false,"distance":2519,"line":3},{"is_transit":false,"transit":false,"station_name":"Parung Panjang","i_long":106.568863,"station_id":"PRP","time":8,"line":6,"distance":5968,"i_lat":-6.3441410000000005}]]}