{"data":[[{"i_lat":-6.207404,"station_name":"Palmerah","transit":false,"is_transit":false,"distance":0,"line":6,"station_id":"PLM","i_long":106.79689,"time":0},{"station_id":"THB","station_name":"Tanah Abang","transit":true,"is_transit":true,"time":6,"line":1,"i_lat":-6.185545,"i_long":106.811091,"distance":3191},{"station_name":"Karet","line":1,"distance":2029,"station_id":"KAT","transit":false,"i_lat":-6.20132,"i_long":106.816351,"is_transit":false,"time":5},{"time":1,"i_long":106.819881,"transit":false,"station_name":"Sudirman Baru","station_id":"SUDB","is_transit":false,"distance":471,"i_lat":-6.201433,"line":1},{"i_lat":-6.202263,"line":1,"time":1,"i_long":106.822649,"is_transit":false,"distance":280,"transit":false,"station_name":"Sudirman","station_id":"SUD"},{"station_name":"Manggarai","transit":true,"distance":3186,"time":4,"line":0,"i_lat":-6.209883,"station_id":"MRI","i_long":106.84912,"is_transit":true},{"distance":2610,"i_lat":-6.226659,"time":4,"line":2,"station_id":"TEB","is_transit":false,"station_name":"Tebet","i_long":106.857948,"transit":false},{"station_name":"Cawang","transit":false,"is_transit":false,"i_long":106.856607,"time":2,"line":0,"distance":1230,"i_lat":-6.242512,"station_id":"CW"},{"i_long":106.85449,"distance":1546,"i_lat":-6.255332,"line":0,"is_transit":false,"time":3,"transit":false,"station_name":"Duren Kalibata","station_id":"DRN"},{"i_lat":-6.263214,"distance":824,"station_name":"Pasar Minggu Baru","is_transit":false,"station_id":"PSMB","i_long":106.851577,"transit":false,"time":2,"line":2},{"line":2,"station_id":"PSM","station_name":"Pasar Minggu","i_lat":-6.2842400000000005,"is_transit":false,"time":2,"i_long":106.843999,"transit":false,"distance":2380},{"station_id":"TNT","i_lat":-6.3080680000000005,"line":2,"is_transit":false,"distance":2820,"transit":false,"station_name":"Tanjung Barat","time":4,"i_long":106.838896},{"transit":false,"distance":2671,"is_transit":false,"line":2,"station_id":"LNA","i_lat":-6.330363,"station_name":"Lenteng Agung","i_long":106.832616,"time":3},{"distance":1029,"transit":false,"is_transit":false,"i_long":106.834175,"station_id":"UP","time":2,"line":2,"i_lat":-6.339291,"station_name":"Univ. Pancasila"},{"distance":2264,"line":2,"time":3,"station_id":"UI","is_transit":false,"transit":false,"i_lat":-6.360749,"station_name":"Univ. Indonesia","i_long":106.831474},{"station_name":"Pondok Cina","i_lat":-6.369073,"station_id":"POC","distance":1109,"i_long":106.831114,"line":2,"is_transit":false,"time":2,"transit":false},{"is_transit":false,"transit":false,"i_lat":-6.391065,"i_long":106.819451,"station_id":"DPB","distance":2727,"line":0,"station_name":"Depokbaru","time":4},{"distance":1584,"station_id":"DP","is_transit":false,"transit":false,"line":0,"time":3,"station_name":"Depok","i_lat":-6.405256,"i_long":106.816926},{"time":6,"is_transit":true,"station_name":"Citayam","station_id":"CTA","transit":false,"i_lat":-6.448811,"line":1,"distance":5084,"i_long":106.800298},{"transit":false,"i_long":106.851978,"station_id":"CBN","distance":6740,"line":0,"station_name":"Cibinong","time":10,"is_transit":false,"i_lat":-6.46424},{"i_long":106.905196,"i_lat":-6.466285,"line":21,"station_id":"NMO","is_transit":false,"station_name":"Nambo","time":10,"distance":6527,"transit":false}],[{"distance":0,"station_name":"Palmerah","i_lat":-6.207404,"transit":false,"time":0,"i_long":106.79689,"is_transit":false,"line":6,"station_id":"PLM"},{"time":6,"distance":3191,"station_id":"THB","is_transit":true,"station_name":"Tanah Abang","i_lat":-6.185545,"i_long":106.811091,"line":1,"transit":true},{"i_long":106.800832,"station_id":"DU","is_transit":true,"distance":3632,"time":8,"station_name":"Duri","line":1,"transit":true,"i_lat":-6.155215},{"i_lat":-6.144674,"transit":false,"station_name":"Angke","time":4,"i_long":106.79867,"is_transit":false,"distance":1230,"line":0,"station_id":"AK"},{"station_name":"Kampung Bandan","time":9,"line":0,"transit":false,"station_id":"KPB","i_long":106.826365,"distance":4102,"is_transit":true,"i_lat":-6.132549},{"is_transit":true,"i_lat":-6.137569,"transit":true,"i_long":106.812439,"station_name":"Jakarta Kota","time":3,"line":0,"distance":1364,"station_id":"JAKK"},{"station_id":"JAY","i_lat":-6.141205,"line":7,"distance":1264,"i_long":106.820901,"is_transit":false,"transit":false,"station_name":"Jayakarta","time":4},{"line":2,"station_id":"MGB","i_long":106.82482,"is_transit":false,"station_name":"Manggabesar","i_lat":-6.149769,"distance":1080,"transit":false,"time":2},{"is_transit":false,"distance":906,"i_long":106.827103,"i_lat":-6.160725,"time":2,"transit":false,"line":2,"station_name":"Sawah Besar","station_id":"SW"},{"time":2,"transit":false,"i_long":106.828284,"is_transit":false,"distance":1149,"i_lat":-6.166716,"station_id":"JUA","station_name":"Juanda","line":2},{"i_long":106.832183,"i_lat":-6.186295,"line":2,"time":4,"is_transit":false,"station_id":"GDD","distance":2015,"transit":false,"station_name":"Gondangdia"},{"transit":false,"line":0,"station_id":"CKI","distance":1750,"station_name":"Cikini","i_long":106.840169,"is_transit":false,"i_lat":-6.198556,"time":3},{"i_lat":-6.209883,"line":0,"i_long":106.84912,"transit":true,"station_id":"MRI","distance":1590,"station_name":"Manggarai","time":4,"is_transit":true},{"time":4,"station_name":"Tebet","distance":2610,"station_id":"TEB","i_long":106.857948,"line":2,"i_lat":-6.226659,"is_transit":false,"transit":false},{"distance":1230,"i_long":106.856607,"line":0,"transit":false,"station_name":"Cawang","time":2,"is_transit":false,"station_id":"CW","i_lat":-6.242512},{"time":3,"station_id":"DRN","is_transit":false,"transit":false,"station_name":"Duren Kalibata","i_lat":-6.255332,"line":0,"i_long":106.85449,"distance":1546},{"i_lat":-6.263214,"is_transit":false,"transit":false,"station_id":"PSMB","distance":824,"station_name":"Pasar Minggu Baru","time":2,"i_long":106.851577,"line":2},{"transit":false,"distance":2380,"i_lat":-6.2842400000000005,"i_long":106.843999,"line":2,"is_transit":false,"time":2,"station_name":"Pasar Minggu","station_id":"PSM"},{"i_long":106.838896,"i_lat":-6.3080680000000005,"transit":false,"line":2,"station_id":"TNT","is_transit":false,"distance":2820,"station_name":"Tanjung Barat","time":4},{"i_lat":-6.330363,"station_name":"Lenteng Agung","station_id":"LNA","transit":false,"line":2,"is_transit":false,"distance":2671,"i_long":106.832616,"time":3},{"is_transit":false,"i_lat":-6.339291,"station_id":"UP","distance":1029,"line":2,"station_name":"Univ. Pancasila","time":2,"i_long":106.834175,"transit":false},{"transit":false,"station_id":"UI","station_name":"Univ. Indonesia","time":3,"i_lat":-6.360749,"i_long":106.831474,"line":2,"distance":2264,"is_transit":false},{"station_name":"Pondok Cina","i_long":106.831114,"is_transit":false,"transit":false,"time":2,"distance":1109,"line":2,"station_id":"POC","i_lat":-6.369073},{"distance":2727,"i_lat":-6.391065,"time":4,"i_long":106.819451,"is_transit":false,"line":0,"station_id":"DPB","station_name":"Depokbaru","transit":false},{"i_lat":-6.405256,"i_long":106.816926,"station_name":"Depok","station_id":"DP","transit":false,"time":3,"is_transit":false,"line":0,"distance":1584},{"time":6,"i_long":106.800298,"station_id":"CTA","is_transit":true,"transit":false,"station_name":"Citayam","i_lat":-6.448811,"line":1,"distance":5084},{"line":0,"transit":false,"station_id":"CBN","i_lat":-6.46424,"station_name":"Cibinong","is_transit":false,"distance":6740,"time":10,"i_long":106.851978},{"transit":false,"station_id":"NMO","line":21,"station_name":"Nambo","i_lat":-6.466285,"distance":6527,"is_transit":false,"time":10,"i_long":106.905196}],[{"time":0,"distance":0,"i_lat":-6.207404,"line":6,"station_id":"PLM","i_long":106.79689,"is_transit":false,"transit":false,"station_name":"Palmerah"},{"i_long":106.811091,"is_transit":true,"time":6,"line":1,"station_id":"THB","distance":3191,"transit":true,"station_name":"Tanah Abang","i_lat":-6.185545},{"line":1,"time":8,"station_id":"DU","i_long":106.800832,"transit":true,"i_lat":-6.155215,"is_transit":true,"distance":3632,"station_name":"Duri"},{"i_long":106.79867,"station_id":"AK","time":4,"i_lat":-6.144674,"distance":1230,"transit":false,"line":0,"station_name":"Angke","is_transit":false},{"line":0,"i_long":106.826365,"is_transit":true,"transit":true,"distance":4102,"station_id":"KPB","station_name":"Kampung Bandan","i_lat":-6.132549,"time":9},{"is_transit":false,"line":11,"i_lat":-6.14505,"transit":false,"distance":1444,"time":3,"i_long":106.836569,"station_name":"Rajawali","station_id":"RJW"},{"distance":1901,"station_id":"KMO","is_transit":false,"station_name":"Kemayoran","time":5,"i_long":106.839204,"i_lat":-6.161728,"transit":false,"line":11},{"is_transit":false,"distance":1436,"i_lat":-6.174784,"station_name":"Pasar Senen","time":4,"i_long":106.84368,"line":11,"transit":false,"station_id":"PSE"},{"distance":1567,"transit":false,"station_name":"Gang Sentiong","station_id":"GST","i_lat":-6.185975,"i_long":106.850107,"line":11,"time":8,"is_transit":false},{"station_name":"Kramat","station_id":"KMT","transit":false,"i_long":106.855437,"time":1,"line":11,"distance":973,"is_transit":false,"i_lat":-6.193792},{"i_long":106.861737,"i_lat":-6.209188,"station_name":"Pondok Jati","is_transit":false,"station_id":"POK","transit":false,"distance":1829,"time":2,"line":11},{"station_id":"JNG","line":0,"station_name":"Jatinegara","transit":true,"time":9,"i_lat":-6.215091,"is_transit":true,"i_long":106.86807400000001,"distance":1236},{"is_transit":false,"i_long":106.858896,"time":2,"line":1,"station_id":"MTR","station_name":"Matraman","transit":false,"distance":1377,"i_lat":-6.212485},{"transit":true,"time":2,"i_lat":-6.209883,"i_long":106.84912,"distance":1275,"line":0,"is_transit":true,"station_id":"MRI","station_name":"Manggarai"},{"station_id":"TEB","time":4,"distance":2610,"transit":false,"is_transit":false,"station_name":"Tebet","i_long":106.857948,"i_lat":-6.226659,"line":2},{"i_long":106.856607,"transit":false,"line":0,"station_name":"Cawang","i_lat":-6.242512,"distance":1230,"time":2,"station_id":"CW","is_transit":false},{"station_name":"Duren Kalibata","transit":false,"time":3,"station_id":"DRN","i_long":106.85449,"line":0,"distance":1546,"is_transit":false,"i_lat":-6.255332},{"time":2,"i_lat":-6.263214,"station_name":"Pasar Minggu Baru","i_long":106.851577,"line":2,"distance":824,"is_transit":false,"station_id":"PSMB","transit":false},{"time":2,"distance":2380,"station_id":"PSM","transit":false,"station_name":"Pasar Minggu","is_transit":false,"i_lat":-6.2842400000000005,"i_long":106.843999,"line":2},{"i_long":106.838896,"distance":2820,"line":2,"station_id":"TNT","is_transit":false,"station_name":"Tanjung Barat","time":4,"i_lat":-6.3080680000000005,"transit":false},{"distance":2671,"line":2,"is_transit":false,"time":3,"station_name":"Lenteng Agung","i_lat":-6.330363,"station_id":"LNA","transit":false,"i_long":106.832616},{"station_id":"UP","i_lat":-6.339291,"transit":false,"is_transit":false,"i_long":106.834175,"station_name":"Univ. Pancasila","line":2,"distance":1029,"time":2},{"station_name":"Univ. Indonesia","line":2,"time":3,"station_id":"UI","is_transit":false,"transit":false,"i_long":106.831474,"i_lat":-6.360749,"distance":2264},{"line":2,"i_lat":-6.369073,"time":2,"i_long":106.831114,"station_id":"POC","distance":1109,"transit":false,"station_name":"Pondok Cina","is_transit":false},{"is_transit":false,"distance":2727,"station_name":"Depokbaru","time":4,"i_lat":-6.391065,"transit":false,"station_id":"DPB","i_long":106.819451,"line":0},{"is_transit":false,"station_id":"DP","i_lat":-6.405256,"station_name":"Depok","line":0,"transit":false,"distance":1584,"time":3,"i_long":106.816926},{"time":6,"distance":5084,"is_transit":true,"transit":false,"line":1,"i_lat":-6.448811,"i_long":106.800298,"station_id":"CTA","station_name":"Citayam"},{"i_lat":-6.46424,"time":10,"is_transit":false,"i_long":106.851978,"station_id":"CBN","distance":6740,"transit":false,"line":0,"station_name":"Cibinong"},{"i_lat":-6.466285,"station_id":"NMO","distance":6527,"line":21,"is_transit":false,"time":10,"i_long":106.905196,"station_name":"Nambo","transit":false}]]}