{"data":[[{"station_id":"PLM","time":0,"i_lat":-6.207404,"is_transit":false,"transit":false,"station_name":"Palmerah","i_long":106.79689,"line":6,"distance":0},{"i_long":106.811091,"time":6,"station_id":"THB","i_lat":-6.185545,"line":1,"distance":3191,"transit":true,"station_name":"Tanah Abang","is_transit":true},{"is_transit":false,"distance":2029,"station_id":"KAT","station_name":"Karet","i_lat":-6.20132,"time":5,"line":1,"i_long":106.816351,"transit":false},{"transit":false,"i_long":106.819881,"station_id":"SUDB","is_transit":false,"i_lat":-6.201433,"time":1,"line":1,"station_name":"Sudirman Baru","distance":471},{"i_lat":-6.202263,"i_long":106.822649,"transit":false,"time":1,"distance":280,"station_id":"SUD","is_transit":false,"line":1,"station_name":"Sudirman"},{"i_lat":-6.209883,"station_name":"Manggarai","line":0,"is_transit":true,"distance":3186,"transit":true,"i_long":106.84912,"time":4,"station_id":"MRI"},{"station_id":"TEB","transit":false,"i_lat":-6.226659,"distance":2610,"station_name":"Tebet","is_transit":false,"line":2,"time":4,"i_long":106.857948},{"station_name":"Cawang","i_long":106.856607,"transit":false,"time":2,"distance":1230,"is_transit":false,"i_lat":-6.242512,"station_id":"CW","line":0},{"distance":1546,"station_id":"DRN","is_transit":false,"transit":false,"i_long":106.85449,"line":0,"i_lat":-6.255332,"station_name":"Duren Kalibata","time":3},{"transit":false,"line":2,"station_name":"Pasar Minggu Baru","is_transit":false,"station_id":"PSMB","time":2,"distance":824,"i_lat":-6.263214,"i_long":106.851577},{"time":2,"station_name":"Pasar Minggu","station_id":"PSM","distance":2380,"is_transit":false,"transit":false,"i_long":106.843999,"line":2,"i_lat":-6.2842400000000005}],[{"i_lat":-6.207404,"line":6,"distance":0,"i_long":106.79689,"station_name":"Palmerah","transit":false,"time":0,"is_transit":false,"station_id":"PLM"},{"station_name":"Tanah Abang","i_lat":-6.185545,"i_long":106.811091,"distance":3191,"is_transit":true,"time":6,"line":1,"transit":true,"station_id":"THB"},{"line":1,"i_long":106.800832,"distance":3632,"time":8,"station_name":"Duri","station_id":"DU","transit":true,"is_transit":true,"i_lat":-6.155215},{"time":4,"line":0,"i_lat":-6.144674,"distance":1230,"station_id":"AK","i_long":106.79867,"station_name":"Angke","is_transit":false,"transit":false},{"line":0,"station_id":"KPB","time":9,"i_long":106.826365,"distance":4102,"is_transit":true,"transit":false,"station_name":"Kampung Bandan","i_lat":-6.132549},{"line":0,"station_id":"JAKK","distance":1364,"is_transit":true,"transit":true,"time":3,"i_lat":-6.137569,"i_long":106.812439,"station_name":"Jakarta Kota"},{"i_lat":-6.141205,"station_id":"JAY","is_transit":false,"i_long":106.820901,"station_name":"Jayakarta","distance":1264,"line":7,"time":4,"transit":false},{"i_long":106.82482,"i_lat":-6.149769,"line":2,"distance":1080,"is_transit":false,"time":2,"transit":false,"station_id":"MGB","station_name":"Manggabesar"},{"is_transit":false,"station_id":"SW","line":2,"station_name":"Sawah Besar","i_long":106.827103,"transit":false,"i_lat":-6.160725,"distance":906,"time":2},{"station_id":"JUA","transit":false,"i_lat":-6.166716,"station_name":"Juanda","i_long":106.828284,"line":2,"time":2,"distance":1149,"is_transit":false},{"distance":2015,"i_long":106.832183,"station_name":"Gondangdia","i_lat":-6.186295,"time":4,"station_id":"GDD","transit":false,"is_transit":false,"line":2},{"is_transit":false,"distance":1750,"time":3,"station_name":"Cikini","i_long":106.840169,"transit":false,"i_lat":-6.198556,"line":0,"station_id":"CKI"},{"time":4,"transit":true,"is_transit":true,"i_long":106.84912,"station_id":"MRI","station_name":"Manggarai","line":0,"distance":1590,"i_lat":-6.209883},{"station_name":"Tebet","line":2,"i_lat":-6.226659,"transit":false,"station_id":"TEB","is_transit":false,"distance":2610,"i_long":106.857948,"time":4},{"transit":false,"is_transit":false,"line":0,"distance":1230,"i_long":106.856607,"i_lat":-6.242512,"station_name":"Cawang","station_id":"CW","time":2},{"time":3,"distance":1546,"i_long":106.85449,"is_transit":false,"station_name":"Duren Kalibata","transit":false,"i_lat":-6.255332,"station_id":"DRN","line":0},{"station_name":"Pasar Minggu Baru","station_id":"PSMB","i_long":106.851577,"line":2,"distance":824,"transit":false,"is_transit":false,"i_lat":-6.263214,"time":2},{"transit":false,"is_transit":false,"i_lat":-6.2842400000000005,"station_name":"Pasar Minggu","time":2,"i_long":106.843999,"line":2,"distance":2380,"station_id":"PSM"}],[{"distance":0,"i_long":106.79689,"i_lat":-6.207404,"time":0,"station_name":"Palmerah","station_id":"PLM","line":6,"is_transit":false,"transit":false},{"time":6,"station_name":"Tanah Abang","station_id":"THB","transit":true,"line":1,"i_lat":-6.185545,"distance":3191,"i_long":106.811091,"is_transit":true},{"station_name":"Duri","i_lat":-6.155215,"time":8,"transit":true,"distance":3632,"is_transit":true,"line":1,"i_long":106.800832,"station_id":"DU"},{"station_name":"Angke","transit":false,"i_lat":-6.144674,"station_id":"AK","i_long":106.79867,"time":4,"distance":1230,"is_transit":false,"line":0},{"line":0,"time":9,"is_transit":true,"station_id":"KPB","i_lat":-6.132549,"station_name":"Kampung Bandan","transit":true,"distance":4102,"i_long":106.826365},{"station_name":"Rajawali","time":3,"is_transit":false,"i_lat":-6.14505,"station_id":"RJW","i_long":106.836569,"line":11,"transit":false,"distance":1444},{"i_lat":-6.161728,"station_id":"KMO","i_long":106.839204,"line":11,"distance":1901,"station_name":"Kemayoran","is_transit":false,"transit":false,"time":5},{"i_lat":-6.174784,"transit":false,"i_long":106.84368,"time":4,"distance":1436,"is_transit":false,"line":11,"station_name":"Pasar Senen","station_id":"PSE"},{"time":8,"station_name":"Gang Sentiong","is_transit":false,"i_lat":-6.185975,"i_long":106.850107,"distance":1567,"line":11,"station_id":"GST","transit":false},{"is_transit":false,"i_long":106.855437,"line":11,"station_name":"Kramat","transit":false,"time":1,"distance":973,"station_id":"KMT","i_lat":-6.193792},{"station_name":"Pondok Jati","distance":1829,"station_id":"POK","i_lat":-6.209188,"line":11,"is_transit":false,"time":2,"transit":false,"i_long":106.861737},{"time":9,"i_lat":-6.215091,"distance":1236,"station_id":"JNG","transit":true,"line":0,"station_name":"Jatinegara","i_long":106.86807400000001,"is_transit":true},{"line":1,"station_name":"Matraman","i_lat":-6.212485,"transit":false,"time":2,"i_long":106.858896,"station_id":"MTR","distance":1377,"is_transit":false},{"distance":1275,"is_transit":true,"station_id":"MRI","time":2,"line":0,"transit":true,"station_name":"Manggarai","i_long":106.84912,"i_lat":-6.209883},{"time":4,"transit":false,"distance":2610,"line":2,"i_long":106.857948,"station_id":"TEB","i_lat":-6.226659,"is_transit":false,"station_name":"Tebet"},{"distance":1230,"i_lat":-6.242512,"station_name":"Cawang","time":2,"is_transit":false,"station_id":"CW","transit":false,"i_long":106.856607,"line":0},{"transit":false,"i_long":106.85449,"distance":1546,"line":0,"time":3,"station_id":"DRN","i_lat":-6.255332,"station_name":"Duren Kalibata","is_transit":false},{"i_long":106.851577,"time":2,"line":2,"distance":824,"station_id":"PSMB","i_lat":-6.263214,"is_transit":false,"station_name":"Pasar Minggu Baru","transit":false},{"transit":false,"distance":2380,"station_id":"PSM","station_name":"Pasar Minggu","line":2,"i_lat":-6.2842400000000005,"i_long":106.843999,"is_transit":false,"time":2}]]}