{"data":[[{"is_transit":false,"distance":0,"station_id":"PLM","time":0,"i_lat":-6.207404,"i_long":106.79689,"transit":false,"station_name":"Palmerah","line":6},{"distance":3191,"station_id":"THB","i_lat":-6.185545,"i_long":106.811091,"time":6,"line":1,"station_name":"Tanah Abang","transit":true,"is_transit":true},{"i_lat":-6.20132,"is_transit":false,"time":5,"transit":false,"station_name":"Karet","i_long":106.816351,"distance":2029,"line":1,"station_id":"KAT"},{"station_id":"SUDB","time":1,"distance":471,"i_lat":-6.201433,"line":1,"i_long":106.819881,"transit":false,"station_name":"Sudirman Baru","is_transit":false},{"i_lat":-6.202263,"i_long":106.822649,"transit":false,"station_name":"Sudirman","distance":280,"line":1,"time":1,"is_transit":false,"station_id":"SUD"},{"i_lat":-6.209883,"is_transit":true,"line":0,"i_long":106.84912,"station_name":"Manggarai","distance":3186,"time":4,"station_id":"MRI","transit":false},{"i_lat":-6.212485,"is_transit":false,"distance":1275,"time":2,"station_id":"MTR","i_long":106.858896,"line":1,"station_name":"Matraman","transit":false},{"transit":true,"i_long":106.86807400000001,"line":0,"distance":1377,"i_lat":-6.215091,"station_id":"JNG","station_name":"Jatinegara","is_transit":true,"time":8},{"distance":1236,"transit":false,"line":11,"i_long":106.861737,"station_id":"POK","is_transit":false,"i_lat":-6.209188,"station_name":"Pondok Jati","time":2}],[{"is_transit":false,"transit":false,"distance":0,"station_id":"PLM","time":0,"i_lat":-6.207404,"i_long":106.79689,"line":6,"station_name":"Palmerah"},{"distance":3191,"i_lat":-6.185545,"station_id":"THB","station_name":"Tanah Abang","i_long":106.811091,"transit":true,"is_transit":true,"time":6,"line":1},{"distance":3632,"transit":true,"i_long":106.800832,"station_name":"Duri","time":8,"line":1,"is_transit":true,"station_id":"DU","i_lat":-6.155215},{"is_transit":false,"station_id":"AK","i_long":106.79867,"line":0,"transit":false,"distance":1230,"station_name":"Angke","i_lat":-6.144674,"time":4},{"i_lat":-6.132549,"station_id":"KPB","i_long":106.826365,"distance":4102,"line":0,"station_name":"Kampung Bandan","transit":true,"is_transit":true,"time":9},{"line":11,"i_long":106.836569,"transit":false,"distance":1444,"station_name":"Rajawali","time":3,"station_id":"RJW","is_transit":false,"i_lat":-6.14505},{"distance":1901,"time":5,"i_lat":-6.161728,"i_long":106.839204,"transit":false,"line":11,"is_transit":false,"station_id":"KMO","station_name":"Kemayoran"},{"time":4,"station_name":"Pasar Senen","is_transit":false,"line":11,"distance":1436,"i_lat":-6.174784,"transit":false,"station_id":"PSE","i_long":106.84368},{"i_long":106.850107,"time":8,"is_transit":false,"i_lat":-6.185975,"distance":1567,"transit":false,"station_id":"GST","line":11,"station_name":"Gang Sentiong"},{"station_id":"KMT","i_lat":-6.193792,"is_transit":false,"distance":973,"i_long":106.855437,"time":1,"line":11,"transit":false,"station_name":"Kramat"},{"transit":false,"station_id":"POK","time":2,"i_lat":-6.209188,"line":11,"i_long":106.861737,"distance":1829,"station_name":"Pondok Jati","is_transit":false}],[{"distance":0,"is_transit":false,"transit":false,"time":0,"i_long":106.79689,"station_name":"Palmerah","i_lat":-6.207404,"station_id":"PLM","line":6},{"distance":3191,"i_long":106.811091,"time":6,"is_transit":true,"station_id":"THB","station_name":"Tanah Abang","transit":true,"i_lat":-6.185545,"line":1},{"line":1,"transit":true,"i_long":106.800832,"i_lat":-6.155215,"station_name":"Duri","time":8,"is_transit":true,"distance":3632,"station_id":"DU"},{"station_id":"AK","i_long":106.79867,"line":0,"distance":1230,"time":4,"station_name":"Angke","is_transit":false,"i_lat":-6.144674,"transit":false},{"station_id":"KPB","i_lat":-6.132549,"line":0,"station_name":"Kampung Bandan","is_transit":true,"i_long":106.826365,"distance":4102,"transit":false,"time":9},{"i_long":106.812439,"line":0,"distance":1364,"time":3,"station_name":"Jakarta Kota","transit":true,"station_id":"JAKK","is_transit":true,"i_lat":-6.137569},{"transit":false,"is_transit":false,"i_lat":-6.141205,"line":7,"station_name":"Jayakarta","distance":1264,"station_id":"JAY","time":4,"i_long":106.820901},{"transit":false,"station_name":"Manggabesar","distance":1080,"i_long":106.82482,"station_id":"MGB","i_lat":-6.149769,"time":2,"line":2,"is_transit":false},{"distance":906,"i_lat":-6.160725,"i_long":106.827103,"transit":false,"time":2,"is_transit":false,"station_name":"Sawah Besar","line":2,"station_id":"SW"},{"station_name":"Juanda","station_id":"JUA","transit":false,"distance":1149,"time":2,"i_lat":-6.166716,"is_transit":false,"line":2,"i_long":106.828284},{"line":2,"i_lat":-6.186295,"distance":2015,"i_long":106.832183,"station_id":"GDD","is_transit":false,"transit":false,"station_name":"Gondangdia","time":4},{"distance":1750,"is_transit":false,"transit":false,"line":0,"station_id":"CKI","time":3,"i_long":106.840169,"station_name":"Cikini","i_lat":-6.198556},{"i_lat":-6.209883,"distance":1590,"i_long":106.84912,"is_transit":true,"line":0,"station_name":"Manggarai","time":4,"transit":true,"station_id":"MRI"},{"is_transit":false,"i_lat":-6.212485,"transit":false,"i_long":106.858896,"line":1,"station_name":"Matraman","distance":1275,"station_id":"MTR","time":2},{"station_id":"JNG","is_transit":true,"i_lat":-6.215091,"station_name":"Jatinegara","time":8,"i_long":106.86807400000001,"line":0,"transit":true,"distance":1377},{"distance":1236,"i_long":106.861737,"i_lat":-6.209188,"time":2,"station_name":"Pondok Jati","station_id":"POK","line":11,"is_transit":false,"transit":false}],[{"is_transit":false,"station_name":"Palmerah","station_id":"PLM","transit":false,"line":6,"i_lat":-6.207404,"distance":0,"i_long":106.79689,"time":0},{"station_name":"Tanah Abang","i_lat":-6.185545,"time":6,"transit":true,"distance":3191,"is_transit":true,"line":1,"i_long":106.811091,"station_id":"THB"},{"station_name":"Karet","transit":false,"i_lat":-6.20132,"station_id":"KAT","i_long":106.816351,"time":5,"distance":2029,"is_transit":false,"line":1},{"line":1,"time":1,"is_transit":false,"station_id":"SUDB","i_lat":-6.201433,"station_name":"Sudirman Baru","transit":false,"distance":471,"i_long":106.819881},{"station_name":"Sudirman","time":1,"is_transit":false,"i_lat":-6.202263,"station_id":"SUD","i_long":106.822649,"line":1,"transit":false,"distance":280},{"i_lat":-6.209883,"station_id":"MRI","i_long":106.84912,"line":0,"distance":3186,"station_name":"Manggarai","is_transit":true,"transit":true,"time":4},{"i_lat":-6.198556,"transit":false,"i_long":106.840169,"time":4,"distance":1590,"is_transit":false,"line":0,"station_name":"Cikini","station_id":"CKI"},{"time":3,"station_name":"Gondangdia","is_transit":false,"i_lat":-6.186295,"i_long":106.832183,"distance":1750,"line":2,"station_id":"GDD","transit":false},{"is_transit":false,"i_long":106.828284,"line":2,"station_name":"Juanda","transit":false,"time":4,"distance":2015,"station_id":"JUA","i_lat":-6.166716},{"station_name":"Sawah Besar","distance":1149,"station_id":"SW","i_lat":-6.160725,"line":2,"is_transit":false,"time":2,"transit":false,"i_long":106.827103},{"time":2,"i_lat":-6.149769,"distance":906,"transit":false,"station_id":"MGB","line":2,"station_name":"Manggabesar","i_long":106.82482,"is_transit":false},{"line":7,"station_name":"Jayakarta","i_lat":-6.141205,"transit":false,"time":2,"i_long":106.820901,"station_id":"JAY","distance":1080,"is_transit":false},{"distance":1264,"is_transit":true,"station_id":"JAKK","time":4,"line":0,"transit":true,"station_name":"Jakarta Kota","i_long":106.812439,"i_lat":-6.137569},{"time":3,"transit":true,"distance":1364,"line":0,"i_long":106.826365,"station_id":"KPB","i_lat":-6.132549,"is_transit":true,"station_name":"Kampung Bandan"},{"distance":1444,"i_lat":-6.14505,"station_name":"Rajawali","time":3,"is_transit":false,"station_id":"RJW","transit":false,"i_long":106.836569,"line":11},{"transit":false,"i_long":106.839204,"distance":1901,"line":11,"time":5,"station_id":"KMO","i_lat":-6.161728,"station_name":"Kemayoran","is_transit":false},{"distance":1436,"is_transit":false,"station_id":"PSE","i_long":106.84368,"line":11,"i_lat":-6.174784,"station_name":"Pasar Senen","time":4,"transit":false},{"transit":false,"distance":1567,"station_id":"GST","station_name":"Gang Sentiong","line":11,"i_lat":-6.185975,"i_long":106.850107,"time":8,"is_transit":false},{"station_name":"Kramat","i_long":106.855437,"line":11,"is_transit":false,"distance":973,"time":1,"i_lat":-6.193792,"transit":false,"station_id":"KMT"},{"time":2,"station_name":"Pondok Jati","transit":false,"distance":1829,"line":11,"station_id":"POK","is_transit":false,"i_lat":-6.209188,"i_long":106.861737}]]}