{"data":[[{"line":6,"is_transit":false,"i_long":106.79689,"time":0,"station_id":"PLM","i_lat":-6.207404,"transit":false,"station_name":"Palmerah","distance":0},{"is_transit":true,"distance":3191,"time":6,"i_lat":-6.185545,"transit":true,"station_id":"THB","station_name":"Tanah Abang","i_long":106.811091,"line":1},{"station_name":"Duri","i_lat":-6.155215,"is_transit":false,"i_long":106.800832,"distance":3632,"station_id":"DU","time":8,"line":1,"transit":false},{"distance":1230,"station_name":"Angke","transit":false,"time":4,"line":1,"station_id":"AK","i_long":106.79867,"is_transit":false,"i_lat":-6.144674},{"is_transit":false,"time":9,"transit":false,"station_id":"KPB","station_name":"Kampung Bandan","line":4,"i_lat":-6.132549,"distance":4102,"i_long":106.826365}],[{"transit":false,"is_transit":false,"distance":0,"station_name":"Palmerah","i_long":106.79689,"line":6,"station_id":"PLM","time":0,"i_lat":-6.207404},{"line":1,"is_transit":true,"i_long":106.811091,"i_lat":-6.185545,"time":6,"distance":3191,"transit":true,"station_name":"Tanah Abang","station_id":"THB"},{"time":5,"distance":2029,"line":1,"transit":false,"station_name":"Karet","i_lat":-6.20132,"i_long":106.816351,"station_id":"KAT","is_transit":false},{"station_id":"SUDB","is_transit":false,"time":1,"i_long":106.819881,"line":1,"i_lat":-6.201433,"distance":471,"station_name":"Sudirman Baru","transit":false},{"station_id":"SUD","station_name":"Sudirman","line":1,"transit":false,"distance":280,"is_transit":false,"time":1,"i_lat":-6.202263,"i_long":106.822649},{"distance":3186,"station_name":"Manggarai","is_transit":true,"time":4,"line":2,"i_lat":-6.209883,"transit":true,"station_id":"MRI","i_long":106.84912},{"i_long":106.840169,"station_id":"CKI","station_name":"Cikini","transit":false,"time":4,"distance":1590,"line":2,"i_lat":-6.198556,"is_transit":false},{"station_name":"Gondangdia","time":3,"i_long":106.832183,"distance":1750,"transit":false,"line":2,"is_transit":false,"station_id":"GDD","i_lat":-6.186295},{"station_id":"JUA","line":2,"is_transit":false,"station_name":"Juanda","time":4,"i_lat":-6.166716,"transit":false,"distance":2015,"i_long":106.828284},{"transit":false,"i_long":106.827103,"station_id":"SW","station_name":"Sawah Besar","is_transit":false,"distance":1149,"time":2,"i_lat":-6.160725,"line":2},{"is_transit":false,"distance":906,"line":2,"station_name":"Manggabesar","transit":false,"i_lat":-6.149769,"time":2,"station_id":"MGB","i_long":106.82482},{"is_transit":false,"i_long":106.820901,"distance":1080,"station_id":"JAY","i_lat":-6.141205,"transit":false,"line":2,"time":2,"station_name":"Jayakarta"},{"i_lat":-6.137569,"transit":true,"station_name":"Jakarta Kota","time":4,"is_transit":true,"distance":1264,"i_long":106.812439,"station_id":"JAKK","line":2},{"line":4,"i_long":106.826365,"transit":false,"station_name":"Kampung Bandan","i_lat":-6.132549,"is_transit":false,"distance":1364,"station_id":"KPB","time":3}],[{"i_lat":-6.207404,"i_long":106.79689,"station_id":"PLM","distance":0,"transit":false,"time":0,"station_name":"Palmerah","line":6,"is_transit":false},{"distance":3191,"is_transit":true,"time":6,"i_long":106.811091,"transit":true,"i_lat":-6.185545,"station_id":"THB","line":1,"station_name":"Tanah Abang"},{"transit":false,"distance":2029,"is_transit":false,"station_name":"Karet","line":1,"i_long":106.816351,"time":5,"station_id":"KAT","i_lat":-6.20132},{"i_long":106.819881,"i_lat":-6.201433,"line":1,"distance":471,"station_name":"Sudirman Baru","transit":false,"time":1,"is_transit":false,"station_id":"SUDB"},{"transit":false,"line":1,"is_transit":false,"i_lat":-6.202263,"station_id":"SUD","time":1,"station_name":"Sudirman","distance":280,"i_long":106.822649},{"distance":3186,"line":2,"is_transit":false,"i_long":106.84912,"transit":false,"time":4,"station_id":"MRI","i_lat":-6.209883,"station_name":"Manggarai"},{"is_transit":false,"i_lat":-6.212485,"station_name":"Matraman","time":2,"station_id":"MTR","i_long":106.858896,"distance":1275,"line":1,"transit":false},{"is_transit":true,"station_name":"Jatinegara","distance":1377,"i_long":106.86807400000001,"line":1,"station_id":"JNG","transit":true,"i_lat":-6.215091,"time":8},{"transit":false,"time":2,"i_long":106.861737,"is_transit":false,"line":11,"distance":1236,"i_lat":-6.209188,"station_name":"Pondok Jati","station_id":"POK"},{"i_long":106.855437,"station_name":"Kramat","transit":false,"is_transit":false,"station_id":"KMT","time":2,"distance":1829,"line":11,"i_lat":-6.193792},{"i_long":106.850107,"line":11,"station_name":"Gang Sentiong","time":1,"i_lat":-6.185975,"distance":973,"transit":false,"station_id":"GST","is_transit":false},{"is_transit":false,"i_lat":-6.174784,"station_id":"PSE","station_name":"Pasar Senen","time":8,"line":11,"transit":false,"i_long":106.84368,"distance":1567},{"i_long":106.839204,"line":11,"station_id":"KMO","station_name":"Kemayoran","transit":false,"is_transit":false,"time":4,"distance":1436,"i_lat":-6.161728},{"transit":false,"station_name":"Rajawali","time":5,"line":11,"is_transit":false,"station_id":"RJW","i_long":106.836569,"distance":1901,"i_lat":-6.14505},{"station_name":"Kampung Bandan","transit":false,"station_id":"KPB","is_transit":false,"line":4,"time":3,"i_lat":-6.132549,"distance":1444,"i_long":106.826365}]]}