{"data":[[{"distance":0,"i_long":106.79689,"station_id":"PLM","station_name":"Palmerah","is_transit":false,"time":0,"transit":false,"i_lat":-6.207404,"line":6},{"time":6,"transit":true,"station_id":"THB","line":1,"station_name":"Tanah Abang","i_lat":-6.185545,"distance":3191,"is_transit":true,"i_long":106.811091},{"station_id":"KAT","transit":false,"distance":2029,"time":5,"station_name":"Karet","i_lat":-6.20132,"i_long":106.816351,"is_transit":false,"line":1},{"distance":471,"is_transit":false,"transit":false,"station_id":"SUDB","i_lat":-6.201433,"i_long":106.819881,"time":1,"line":1,"station_name":"Sudirman Baru"},{"transit":false,"i_long":106.822649,"line":1,"time":1,"is_transit":false,"station_id":"SUD","i_lat":-6.202263,"distance":280,"station_name":"Sudirman"},{"i_long":106.84912,"station_name":"Manggarai","i_lat":-6.209883,"station_id":"MRI","time":4,"is_transit":true,"transit":true,"line":0,"distance":3186},{"distance":2610,"i_long":106.857948,"line":2,"station_name":"Tebet","transit":false,"station_id":"TEB","i_lat":-6.226659,"is_transit":false,"time":4},{"is_transit":false,"transit":false,"station_name":"Cawang","i_lat":-6.242512,"distance":1230,"time":2,"line":0,"i_long":106.856607,"station_id":"CW"},{"distance":1546,"transit":false,"time":3,"is_transit":false,"i_long":106.85449,"line":0,"station_name":"Duren Kalibata","station_id":"DRN","i_lat":-6.255332},{"transit":false,"time":2,"line":2,"is_transit":false,"i_long":106.851577,"distance":824,"station_id":"PSMB","station_name":"Pasar Minggu Baru","i_lat":-6.263214},{"station_name":"Pasar Minggu","line":2,"time":2,"is_transit":false,"transit":false,"i_lat":-6.2842400000000005,"i_long":106.843999,"distance":2380,"station_id":"PSM"},{"i_long":106.838896,"station_name":"Tanjung Barat","i_lat":-6.3080680000000005,"line":2,"time":4,"distance":2820,"is_transit":false,"station_id":"TNT","transit":false},{"transit":false,"time":3,"station_id":"LNA","distance":2671,"i_long":106.832616,"i_lat":-6.330363,"station_name":"Lenteng Agung","is_transit":false,"line":2},{"time":2,"distance":1029,"station_id":"UP","i_lat":-6.339291,"line":2,"is_transit":false,"transit":false,"i_long":106.834175,"station_name":"Univ. Pancasila"},{"time":3,"distance":2264,"transit":false,"station_id":"UI","station_name":"Univ. Indonesia","i_long":106.831474,"is_transit":false,"i_lat":-6.360749,"line":2},{"distance":1109,"station_name":"Pondok Cina","station_id":"POC","line":2,"time":2,"i_long":106.831114,"i_lat":-6.369073,"transit":false,"is_transit":false},{"i_lat":-6.391065,"distance":2727,"transit":false,"i_long":106.819451,"line":0,"time":4,"station_name":"Depokbaru","is_transit":false,"station_id":"DPB"},{"station_name":"Depok","transit":false,"line":0,"distance":1584,"i_long":106.816926,"i_lat":-6.405256,"is_transit":false,"station_id":"DP","time":3},{"time":6,"is_transit":true,"station_name":"Citayam","station_id":"CTA","transit":false,"i_lat":-6.448811,"i_long":106.800298,"line":1,"distance":5084},{"i_long":106.792719,"station_name":"Bojonggede","station_id":"BJD","is_transit":false,"i_lat":-6.493243,"distance":5197,"line":0,"time":5,"transit":false}],[{"i_long":106.79689,"is_transit":false,"station_id":"PLM","distance":0,"station_name":"Palmerah","line":6,"time":0,"transit":false,"i_lat":-6.207404},{"distance":3191,"station_id":"THB","i_lat":-6.185545,"line":1,"time":6,"station_name":"Tanah Abang","is_transit":true,"transit":true,"i_long":106.811091},{"distance":3632,"station_id":"DU","station_name":"Duri","i_lat":-6.155215,"transit":true,"line":1,"is_transit":true,"i_long":106.800832,"time":8},{"distance":1230,"line":0,"station_name":"Angke","transit":false,"i_long":106.79867,"time":4,"i_lat":-6.144674,"is_transit":false,"station_id":"AK"},{"station_name":"Kampung Bandan","distance":4102,"i_lat":-6.132549,"i_long":106.826365,"time":9,"station_id":"KPB","line":0,"transit":false,"is_transit":true},{"i_long":106.812439,"transit":true,"is_transit":true,"line":0,"station_name":"Jakarta Kota","station_id":"JAKK","distance":1364,"time":3,"i_lat":-6.137569},{"i_lat":-6.141205,"station_name":"Jayakarta","transit":false,"time":4,"i_long":106.820901,"distance":1264,"station_id":"JAY","is_transit":false,"line":7},{"station_name":"Manggabesar","line":2,"is_transit":false,"station_id":"MGB","distance":1080,"transit":false,"time":2,"i_long":106.82482,"i_lat":-6.149769},{"time":2,"is_transit":false,"station_name":"Sawah Besar","station_id":"SW","i_lat":-6.160725,"i_long":106.827103,"line":2,"transit":false,"distance":906},{"is_transit":false,"station_id":"JUA","i_lat":-6.166716,"time":2,"transit":false,"i_long":106.828284,"line":2,"station_name":"Juanda","distance":1149},{"transit":false,"line":2,"i_long":106.832183,"is_transit":false,"i_lat":-6.186295,"distance":2015,"station_name":"Gondangdia","time":4,"station_id":"GDD"},{"transit":false,"station_name":"Cikini","line":0,"station_id":"CKI","is_transit":false,"i_long":106.840169,"distance":1750,"time":3,"i_lat":-6.198556},{"time":4,"i_lat":-6.209883,"is_transit":true,"i_long":106.84912,"distance":1590,"station_name":"Manggarai","line":0,"station_id":"MRI","transit":true},{"time":4,"is_transit":false,"distance":2610,"i_long":106.857948,"station_id":"TEB","i_lat":-6.226659,"line":2,"transit":false,"station_name":"Tebet"},{"i_lat":-6.242512,"line":0,"distance":1230,"transit":false,"station_id":"CW","time":2,"is_transit":false,"station_name":"Cawang","i_long":106.856607},{"line":0,"i_lat":-6.255332,"time":3,"i_long":106.85449,"transit":false,"station_name":"Duren Kalibata","is_transit":false,"station_id":"DRN","distance":1546},{"i_lat":-6.263214,"time":2,"station_name":"Pasar Minggu Baru","transit":false,"line":2,"station_id":"PSMB","distance":824,"i_long":106.851577,"is_transit":false},{"is_transit":false,"transit":false,"station_id":"PSM","i_long":106.843999,"distance":2380,"line":2,"station_name":"Pasar Minggu","time":2,"i_lat":-6.2842400000000005},{"transit":false,"station_name":"Tanjung Barat","i_lat":-6.3080680000000005,"distance":2820,"time":4,"line":2,"station_id":"TNT","is_transit":false,"i_long":106.838896},{"time":3,"is_transit":false,"transit":false,"station_name":"Lenteng Agung","i_lat":-6.330363,"i_long":106.832616,"station_id":"LNA","line":2,"distance":2671},{"station_id":"UP","distance":1029,"is_transit":false,"transit":false,"i_lat":-6.339291,"i_long":106.834175,"time":2,"station_name":"Univ. Pancasila","line":2},{"transit":false,"distance":2264,"line":2,"station_name":"Univ. Indonesia","station_id":"UI","i_lat":-6.360749,"i_long":106.831474,"time":3,"is_transit":false},{"distance":1109,"station_name":"Pondok Cina","is_transit":false,"station_id":"POC","i_long":106.831114,"line":2,"i_lat":-6.369073,"transit":false,"time":2},{"is_transit":false,"i_lat":-6.391065,"time":4,"i_long":106.819451,"transit":false,"station_id":"DPB","line":0,"distance":2727,"station_name":"Depokbaru"},{"is_transit":false,"i_lat":-6.405256,"line":0,"distance":1584,"time":3,"station_id":"DP","station_name":"Depok","i_long":106.816926,"transit":false},{"time":6,"is_transit":true,"station_name":"Citayam","distance":5084,"transit":false,"station_id":"CTA","line":1,"i_long":106.800298,"i_lat":-6.448811},{"transit":false,"line":0,"is_transit":false,"distance":5197,"station_id":"BJD","i_lat":-6.493243,"i_long":106.792719,"time":5,"station_name":"Bojonggede"}],[{"i_lat":-6.207404,"is_transit":false,"station_name":"Palmerah","transit":false,"station_id":"PLM","distance":0,"time":0,"i_long":106.79689,"line":6},{"i_lat":-6.185545,"line":1,"distance":3191,"is_transit":true,"station_id":"THB","transit":true,"station_name":"Tanah Abang","i_long":106.811091,"time":6},{"transit":true,"station_id":"DU","time":8,"distance":3632,"is_transit":true,"i_lat":-6.155215,"line":1,"station_name":"Duri","i_long":106.800832},{"i_lat":-6.144674,"distance":1230,"i_long":106.79867,"station_name":"Angke","is_transit":false,"transit":false,"station_id":"AK","line":0,"time":4},{"time":9,"transit":true,"distance":4102,"station_id":"KPB","i_lat":-6.132549,"line":0,"i_long":106.826365,"station_name":"Kampung Bandan","is_transit":true},{"transit":false,"i_lat":-6.14505,"is_transit":false,"distance":1444,"station_name":"Rajawali","time":3,"station_id":"RJW","i_long":106.836569,"line":11},{"transit":false,"time":5,"distance":1901,"is_transit":false,"station_id":"KMO","i_long":106.839204,"line":11,"station_name":"Kemayoran","i_lat":-6.161728},{"i_long":106.84368,"distance":1436,"station_name":"Pasar Senen","is_transit":false,"time":4,"transit":false,"station_id":"PSE","line":11,"i_lat":-6.174784},{"distance":1567,"station_name":"Gang Sentiong","i_long":106.850107,"i_lat":-6.185975,"line":11,"station_id":"GST","time":8,"transit":false,"is_transit":false},{"i_long":106.855437,"i_lat":-6.193792,"distance":973,"time":1,"transit":false,"is_transit":false,"station_id":"KMT","station_name":"Kramat","line":11},{"time":2,"is_transit":false,"i_lat":-6.209188,"line":11,"distance":1829,"transit":false,"i_long":106.861737,"station_id":"POK","station_name":"Pondok Jati"},{"distance":1236,"transit":true,"i_lat":-6.215091,"line":0,"is_transit":true,"i_long":106.86807400000001,"station_id":"JNG","time":9,"station_name":"Jatinegara"},{"is_transit":false,"station_id":"MTR","station_name":"Matraman","i_long":106.858896,"time":2,"distance":1377,"i_lat":-6.212485,"transit":false,"line":1},{"is_transit":true,"station_id":"MRI","i_long":106.84912,"transit":true,"station_name":"Manggarai","i_lat":-6.209883,"line":0,"time":2,"distance":1275},{"distance":2610,"i_lat":-6.226659,"transit":false,"station_id":"TEB","line":2,"i_long":106.857948,"time":4,"station_name":"Tebet","is_transit":false},{"time":2,"station_name":"Cawang","transit":false,"i_lat":-6.242512,"line":0,"i_long":106.856607,"station_id":"CW","distance":1230,"is_transit":false},{"transit":false,"time":3,"is_transit":false,"i_lat":-6.255332,"i_long":106.85449,"station_id":"DRN","distance":1546,"line":0,"station_name":"Duren Kalibata"},{"transit":false,"distance":824,"i_long":106.851577,"is_transit":false,"time":2,"line":2,"station_name":"Pasar Minggu Baru","station_id":"PSMB","i_lat":-6.263214},{"transit":false,"line":2,"is_transit":false,"time":2,"distance":2380,"station_name":"Pasar Minggu","i_lat":-6.2842400000000005,"station_id":"PSM","i_long":106.843999},{"i_lat":-6.3080680000000005,"distance":2820,"line":2,"is_transit":false,"station_name":"Tanjung Barat","transit":false,"time":4,"i_long":106.838896,"station_id":"TNT"},{"line":2,"distance":2671,"is_transit":false,"transit":false,"station_id":"LNA","time":3,"station_name":"Lenteng Agung","i_lat":-6.330363,"i_long":106.832616},{"transit":false,"line":2,"is_transit":false,"station_name":"Univ. Pancasila","i_lat":-6.339291,"distance":1029,"i_long":106.834175,"station_id":"UP","time":2},{"station_name":"Univ. Indonesia","station_id":"UI","time":3,"i_lat":-6.360749,"i_long":106.831474,"distance":2264,"is_transit":false,"transit":false,"line":2},{"transit":false,"station_id":"POC","distance":1109,"station_name":"Pondok Cina","is_transit":false,"time":2,"line":2,"i_lat":-6.369073,"i_long":106.831114},{"station_name":"Depokbaru","distance":2727,"i_long":106.819451,"is_transit":false,"i_lat":-6.391065,"line":0,"time":4,"station_id":"DPB","transit":false},{"line":0,"station_name":"Depok","is_transit":false,"transit":false,"station_id":"DP","time":3,"i_long":106.816926,"distance":1584,"i_lat":-6.405256},{"transit":false,"station_id":"CTA","line":1,"distance":5084,"is_transit":true,"i_long":106.800298,"time":6,"station_name":"Citayam","i_lat":-6.448811},{"time":5,"i_lat":-6.493243,"i_long":106.792719,"is_transit":false,"station_name":"Bojonggede","station_id":"BJD","line":0,"transit":false,"distance":5197}]]}