{"data":[[{"station_id":"PLM","is_transit":false,"i_lat":-6.207404,"time":0,"distance":0,"transit":false,"line":6,"i_long":106.79689,"station_name":"Palmerah"},{"i_lat":-6.185545,"line":1,"station_id":"THB","is_transit":true,"time":6,"transit":true,"distance":3191,"station_name":"Tanah Abang","i_long":106.811091},{"station_id":"KAT","is_transit":false,"time":5,"i_long":106.816351,"station_name":"Karet","distance":2029,"transit":false,"i_lat":-6.20132,"line":1},{"time":1,"station_name":"Sudirman Baru","i_lat":-6.201433,"i_long":106.819881,"line":1,"station_id":"SUDB","is_transit":false,"transit":false,"distance":471},{"transit":false,"i_lat":-6.202263,"station_id":"SUD","distance":280,"time":1,"line":1,"is_transit":false,"i_long":106.822649,"station_name":"Sudirman"},{"time":4,"station_id":"MRI","transit":true,"is_transit":true,"distance":3186,"i_lat":-6.209883,"station_name":"Manggarai","i_long":106.84912,"line":2},{"station_name":"Tebet","i_lat":-6.226659,"station_id":"TEB","line":2,"is_transit":false,"i_long":106.857948,"transit":false,"distance":2610,"time":4},{"station_name":"Cawang","is_transit":false,"distance":1230,"i_lat":-6.242512,"i_long":106.856607,"transit":false,"time":2,"line":2,"station_id":"CW"},{"transit":false,"line":2,"i_lat":-6.255332,"i_long":106.85449,"distance":1546,"station_name":"Duren Kalibata","station_id":"DRN","is_transit":false,"time":3},{"transit":false,"station_id":"PSMB","station_name":"Pasar Minggu Baru","distance":824,"i_long":106.851577,"line":2,"is_transit":false,"time":2,"i_lat":-6.263214},{"line":2,"station_id":"PSM","is_transit":false,"time":2,"i_lat":-6.2842400000000005,"distance":2380,"i_long":106.843999,"transit":false,"station_name":"Pasar Minggu"},{"transit":false,"i_long":106.838896,"station_name":"Tanjung Barat","station_id":"TNT","distance":2820,"time":4,"line":2,"is_transit":false,"i_lat":-6.3080680000000005},{"station_name":"Lenteng Agung","i_long":106.832616,"time":3,"is_transit":false,"station_id":"LNA","line":2,"transit":false,"distance":2671,"i_lat":-6.330363},{"is_transit":false,"station_name":"Univ. Pancasila","i_long":106.834175,"time":2,"distance":1029,"transit":false,"i_lat":-6.339291,"station_id":"UP","line":2},{"distance":2264,"is_transit":false,"i_lat":-6.360749,"line":2,"time":3,"station_name":"Univ. Indonesia","transit":false,"i_long":106.831474,"station_id":"UI"},{"is_transit":false,"distance":1109,"line":2,"transit":false,"time":2,"i_lat":-6.369073,"station_name":"Pondok Cina","i_long":106.831114,"station_id":"POC"}],[{"station_name":"Palmerah","transit":false,"station_id":"PLM","distance":0,"is_transit":false,"i_lat":-6.207404,"i_long":106.79689,"time":0,"line":6},{"station_id":"THB","i_long":106.811091,"time":6,"station_name":"Tanah Abang","is_transit":true,"transit":true,"line":1,"distance":3191,"i_lat":-6.185545},{"station_id":"DU","station_name":"Duri","transit":false,"is_transit":false,"time":8,"line":1,"i_long":106.800832,"distance":3632,"i_lat":-6.155215},{"time":4,"station_id":"AK","transit":false,"station_name":"Angke","is_transit":false,"distance":1230,"i_lat":-6.144674,"line":1,"i_long":106.79867},{"station_name":"Kampung Bandan","is_transit":true,"i_long":106.826365,"i_lat":-6.132549,"transit":true,"time":9,"line":4,"station_id":"KPB","distance":4102},{"transit":true,"i_long":106.812439,"station_id":"JAKK","time":3,"line":2,"is_transit":true,"station_name":"Jakarta Kota","i_lat":-6.137569,"distance":1364},{"line":2,"distance":1264,"i_long":106.820901,"time":4,"station_id":"JAY","i_lat":-6.141205,"transit":false,"station_name":"Jayakarta","is_transit":false},{"station_name":"Manggabesar","i_lat":-6.149769,"station_id":"MGB","time":2,"is_transit":false,"transit":false,"distance":1080,"line":2,"i_long":106.82482},{"distance":906,"transit":false,"is_transit":false,"station_name":"Sawah Besar","i_lat":-6.160725,"station_id":"SW","i_long":106.827103,"time":2,"line":2},{"line":2,"station_name":"Juanda","is_transit":false,"distance":1149,"i_lat":-6.166716,"station_id":"JUA","time":2,"i_long":106.828284,"transit":false},{"transit":false,"station_name":"Gondangdia","i_long":106.832183,"time":4,"station_id":"GDD","is_transit":false,"i_lat":-6.186295,"line":2,"distance":2015},{"station_name":"Cikini","i_lat":-6.198556,"i_long":106.840169,"time":3,"distance":1750,"is_transit":false,"transit":false,"line":2,"station_id":"CKI"},{"station_id":"MRI","distance":1590,"station_name":"Manggarai","i_long":106.84912,"line":2,"i_lat":-6.209883,"is_transit":false,"transit":false,"time":4},{"time":4,"station_id":"TEB","is_transit":false,"station_name":"Tebet","transit":false,"distance":2610,"i_lat":-6.226659,"i_long":106.857948,"line":2},{"i_lat":-6.242512,"i_long":106.856607,"station_id":"CW","line":2,"transit":false,"station_name":"Cawang","is_transit":false,"time":2,"distance":1230},{"line":2,"is_transit":false,"distance":1546,"time":3,"i_lat":-6.255332,"i_long":106.85449,"transit":false,"station_id":"DRN","station_name":"Duren Kalibata"},{"is_transit":false,"station_name":"Pasar Minggu Baru","distance":824,"line":2,"transit":false,"i_lat":-6.263214,"i_long":106.851577,"time":2,"station_id":"PSMB"},{"station_name":"Pasar Minggu","station_id":"PSM","is_transit":false,"distance":2380,"i_long":106.843999,"line":2,"time":2,"i_lat":-6.2842400000000005,"transit":false},{"i_lat":-6.3080680000000005,"station_id":"TNT","line":2,"station_name":"Tanjung Barat","i_long":106.838896,"distance":2820,"is_transit":false,"transit":false,"time":4},{"i_long":106.832616,"line":2,"station_id":"LNA","transit":false,"is_transit":false,"station_name":"Lenteng Agung","time":3,"distance":2671,"i_lat":-6.330363},{"distance":1029,"transit":false,"i_lat":-6.339291,"line":2,"time":2,"is_transit":false,"i_long":106.834175,"station_id":"UP","station_name":"Univ. Pancasila"},{"transit":false,"i_long":106.831474,"distance":2264,"station_id":"UI","station_name":"Univ. Indonesia","line":2,"time":3,"is_transit":false,"i_lat":-6.360749},{"time":2,"distance":1109,"i_long":106.831114,"line":2,"station_name":"Pondok Cina","station_id":"POC","is_transit":false,"i_lat":-6.369073,"transit":false}],[{"time":0,"is_transit":false,"i_long":106.79689,"line":6,"station_id":"PLM","station_name":"Palmerah","transit":false,"i_lat":-6.207404,"distance":0},{"distance":3191,"line":1,"is_transit":true,"station_name":"Tanah Abang","time":6,"transit":true,"i_lat":-6.185545,"i_long":106.811091,"station_id":"THB"},{"transit":false,"time":8,"i_long":106.800832,"station_name":"Duri","station_id":"DU","i_lat":-6.155215,"is_transit":false,"line":1,"distance":3632},{"station_name":"Angke","station_id":"AK","time":4,"i_long":106.79867,"transit":false,"line":1,"i_lat":-6.144674,"distance":1230,"is_transit":false},{"time":9,"i_lat":-6.132549,"line":4,"is_transit":true,"station_name":"Kampung Bandan","distance":4102,"i_long":106.826365,"station_id":"KPB","transit":true},{"is_transit":false,"time":3,"station_name":"Rajawali","i_long":106.836569,"station_id":"RJW","i_lat":-6.14505,"distance":1444,"line":11,"transit":false},{"i_long":106.839204,"is_transit":false,"station_id":"KMO","i_lat":-6.161728,"line":11,"distance":1901,"time":5,"transit":false,"station_name":"Kemayoran"},{"i_lat":-6.174784,"transit":false,"distance":1436,"line":11,"is_transit":false,"station_id":"PSE","time":4,"station_name":"Pasar Senen","i_long":106.84368},{"i_lat":-6.185975,"distance":1567,"transit":false,"time":8,"station_id":"GST","station_name":"Gang Sentiong","is_transit":false,"line":11,"i_long":106.850107},{"line":11,"distance":973,"time":1,"i_long":106.855437,"station_name":"Kramat","station_id":"KMT","i_lat":-6.193792,"transit":false,"is_transit":false},{"i_long":106.861737,"time":2,"distance":1829,"is_transit":false,"station_id":"POK","line":11,"transit":false,"station_name":"Pondok Jati","i_lat":-6.209188},{"transit":true,"station_id":"JNG","i_lat":-6.215091,"line":1,"time":9,"station_name":"Jatinegara","is_transit":true,"distance":1236,"i_long":106.86807400000001},{"is_transit":false,"transit":false,"station_id":"MTR","distance":1377,"station_name":"Matraman","i_lat":-6.212485,"time":2,"line":1,"i_long":106.858896},{"i_long":106.84912,"station_name":"Manggarai","station_id":"MRI","distance":1275,"line":2,"i_lat":-6.209883,"is_transit":true,"transit":true,"time":2},{"transit":false,"i_lat":-6.226659,"time":4,"station_name":"Tebet","line":2,"distance":2610,"i_long":106.857948,"is_transit":false,"station_id":"TEB"},{"station_id":"CW","line":2,"i_long":106.856607,"station_name":"Cawang","time":2,"distance":1230,"is_transit":false,"transit":false,"i_lat":-6.242512},{"is_transit":false,"transit":false,"time":3,"i_lat":-6.255332,"station_id":"DRN","station_name":"Duren Kalibata","i_long":106.85449,"line":2,"distance":1546},{"i_lat":-6.263214,"line":2,"station_name":"Pasar Minggu Baru","transit":false,"time":2,"distance":824,"i_long":106.851577,"station_id":"PSMB","is_transit":false},{"is_transit":false,"time":2,"i_lat":-6.2842400000000005,"transit":false,"i_long":106.843999,"station_name":"Pasar Minggu","station_id":"PSM","distance":2380,"line":2},{"distance":2820,"station_id":"TNT","i_lat":-6.3080680000000005,"station_name":"Tanjung Barat","line":2,"transit":false,"time":4,"i_long":106.838896,"is_transit":false},{"time":3,"station_id":"LNA","is_transit":false,"transit":false,"distance":2671,"i_long":106.832616,"station_name":"Lenteng Agung","line":2,"i_lat":-6.330363},{"i_lat":-6.339291,"distance":1029,"line":2,"transit":false,"station_name":"Univ. Pancasila","time":2,"is_transit":false,"i_long":106.834175,"station_id":"UP"},{"station_name":"Univ. Indonesia","time":3,"station_id":"UI","i_long":106.831474,"i_lat":-6.360749,"is_transit":false,"transit":false,"distance":2264,"line":2},{"is_transit":false,"i_lat":-6.369073,"station_name":"Pondok Cina","distance":1109,"i_long":106.831114,"line":2,"transit":false,"station_id":"POC","time":2}]]}