{"data":[[{"transit":false,"is_transit":false,"station_name":"Palmerah","i_lat":-6.207404,"line":6,"station_id":"PLM","distance":0,"i_long":106.79689,"time":0},{"time":6,"distance":3191,"station_name":"Tanah Abang","is_transit":true,"i_lat":-6.185545,"i_long":106.811091,"station_id":"THB","transit":true,"line":1},{"time":5,"i_long":106.816351,"station_id":"KAT","distance":2029,"i_lat":-6.20132,"station_name":"Karet","transit":false,"is_transit":false,"line":1}],[{"i_long":106.79689,"transit":false,"is_transit":false,"station_name":"Palmerah","distance":0,"i_lat":-6.207404,"station_id":"PLM","time":0,"line":6},{"station_name":"Tanah Abang","transit":true,"line":1,"station_id":"THB","distance":3191,"is_transit":true,"time":6,"i_lat":-6.185545,"i_long":106.811091},{"station_name":"Duri","time":8,"i_lat":-6.155215,"is_transit":false,"line":1,"i_long":106.800832,"transit":false,"station_id":"DU","distance":3632},{"i_long":106.79867,"line":1,"transit":false,"distance":1230,"station_name":"Angke","is_transit":false,"time":4,"i_lat":-6.144674,"station_id":"AK"},{"transit":true,"is_transit":true,"line":4,"station_name":"Kampung Bandan","station_id":"KPB","distance":4102,"time":9,"i_lat":-6.132549,"i_long":106.826365},{"is_transit":true,"line":2,"station_name":"Jakarta Kota","station_id":"JAKK","i_lat":-6.137569,"transit":true,"time":3,"distance":1364,"i_long":106.812439},{"station_name":"Jayakarta","station_id":"JAY","distance":1264,"time":4,"line":2,"i_long":106.820901,"i_lat":-6.141205,"is_transit":false,"transit":false},{"is_transit":false,"time":2,"i_lat":-6.149769,"i_long":106.82482,"line":2,"transit":false,"distance":1080,"station_name":"Manggabesar","station_id":"MGB"},{"is_transit":false,"station_name":"Sawah Besar","time":2,"line":2,"station_id":"SW","transit":false,"distance":906,"i_lat":-6.160725,"i_long":106.827103},{"station_id":"JUA","i_long":106.828284,"line":2,"i_lat":-6.166716,"station_name":"Juanda","transit":false,"is_transit":false,"time":2,"distance":1149},{"station_id":"GDD","i_lat":-6.186295,"line":2,"station_name":"Gondangdia","transit":false,"i_long":106.832183,"distance":2015,"time":4,"is_transit":false},{"transit":false,"line":2,"station_name":"Cikini","distance":1750,"station_id":"CKI","i_lat":-6.198556,"time":3,"i_long":106.840169,"is_transit":false},{"i_lat":-6.209883,"line":2,"distance":1590,"station_name":"Manggarai","i_long":106.84912,"time":4,"transit":true,"is_transit":true,"station_id":"MRI"},{"station_name":"Sudirman","station_id":"SUD","is_transit":false,"time":4,"distance":3186,"i_lat":-6.202263,"line":1,"i_long":106.822649,"transit":false},{"i_lat":-6.201433,"line":1,"station_id":"SUDB","distance":280,"i_long":106.819881,"station_name":"Sudirman Baru","transit":false,"is_transit":false,"time":1},{"distance":471,"is_transit":false,"transit":false,"i_lat":-6.20132,"station_name":"Karet","station_id":"KAT","time":1,"line":1,"i_long":106.816351}],[{"i_lat":-6.207404,"line":6,"is_transit":false,"station_name":"Palmerah","distance":0,"time":0,"transit":false,"station_id":"PLM","i_long":106.79689},{"transit":true,"station_name":"Tanah Abang","i_long":106.811091,"line":1,"time":6,"i_lat":-6.185545,"station_id":"THB","distance":3191,"is_transit":true},{"station_id":"DU","i_long":106.800832,"distance":3632,"i_lat":-6.155215,"transit":false,"station_name":"Duri","time":8,"is_transit":false,"line":1},{"i_lat":-6.144674,"distance":1230,"station_name":"Angke","station_id":"AK","is_transit":false,"time":4,"transit":false,"i_long":106.79867,"line":1},{"station_id":"KPB","time":9,"station_name":"Kampung Bandan","i_lat":-6.132549,"transit":true,"is_transit":true,"i_long":106.826365,"line":4,"distance":4102},{"i_long":106.836569,"i_lat":-6.14505,"line":11,"transit":false,"station_name":"Rajawali","station_id":"RJW","distance":1444,"is_transit":false,"time":3},{"i_long":106.839204,"station_id":"KMO","line":11,"transit":false,"station_name":"Kemayoran","distance":1901,"is_transit":false,"time":5,"i_lat":-6.161728},{"transit":false,"distance":1436,"time":4,"i_long":106.84368,"station_name":"Pasar Senen","is_transit":false,"line":11,"station_id":"PSE","i_lat":-6.174784},{"i_lat":-6.185975,"i_long":106.850107,"station_id":"GST","station_name":"Gang Sentiong","line":11,"distance":1567,"is_transit":false,"transit":false,"time":8},{"i_long":106.855437,"station_name":"Kramat","transit":false,"distance":973,"station_id":"KMT","time":1,"is_transit":false,"i_lat":-6.193792,"line":11},{"distance":1829,"i_long":106.861737,"i_lat":-6.209188,"transit":false,"time":2,"line":11,"station_id":"POK","station_name":"Pondok Jati","is_transit":false},{"line":1,"station_id":"JNG","is_transit":true,"station_name":"Jatinegara","time":9,"i_long":106.86807400000001,"distance":1236,"transit":true,"i_lat":-6.215091},{"line":1,"i_long":106.858896,"transit":false,"station_name":"Matraman","distance":1377,"is_transit":false,"station_id":"MTR","time":2,"i_lat":-6.212485},{"transit":false,"time":2,"i_long":106.84912,"station_id":"MRI","i_lat":-6.209883,"station_name":"Manggarai","line":2,"distance":1275,"is_transit":false},{"station_id":"SUD","line":1,"i_lat":-6.202263,"is_transit":false,"transit":false,"station_name":"Sudirman","distance":3186,"i_long":106.822649,"time":4},{"station_name":"Sudirman Baru","station_id":"SUDB","i_long":106.819881,"distance":280,"time":1,"is_transit":false,"line":1,"transit":false,"i_lat":-6.201433},{"station_id":"KAT","station_name":"Karet","time":1,"distance":471,"transit":false,"is_transit":false,"line":1,"i_lat":-6.20132,"i_long":106.816351}]]}