{"data":[[{"i_long":106.79689,"i_lat":-6.207404,"transit":false,"station_name":"Palmerah","distance":0,"time":0,"is_transit":false,"station_id":"PLM","line":6},{"distance":3737,"i_lat":-6.237242,"time":7,"station_name":"Kebayoran","line":6,"transit":false,"station_id":"KBY","i_long":106.780334,"is_transit":false},{"station_id":"PDJ","i_lat":-6.276362,"transit":false,"is_transit":false,"line":6,"time":8,"i_long":106.74273,"station_name":"Pondokranji","distance":6218},{"i_long":106.728916,"transit":false,"time":3,"station_id":"JMU","line":6,"i_lat":-6.288927,"station_name":"Jurangmangu","is_transit":false,"distance":2179},{"station_name":"Sudimara","i_lat":-6.296963,"is_transit":false,"station_id":"SDM","i_long":106.712277,"time":4,"distance":1994,"transit":false,"line":6},{"i_long":106.675475,"station_name":"Rawa Buntu","line":6,"is_transit":false,"distance":4566,"time":6,"i_lat":-6.314823,"station_id":"RU","transit":false},{"i_lat":-6.319871,"is_transit":false,"station_id":"SRP","time":4,"i_long":106.66566,"station_name":"Serpong","distance":2413,"transit":false,"line":6},{"i_lat":-6.32484,"distance":1784,"i_long":106.640411,"transit":false,"is_transit":false,"line":0,"time":4,"station_id":"CSK","station_name":"Cisauk"}]]}