{"data":[[{"station_name":"Palmerah","transit":false,"i_long":106.79689,"time":0,"distance":0,"line":6,"station_id":"PLM","is_transit":false,"i_lat":-6.207404},{"i_lat":-6.185545,"i_long":106.811091,"station_id":"THB","distance":3191,"is_transit":true,"line":1,"transit":true,"station_name":"Tanah Abang","time":6},{"line":1,"i_lat":-6.155215,"i_long":106.800832,"transit":false,"is_transit":false,"station_id":"DU","time":8,"distance":3632,"station_name":"Duri"},{"i_long":106.79867,"station_id":"AK","transit":false,"station_name":"Angke","is_transit":false,"i_lat":-6.144674,"line":1,"time":4,"distance":1230},{"station_name":"Kampung Bandan","i_lat":-6.132549,"i_long":106.826365,"is_transit":true,"distance":4102,"line":4,"transit":true,"station_id":"KPB","time":9},{"transit":false,"station_id":"AC","is_transit":false,"station_name":"Ancol","time":4,"i_lat":-6.128023,"line":4,"distance":2185,"i_long":106.84464}],[{"line":6,"i_long":106.79689,"time":0,"station_id":"PLM","is_transit":false,"distance":0,"station_name":"Palmerah","i_lat":-6.207404,"transit":false},{"time":6,"station_name":"Tanah Abang","line":1,"transit":true,"is_transit":true,"i_lat":-6.185545,"i_long":106.811091,"distance":3191,"station_id":"THB"},{"distance":2029,"transit":false,"is_transit":false,"i_lat":-6.20132,"i_long":106.816351,"station_id":"KAT","station_name":"Karet","time":5,"line":1},{"is_transit":false,"distance":471,"transit":false,"time":1,"station_name":"Sudirman Baru","line":1,"i_lat":-6.201433,"i_long":106.819881,"station_id":"SUDB"},{"i_long":106.822649,"time":1,"distance":280,"is_transit":false,"i_lat":-6.202263,"station_id":"SUD","line":1,"transit":false,"station_name":"Sudirman"},{"i_lat":-6.209883,"i_long":106.84912,"transit":true,"time":4,"station_name":"Manggarai","line":2,"distance":3186,"station_id":"MRI","is_transit":true},{"station_name":"Cikini","transit":false,"station_id":"CKI","i_long":106.840169,"line":2,"is_transit":false,"i_lat":-6.198556,"time":4,"distance":1590},{"time":3,"i_lat":-6.186295,"line":2,"station_id":"GDD","station_name":"Gondangdia","distance":1750,"i_long":106.832183,"transit":false,"is_transit":false},{"transit":false,"i_lat":-6.166716,"station_name":"Juanda","is_transit":false,"station_id":"JUA","time":4,"distance":2015,"i_long":106.828284,"line":2},{"transit":false,"line":2,"distance":1149,"station_id":"SW","time":2,"station_name":"Sawah Besar","i_long":106.827103,"i_lat":-6.160725,"is_transit":false},{"i_lat":-6.149769,"transit":false,"station_id":"MGB","is_transit":false,"time":2,"distance":906,"i_long":106.82482,"line":2,"station_name":"Manggabesar"},{"station_name":"Jayakarta","is_transit":false,"line":2,"time":2,"i_lat":-6.141205,"transit":false,"i_long":106.820901,"station_id":"JAY","distance":1080},{"distance":1264,"is_transit":true,"line":2,"time":4,"station_id":"JAKK","i_long":106.812439,"transit":true,"i_lat":-6.137569,"station_name":"Jakarta Kota"},{"transit":true,"time":3,"station_id":"KPB","distance":1364,"i_lat":-6.132549,"station_name":"Kampung Bandan","is_transit":true,"i_long":106.826365,"line":4},{"time":4,"distance":2185,"i_lat":-6.128023,"line":4,"station_name":"Ancol","transit":false,"station_id":"AC","is_transit":false,"i_long":106.84464}],[{"station_id":"PLM","time":0,"i_lat":-6.207404,"line":6,"is_transit":false,"i_long":106.79689,"transit":false,"distance":0,"station_name":"Palmerah"},{"line":1,"station_name":"Tanah Abang","transit":true,"is_transit":true,"time":6,"i_lat":-6.185545,"distance":3191,"i_long":106.811091,"station_id":"THB"},{"station_name":"Karet","is_transit":false,"i_lat":-6.20132,"line":1,"i_long":106.816351,"station_id":"KAT","time":5,"transit":false,"distance":2029},{"station_name":"Sudirman Baru","is_transit":false,"distance":471,"transit":false,"station_id":"SUDB","time":1,"i_long":106.819881,"i_lat":-6.201433,"line":1},{"i_lat":-6.202263,"transit":false,"time":1,"station_id":"SUD","is_transit":false,"station_name":"Sudirman","i_long":106.822649,"line":1,"distance":280},{"time":4,"i_lat":-6.209883,"line":2,"station_id":"MRI","station_name":"Manggarai","distance":3186,"transit":false,"is_transit":false,"i_long":106.84912},{"line":1,"station_id":"MTR","transit":false,"time":2,"station_name":"Matraman","i_long":106.858896,"distance":1275,"is_transit":false,"i_lat":-6.212485},{"time":8,"i_lat":-6.215091,"station_name":"Jatinegara","line":1,"transit":true,"is_transit":true,"i_long":106.86807400000001,"distance":1377,"station_id":"JNG"},{"line":11,"is_transit":false,"transit":false,"station_id":"POK","station_name":"Pondok Jati","i_lat":-6.209188,"time":2,"i_long":106.861737,"distance":1236},{"station_name":"Kramat","station_id":"KMT","transit":false,"time":2,"distance":1829,"i_lat":-6.193792,"i_long":106.855437,"line":11,"is_transit":false},{"transit":false,"station_id":"GST","station_name":"Gang Sentiong","i_long":106.850107,"i_lat":-6.185975,"time":1,"line":11,"is_transit":false,"distance":973},{"i_long":106.84368,"time":8,"line":11,"transit":false,"station_id":"PSE","station_name":"Pasar Senen","i_lat":-6.174784,"is_transit":false,"distance":1567},{"time":4,"i_long":106.839204,"station_id":"KMO","i_lat":-6.161728,"distance":1436,"line":11,"transit":false,"station_name":"Kemayoran","is_transit":false},{"station_name":"Rajawali","transit":false,"station_id":"RJW","is_transit":false,"time":5,"i_lat":-6.14505,"line":11,"i_long":106.836569,"distance":1901},{"line":4,"transit":true,"is_transit":true,"i_long":106.826365,"i_lat":-6.132549,"station_name":"Kampung Bandan","time":3,"distance":1444,"station_id":"KPB"},{"line":4,"station_id":"AC","distance":2185,"i_lat":-6.128023,"i_long":106.84464,"time":4,"station_name":"Ancol","is_transit":false,"transit":false}]]}