{"data":[[{"line":6,"station_id":"PLM","is_transit":false,"i_lat":-6.207404,"i_long":106.79689,"transit":false,"distance":0,"time":0,"station_name":"Palmerah"},{"line":1,"distance":3191,"station_id":"THB","transit":true,"is_transit":true,"i_long":106.811091,"time":6,"station_name":"Tanah Abang","i_lat":-6.185545},{"i_long":106.816351,"station_name":"Karet","i_lat":-6.20132,"station_id":"KAT","time":5,"distance":2029,"line":1,"is_transit":false,"transit":false},{"station_name":"Sudirman Baru","line":1,"distance":471,"i_lat":-6.201433,"i_long":106.819881,"transit":false,"station_id":"SUDB","is_transit":false,"time":1}],[{"station_id":"PLM","is_transit":false,"i_lat":-6.207404,"i_long":106.79689,"line":6,"distance":0,"time":0,"station_name":"Palmerah","transit":false},{"station_id":"THB","station_name":"Tanah Abang","is_transit":true,"line":1,"distance":3191,"i_long":106.811091,"transit":true,"time":6,"i_lat":-6.185545},{"station_name":"Duri","transit":false,"time":8,"distance":3632,"i_long":106.800832,"line":1,"is_transit":false,"i_lat":-6.155215,"station_id":"DU"},{"line":1,"transit":false,"i_long":106.79867,"station_name":"Angke","station_id":"AK","time":4,"distance":1230,"is_transit":false,"i_lat":-6.144674},{"transit":true,"i_lat":-6.132549,"i_long":106.826365,"distance":4102,"is_transit":true,"station_name":"Kampung Bandan","time":9,"station_id":"KPB","line":4},{"station_name":"Jakarta Kota","time":3,"transit":true,"i_long":106.812439,"i_lat":-6.137569,"is_transit":true,"station_id":"JAKK","distance":1364,"line":2},{"is_transit":false,"transit":false,"station_name":"Jayakarta","station_id":"JAY","i_long":106.820901,"time":4,"line":2,"i_lat":-6.141205,"distance":1264},{"i_lat":-6.149769,"time":2,"line":2,"station_id":"MGB","transit":false,"i_long":106.82482,"distance":1080,"is_transit":false,"station_name":"Manggabesar"},{"i_long":106.827103,"time":2,"i_lat":-6.160725,"station_id":"SW","station_name":"Sawah Besar","is_transit":false,"transit":false,"distance":906,"line":2},{"station_name":"Juanda","transit":false,"is_transit":false,"time":2,"i_lat":-6.166716,"distance":1149,"i_long":106.828284,"station_id":"JUA","line":2},{"is_transit":false,"station_id":"GDD","distance":2015,"i_lat":-6.186295,"transit":false,"i_long":106.832183,"station_name":"Gondangdia","line":2,"time":4},{"i_long":106.840169,"i_lat":-6.198556,"line":2,"is_transit":false,"distance":1750,"station_id":"CKI","time":3,"transit":false,"station_name":"Cikini"},{"transit":true,"station_id":"MRI","station_name":"Manggarai","line":2,"distance":1590,"is_transit":true,"time":4,"i_long":106.84912,"i_lat":-6.209883},{"distance":3186,"i_long":106.822649,"station_name":"Sudirman","time":4,"i_lat":-6.202263,"transit":false,"station_id":"SUD","is_transit":false,"line":1},{"line":1,"transit":false,"is_transit":false,"distance":280,"i_lat":-6.201433,"i_long":106.819881,"station_name":"Sudirman Baru","time":1,"station_id":"SUDB"}],[{"distance":0,"transit":false,"station_id":"PLM","station_name":"Palmerah","time":0,"i_lat":-6.207404,"line":6,"is_transit":false,"i_long":106.79689},{"distance":3191,"station_id":"THB","is_transit":true,"transit":true,"time":6,"i_lat":-6.185545,"i_long":106.811091,"station_name":"Tanah Abang","line":1},{"station_id":"DU","distance":3632,"i_lat":-6.155215,"time":8,"station_name":"Duri","i_long":106.800832,"transit":false,"is_transit":false,"line":1},{"i_long":106.79867,"line":1,"is_transit":false,"station_id":"AK","i_lat":-6.144674,"transit":false,"station_name":"Angke","time":4,"distance":1230},{"station_name":"Kampung Bandan","i_lat":-6.132549,"time":9,"distance":4102,"line":4,"transit":true,"i_long":106.826365,"station_id":"KPB","is_transit":true},{"time":3,"i_long":106.836569,"station_id":"RJW","distance":1444,"transit":false,"is_transit":false,"line":11,"station_name":"Rajawali","i_lat":-6.14505},{"i_lat":-6.161728,"transit":false,"is_transit":false,"distance":1901,"line":11,"time":5,"i_long":106.839204,"station_id":"KMO","station_name":"Kemayoran"},{"station_name":"Pasar Senen","is_transit":false,"transit":false,"i_long":106.84368,"i_lat":-6.174784,"station_id":"PSE","time":4,"distance":1436,"line":11},{"distance":1567,"i_lat":-6.185975,"line":11,"station_id":"GST","transit":false,"station_name":"Gang Sentiong","is_transit":false,"i_long":106.850107,"time":8},{"time":1,"station_name":"Kramat","station_id":"KMT","is_transit":false,"distance":973,"transit":false,"i_long":106.855437,"i_lat":-6.193792,"line":11},{"i_lat":-6.209188,"i_long":106.861737,"transit":false,"station_id":"POK","station_name":"Pondok Jati","time":2,"distance":1829,"line":11,"is_transit":false},{"station_name":"Jatinegara","transit":true,"station_id":"JNG","distance":1236,"i_lat":-6.215091,"i_long":106.86807400000001,"line":1,"is_transit":true,"time":9},{"i_lat":-6.212485,"i_long":106.858896,"station_id":"MTR","station_name":"Matraman","line":1,"is_transit":false,"distance":1377,"transit":false,"time":2},{"i_long":106.84912,"station_name":"Manggarai","is_transit":false,"transit":false,"station_id":"MRI","time":2,"i_lat":-6.209883,"distance":1275,"line":2},{"time":4,"station_id":"SUD","distance":3186,"is_transit":false,"i_lat":-6.202263,"transit":false,"i_long":106.822649,"line":1,"station_name":"Sudirman"},{"i_long":106.819881,"transit":false,"is_transit":false,"distance":280,"line":1,"station_name":"Sudirman Baru","station_id":"SUDB","time":1,"i_lat":-6.201433}]]}