{"data":[[{"transit":false,"station_name":"Palmerah","station_id":"PLM","distance":0,"i_long":106.79689,"line":6,"i_lat":-6.207404,"is_transit":false,"time":0},{"station_name":"Tanah Abang","station_id":"THB","distance":3191,"i_long":106.811091,"is_transit":true,"i_lat":-6.185545,"line":1,"transit":true,"time":6},{"is_transit":false,"distance":3632,"transit":false,"i_lat":-6.155215,"line":1,"station_name":"Duri","i_long":106.800832,"station_id":"DU","time":8},{"i_lat":-6.144674,"line":1,"time":4,"station_id":"AK","i_long":106.79867,"transit":false,"station_name":"Angke","distance":1230,"is_transit":false}],[{"line":6,"station_name":"Palmerah","distance":0,"i_long":106.79689,"time":0,"is_transit":false,"transit":false,"station_id":"PLM","i_lat":-6.207404},{"station_name":"Tanah Abang","time":6,"transit":true,"i_long":106.811091,"station_id":"THB","i_lat":-6.185545,"line":1,"is_transit":true,"distance":3191},{"is_transit":false,"station_id":"KAT","time":5,"distance":2029,"line":1,"station_name":"Karet","i_lat":-6.20132,"transit":false,"i_long":106.816351},{"station_id":"SUDB","line":1,"i_lat":-6.201433,"distance":471,"is_transit":false,"time":1,"i_long":106.819881,"transit":false,"station_name":"Sudirman Baru"},{"distance":280,"transit":false,"time":1,"i_long":106.822649,"station_name":"Sudirman","station_id":"SUD","is_transit":false,"i_lat":-6.202263,"line":1},{"time":4,"transit":true,"is_transit":true,"i_long":106.84912,"station_id":"MRI","line":2,"station_name":"Manggarai","distance":3186,"i_lat":-6.209883},{"i_lat":-6.198556,"transit":false,"time":4,"is_transit":false,"distance":1590,"station_id":"CKI","i_long":106.840169,"station_name":"Cikini","line":2},{"is_transit":false,"time":3,"distance":1750,"i_long":106.832183,"i_lat":-6.186295,"station_name":"Gondangdia","station_id":"GDD","line":2,"transit":false},{"i_lat":-6.166716,"is_transit":false,"station_id":"JUA","distance":2015,"station_name":"Juanda","transit":false,"i_long":106.828284,"line":2,"time":4},{"line":2,"i_long":106.827103,"transit":false,"i_lat":-6.160725,"station_id":"SW","time":2,"distance":1149,"is_transit":false,"station_name":"Sawah Besar"},{"i_long":106.82482,"is_transit":false,"station_name":"Manggabesar","time":2,"transit":false,"distance":906,"i_lat":-6.149769,"line":2,"station_id":"MGB"},{"station_name":"Jayakarta","distance":1080,"i_long":106.820901,"line":2,"station_id":"JAY","is_transit":false,"i_lat":-6.141205,"transit":false,"time":2},{"distance":1264,"transit":true,"i_long":106.812439,"time":4,"line":2,"is_transit":true,"station_id":"JAKK","i_lat":-6.137569,"station_name":"Jakarta Kota"},{"i_long":106.826365,"line":4,"time":3,"i_lat":-6.132549,"station_name":"Kampung Bandan","transit":true,"distance":1364,"station_id":"KPB","is_transit":true},{"station_name":"Angke","time":9,"transit":false,"station_id":"AK","is_transit":false,"i_lat":-6.144674,"line":1,"i_long":106.79867,"distance":4102}],[{"time":0,"i_long":106.79689,"station_name":"Palmerah","transit":false,"i_lat":-6.207404,"distance":0,"station_id":"PLM","is_transit":false,"line":6},{"is_transit":true,"distance":3191,"i_long":106.811091,"time":6,"i_lat":-6.185545,"line":1,"transit":true,"station_id":"THB","station_name":"Tanah Abang"},{"i_long":106.816351,"station_name":"Karet","distance":2029,"is_transit":false,"station_id":"KAT","line":1,"transit":false,"time":5,"i_lat":-6.20132},{"station_name":"Sudirman Baru","i_lat":-6.201433,"transit":false,"station_id":"SUDB","distance":471,"i_long":106.819881,"line":1,"is_transit":false,"time":1},{"is_transit":false,"i_lat":-6.202263,"station_id":"SUD","distance":280,"i_long":106.822649,"line":1,"time":1,"transit":false,"station_name":"Sudirman"},{"station_id":"MRI","i_long":106.84912,"is_transit":false,"line":2,"i_lat":-6.209883,"distance":3186,"station_name":"Manggarai","time":4,"transit":false},{"is_transit":false,"i_lat":-6.212485,"i_long":106.858896,"station_id":"MTR","line":1,"station_name":"Matraman","time":2,"distance":1275,"transit":false},{"line":1,"is_transit":true,"station_name":"Jatinegara","distance":1377,"i_long":106.86807400000001,"transit":true,"i_lat":-6.215091,"time":8,"station_id":"JNG"},{"station_id":"POK","time":2,"station_name":"Pondok Jati","transit":false,"distance":1236,"line":11,"i_lat":-6.209188,"i_long":106.861737,"is_transit":false},{"station_name":"Kramat","distance":1829,"line":11,"station_id":"KMT","time":2,"i_long":106.855437,"i_lat":-6.193792,"transit":false,"is_transit":false},{"distance":973,"transit":false,"is_transit":false,"station_name":"Gang Sentiong","time":1,"i_lat":-6.185975,"i_long":106.850107,"line":11,"station_id":"GST"},{"time":8,"line":11,"station_id":"PSE","i_lat":-6.174784,"i_long":106.84368,"distance":1567,"is_transit":false,"transit":false,"station_name":"Pasar Senen"},{"line":11,"time":4,"distance":1436,"i_lat":-6.161728,"i_long":106.839204,"station_name":"Kemayoran","transit":false,"is_transit":false,"station_id":"KMO"},{"station_name":"Rajawali","transit":false,"is_transit":false,"time":5,"i_long":106.836569,"station_id":"RJW","distance":1901,"i_lat":-6.14505,"line":11},{"station_name":"Kampung Bandan","time":3,"i_long":106.826365,"distance":1444,"station_id":"KPB","line":4,"i_lat":-6.132549,"transit":true,"is_transit":true},{"transit":false,"station_id":"AK","is_transit":false,"line":1,"distance":4102,"i_lat":-6.144674,"station_name":"Angke","time":9,"i_long":106.79867}]]}