{"data":[[{"station_name":"Pondok Cina","i_lat":-6.369073,"station_id":"POC","line":2,"distance":0,"is_transit":false,"time":0,"transit":false,"i_long":106.831114},{"distance":1109,"transit":false,"i_lat":-6.360749,"is_transit":false,"time":2,"i_long":106.831474,"station_name":"Univ. Indonesia","station_id":"UI","line":2},{"distance":2264,"time":3,"transit":false,"line":2,"is_transit":false,"station_id":"UP","station_name":"Univ. Pancasila","i_long":106.834175,"i_lat":-6.339291},{"is_transit":false,"line":2,"time":2,"distance":1029,"i_long":106.832616,"station_id":"LNA","i_lat":-6.330363,"transit":false,"station_name":"Lenteng Agung"},{"distance":2671,"station_name":"Tanjung Barat","i_long":106.838896,"line":2,"i_lat":-6.3080680000000005,"time":3,"transit":false,"station_id":"TNT","is_transit":false},{"station_name":"Pasar Minggu","i_long":106.843999,"is_transit":false,"station_id":"PSM","distance":2820,"time":4,"i_lat":-6.2842400000000005,"line":2,"transit":false},{"station_id":"PSMB","line":2,"station_name":"Pasar Minggu Baru","distance":2380,"transit":false,"is_transit":false,"time":2,"i_long":106.851577,"i_lat":-6.263214},{"distance":824,"line":2,"station_id":"DRN","is_transit":false,"time":2,"i_long":106.85449,"transit":false,"i_lat":-6.255332,"station_name":"Duren Kalibata"},{"station_name":"Cawang","i_long":106.856607,"is_transit":false,"station_id":"CW","i_lat":-6.242512,"time":3,"transit":false,"line":2,"distance":1546},{"line":2,"station_id":"TEB","i_long":106.857948,"transit":false,"station_name":"Tebet","i_lat":-6.226659,"time":2,"is_transit":false,"distance":1230},{"i_long":106.84912,"is_transit":true,"station_name":"Manggarai","line":2,"time":4,"transit":true,"station_id":"MRI","distance":2610,"i_lat":-6.209883},{"station_id":"MTR","i_lat":-6.212485,"transit":false,"distance":1275,"station_name":"Matraman","line":1,"time":2,"i_long":106.858896,"is_transit":false},{"line":1,"is_transit":false,"i_long":106.86807400000001,"station_id":"JNG","i_lat":-6.215091,"time":8,"distance":1377,"transit":false,"station_name":"Jatinegara"},{"station_id":"KLD","i_lat":-6.2135,"station_name":"Klender","is_transit":false,"distance":3395,"line":1,"i_long":106.899548,"transit":false,"time":3},{"i_lat":-6.215568,"distance":3100,"is_transit":false,"transit":false,"line":1,"i_long":106.922662,"station_name":"Buaran","station_id":"BUA","time":2},{"i_long":106.939679,"line":1,"i_lat":-6.217455,"time":1,"station_name":"Klenderbaru","station_id":"KLDB","is_transit":false,"distance":1305,"transit":false},{"station_id":"CUK","time":8,"line":1,"i_long":106.951283,"distance":1385,"is_transit":false,"i_lat":-6.219053,"station_name":"Cakung","transit":false},{"transit":false,"distance":3097,"station_name":"Kranji","is_transit":false,"i_long":106.977657,"time":3,"line":1,"i_lat":-6.224515,"station_id":"KRI"},{"line":1,"station_id":"BKS","i_long":106.997013,"transit":false,"station_name":"Bekasi","distance":2520,"i_lat":-6.236616,"time":4,"is_transit":false},{"is_transit":false,"station_id":"BKST","i_lat":-6.248029,"time":2,"station_name":"Bekasi Timur","distance":2368,"i_long":107.016735,"transit":false,"line":1},{"i_long":107.055722,"line":1,"station_id":"TB","transit":false,"station_name":"Tambun","i_lat":-6.258864,"is_transit":false,"time":7,"distance":4460}],[{"line":2,"station_name":"Pondok Cina","is_transit":false,"transit":false,"distance":0,"time":0,"station_id":"POC","i_lat":-6.369073,"i_long":106.831114},{"station_id":"UI","time":2,"distance":1109,"i_long":106.831474,"line":2,"i_lat":-6.360749,"station_name":"Univ. Indonesia","transit":false,"is_transit":false},{"station_id":"UP","transit":false,"time":3,"i_long":106.834175,"distance":2264,"station_name":"Univ. Pancasila","i_lat":-6.339291,"is_transit":false,"line":2},{"i_lat":-6.330363,"transit":false,"station_id":"LNA","time":2,"distance":1029,"is_transit":false,"line":2,"station_name":"Lenteng Agung","i_long":106.832616},{"transit":false,"station_name":"Tanjung Barat","distance":2671,"time":3,"line":2,"is_transit":false,"i_long":106.838896,"station_id":"TNT","i_lat":-6.3080680000000005},{"line":2,"transit":false,"distance":2820,"i_lat":-6.2842400000000005,"i_long":106.843999,"station_name":"Pasar Minggu","time":4,"station_id":"PSM","is_transit":false},{"transit":false,"i_lat":-6.263214,"time":2,"line":2,"i_long":106.851577,"is_transit":false,"station_name":"Pasar Minggu Baru","station_id":"PSMB","distance":2380},{"i_lat":-6.255332,"i_long":106.85449,"distance":824,"line":2,"station_id":"DRN","transit":false,"station_name":"Duren Kalibata","time":2,"is_transit":false},{"i_long":106.856607,"station_name":"Cawang","time":3,"is_transit":false,"transit":false,"distance":1546,"i_lat":-6.242512,"line":2,"station_id":"CW"},{"time":2,"i_long":106.857948,"line":2,"transit":false,"station_name":"Tebet","is_transit":false,"station_id":"TEB","i_lat":-6.226659,"distance":1230},{"time":4,"is_transit":true,"distance":2610,"i_lat":-6.209883,"station_id":"MRI","line":2,"transit":true,"i_long":106.84912,"station_name":"Manggarai"},{"line":1,"is_transit":false,"time":4,"transit":false,"station_id":"SUD","distance":3186,"i_lat":-6.202263,"station_name":"Sudirman","i_long":106.822649},{"station_id":"SUDB","transit":false,"is_transit":false,"time":1,"i_long":106.819881,"distance":280,"i_lat":-6.201433,"line":1,"station_name":"Sudirman Baru"},{"is_transit":false,"time":1,"transit":false,"station_id":"KAT","line":1,"i_long":106.816351,"station_name":"Karet","distance":471,"i_lat":-6.20132},{"distance":2029,"station_name":"Tanah Abang","i_lat":-6.185545,"i_long":106.811091,"line":1,"time":5,"transit":false,"station_id":"THB","is_transit":false},{"station_name":"Duri","is_transit":false,"time":8,"line":1,"station_id":"DU","i_long":106.800832,"transit":false,"distance":3632,"i_lat":-6.155215},{"transit":false,"station_name":"Angke","line":1,"station_id":"AK","i_long":106.79867,"distance":1230,"i_lat":-6.144674,"is_transit":false,"time":4},{"i_long":106.826365,"transit":true,"time":9,"station_id":"KPB","station_name":"Kampung Bandan","line":4,"distance":4102,"i_lat":-6.132549,"is_transit":true},{"distance":1444,"transit":false,"station_id":"RJW","time":3,"station_name":"Rajawali","i_long":106.836569,"i_lat":-6.14505,"is_transit":false,"line":11},{"is_transit":false,"i_lat":-6.161728,"transit":false,"station_id":"KMO","i_long":106.839204,"station_name":"Kemayoran","line":11,"time":5,"distance":1901},{"transit":false,"i_lat":-6.174784,"time":4,"i_long":106.84368,"line":11,"station_id":"PSE","station_name":"Pasar Senen","is_transit":false,"distance":1436},{"station_name":"Gang Sentiong","i_lat":-6.185975,"time":8,"distance":1567,"line":11,"station_id":"GST","transit":false,"is_transit":false,"i_long":106.850107},{"i_lat":-6.193792,"station_id":"KMT","is_transit":false,"time":1,"station_name":"Kramat","i_long":106.855437,"transit":false,"line":11,"distance":973},{"is_transit":false,"line":11,"station_name":"Pondok Jati","station_id":"POK","distance":1829,"transit":false,"i_lat":-6.209188,"time":2,"i_long":106.861737},{"line":1,"time":9,"is_transit":true,"station_name":"Jatinegara","station_id":"JNG","transit":true,"distance":1236,"i_lat":-6.215091,"i_long":106.86807400000001},{"i_long":106.899548,"transit":false,"is_transit":false,"time":3,"station_name":"Klender","i_lat":-6.2135,"station_id":"KLD","line":1,"distance":3395},{"station_id":"BUA","distance":3100,"time":2,"i_lat":-6.215568,"i_long":106.922662,"transit":false,"line":1,"station_name":"Buaran","is_transit":false},{"station_name":"Klenderbaru","station_id":"KLDB","i_lat":-6.217455,"time":1,"is_transit":false,"line":1,"distance":1305,"i_long":106.939679,"transit":false},{"station_id":"CUK","transit":false,"station_name":"Cakung","i_long":106.951283,"is_transit":false,"line":1,"time":8,"i_lat":-6.219053,"distance":1385},{"i_long":106.977657,"station_name":"Kranji","is_transit":false,"station_id":"KRI","transit":false,"line":1,"distance":3097,"time":3,"i_lat":-6.224515},{"is_transit":false,"i_lat":-6.236616,"line":1,"time":4,"distance":2520,"i_long":106.997013,"transit":false,"station_name":"Bekasi","station_id":"BKS"},{"time":2,"distance":2368,"station_name":"Bekasi Timur","transit":false,"i_lat":-6.248029,"line":1,"is_transit":false,"station_id":"BKST","i_long":107.016735},{"is_transit":false,"time":7,"station_name":"Tambun","station_id":"TB","distance":4460,"i_long":107.055722,"line":1,"i_lat":-6.258864,"transit":false}],[{"i_lat":-6.369073,"station_id":"POC","transit":false,"station_name":"Pondok Cina","i_long":106.831114,"distance":0,"is_transit":false,"time":0,"line":2},{"is_transit":false,"station_name":"Univ. Indonesia","time":2,"i_long":106.831474,"line":2,"i_lat":-6.360749,"station_id":"UI","distance":1109,"transit":false},{"time":3,"i_lat":-6.339291,"i_long":106.834175,"is_transit":false,"transit":false,"station_name":"Univ. Pancasila","line":2,"distance":2264,"station_id":"UP"},{"transit":false,"i_lat":-6.330363,"station_id":"LNA","i_long":106.832616,"station_name":"Lenteng Agung","is_transit":false,"time":2,"distance":1029,"line":2},{"distance":2671,"is_transit":false,"i_long":106.838896,"transit":false,"station_id":"TNT","i_lat":-6.3080680000000005,"station_name":"Tanjung Barat","line":2,"time":3},{"station_name":"Pasar Minggu","i_long":106.843999,"transit":false,"is_transit":false,"i_lat":-6.2842400000000005,"station_id":"PSM","distance":2820,"time":4,"line":2},{"station_name":"Pasar Minggu Baru","time":2,"i_lat":-6.263214,"line":2,"distance":2380,"transit":false,"is_transit":false,"i_long":106.851577,"station_id":"PSMB"},{"time":2,"distance":824,"station_name":"Duren Kalibata","i_lat":-6.255332,"i_long":106.85449,"line":2,"station_id":"DRN","is_transit":false,"transit":false},{"i_lat":-6.242512,"i_long":106.856607,"is_transit":false,"distance":1546,"station_name":"Cawang","station_id":"CW","time":3,"line":2,"transit":false},{"station_id":"TEB","transit":false,"is_transit":false,"time":2,"i_lat":-6.226659,"i_long":106.857948,"station_name":"Tebet","distance":1230,"line":2},{"time":4,"i_long":106.84912,"line":2,"i_lat":-6.209883,"station_id":"MRI","is_transit":false,"transit":false,"station_name":"Manggarai","distance":2610},{"i_long":106.840169,"line":2,"time":4,"is_transit":false,"distance":1590,"station_id":"CKI","station_name":"Cikini","transit":false,"i_lat":-6.198556},{"i_lat":-6.186295,"i_long":106.832183,"station_name":"Gondangdia","transit":false,"station_id":"GDD","time":3,"is_transit":false,"distance":1750,"line":2},{"i_lat":-6.166716,"time":4,"line":2,"transit":false,"station_id":"JUA","distance":2015,"is_transit":false,"i_long":106.828284,"station_name":"Juanda"},{"i_long":106.827103,"station_id":"SW","distance":1149,"line":2,"transit":false,"station_name":"Sawah Besar","is_transit":false,"i_lat":-6.160725,"time":2},{"time":2,"distance":906,"i_lat":-6.149769,"i_long":106.82482,"station_id":"MGB","station_name":"Manggabesar","transit":false,"is_transit":false,"line":2},{"i_long":106.820901,"i_lat":-6.141205,"station_name":"Jayakarta","distance":1080,"is_transit":false,"time":2,"station_id":"JAY","transit":false,"line":2},{"transit":true,"i_long":106.812439,"station_name":"Jakarta Kota","is_transit":true,"line":2,"distance":1264,"time":4,"station_id":"JAKK","i_lat":-6.137569},{"i_long":106.826365,"station_id":"KPB","is_transit":true,"station_name":"Kampung Bandan","time":3,"distance":1364,"line":4,"transit":true,"i_lat":-6.132549},{"i_lat":-6.14505,"distance":1444,"station_id":"RJW","line":11,"i_long":106.836569,"station_name":"Rajawali","transit":false,"is_transit":false,"time":3},{"station_name":"Kemayoran","station_id":"KMO","transit":false,"line":11,"i_long":106.839204,"i_lat":-6.161728,"distance":1901,"time":5,"is_transit":false},{"line":11,"station_id":"PSE","is_transit":false,"transit":false,"time":4,"station_name":"Pasar Senen","i_lat":-6.174784,"i_long":106.84368,"distance":1436},{"time":8,"line":11,"transit":false,"station_id":"GST","distance":1567,"is_transit":false,"station_name":"Gang Sentiong","i_lat":-6.185975,"i_long":106.850107},{"i_long":106.855437,"time":1,"transit":false,"i_lat":-6.193792,"line":11,"station_id":"KMT","is_transit":false,"station_name":"Kramat","distance":973},{"station_name":"Pondok Jati","i_lat":-6.209188,"time":2,"line":11,"distance":1829,"station_id":"POK","i_long":106.861737,"is_transit":false,"transit":false},{"time":9,"i_long":106.86807400000001,"is_transit":true,"line":1,"station_id":"JNG","transit":true,"i_lat":-6.215091,"station_name":"Jatinegara","distance":1236},{"i_lat":-6.2135,"i_long":106.899548,"line":1,"time":3,"station_name":"Klender","distance":3395,"transit":false,"station_id":"KLD","is_transit":false},{"distance":3100,"station_id":"BUA","transit":false,"station_name":"Buaran","i_lat":-6.215568,"i_long":106.922662,"is_transit":false,"time":2,"line":1},{"i_lat":-6.217455,"distance":1305,"i_long":106.939679,"station_id":"KLDB","line":1,"station_name":"Klenderbaru","time":1,"transit":false,"is_transit":false},{"is_transit":false,"transit":false,"time":8,"line":1,"i_long":106.951283,"station_name":"Cakung","i_lat":-6.219053,"station_id":"CUK","distance":1385},{"is_transit":false,"time":3,"transit":false,"station_name":"Kranji","i_long":106.977657,"line":1,"distance":3097,"station_id":"KRI","i_lat":-6.224515},{"i_long":106.997013,"station_name":"Bekasi","i_lat":-6.236616,"station_id":"BKS","transit":false,"distance":2520,"time":4,"line":1,"is_transit":false},{"i_lat":-6.248029,"station_name":"Bekasi Timur","is_transit":false,"transit":false,"i_long":107.016735,"distance":2368,"line":1,"time":2,"station_id":"BKST"},{"is_transit":false,"i_long":107.055722,"station_id":"TB","station_name":"Tambun","transit":false,"i_lat":-6.258864,"line":1,"time":7,"distance":4460}]]}