{"data":[[{"station_id":"POC","station_name":"Pondok Cina","is_transit":false,"line":2,"i_long":106.831114,"time":0,"transit":false,"distance":0,"i_lat":-6.369073},{"station_id":"DPB","i_lat":-6.391065,"is_transit":false,"station_name":"Depokbaru","distance":2727,"transit":false,"time":4,"i_long":106.819451,"line":2},{"i_long":106.816926,"line":2,"transit":false,"station_id":"DP","distance":1584,"is_transit":false,"i_lat":-6.405256,"station_name":"Depok","time":3},{"i_lat":-6.448811,"transit":false,"line":2,"station_name":"Citayam","station_id":"CTA","time":6,"i_long":106.800298,"is_transit":false,"distance":5084},{"i_lat":-6.493243,"line":2,"station_name":"Bojonggede","time":5,"i_long":106.792719,"is_transit":false,"distance":5197,"transit":false,"station_id":"BJD"}]]}