{"data":[[{"is_transit":false,"time":0,"transit":false,"i_lat":-6.369073,"i_long":106.831114,"distance":0,"station_id":"POC","line":2,"station_name":"Pondok Cina"},{"station_name":"Depokbaru","station_id":"DPB","is_transit":false,"distance":2727,"i_long":106.819451,"line":2,"time":4,"i_lat":-6.391065,"transit":false},{"i_lat":-6.405256,"station_id":"DP","line":2,"station_name":"Depok","i_long":106.816926,"distance":1584,"is_transit":false,"transit":false,"time":3},{"i_long":106.800298,"line":2,"transit":false,"station_id":"CTA","is_transit":false,"station_name":"Citayam","time":6,"distance":5084,"i_lat":-6.448811},{"transit":false,"distance":5197,"i_lat":-6.493243,"line":2,"time":5,"is_transit":false,"i_long":106.792719,"station_id":"BJD","station_name":"Bojonggede"}]]}