{"data":[[{"station_name":"Pondok Cina","distance":0,"station_id":"POC","i_lat":-6.369073,"i_long":106.831114,"is_transit":false,"line":2,"transit":false,"time":0},{"i_long":106.831474,"time":2,"line":2,"station_name":"Univ. Indonesia","station_id":"UI","transit":false,"is_transit":false,"i_lat":-6.360749,"distance":1109},{"is_transit":false,"station_id":"UP","distance":2264,"i_lat":-6.339291,"line":2,"station_name":"Univ. Pancasila","time":3,"transit":false,"i_long":106.834175},{"i_long":106.832616,"transit":false,"is_transit":false,"time":2,"distance":1029,"line":2,"i_lat":-6.330363,"station_name":"Lenteng Agung","station_id":"LNA"},{"i_lat":-6.3080680000000005,"i_long":106.838896,"line":2,"transit":false,"station_name":"Tanjung Barat","station_id":"TNT","time":3,"is_transit":false,"distance":2671},{"transit":false,"station_name":"Pasar Minggu","i_long":106.843999,"is_transit":false,"station_id":"PSM","i_lat":-6.2842400000000005,"line":2,"time":4,"distance":2820},{"is_transit":false,"i_long":106.851577,"station_name":"Pasar Minggu Baru","distance":2380,"i_lat":-6.263214,"transit":false,"station_id":"PSMB","line":2,"time":2},{"is_transit":false,"distance":824,"time":2,"transit":false,"i_lat":-6.255332,"i_long":106.85449,"station_id":"DRN","line":2,"station_name":"Duren Kalibata"},{"distance":1546,"transit":false,"i_lat":-6.242512,"is_transit":false,"station_id":"CW","time":3,"station_name":"Cawang","line":2,"i_long":106.856607},{"is_transit":false,"station_name":"Tebet","time":2,"station_id":"TEB","i_long":106.857948,"distance":1230,"i_lat":-6.226659,"transit":false,"line":2},{"distance":2610,"i_lat":-6.209883,"transit":true,"station_id":"MRI","i_long":106.84912,"time":4,"is_transit":true,"line":2,"station_name":"Manggarai"},{"i_lat":-6.202263,"distance":3186,"is_transit":false,"station_name":"Sudirman","line":1,"transit":false,"time":4,"station_id":"SUD","i_long":106.822649},{"i_long":106.819881,"transit":false,"station_id":"SUDB","is_transit":false,"time":1,"station_name":"Sudirman Baru","i_lat":-6.201433,"distance":280,"line":1},{"station_id":"KAT","is_transit":false,"i_long":106.816351,"transit":false,"i_lat":-6.20132,"time":1,"station_name":"Karet","distance":471,"line":1},{"is_transit":true,"station_id":"THB","station_name":"Tanah Abang","time":5,"distance":2029,"line":1,"i_lat":-6.185545,"transit":true,"i_long":106.811091},{"i_long":106.79689,"time":6,"is_transit":false,"i_lat":-6.207404,"line":6,"station_name":"Palmerah","distance":3191,"transit":false,"station_id":"PLM"},{"transit":false,"i_lat":-6.237242,"i_long":106.780334,"station_name":"Kebayoran","is_transit":false,"time":7,"station_id":"KBY","distance":3737,"line":6},{"i_lat":-6.276362,"station_id":"PDJ","distance":6218,"line":6,"station_name":"Pondokranji","is_transit":false,"time":8,"i_long":106.74273,"transit":false},{"time":3,"transit":false,"station_name":"Jurangmangu","line":6,"i_long":106.728916,"distance":2179,"i_lat":-6.288927,"station_id":"JMU","is_transit":false},{"transit":false,"line":6,"is_transit":false,"i_long":106.712277,"station_id":"SDM","time":4,"station_name":"Sudimara","i_lat":-6.296963,"distance":1994},{"is_transit":false,"time":6,"line":6,"station_name":"Rawa Buntu","station_id":"RU","distance":4566,"i_lat":-6.314823,"transit":false,"i_long":106.675475},{"i_lat":-6.319871,"distance":2413,"station_name":"Serpong","station_id":"SRP","is_transit":false,"time":4,"i_long":106.66566,"line":6,"transit":false},{"i_lat":-6.32484,"station_name":"Cisauk","line":3,"transit":false,"time":4,"is_transit":false,"i_long":106.640411,"distance":1784,"station_id":"CSK"},{"distance":2519,"is_transit":false,"transit":false,"i_lat":-6.329547,"line":3,"station_id":"CC","i_long":106.617853,"time":4,"station_name":"Cicayur"},{"i_long":106.568863,"is_transit":false,"time":8,"station_id":"PRP","station_name":"Parung Panjang","distance":5968,"i_lat":-6.3441410000000005,"transit":false,"line":6},{"is_transit":false,"transit":false,"i_long":106.508482,"line":3,"distance":7025,"station_id":"CJT","station_name":"Cilejit","i_lat":-6.354349,"time":9}],[{"station_name":"Pondok Cina","station_id":"POC","line":2,"i_long":106.831114,"time":0,"distance":0,"is_transit":false,"transit":false,"i_lat":-6.369073},{"is_transit":false,"distance":1109,"station_id":"UI","i_lat":-6.360749,"line":2,"transit":false,"station_name":"Univ. Indonesia","time":2,"i_long":106.831474},{"line":2,"i_long":106.834175,"transit":false,"is_transit":false,"station_id":"UP","distance":2264,"station_name":"Univ. Pancasila","time":3,"i_lat":-6.339291},{"is_transit":false,"station_name":"Lenteng Agung","i_lat":-6.330363,"line":2,"distance":1029,"time":2,"transit":false,"station_id":"LNA","i_long":106.832616},{"i_long":106.838896,"is_transit":false,"station_id":"TNT","distance":2671,"transit":false,"station_name":"Tanjung Barat","i_lat":-6.3080680000000005,"line":2,"time":3},{"line":2,"distance":2820,"i_long":106.843999,"transit":false,"time":4,"station_id":"PSM","station_name":"Pasar Minggu","is_transit":false,"i_lat":-6.2842400000000005},{"time":2,"i_lat":-6.263214,"i_long":106.851577,"transit":false,"station_name":"Pasar Minggu Baru","station_id":"PSMB","distance":2380,"is_transit":false,"line":2},{"station_name":"Duren Kalibata","station_id":"DRN","i_long":106.85449,"is_transit":false,"time":2,"distance":824,"i_lat":-6.255332,"transit":false,"line":2},{"station_name":"Cawang","is_transit":false,"time":3,"i_long":106.856607,"distance":1546,"station_id":"CW","i_lat":-6.242512,"line":2,"transit":false},{"i_long":106.857948,"station_name":"Tebet","transit":false,"time":2,"line":2,"station_id":"TEB","i_lat":-6.226659,"is_transit":false,"distance":1230},{"i_long":106.84912,"is_transit":false,"transit":false,"distance":2610,"line":2,"station_name":"Manggarai","station_id":"MRI","time":4,"i_lat":-6.209883},{"i_long":106.840169,"is_transit":false,"time":4,"distance":1590,"transit":false,"i_lat":-6.198556,"station_name":"Cikini","line":2,"station_id":"CKI"},{"station_id":"GDD","is_transit":false,"line":2,"time":3,"transit":false,"i_long":106.832183,"station_name":"Gondangdia","distance":1750,"i_lat":-6.186295},{"is_transit":false,"line":2,"transit":false,"station_id":"JUA","time":4,"distance":2015,"i_long":106.828284,"station_name":"Juanda","i_lat":-6.166716},{"station_id":"SW","is_transit":false,"transit":false,"i_long":106.827103,"line":2,"time":2,"distance":1149,"station_name":"Sawah Besar","i_lat":-6.160725},{"line":2,"station_id":"MGB","time":2,"i_lat":-6.149769,"station_name":"Manggabesar","distance":906,"transit":false,"is_transit":false,"i_long":106.82482},{"station_id":"JAY","line":2,"i_lat":-6.141205,"time":2,"transit":false,"station_name":"Jayakarta","distance":1080,"i_long":106.820901,"is_transit":false},{"time":4,"line":2,"i_lat":-6.137569,"distance":1264,"is_transit":true,"i_long":106.812439,"transit":true,"station_id":"JAKK","station_name":"Jakarta Kota"},{"station_name":"Kampung Bandan","distance":1364,"i_long":106.826365,"transit":true,"is_transit":true,"i_lat":-6.132549,"time":3,"line":4,"station_id":"KPB"},{"line":1,"i_lat":-6.144674,"time":9,"is_transit":false,"transit":false,"station_name":"Angke","distance":4102,"station_id":"AK","i_long":106.79867},{"station_id":"DU","distance":1230,"is_transit":false,"i_long":106.800832,"i_lat":-6.155215,"line":1,"transit":false,"time":4,"station_name":"Duri"},{"i_lat":-6.185545,"station_name":"Tanah Abang","is_transit":true,"station_id":"THB","distance":3632,"i_long":106.811091,"line":1,"transit":true,"time":8},{"is_transit":false,"transit":false,"i_lat":-6.207404,"distance":3191,"line":6,"station_name":"Palmerah","time":6,"station_id":"PLM","i_long":106.79689},{"station_id":"KBY","i_long":106.780334,"is_transit":false,"time":7,"station_name":"Kebayoran","line":6,"i_lat":-6.237242,"distance":3737,"transit":false},{"is_transit":false,"station_name":"Pondokranji","transit":false,"station_id":"PDJ","distance":6218,"time":8,"i_lat":-6.276362,"line":6,"i_long":106.74273},{"line":6,"is_transit":false,"time":3,"distance":2179,"i_lat":-6.288927,"station_id":"JMU","i_long":106.728916,"transit":false,"station_name":"Jurangmangu"},{"transit":false,"time":4,"line":6,"is_transit":false,"station_id":"SDM","distance":1994,"i_lat":-6.296963,"i_long":106.712277,"station_name":"Sudimara"},{"station_name":"Rawa Buntu","is_transit":false,"i_lat":-6.314823,"i_long":106.675475,"time":6,"distance":4566,"transit":false,"line":6,"station_id":"RU"},{"station_id":"SRP","transit":false,"is_transit":false,"i_long":106.66566,"line":6,"time":4,"i_lat":-6.319871,"distance":2413,"station_name":"Serpong"},{"line":3,"i_long":106.640411,"transit":false,"is_transit":false,"station_name":"Cisauk","station_id":"CSK","time":4,"distance":1784,"i_lat":-6.32484},{"station_id":"CC","is_transit":false,"time":4,"distance":2519,"transit":false,"station_name":"Cicayur","i_long":106.617853,"line":3,"i_lat":-6.329547},{"i_long":106.568863,"distance":5968,"station_id":"PRP","is_transit":false,"time":8,"i_lat":-6.3441410000000005,"line":6,"station_name":"Parung Panjang","transit":false},{"station_id":"CJT","i_long":106.508482,"station_name":"Cilejit","time":9,"distance":7025,"line":3,"is_transit":false,"i_lat":-6.354349,"transit":false}],[{"i_long":106.831114,"distance":0,"time":0,"station_id":"POC","transit":false,"station_name":"Pondok Cina","i_lat":-6.369073,"line":2,"is_transit":false},{"line":2,"distance":1109,"i_long":106.831474,"transit":false,"i_lat":-6.360749,"station_id":"UI","is_transit":false,"time":2,"station_name":"Univ. Indonesia"},{"is_transit":false,"station_id":"UP","i_lat":-6.339291,"line":2,"distance":2264,"time":3,"i_long":106.834175,"transit":false,"station_name":"Univ. Pancasila"},{"distance":1029,"transit":false,"i_long":106.832616,"line":2,"station_name":"Lenteng Agung","station_id":"LNA","i_lat":-6.330363,"is_transit":false,"time":2},{"station_id":"TNT","station_name":"Tanjung Barat","is_transit":false,"time":3,"distance":2671,"i_long":106.838896,"line":2,"transit":false,"i_lat":-6.3080680000000005},{"i_lat":-6.2842400000000005,"time":4,"station_id":"PSM","distance":2820,"is_transit":false,"station_name":"Pasar Minggu","line":2,"transit":false,"i_long":106.843999},{"is_transit":false,"time":2,"i_lat":-6.263214,"i_long":106.851577,"station_name":"Pasar Minggu Baru","station_id":"PSMB","distance":2380,"line":2,"transit":false},{"time":2,"is_transit":false,"station_id":"DRN","line":2,"transit":false,"distance":824,"i_lat":-6.255332,"station_name":"Duren Kalibata","i_long":106.85449},{"is_transit":false,"line":2,"station_id":"CW","i_lat":-6.242512,"station_name":"Cawang","time":3,"distance":1546,"i_long":106.856607,"transit":false},{"station_name":"Tebet","station_id":"TEB","i_lat":-6.226659,"is_transit":false,"transit":false,"i_long":106.857948,"line":2,"time":2,"distance":1230},{"i_lat":-6.209883,"time":4,"i_long":106.84912,"line":2,"station_name":"Manggarai","station_id":"MRI","is_transit":true,"distance":2610,"transit":true},{"station_name":"Matraman","station_id":"MTR","time":2,"distance":1275,"i_long":106.858896,"line":1,"is_transit":false,"i_lat":-6.212485,"transit":false},{"is_transit":true,"transit":true,"time":8,"i_long":106.86807400000001,"station_id":"JNG","station_name":"Jatinegara","line":1,"distance":1377,"i_lat":-6.215091},{"station_name":"Pondok Jati","time":2,"i_lat":-6.209188,"i_long":106.861737,"distance":1236,"station_id":"POK","transit":false,"is_transit":false,"line":11},{"station_id":"KMT","transit":false,"is_transit":false,"i_long":106.855437,"station_name":"Kramat","time":2,"i_lat":-6.193792,"distance":1829,"line":11},{"distance":973,"transit":false,"station_name":"Gang Sentiong","is_transit":false,"time":1,"station_id":"GST","i_lat":-6.185975,"i_long":106.850107,"line":11},{"transit":false,"line":11,"station_name":"Pasar Senen","distance":1567,"i_lat":-6.174784,"station_id":"PSE","time":8,"is_transit":false,"i_long":106.84368},{"time":4,"i_lat":-6.161728,"distance":1436,"i_long":106.839204,"line":11,"transit":false,"station_name":"Kemayoran","station_id":"KMO","is_transit":false},{"distance":1901,"station_id":"RJW","transit":false,"i_long":106.836569,"line":11,"station_name":"Rajawali","is_transit":false,"i_lat":-6.14505,"time":5},{"time":3,"station_name":"Kampung Bandan","distance":1444,"is_transit":true,"transit":true,"i_lat":-6.132549,"station_id":"KPB","i_long":106.826365,"line":4},{"i_long":106.79867,"line":1,"time":9,"i_lat":-6.144674,"station_name":"Angke","station_id":"AK","transit":false,"is_transit":false,"distance":4102},{"station_id":"DU","time":4,"line":1,"station_name":"Duri","distance":1230,"transit":false,"is_transit":false,"i_long":106.800832,"i_lat":-6.155215},{"station_id":"THB","is_transit":true,"time":8,"i_long":106.811091,"i_lat":-6.185545,"station_name":"Tanah Abang","transit":true,"distance":3632,"line":1},{"station_id":"PLM","station_name":"Palmerah","transit":false,"i_lat":-6.207404,"is_transit":false,"i_long":106.79689,"time":6,"distance":3191,"line":6},{"i_lat":-6.237242,"time":7,"transit":false,"station_name":"Kebayoran","is_transit":false,"i_long":106.780334,"distance":3737,"station_id":"KBY","line":6},{"line":6,"station_name":"Pondokranji","i_lat":-6.276362,"transit":false,"time":8,"i_long":106.74273,"is_transit":false,"distance":6218,"station_id":"PDJ"},{"station_id":"JMU","line":6,"transit":false,"is_transit":false,"station_name":"Jurangmangu","i_long":106.728916,"distance":2179,"time":3,"i_lat":-6.288927},{"is_transit":false,"line":6,"distance":1994,"time":4,"i_long":106.712277,"i_lat":-6.296963,"station_name":"Sudimara","station_id":"SDM","transit":false},{"is_transit":false,"i_long":106.675475,"line":6,"station_name":"Rawa Buntu","station_id":"RU","distance":4566,"i_lat":-6.314823,"time":6,"transit":false},{"transit":false,"station_name":"Serpong","station_id":"SRP","is_transit":false,"distance":2413,"i_lat":-6.319871,"time":4,"i_long":106.66566,"line":6},{"i_long":106.640411,"time":4,"station_id":"CSK","i_lat":-6.32484,"station_name":"Cisauk","transit":false,"is_transit":false,"line":3,"distance":1784},{"time":4,"i_lat":-6.329547,"station_id":"CC","distance":2519,"i_long":106.617853,"line":3,"station_name":"Cicayur","is_transit":false,"transit":false},{"is_transit":false,"station_name":"Parung Panjang","transit":false,"station_id":"PRP","time":8,"distance":5968,"i_long":106.568863,"i_lat":-6.3441410000000005,"line":6},{"distance":7025,"line":3,"transit":false,"station_name":"Cilejit","station_id":"CJT","time":9,"is_transit":false,"i_long":106.508482,"i_lat":-6.354349}]]}