{"data":[[{"station_id":"POC","station_name":"Pondok Cina","distance":0,"transit":false,"i_long":106.831114,"line":2,"is_transit":false,"time":0,"i_lat":-6.369073},{"transit":false,"distance":1109,"station_name":"Univ. Indonesia","line":2,"is_transit":false,"time":2,"i_long":106.831474,"i_lat":-6.360749,"station_id":"UI"},{"transit":false,"i_lat":-6.339291,"distance":2264,"i_long":106.834175,"line":2,"station_name":"Univ. Pancasila","is_transit":false,"station_id":"UP","time":3},{"i_lat":-6.330363,"i_long":106.832616,"distance":1029,"is_transit":false,"time":2,"station_id":"LNA","line":2,"station_name":"Lenteng Agung","transit":false},{"transit":false,"distance":2671,"station_name":"Tanjung Barat","is_transit":false,"station_id":"TNT","i_lat":-6.3080680000000005,"i_long":106.838896,"time":3,"line":2},{"is_transit":false,"time":4,"transit":false,"i_lat":-6.2842400000000005,"i_long":106.843999,"station_name":"Pasar Minggu","station_id":"PSM","distance":2820,"line":2},{"i_lat":-6.263214,"i_long":106.851577,"station_id":"PSMB","station_name":"Pasar Minggu Baru","is_transit":false,"time":2,"line":2,"transit":false,"distance":2380},{"station_name":"Duren Kalibata","distance":824,"station_id":"DRN","line":0,"time":2,"i_long":106.85449,"transit":false,"i_lat":-6.255332,"is_transit":false},{"distance":1546,"transit":false,"line":0,"i_lat":-6.242512,"station_id":"CW","is_transit":false,"time":3,"station_name":"Cawang","i_long":106.856607},{"station_id":"TEB","transit":false,"distance":1230,"station_name":"Tebet","i_long":106.857948,"i_lat":-6.226659,"is_transit":false,"time":2,"line":2},{"station_name":"Manggarai","i_lat":-6.209883,"time":4,"i_long":106.84912,"line":0,"is_transit":true,"distance":2610,"station_id":"MRI","transit":true},{"i_long":106.822649,"station_name":"Sudirman","transit":false,"station_id":"SUD","distance":3186,"i_lat":-6.202263,"is_transit":false,"line":1,"time":4},{"time":1,"station_id":"SUDB","i_lat":-6.201433,"i_long":106.819881,"is_transit":false,"station_name":"Sudirman Baru","transit":false,"line":1,"distance":280},{"is_transit":false,"station_id":"KAT","time":1,"i_lat":-6.20132,"line":1,"distance":471,"transit":false,"i_long":106.816351,"station_name":"Karet"},{"line":1,"station_name":"Tanah Abang","distance":2029,"time":5,"station_id":"THB","transit":false,"is_transit":true,"i_long":106.811091,"i_lat":-6.185545},{"station_name":"Duri","time":8,"i_long":106.800832,"station_id":"DU","transit":true,"line":1,"i_lat":-6.155215,"distance":3632,"is_transit":true},{"station_id":"GGL","station_name":"Grogol","is_transit":false,"time":3,"distance":1700,"i_lat":-6.162021,"i_long":106.788277,"transit":false,"line":5},{"distance":2036,"station_name":"Pesing","transit":false,"i_long":106.771379,"i_lat":-6.161433,"is_transit":false,"time":2,"line":5,"station_id":"PSG"},{"transit":false,"station_id":"TKO","distance":1614,"i_long":106.756522,"is_transit":false,"line":5,"station_name":"Taman Kota","i_lat":-6.1587309999999995,"time":2},{"distance":2334,"transit":false,"line":0,"time":2,"station_id":"BOI","station_name":"Bojongindah","is_transit":false,"i_lat":-6.159876,"i_long":106.737035}],[{"time":0,"line":2,"station_name":"Pondok Cina","is_transit":false,"transit":false,"station_id":"POC","i_long":106.831114,"i_lat":-6.369073,"distance":0},{"station_name":"Univ. Indonesia","station_id":"UI","i_lat":-6.360749,"line":2,"distance":1109,"is_transit":false,"transit":false,"i_long":106.831474,"time":2},{"i_long":106.834175,"is_transit":false,"i_lat":-6.339291,"station_name":"Univ. Pancasila","transit":false,"line":2,"station_id":"UP","time":3,"distance":2264},{"line":2,"station_id":"LNA","station_name":"Lenteng Agung","is_transit":false,"transit":false,"distance":1029,"time":2,"i_lat":-6.330363,"i_long":106.832616},{"station_id":"TNT","is_transit":false,"i_long":106.838896,"distance":2671,"station_name":"Tanjung Barat","i_lat":-6.3080680000000005,"time":3,"transit":false,"line":2},{"is_transit":false,"station_id":"PSM","transit":false,"line":2,"i_lat":-6.2842400000000005,"station_name":"Pasar Minggu","time":4,"distance":2820,"i_long":106.843999},{"i_lat":-6.263214,"is_transit":false,"station_id":"PSMB","time":2,"station_name":"Pasar Minggu Baru","transit":false,"line":2,"i_long":106.851577,"distance":2380},{"i_long":106.85449,"station_id":"DRN","time":2,"line":0,"is_transit":false,"distance":824,"station_name":"Duren Kalibata","transit":false,"i_lat":-6.255332},{"station_name":"Cawang","line":0,"is_transit":false,"station_id":"CW","distance":1546,"i_lat":-6.242512,"i_long":106.856607,"time":3,"transit":false},{"line":2,"is_transit":false,"transit":false,"station_name":"Tebet","distance":1230,"i_lat":-6.226659,"time":2,"station_id":"TEB","i_long":106.857948},{"station_id":"MRI","distance":2610,"i_lat":-6.209883,"i_long":106.84912,"is_transit":true,"station_name":"Manggarai","transit":true,"line":0,"time":4},{"distance":1590,"station_name":"Cikini","line":0,"is_transit":false,"i_lat":-6.198556,"transit":false,"station_id":"CKI","time":4,"i_long":106.840169},{"line":2,"station_id":"GDD","transit":false,"i_long":106.832183,"time":3,"station_name":"Gondangdia","i_lat":-6.186295,"is_transit":false,"distance":1750},{"is_transit":false,"time":4,"transit":false,"station_name":"Juanda","distance":2015,"i_lat":-6.166716,"station_id":"JUA","i_long":106.828284,"line":2},{"station_name":"Sawah Besar","transit":false,"i_lat":-6.160725,"station_id":"SW","is_transit":false,"line":2,"time":2,"i_long":106.827103,"distance":1149},{"transit":false,"station_name":"Manggabesar","is_transit":false,"time":2,"line":2,"i_lat":-6.149769,"distance":906,"station_id":"MGB","i_long":106.82482},{"distance":1080,"line":7,"station_name":"Jayakarta","i_lat":-6.141205,"is_transit":false,"station_id":"JAY","time":2,"transit":false,"i_long":106.820901},{"is_transit":true,"transit":true,"line":0,"i_lat":-6.137569,"distance":1264,"time":4,"station_id":"JAKK","i_long":106.812439,"station_name":"Jakarta Kota"},{"distance":1364,"i_long":106.826365,"station_id":"KPB","transit":false,"is_transit":true,"i_lat":-6.132549,"station_name":"Kampung Bandan","line":0,"time":3},{"i_lat":-6.144674,"distance":4102,"transit":false,"i_long":106.79867,"is_transit":false,"line":0,"station_id":"AK","time":9,"station_name":"Angke"},{"is_transit":true,"distance":1230,"i_lat":-6.155215,"station_name":"Duri","station_id":"DU","time":4,"transit":true,"i_long":106.800832,"line":1},{"line":5,"distance":1700,"time":3,"i_long":106.788277,"transit":false,"is_transit":false,"station_id":"GGL","i_lat":-6.162021,"station_name":"Grogol"},{"time":2,"transit":false,"station_name":"Pesing","i_long":106.771379,"station_id":"PSG","line":5,"is_transit":false,"distance":2036,"i_lat":-6.161433},{"distance":1614,"time":2,"station_id":"TKO","transit":false,"i_long":106.756522,"line":5,"station_name":"Taman Kota","is_transit":false,"i_lat":-6.1587309999999995},{"is_transit":false,"transit":false,"station_name":"Bojongindah","i_lat":-6.159876,"distance":2334,"i_long":106.737035,"time":2,"line":0,"station_id":"BOI"}],[{"line":2,"time":0,"station_id":"POC","transit":false,"i_long":106.831114,"station_name":"Pondok Cina","distance":0,"is_transit":false,"i_lat":-6.369073},{"line":2,"is_transit":false,"station_name":"Univ. Indonesia","transit":false,"time":2,"distance":1109,"station_id":"UI","i_lat":-6.360749,"i_long":106.831474},{"distance":2264,"line":2,"transit":false,"i_lat":-6.339291,"i_long":106.834175,"station_name":"Univ. Pancasila","is_transit":false,"time":3,"station_id":"UP"},{"time":2,"i_lat":-6.330363,"station_id":"LNA","transit":false,"line":2,"station_name":"Lenteng Agung","i_long":106.832616,"distance":1029,"is_transit":false},{"transit":false,"i_lat":-6.3080680000000005,"distance":2671,"i_long":106.838896,"line":2,"is_transit":false,"station_name":"Tanjung Barat","station_id":"TNT","time":3},{"i_long":106.843999,"is_transit":false,"transit":false,"station_name":"Pasar Minggu","distance":2820,"line":2,"i_lat":-6.2842400000000005,"time":4,"station_id":"PSM"},{"station_id":"PSMB","distance":2380,"station_name":"Pasar Minggu Baru","is_transit":false,"time":2,"i_lat":-6.263214,"transit":false,"i_long":106.851577,"line":2},{"distance":824,"is_transit":false,"time":2,"transit":false,"station_id":"DRN","i_long":106.85449,"i_lat":-6.255332,"station_name":"Duren Kalibata","line":0},{"time":3,"transit":false,"i_long":106.856607,"distance":1546,"i_lat":-6.242512,"line":0,"is_transit":false,"station_name":"Cawang","station_id":"CW"},{"line":2,"station_id":"TEB","is_transit":false,"time":2,"i_long":106.857948,"i_lat":-6.226659,"station_name":"Tebet","transit":false,"distance":1230},{"station_name":"Manggarai","line":0,"is_transit":true,"station_id":"MRI","i_lat":-6.209883,"time":4,"transit":true,"distance":2610,"i_long":106.84912},{"station_id":"MTR","line":1,"i_long":106.858896,"distance":1275,"i_lat":-6.212485,"station_name":"Matraman","transit":false,"is_transit":false,"time":2},{"station_id":"JNG","distance":1377,"i_lat":-6.215091,"i_long":106.86807400000001,"line":0,"station_name":"Jatinegara","time":8,"transit":true,"is_transit":true},{"i_long":106.861737,"transit":false,"i_lat":-6.209188,"line":11,"station_id":"POK","station_name":"Pondok Jati","is_transit":false,"distance":1236,"time":2},{"is_transit":false,"time":2,"transit":false,"line":11,"i_lat":-6.193792,"i_long":106.855437,"station_id":"KMT","distance":1829,"station_name":"Kramat"},{"time":1,"distance":973,"line":11,"i_long":106.850107,"transit":false,"station_id":"GST","is_transit":false,"station_name":"Gang Sentiong","i_lat":-6.185975},{"i_lat":-6.174784,"distance":1567,"i_long":106.84368,"is_transit":false,"line":11,"transit":false,"station_id":"PSE","station_name":"Pasar Senen","time":8},{"distance":1436,"i_long":106.839204,"station_id":"KMO","transit":false,"line":11,"is_transit":false,"station_name":"Kemayoran","time":4,"i_lat":-6.161728},{"station_id":"RJW","line":11,"i_lat":-6.14505,"i_long":106.836569,"distance":1901,"is_transit":false,"time":5,"station_name":"Rajawali","transit":false},{"station_name":"Kampung Bandan","i_lat":-6.132549,"line":0,"i_long":106.826365,"distance":1444,"time":3,"is_transit":true,"transit":true,"station_id":"KPB"},{"i_long":106.79867,"distance":4102,"is_transit":false,"i_lat":-6.144674,"line":0,"station_id":"AK","station_name":"Angke","time":9,"transit":false},{"line":1,"i_long":106.800832,"distance":1230,"station_id":"DU","i_lat":-6.155215,"is_transit":true,"time":4,"transit":true,"station_name":"Duri"},{"station_id":"GGL","transit":false,"station_name":"Grogol","line":5,"distance":1700,"time":3,"is_transit":false,"i_lat":-6.162021,"i_long":106.788277},{"transit":false,"line":5,"time":2,"distance":2036,"i_lat":-6.161433,"station_name":"Pesing","is_transit":false,"i_long":106.771379,"station_id":"PSG"},{"station_name":"Taman Kota","time":2,"line":5,"distance":1614,"i_lat":-6.1587309999999995,"i_long":106.756522,"is_transit":false,"transit":false,"station_id":"TKO"},{"i_long":106.737035,"distance":2334,"station_name":"Bojongindah","station_id":"BOI","transit":false,"is_transit":false,"time":2,"line":0,"i_lat":-6.159876}]]}