{"data":[[{"line":2,"i_long":106.831114,"station_name":"Pondok Cina","station_id":"POC","time":0,"is_transit":false,"distance":0,"transit":false,"i_lat":-6.369073},{"i_long":106.819451,"line":0,"station_id":"DPB","i_lat":-6.391065,"time":4,"station_name":"Depokbaru","is_transit":false,"distance":2727,"transit":false},{"station_name":"Depok","i_lat":-6.405256,"i_long":106.816926,"time":3,"station_id":"DP","line":0,"transit":false,"distance":1584,"is_transit":false},{"transit":false,"distance":5084,"is_transit":true,"time":6,"line":1,"station_name":"Citayam","station_id":"CTA","i_long":106.800298,"i_lat":-6.448811},{"transit":false,"is_transit":false,"distance":5197,"station_name":"Bojonggede","station_id":"BJD","time":5,"i_long":106.792719,"line":0,"i_lat":-6.493243}]]}