{"data":[[{"is_transit":false,"time":0,"i_long":106.831114,"transit":false,"i_lat":-6.369073,"station_name":"Pondok Cina","line":2,"distance":0,"station_id":"POC"},{"distance":1109,"is_transit":false,"i_lat":-6.360749,"i_long":106.831474,"station_name":"Univ. Indonesia","line":2,"transit":false,"station_id":"UI","time":2},{"distance":2264,"is_transit":false,"time":3,"transit":false,"i_lat":-6.339291,"i_long":106.834175,"line":2,"station_id":"UP","station_name":"Univ. Pancasila"},{"i_lat":-6.330363,"transit":false,"is_transit":false,"distance":1029,"i_long":106.832616,"time":2,"line":2,"station_name":"Lenteng Agung","station_id":"LNA"},{"distance":2671,"station_id":"TNT","time":3,"i_lat":-6.3080680000000005,"line":2,"i_long":106.838896,"is_transit":false,"transit":false,"station_name":"Tanjung Barat"},{"i_lat":-6.2842400000000005,"line":2,"transit":false,"station_name":"Pasar Minggu","is_transit":false,"i_long":106.843999,"station_id":"PSM","time":4,"distance":2820},{"i_lat":-6.263214,"i_long":106.851577,"line":2,"is_transit":false,"transit":false,"station_name":"Pasar Minggu Baru","distance":2380,"station_id":"PSMB","time":2},{"time":2,"is_transit":false,"i_long":106.85449,"line":2,"station_name":"Duren Kalibata","transit":false,"station_id":"DRN","distance":824,"i_lat":-6.255332}]]}