{"data":[[{"i_lat":-6.369073,"station_name":"Pondok Cina","transit":false,"is_transit":false,"line":2,"i_long":106.831114,"time":0,"distance":0,"station_id":"POC"},{"i_lat":-6.360749,"time":2,"distance":1109,"is_transit":false,"station_name":"Univ. Indonesia","transit":false,"line":2,"station_id":"UI","i_long":106.831474},{"i_lat":-6.339291,"i_long":106.834175,"distance":2264,"line":2,"transit":false,"time":3,"station_name":"Univ. Pancasila","station_id":"UP","is_transit":false},{"line":2,"station_name":"Lenteng Agung","i_lat":-6.330363,"i_long":106.832616,"distance":1029,"station_id":"LNA","time":2,"is_transit":false,"transit":false},{"is_transit":false,"time":3,"distance":2671,"station_name":"Tanjung Barat","i_long":106.838896,"station_id":"TNT","line":2,"transit":false,"i_lat":-6.3080680000000005},{"transit":false,"is_transit":false,"distance":2820,"time":4,"i_lat":-6.2842400000000005,"station_name":"Pasar Minggu","station_id":"PSM","i_long":106.843999,"line":2},{"transit":false,"distance":2380,"time":2,"station_name":"Pasar Minggu Baru","station_id":"PSMB","line":2,"i_long":106.851577,"i_lat":-6.263214,"is_transit":false},{"time":2,"is_transit":false,"line":0,"station_name":"Duren Kalibata","station_id":"DRN","transit":false,"i_long":106.85449,"distance":824,"i_lat":-6.255332},{"i_lat":-6.242512,"station_id":"CW","distance":1546,"transit":false,"i_long":106.856607,"time":3,"is_transit":false,"line":0,"station_name":"Cawang"},{"i_long":106.857948,"time":2,"transit":false,"line":2,"distance":1230,"station_id":"TEB","i_lat":-6.226659,"is_transit":false,"station_name":"Tebet"},{"distance":2610,"is_transit":true,"station_id":"MRI","transit":true,"i_lat":-6.209883,"i_long":106.84912,"station_name":"Manggarai","line":0,"time":4},{"i_lat":-6.202263,"station_id":"SUD","transit":false,"line":1,"time":4,"station_name":"Sudirman","distance":3186,"i_long":106.822649,"is_transit":false},{"i_long":106.819881,"station_id":"SUDB","is_transit":false,"line":1,"transit":false,"time":1,"station_name":"Sudirman Baru","i_lat":-6.201433,"distance":280},{"time":1,"i_lat":-6.20132,"station_name":"Karet","station_id":"KAT","line":1,"distance":471,"is_transit":false,"i_long":106.816351,"transit":false},{"i_lat":-6.185545,"line":1,"distance":2029,"is_transit":true,"time":5,"station_name":"Tanah Abang","i_long":106.811091,"transit":false,"station_id":"THB"},{"i_lat":-6.155215,"station_id":"DU","station_name":"Duri","time":8,"transit":true,"i_long":106.800832,"line":1,"distance":3632,"is_transit":true},{"i_long":106.79867,"transit":false,"station_name":"Angke","i_lat":-6.144674,"station_id":"AK","time":4,"line":0,"distance":1230,"is_transit":false},{"time":9,"distance":4102,"station_name":"Kampung Bandan","is_transit":true,"line":0,"i_lat":-6.132549,"i_long":106.826365,"station_id":"KPB","transit":true},{"i_lat":-6.14505,"is_transit":false,"station_id":"RJW","time":3,"distance":1444,"line":11,"i_long":106.836569,"transit":false,"station_name":"Rajawali"}],[{"transit":false,"station_id":"POC","line":2,"is_transit":false,"station_name":"Pondok Cina","i_long":106.831114,"distance":0,"time":0,"i_lat":-6.369073},{"time":2,"distance":1109,"i_lat":-6.360749,"is_transit":false,"station_name":"Univ. Indonesia","transit":false,"line":2,"station_id":"UI","i_long":106.831474},{"is_transit":false,"station_name":"Univ. Pancasila","time":3,"i_long":106.834175,"station_id":"UP","i_lat":-6.339291,"line":2,"distance":2264,"transit":false},{"station_name":"Lenteng Agung","line":2,"is_transit":false,"time":2,"transit":false,"i_long":106.832616,"station_id":"LNA","i_lat":-6.330363,"distance":1029},{"distance":2671,"i_long":106.838896,"time":3,"line":2,"station_id":"TNT","station_name":"Tanjung Barat","i_lat":-6.3080680000000005,"transit":false,"is_transit":false},{"line":2,"i_lat":-6.2842400000000005,"is_transit":false,"time":4,"distance":2820,"station_id":"PSM","transit":false,"i_long":106.843999,"station_name":"Pasar Minggu"},{"line":2,"station_id":"PSMB","station_name":"Pasar Minggu Baru","is_transit":false,"transit":false,"distance":2380,"time":2,"i_long":106.851577,"i_lat":-6.263214},{"distance":824,"station_id":"DRN","i_lat":-6.255332,"transit":false,"is_transit":false,"station_name":"Duren Kalibata","time":2,"i_long":106.85449,"line":0},{"distance":1546,"i_long":106.856607,"i_lat":-6.242512,"station_id":"CW","station_name":"Cawang","line":0,"time":3,"is_transit":false,"transit":false},{"i_lat":-6.226659,"line":2,"station_id":"TEB","station_name":"Tebet","is_transit":false,"time":2,"transit":false,"i_long":106.857948,"distance":1230},{"time":4,"station_name":"Manggarai","i_lat":-6.209883,"i_long":106.84912,"distance":2610,"transit":true,"station_id":"MRI","is_transit":true,"line":0},{"station_id":"MTR","i_long":106.858896,"line":1,"time":2,"transit":false,"distance":1275,"station_name":"Matraman","i_lat":-6.212485,"is_transit":false},{"is_transit":true,"i_lat":-6.215091,"line":0,"transit":true,"station_id":"JNG","station_name":"Jatinegara","i_long":106.86807400000001,"time":8,"distance":1377},{"is_transit":false,"line":11,"i_long":106.861737,"time":2,"i_lat":-6.209188,"transit":false,"station_name":"Pondok Jati","distance":1236,"station_id":"POK"},{"line":11,"i_lat":-6.193792,"station_id":"KMT","is_transit":false,"time":2,"i_long":106.855437,"distance":1829,"transit":false,"station_name":"Kramat"},{"i_long":106.850107,"line":11,"time":1,"distance":973,"is_transit":false,"station_id":"GST","station_name":"Gang Sentiong","transit":false,"i_lat":-6.185975},{"transit":false,"i_long":106.84368,"is_transit":false,"time":8,"distance":1567,"station_id":"PSE","station_name":"Pasar Senen","line":11,"i_lat":-6.174784},{"time":4,"i_lat":-6.161728,"is_transit":false,"station_id":"KMO","line":11,"transit":false,"i_long":106.839204,"station_name":"Kemayoran","distance":1436},{"distance":1901,"station_name":"Rajawali","line":11,"is_transit":false,"station_id":"RJW","time":5,"transit":false,"i_lat":-6.14505,"i_long":106.836569}],[{"station_name":"Pondok Cina","is_transit":false,"time":0,"transit":false,"station_id":"POC","i_lat":-6.369073,"i_long":106.831114,"distance":0,"line":2},{"distance":1109,"station_id":"UI","station_name":"Univ. Indonesia","i_lat":-6.360749,"is_transit":false,"transit":false,"i_long":106.831474,"time":2,"line":2},{"is_transit":false,"line":2,"transit":false,"station_id":"UP","distance":2264,"i_lat":-6.339291,"i_long":106.834175,"station_name":"Univ. Pancasila","time":3},{"i_long":106.832616,"station_name":"Lenteng Agung","time":2,"distance":1029,"is_transit":false,"i_lat":-6.330363,"line":2,"transit":false,"station_id":"LNA"},{"line":2,"distance":2671,"i_long":106.838896,"is_transit":false,"station_id":"TNT","station_name":"Tanjung Barat","i_lat":-6.3080680000000005,"time":3,"transit":false},{"time":4,"distance":2820,"is_transit":false,"transit":false,"station_id":"PSM","station_name":"Pasar Minggu","i_long":106.843999,"i_lat":-6.2842400000000005,"line":2},{"i_lat":-6.263214,"line":2,"is_transit":false,"station_name":"Pasar Minggu Baru","transit":false,"time":2,"distance":2380,"station_id":"PSMB","i_long":106.851577},{"time":2,"line":0,"transit":false,"distance":824,"station_id":"DRN","i_long":106.85449,"i_lat":-6.255332,"is_transit":false,"station_name":"Duren Kalibata"},{"transit":false,"time":3,"is_transit":false,"station_id":"CW","i_lat":-6.242512,"line":0,"i_long":106.856607,"distance":1546,"station_name":"Cawang"},{"station_name":"Tebet","i_long":106.857948,"station_id":"TEB","time":2,"line":2,"is_transit":false,"transit":false,"i_lat":-6.226659,"distance":1230},{"transit":true,"station_id":"MRI","i_lat":-6.209883,"is_transit":true,"i_long":106.84912,"station_name":"Manggarai","line":0,"distance":2610,"time":4},{"i_lat":-6.198556,"is_transit":false,"time":4,"station_id":"CKI","station_name":"Cikini","line":0,"distance":1590,"i_long":106.840169,"transit":false},{"transit":false,"is_transit":false,"station_name":"Gondangdia","distance":1750,"i_lat":-6.186295,"station_id":"GDD","line":2,"i_long":106.832183,"time":3},{"distance":2015,"is_transit":false,"station_id":"JUA","i_long":106.828284,"station_name":"Juanda","line":2,"transit":false,"time":4,"i_lat":-6.166716},{"is_transit":false,"station_id":"SW","i_lat":-6.160725,"i_long":106.827103,"distance":1149,"station_name":"Sawah Besar","transit":false,"line":2,"time":2},{"station_name":"Manggabesar","i_lat":-6.149769,"i_long":106.82482,"transit":false,"line":2,"time":2,"distance":906,"is_transit":false,"station_id":"MGB"},{"line":7,"station_name":"Jayakarta","distance":1080,"is_transit":false,"station_id":"JAY","i_lat":-6.141205,"i_long":106.820901,"transit":false,"time":2},{"station_id":"JAKK","is_transit":true,"transit":true,"line":0,"time":4,"distance":1264,"station_name":"Jakarta Kota","i_lat":-6.137569,"i_long":106.812439},{"station_id":"KPB","station_name":"Kampung Bandan","distance":1364,"i_lat":-6.132549,"i_long":106.826365,"time":3,"line":0,"is_transit":true,"transit":true},{"i_long":106.836569,"transit":false,"i_lat":-6.14505,"distance":1444,"is_transit":false,"time":3,"station_id":"RJW","line":11,"station_name":"Rajawali"}]]}