{"data":[[{"is_transit":false,"station_id":"POC","i_lat":-6.369073,"distance":0,"transit":false,"i_long":106.831114,"line":2,"time":0,"station_name":"Pondok Cina"},{"i_long":106.819451,"is_transit":false,"line":2,"time":4,"transit":false,"i_lat":-6.391065,"distance":2727,"station_name":"Depokbaru","station_id":"DPB"},{"station_name":"Depok","i_lat":-6.405256,"station_id":"DP","i_long":106.816926,"transit":false,"distance":1584,"line":2,"is_transit":false,"time":3},{"line":2,"station_id":"CTA","i_long":106.800298,"i_lat":-6.448811,"is_transit":true,"transit":true,"station_name":"Citayam","time":6,"distance":5084},{"time":0,"is_transit":false,"station_id":"PDRG","i_lat":-6.460735,"i_long":106.824374,"distance":0,"line":21,"transit":false,"station_name":"Pondok Rajeg"},{"time":0,"transit":false,"i_lat":-6.46424,"station_id":"CBN","line":21,"i_long":106.851978,"station_name":"Cibinong","distance":0,"is_transit":false},{"station_id":"NMO","time":10,"i_lat":-6.466285,"transit":false,"line":21,"station_name":"Nambo","is_transit":false,"distance":6527,"i_long":106.905196}]]}