{"data":[[{"line":2,"station_id":"POC","station_name":"Pondok Cina","is_transit":false,"distance":0,"i_long":106.831114,"i_lat":-6.369073,"time":0,"transit":false},{"distance":1109,"is_transit":false,"i_lat":-6.360749,"station_id":"UI","station_name":"Univ. Indonesia","i_long":106.831474,"time":2,"line":2,"transit":false},{"station_id":"UP","is_transit":false,"time":3,"i_lat":-6.339291,"station_name":"Univ. Pancasila","transit":false,"line":2,"i_long":106.834175,"distance":2264},{"i_long":106.832616,"line":2,"transit":false,"station_id":"LNA","time":2,"is_transit":false,"i_lat":-6.330363,"station_name":"Lenteng Agung","distance":1029},{"i_lat":-6.3080680000000005,"i_long":106.838896,"time":3,"transit":false,"distance":2671,"is_transit":false,"line":2,"station_id":"TNT","station_name":"Tanjung Barat"},{"time":4,"distance":2820,"transit":false,"station_id":"PSM","is_transit":false,"i_lat":-6.2842400000000005,"line":2,"i_long":106.843999,"station_name":"Pasar Minggu"},{"distance":2380,"is_transit":false,"station_name":"Pasar Minggu Baru","i_lat":-6.263214,"time":2,"station_id":"PSMB","i_long":106.851577,"line":2,"transit":false},{"station_id":"DRN","station_name":"Duren Kalibata","time":2,"i_lat":-6.255332,"is_transit":false,"i_long":106.85449,"line":2,"distance":824,"transit":false},{"is_transit":false,"i_lat":-6.242512,"time":3,"distance":1546,"line":2,"transit":false,"station_id":"CW","i_long":106.856607,"station_name":"Cawang"},{"distance":1230,"is_transit":false,"line":2,"time":2,"station_id":"TEB","i_long":106.857948,"station_name":"Tebet","i_lat":-6.226659,"transit":false},{"distance":2610,"station_id":"MRI","time":4,"i_long":106.84912,"i_lat":-6.209883,"is_transit":true,"station_name":"Manggarai","transit":true,"line":2},{"is_transit":false,"time":2,"i_lat":-6.212485,"i_long":106.858896,"station_name":"Matraman","distance":1275,"transit":false,"station_id":"MTR","line":1},{"i_long":106.86807400000001,"station_name":"Jatinegara","is_transit":false,"i_lat":-6.215091,"distance":1377,"time":8,"transit":false,"station_id":"JNG","line":1},{"station_id":"KLD","distance":3395,"time":3,"i_long":106.899548,"station_name":"Klender","is_transit":false,"i_lat":-6.2135,"transit":false,"line":1},{"line":1,"station_name":"Buaran","time":2,"station_id":"BUA","transit":false,"is_transit":false,"i_long":106.922662,"distance":3100,"i_lat":-6.215568},{"transit":false,"line":1,"station_name":"Klenderbaru","time":1,"i_long":106.939679,"is_transit":false,"station_id":"KLDB","distance":1305,"i_lat":-6.217455},{"is_transit":false,"station_name":"Cakung","i_long":106.951283,"line":1,"i_lat":-6.219053,"time":8,"distance":1385,"transit":false,"station_id":"CUK"},{"transit":false,"time":3,"is_transit":false,"line":1,"i_lat":-6.224515,"i_long":106.977657,"distance":3097,"station_name":"Kranji","station_id":"KRI"},{"i_lat":-6.236616,"station_id":"BKS","transit":false,"distance":2520,"line":1,"is_transit":false,"time":4,"station_name":"Bekasi","i_long":106.997013}],[{"transit":false,"station_id":"POC","distance":0,"line":2,"i_lat":-6.369073,"station_name":"Pondok Cina","is_transit":false,"time":0,"i_long":106.831114},{"line":2,"time":2,"transit":false,"distance":1109,"station_id":"UI","station_name":"Univ. Indonesia","is_transit":false,"i_lat":-6.360749,"i_long":106.831474},{"distance":2264,"transit":false,"station_id":"UP","i_long":106.834175,"line":2,"is_transit":false,"i_lat":-6.339291,"time":3,"station_name":"Univ. Pancasila"},{"transit":false,"time":2,"distance":1029,"station_name":"Lenteng Agung","i_long":106.832616,"station_id":"LNA","line":2,"i_lat":-6.330363,"is_transit":false},{"i_long":106.838896,"time":3,"station_id":"TNT","i_lat":-6.3080680000000005,"distance":2671,"is_transit":false,"line":2,"station_name":"Tanjung Barat","transit":false},{"line":2,"time":4,"station_name":"Pasar Minggu","transit":false,"distance":2820,"is_transit":false,"i_lat":-6.2842400000000005,"i_long":106.843999,"station_id":"PSM"},{"station_id":"PSMB","line":2,"is_transit":false,"distance":2380,"time":2,"i_lat":-6.263214,"station_name":"Pasar Minggu Baru","transit":false,"i_long":106.851577},{"line":2,"time":2,"transit":false,"station_id":"DRN","station_name":"Duren Kalibata","is_transit":false,"i_lat":-6.255332,"distance":824,"i_long":106.85449},{"is_transit":false,"i_lat":-6.242512,"i_long":106.856607,"line":2,"distance":1546,"station_name":"Cawang","transit":false,"time":3,"station_id":"CW"},{"i_lat":-6.226659,"station_name":"Tebet","station_id":"TEB","transit":false,"distance":1230,"is_transit":false,"time":2,"i_long":106.857948,"line":2},{"i_lat":-6.209883,"distance":2610,"station_name":"Manggarai","transit":true,"is_transit":true,"station_id":"MRI","time":4,"i_long":106.84912,"line":2},{"distance":3186,"station_id":"SUD","line":1,"time":4,"station_name":"Sudirman","i_lat":-6.202263,"i_long":106.822649,"is_transit":false,"transit":false},{"is_transit":false,"transit":false,"distance":280,"station_name":"Sudirman Baru","time":1,"station_id":"SUDB","i_lat":-6.201433,"i_long":106.819881,"line":1},{"transit":false,"station_id":"KAT","time":1,"is_transit":false,"i_long":106.816351,"distance":471,"station_name":"Karet","i_lat":-6.20132,"line":1},{"is_transit":false,"i_long":106.811091,"transit":false,"line":1,"time":5,"distance":2029,"i_lat":-6.185545,"station_name":"Tanah Abang","station_id":"THB"},{"time":8,"transit":false,"line":1,"i_lat":-6.155215,"distance":3632,"i_long":106.800832,"is_transit":false,"station_name":"Duri","station_id":"DU"},{"i_lat":-6.144674,"i_long":106.79867,"station_id":"AK","distance":1230,"line":1,"station_name":"Angke","time":4,"is_transit":false,"transit":false},{"time":9,"i_long":106.826365,"distance":4102,"is_transit":true,"line":4,"station_id":"KPB","station_name":"Kampung Bandan","transit":true,"i_lat":-6.132549},{"line":11,"station_name":"Rajawali","is_transit":false,"transit":false,"time":3,"i_lat":-6.14505,"station_id":"RJW","i_long":106.836569,"distance":1444},{"distance":1901,"i_lat":-6.161728,"station_name":"Kemayoran","time":5,"station_id":"KMO","i_long":106.839204,"transit":false,"is_transit":false,"line":11},{"i_long":106.84368,"station_name":"Pasar Senen","transit":false,"time":4,"station_id":"PSE","distance":1436,"is_transit":false,"line":11,"i_lat":-6.174784},{"distance":1567,"station_name":"Gang Sentiong","transit":false,"station_id":"GST","i_lat":-6.185975,"i_long":106.850107,"line":11,"is_transit":false,"time":8},{"time":1,"station_name":"Kramat","i_long":106.855437,"transit":false,"distance":973,"station_id":"KMT","i_lat":-6.193792,"is_transit":false,"line":11},{"station_name":"Pondok Jati","transit":false,"i_lat":-6.209188,"time":2,"i_long":106.861737,"station_id":"POK","distance":1829,"is_transit":false,"line":11},{"line":1,"distance":1236,"station_name":"Jatinegara","is_transit":true,"transit":true,"i_long":106.86807400000001,"station_id":"JNG","time":9,"i_lat":-6.215091},{"i_long":106.899548,"station_id":"KLD","distance":3395,"transit":false,"is_transit":false,"line":1,"station_name":"Klender","time":3,"i_lat":-6.2135},{"is_transit":false,"i_long":106.922662,"line":1,"station_id":"BUA","time":2,"transit":false,"station_name":"Buaran","i_lat":-6.215568,"distance":3100},{"station_name":"Klenderbaru","i_long":106.939679,"i_lat":-6.217455,"distance":1305,"is_transit":false,"time":1,"station_id":"KLDB","line":1,"transit":false},{"i_lat":-6.219053,"station_name":"Cakung","line":1,"transit":false,"time":8,"i_long":106.951283,"distance":1385,"station_id":"CUK","is_transit":false},{"station_name":"Kranji","transit":false,"is_transit":false,"line":1,"time":3,"i_long":106.977657,"i_lat":-6.224515,"station_id":"KRI","distance":3097},{"i_long":106.997013,"transit":false,"station_name":"Bekasi","distance":2520,"time":4,"station_id":"BKS","i_lat":-6.236616,"is_transit":false,"line":1}],[{"is_transit":false,"distance":0,"line":2,"station_id":"POC","station_name":"Pondok Cina","transit":false,"i_lat":-6.369073,"time":0,"i_long":106.831114},{"station_id":"UI","i_long":106.831474,"line":2,"distance":1109,"time":2,"is_transit":false,"i_lat":-6.360749,"transit":false,"station_name":"Univ. Indonesia"},{"i_lat":-6.339291,"i_long":106.834175,"station_id":"UP","distance":2264,"is_transit":false,"line":2,"time":3,"station_name":"Univ. Pancasila","transit":false},{"line":2,"is_transit":false,"i_long":106.832616,"time":2,"distance":1029,"transit":false,"station_id":"LNA","i_lat":-6.330363,"station_name":"Lenteng Agung"},{"time":3,"i_long":106.838896,"is_transit":false,"transit":false,"station_id":"TNT","station_name":"Tanjung Barat","i_lat":-6.3080680000000005,"line":2,"distance":2671},{"i_lat":-6.2842400000000005,"distance":2820,"station_id":"PSM","time":4,"i_long":106.843999,"line":2,"transit":false,"is_transit":false,"station_name":"Pasar Minggu"},{"i_long":106.851577,"station_name":"Pasar Minggu Baru","time":2,"station_id":"PSMB","distance":2380,"transit":false,"is_transit":false,"i_lat":-6.263214,"line":2},{"distance":824,"station_id":"DRN","time":2,"transit":false,"is_transit":false,"station_name":"Duren Kalibata","i_lat":-6.255332,"i_long":106.85449,"line":2},{"time":3,"i_lat":-6.242512,"line":2,"transit":false,"station_name":"Cawang","station_id":"CW","distance":1546,"is_transit":false,"i_long":106.856607},{"transit":false,"line":2,"station_id":"TEB","station_name":"Tebet","i_lat":-6.226659,"time":2,"distance":1230,"is_transit":false,"i_long":106.857948},{"time":4,"station_id":"MRI","station_name":"Manggarai","is_transit":false,"i_long":106.84912,"transit":false,"distance":2610,"line":2,"i_lat":-6.209883},{"i_lat":-6.198556,"i_long":106.840169,"line":2,"station_name":"Cikini","time":4,"distance":1590,"transit":false,"is_transit":false,"station_id":"CKI"},{"transit":false,"distance":1750,"station_name":"Gondangdia","station_id":"GDD","line":2,"i_lat":-6.186295,"i_long":106.832183,"is_transit":false,"time":3},{"distance":2015,"transit":false,"i_lat":-6.166716,"line":2,"station_id":"JUA","time":4,"is_transit":false,"i_long":106.828284,"station_name":"Juanda"},{"is_transit":false,"station_name":"Sawah Besar","distance":1149,"line":2,"station_id":"SW","i_lat":-6.160725,"time":2,"i_long":106.827103,"transit":false},{"distance":906,"line":2,"station_name":"Manggabesar","station_id":"MGB","transit":false,"i_lat":-6.149769,"is_transit":false,"i_long":106.82482,"time":2},{"distance":1080,"time":2,"station_id":"JAY","transit":false,"is_transit":false,"i_lat":-6.141205,"i_long":106.820901,"line":2,"station_name":"Jayakarta"},{"station_id":"JAKK","station_name":"Jakarta Kota","distance":1264,"i_long":106.812439,"time":4,"is_transit":true,"line":2,"transit":true,"i_lat":-6.137569},{"transit":true,"line":4,"is_transit":true,"i_long":106.826365,"station_id":"KPB","i_lat":-6.132549,"distance":1364,"station_name":"Kampung Bandan","time":3},{"i_lat":-6.14505,"line":11,"transit":false,"station_id":"RJW","is_transit":false,"station_name":"Rajawali","time":3,"i_long":106.836569,"distance":1444},{"i_lat":-6.161728,"station_name":"Kemayoran","is_transit":false,"distance":1901,"transit":false,"i_long":106.839204,"line":11,"time":5,"station_id":"KMO"},{"station_name":"Pasar Senen","is_transit":false,"i_lat":-6.174784,"line":11,"distance":1436,"time":4,"station_id":"PSE","i_long":106.84368,"transit":false},{"distance":1567,"time":8,"station_name":"Gang Sentiong","i_long":106.850107,"i_lat":-6.185975,"transit":false,"line":11,"station_id":"GST","is_transit":false},{"station_id":"KMT","i_lat":-6.193792,"i_long":106.855437,"distance":973,"time":1,"line":11,"station_name":"Kramat","transit":false,"is_transit":false},{"line":11,"transit":false,"is_transit":false,"station_id":"POK","i_long":106.861737,"distance":1829,"time":2,"i_lat":-6.209188,"station_name":"Pondok Jati"},{"i_long":106.86807400000001,"transit":true,"station_id":"JNG","is_transit":true,"distance":1236,"time":9,"i_lat":-6.215091,"line":1,"station_name":"Jatinegara"},{"time":3,"station_id":"KLD","is_transit":false,"distance":3395,"transit":false,"station_name":"Klender","i_lat":-6.2135,"i_long":106.899548,"line":1},{"time":2,"station_id":"BUA","line":1,"is_transit":false,"i_lat":-6.215568,"distance":3100,"station_name":"Buaran","transit":false,"i_long":106.922662},{"distance":1305,"time":1,"i_lat":-6.217455,"is_transit":false,"i_long":106.939679,"line":1,"transit":false,"station_name":"Klenderbaru","station_id":"KLDB"},{"station_id":"CUK","station_name":"Cakung","transit":false,"time":8,"i_lat":-6.219053,"is_transit":false,"distance":1385,"i_long":106.951283,"line":1},{"distance":3097,"station_id":"KRI","is_transit":false,"transit":false,"station_name":"Kranji","time":3,"i_lat":-6.224515,"i_long":106.977657,"line":1},{"time":4,"station_name":"Bekasi","station_id":"BKS","i_long":106.997013,"distance":2520,"is_transit":false,"line":1,"i_lat":-6.236616,"transit":false}]]}