{"data":[[{"station_id":"POC","i_long":106.831114,"is_transit":false,"distance":0,"station_name":"Pondok Cina","transit":false,"i_lat":-6.369073,"time":0,"line":2},{"distance":1109,"transit":false,"line":2,"station_id":"UI","time":2,"is_transit":false,"i_lat":-6.360749,"i_long":106.831474,"station_name":"Univ. Indonesia"},{"line":2,"is_transit":false,"i_lat":-6.339291,"time":3,"distance":2264,"station_id":"UP","i_long":106.834175,"transit":false,"station_name":"Univ. Pancasila"},{"time":2,"station_id":"LNA","i_lat":-6.330363,"station_name":"Lenteng Agung","i_long":106.832616,"transit":false,"line":2,"is_transit":false,"distance":1029},{"i_long":106.838896,"distance":2671,"station_id":"TNT","time":3,"is_transit":false,"station_name":"Tanjung Barat","line":2,"i_lat":-6.3080680000000005,"transit":false}]]}