{"data":[[{"i_lat":-6.369073,"station_id":"POC","is_transit":false,"distance":0,"transit":false,"station_name":"Pondok Cina","line":2,"i_long":106.831114,"time":0},{"line":2,"station_id":"UI","distance":1109,"i_long":106.831474,"transit":false,"time":2,"is_transit":false,"i_lat":-6.360749,"station_name":"Univ. Indonesia"},{"time":3,"i_long":106.834175,"distance":2264,"i_lat":-6.339291,"line":2,"is_transit":false,"transit":false,"station_id":"UP","station_name":"Univ. Pancasila"},{"is_transit":false,"station_id":"LNA","station_name":"Lenteng Agung","transit":false,"time":2,"distance":1029,"i_long":106.832616,"line":2,"i_lat":-6.330363},{"is_transit":false,"station_name":"Tanjung Barat","time":3,"line":2,"distance":2671,"i_lat":-6.3080680000000005,"station_id":"TNT","i_long":106.838896,"transit":false}]]}