{"data":[[{"station_id":"POC","station_name":"Pondok Cina","time":0,"i_long":106.831114,"is_transit":false,"line":2,"distance":0,"transit":false,"i_lat":-6.369073},{"time":2,"station_name":"Univ. Indonesia","i_lat":-6.360749,"i_long":106.831474,"line":2,"distance":1109,"station_id":"UI","transit":false,"is_transit":false},{"is_transit":false,"station_name":"Univ. Pancasila","i_lat":-6.339291,"i_long":106.834175,"station_id":"UP","transit":false,"distance":2264,"time":3,"line":2},{"line":2,"time":2,"station_name":"Lenteng Agung","station_id":"LNA","i_long":106.832616,"i_lat":-6.330363,"distance":1029,"is_transit":false,"transit":false},{"distance":2671,"station_id":"TNT","is_transit":false,"i_lat":-6.3080680000000005,"station_name":"Tanjung Barat","transit":false,"time":3,"line":2,"i_long":106.838896},{"time":4,"line":2,"distance":2820,"station_name":"Pasar Minggu","i_lat":-6.2842400000000005,"is_transit":false,"i_long":106.843999,"station_id":"PSM","transit":false},{"station_id":"PSMB","is_transit":false,"i_lat":-6.263214,"line":2,"transit":false,"time":2,"station_name":"Pasar Minggu Baru","i_long":106.851577,"distance":2380},{"station_name":"Duren Kalibata","station_id":"DRN","distance":824,"i_lat":-6.255332,"i_long":106.85449,"time":2,"line":0,"transit":false,"is_transit":false},{"station_id":"CW","is_transit":false,"distance":1546,"station_name":"Cawang","i_lat":-6.242512,"i_long":106.856607,"line":0,"time":3,"transit":false},{"is_transit":false,"station_name":"Tebet","line":2,"station_id":"TEB","time":2,"i_lat":-6.226659,"transit":false,"distance":1230,"i_long":106.857948},{"is_transit":true,"time":4,"station_id":"MRI","distance":2610,"i_lat":-6.209883,"line":0,"transit":true,"i_long":106.84912,"station_name":"Manggarai"},{"station_id":"CKI","distance":1590,"time":4,"i_lat":-6.198556,"is_transit":false,"station_name":"Cikini","i_long":106.840169,"line":0,"transit":false},{"i_long":106.832183,"time":3,"station_id":"GDD","transit":false,"i_lat":-6.186295,"distance":1750,"is_transit":false,"line":2,"station_name":"Gondangdia"},{"station_name":"Juanda","transit":false,"is_transit":false,"station_id":"JUA","distance":2015,"time":4,"i_long":106.828284,"line":2,"i_lat":-6.166716},{"time":2,"is_transit":false,"station_id":"SW","station_name":"Sawah Besar","i_lat":-6.160725,"line":2,"transit":false,"i_long":106.827103,"distance":1149}],[{"time":0,"transit":false,"i_lat":-6.369073,"i_long":106.831114,"station_id":"POC","station_name":"Pondok Cina","is_transit":false,"distance":0,"line":2},{"line":2,"distance":1109,"time":2,"i_long":106.831474,"station_id":"UI","station_name":"Univ. Indonesia","transit":false,"i_lat":-6.360749,"is_transit":false},{"transit":false,"time":3,"i_long":106.834175,"station_id":"UP","is_transit":false,"distance":2264,"station_name":"Univ. Pancasila","i_lat":-6.339291,"line":2},{"transit":false,"station_name":"Lenteng Agung","distance":1029,"line":2,"i_long":106.832616,"station_id":"LNA","time":2,"is_transit":false,"i_lat":-6.330363},{"distance":2671,"time":3,"line":2,"station_id":"TNT","transit":false,"i_lat":-6.3080680000000005,"i_long":106.838896,"station_name":"Tanjung Barat","is_transit":false},{"is_transit":false,"time":4,"i_long":106.843999,"distance":2820,"line":2,"transit":false,"station_id":"PSM","i_lat":-6.2842400000000005,"station_name":"Pasar Minggu"},{"is_transit":false,"i_long":106.851577,"distance":2380,"station_id":"PSMB","line":2,"i_lat":-6.263214,"transit":false,"station_name":"Pasar Minggu Baru","time":2},{"is_transit":false,"line":0,"station_name":"Duren Kalibata","transit":false,"distance":824,"station_id":"DRN","i_lat":-6.255332,"i_long":106.85449,"time":2},{"distance":1546,"time":3,"line":0,"i_lat":-6.242512,"i_long":106.856607,"transit":false,"station_id":"CW","is_transit":false,"station_name":"Cawang"},{"station_name":"Tebet","i_long":106.857948,"line":2,"distance":1230,"time":2,"transit":false,"i_lat":-6.226659,"station_id":"TEB","is_transit":false},{"time":4,"i_lat":-6.209883,"i_long":106.84912,"station_name":"Manggarai","transit":true,"is_transit":true,"distance":2610,"station_id":"MRI","line":0},{"distance":3186,"is_transit":false,"line":1,"i_lat":-6.202263,"station_id":"SUD","station_name":"Sudirman","i_long":106.822649,"transit":false,"time":4},{"time":1,"transit":false,"i_lat":-6.201433,"is_transit":false,"station_name":"Sudirman Baru","line":1,"distance":280,"station_id":"SUDB","i_long":106.819881},{"line":1,"transit":false,"i_long":106.816351,"distance":471,"is_transit":false,"i_lat":-6.20132,"time":1,"station_id":"KAT","station_name":"Karet"},{"transit":false,"line":1,"station_id":"THB","is_transit":true,"i_lat":-6.185545,"station_name":"Tanah Abang","distance":2029,"i_long":106.811091,"time":5},{"i_lat":-6.155215,"line":1,"transit":true,"station_id":"DU","distance":3632,"time":8,"i_long":106.800832,"is_transit":true,"station_name":"Duri"},{"line":0,"station_id":"AK","station_name":"Angke","distance":1230,"is_transit":false,"i_lat":-6.144674,"transit":false,"time":4,"i_long":106.79867},{"station_id":"KPB","time":9,"distance":4102,"station_name":"Kampung Bandan","line":0,"is_transit":true,"transit":false,"i_lat":-6.132549,"i_long":106.826365},{"i_lat":-6.137569,"station_name":"Jakarta Kota","i_long":106.812439,"is_transit":true,"transit":true,"line":0,"distance":1364,"time":3,"station_id":"JAKK"},{"is_transit":false,"station_id":"JAY","i_lat":-6.141205,"line":7,"transit":false,"i_long":106.820901,"distance":1264,"time":4,"station_name":"Jayakarta"},{"distance":1080,"i_lat":-6.149769,"line":2,"station_id":"MGB","time":2,"station_name":"Manggabesar","i_long":106.82482,"transit":false,"is_transit":false},{"i_lat":-6.160725,"distance":906,"station_name":"Sawah Besar","line":2,"station_id":"SW","is_transit":false,"time":2,"i_long":106.827103,"transit":false}],[{"distance":0,"time":0,"is_transit":false,"transit":false,"i_lat":-6.369073,"i_long":106.831114,"line":2,"station_name":"Pondok Cina","station_id":"POC"},{"station_id":"UI","time":2,"is_transit":false,"i_long":106.831474,"distance":1109,"i_lat":-6.360749,"line":2,"station_name":"Univ. Indonesia","transit":false},{"i_long":106.834175,"is_transit":false,"station_id":"UP","distance":2264,"station_name":"Univ. Pancasila","transit":false,"i_lat":-6.339291,"line":2,"time":3},{"i_lat":-6.330363,"time":2,"line":2,"distance":1029,"i_long":106.832616,"is_transit":false,"station_id":"LNA","transit":false,"station_name":"Lenteng Agung"},{"is_transit":false,"station_id":"TNT","time":3,"distance":2671,"line":2,"station_name":"Tanjung Barat","i_lat":-6.3080680000000005,"transit":false,"i_long":106.838896},{"is_transit":false,"distance":2820,"line":2,"station_id":"PSM","transit":false,"i_lat":-6.2842400000000005,"time":4,"station_name":"Pasar Minggu","i_long":106.843999},{"i_lat":-6.263214,"transit":false,"station_id":"PSMB","is_transit":false,"time":2,"distance":2380,"station_name":"Pasar Minggu Baru","i_long":106.851577,"line":2},{"i_lat":-6.255332,"i_long":106.85449,"station_id":"DRN","time":2,"distance":824,"station_name":"Duren Kalibata","transit":false,"line":0,"is_transit":false},{"station_id":"CW","i_long":106.856607,"time":3,"station_name":"Cawang","distance":1546,"transit":false,"line":0,"i_lat":-6.242512,"is_transit":false},{"is_transit":false,"time":2,"transit":false,"i_long":106.857948,"station_id":"TEB","station_name":"Tebet","line":2,"distance":1230,"i_lat":-6.226659},{"line":0,"time":4,"station_name":"Manggarai","distance":2610,"i_lat":-6.209883,"i_long":106.84912,"station_id":"MRI","transit":true,"is_transit":true},{"distance":1275,"transit":false,"is_transit":false,"time":2,"i_long":106.858896,"line":1,"station_name":"Matraman","station_id":"MTR","i_lat":-6.212485},{"is_transit":true,"station_id":"JNG","i_long":106.86807400000001,"line":0,"station_name":"Jatinegara","transit":true,"distance":1377,"time":8,"i_lat":-6.215091},{"distance":1236,"transit":false,"station_id":"POK","station_name":"Pondok Jati","is_transit":false,"time":2,"i_long":106.861737,"line":11,"i_lat":-6.209188},{"transit":false,"station_id":"KMT","is_transit":false,"time":2,"station_name":"Kramat","i_long":106.855437,"line":11,"distance":1829,"i_lat":-6.193792},{"is_transit":false,"transit":false,"distance":973,"station_name":"Gang Sentiong","time":1,"i_lat":-6.185975,"line":11,"i_long":106.850107,"station_id":"GST"},{"distance":1567,"line":11,"i_long":106.84368,"transit":false,"station_id":"PSE","time":8,"station_name":"Pasar Senen","is_transit":false,"i_lat":-6.174784},{"transit":false,"distance":1436,"station_name":"Kemayoran","i_long":106.839204,"station_id":"KMO","line":11,"is_transit":false,"i_lat":-6.161728,"time":4},{"transit":false,"i_long":106.836569,"time":5,"i_lat":-6.14505,"distance":1901,"is_transit":false,"station_id":"RJW","line":11,"station_name":"Rajawali"},{"is_transit":true,"time":3,"distance":1444,"i_lat":-6.132549,"line":0,"station_name":"Kampung Bandan","station_id":"KPB","transit":true,"i_long":106.826365},{"time":3,"transit":true,"station_id":"JAKK","station_name":"Jakarta Kota","line":0,"is_transit":true,"distance":1364,"i_lat":-6.137569,"i_long":106.812439},{"i_long":106.820901,"i_lat":-6.141205,"distance":1264,"station_id":"JAY","time":4,"station_name":"Jayakarta","transit":false,"line":7,"is_transit":false},{"station_name":"Manggabesar","i_lat":-6.149769,"line":2,"distance":1080,"time":2,"transit":false,"is_transit":false,"station_id":"MGB","i_long":106.82482},{"station_name":"Sawah Besar","transit":false,"is_transit":false,"line":2,"i_lat":-6.160725,"station_id":"SW","distance":906,"time":2,"i_long":106.827103}]]}