{"data":[[{"i_long":106.831114,"station_id":"POC","is_transit":false,"time":0,"station_name":"Pondok Cina","distance":0,"i_lat":-6.369073,"line":2,"transit":false},{"i_long":106.831474,"station_name":"Univ. Indonesia","i_lat":-6.360749,"time":2,"line":2,"transit":false,"distance":1109,"station_id":"UI","is_transit":false},{"station_id":"UP","i_lat":-6.339291,"i_long":106.834175,"time":3,"distance":2264,"station_name":"Univ. Pancasila","line":2,"is_transit":false,"transit":false},{"time":2,"transit":false,"distance":1029,"is_transit":false,"station_name":"Lenteng Agung","i_long":106.832616,"i_lat":-6.330363,"station_id":"LNA","line":2},{"station_name":"Tanjung Barat","is_transit":false,"transit":false,"i_lat":-6.3080680000000005,"distance":2671,"i_long":106.838896,"line":2,"time":3,"station_id":"TNT"},{"time":4,"i_lat":-6.2842400000000005,"station_id":"PSM","line":2,"is_transit":false,"distance":2820,"station_name":"Pasar Minggu","transit":false,"i_long":106.843999},{"line":2,"distance":2380,"is_transit":false,"station_id":"PSMB","time":2,"i_lat":-6.263214,"station_name":"Pasar Minggu Baru","i_long":106.851577,"transit":false},{"line":2,"transit":false,"station_id":"DRN","distance":824,"is_transit":false,"i_lat":-6.255332,"time":2,"station_name":"Duren Kalibata","i_long":106.85449},{"station_id":"CW","line":2,"distance":1546,"is_transit":false,"time":3,"transit":false,"i_long":106.856607,"station_name":"Cawang","i_lat":-6.242512},{"is_transit":false,"transit":false,"station_id":"TEB","time":2,"distance":1230,"station_name":"Tebet","i_lat":-6.226659,"i_long":106.857948,"line":2},{"i_lat":-6.209883,"distance":2610,"station_id":"MRI","transit":false,"line":2,"i_long":106.84912,"is_transit":false,"station_name":"Manggarai","time":4},{"is_transit":false,"time":4,"i_lat":-6.198556,"station_id":"CKI","distance":1590,"transit":false,"station_name":"Cikini","i_long":106.840169,"line":2},{"distance":1750,"is_transit":false,"time":3,"station_name":"Gondangdia","i_lat":-6.186295,"i_long":106.832183,"transit":false,"line":2,"station_id":"GDD"},{"is_transit":false,"distance":2015,"transit":false,"station_id":"JUA","station_name":"Juanda","i_lat":-6.166716,"line":2,"i_long":106.828284,"time":4},{"is_transit":false,"transit":false,"time":2,"i_lat":-6.160725,"station_name":"Sawah Besar","line":2,"distance":1149,"i_long":106.827103,"station_id":"SW"}],[{"is_transit":false,"transit":false,"i_long":106.831114,"station_id":"POC","i_lat":-6.369073,"station_name":"Pondok Cina","time":0,"line":2,"distance":0},{"station_id":"UI","is_transit":false,"distance":1109,"transit":false,"i_lat":-6.360749,"line":2,"i_long":106.831474,"time":2,"station_name":"Univ. Indonesia"},{"line":2,"distance":2264,"transit":false,"station_id":"UP","time":3,"station_name":"Univ. Pancasila","i_lat":-6.339291,"is_transit":false,"i_long":106.834175},{"station_name":"Lenteng Agung","transit":false,"is_transit":false,"distance":1029,"station_id":"LNA","i_long":106.832616,"line":2,"time":2,"i_lat":-6.330363},{"transit":false,"line":2,"time":3,"distance":2671,"station_id":"TNT","i_long":106.838896,"is_transit":false,"station_name":"Tanjung Barat","i_lat":-6.3080680000000005},{"station_id":"PSM","i_long":106.843999,"time":4,"transit":false,"is_transit":false,"station_name":"Pasar Minggu","i_lat":-6.2842400000000005,"distance":2820,"line":2},{"time":2,"distance":2380,"i_lat":-6.263214,"line":2,"i_long":106.851577,"station_name":"Pasar Minggu Baru","transit":false,"is_transit":false,"station_id":"PSMB"},{"is_transit":false,"station_id":"DRN","distance":824,"transit":false,"i_lat":-6.255332,"i_long":106.85449,"line":2,"time":2,"station_name":"Duren Kalibata"},{"station_id":"CW","distance":1546,"is_transit":false,"transit":false,"i_lat":-6.242512,"station_name":"Cawang","time":3,"i_long":106.856607,"line":2},{"station_name":"Tebet","transit":false,"time":2,"i_lat":-6.226659,"line":2,"i_long":106.857948,"is_transit":false,"station_id":"TEB","distance":1230},{"station_name":"Manggarai","is_transit":true,"i_lat":-6.209883,"line":2,"distance":2610,"station_id":"MRI","time":4,"transit":true,"i_long":106.84912},{"time":4,"distance":3186,"is_transit":false,"i_long":106.822649,"line":1,"i_lat":-6.202263,"station_name":"Sudirman","transit":false,"station_id":"SUD"},{"time":1,"is_transit":false,"i_lat":-6.201433,"station_id":"SUDB","distance":280,"transit":false,"line":1,"station_name":"Sudirman Baru","i_long":106.819881},{"station_name":"Karet","is_transit":false,"station_id":"KAT","distance":471,"transit":false,"i_long":106.816351,"i_lat":-6.20132,"line":1,"time":1},{"line":1,"transit":false,"is_transit":false,"i_lat":-6.185545,"i_long":106.811091,"station_name":"Tanah Abang","time":5,"station_id":"THB","distance":2029},{"i_long":106.800832,"station_name":"Duri","distance":3632,"i_lat":-6.155215,"station_id":"DU","is_transit":false,"time":8,"transit":false,"line":1},{"station_id":"AK","is_transit":false,"line":1,"distance":1230,"i_lat":-6.144674,"station_name":"Angke","i_long":106.79867,"time":4,"transit":false},{"i_long":106.826365,"station_id":"KPB","station_name":"Kampung Bandan","time":9,"transit":true,"i_lat":-6.132549,"is_transit":true,"line":4,"distance":4102},{"line":2,"time":3,"station_id":"JAKK","i_long":106.812439,"is_transit":true,"transit":true,"station_name":"Jakarta Kota","distance":1364,"i_lat":-6.137569},{"time":4,"line":2,"station_id":"JAY","is_transit":false,"i_long":106.820901,"station_name":"Jayakarta","distance":1264,"transit":false,"i_lat":-6.141205},{"i_lat":-6.149769,"distance":1080,"i_long":106.82482,"time":2,"is_transit":false,"station_name":"Manggabesar","transit":false,"station_id":"MGB","line":2},{"distance":906,"transit":false,"time":2,"station_name":"Sawah Besar","i_long":106.827103,"line":2,"is_transit":false,"i_lat":-6.160725,"station_id":"SW"}],[{"i_lat":-6.369073,"station_name":"Pondok Cina","line":2,"station_id":"POC","distance":0,"time":0,"transit":false,"is_transit":false,"i_long":106.831114},{"line":2,"station_id":"UI","distance":1109,"i_long":106.831474,"is_transit":false,"i_lat":-6.360749,"station_name":"Univ. Indonesia","time":2,"transit":false},{"line":2,"station_id":"UP","transit":false,"is_transit":false,"time":3,"distance":2264,"i_lat":-6.339291,"i_long":106.834175,"station_name":"Univ. Pancasila"},{"transit":false,"i_lat":-6.330363,"distance":1029,"time":2,"i_long":106.832616,"line":2,"station_id":"LNA","station_name":"Lenteng Agung","is_transit":false},{"is_transit":false,"i_long":106.838896,"line":2,"station_name":"Tanjung Barat","transit":false,"i_lat":-6.3080680000000005,"distance":2671,"time":3,"station_id":"TNT"},{"distance":2820,"i_lat":-6.2842400000000005,"line":2,"station_name":"Pasar Minggu","transit":false,"station_id":"PSM","i_long":106.843999,"time":4,"is_transit":false},{"transit":false,"line":2,"distance":2380,"station_id":"PSMB","station_name":"Pasar Minggu Baru","time":2,"i_lat":-6.263214,"is_transit":false,"i_long":106.851577},{"is_transit":false,"i_long":106.85449,"station_id":"DRN","i_lat":-6.255332,"distance":824,"station_name":"Duren Kalibata","line":2,"time":2,"transit":false},{"station_name":"Cawang","i_lat":-6.242512,"time":3,"i_long":106.856607,"station_id":"CW","is_transit":false,"transit":false,"line":2,"distance":1546},{"distance":1230,"transit":false,"station_id":"TEB","station_name":"Tebet","i_lat":-6.226659,"line":2,"is_transit":false,"time":2,"i_long":106.857948},{"station_name":"Manggarai","line":2,"i_long":106.84912,"is_transit":true,"time":4,"station_id":"MRI","distance":2610,"i_lat":-6.209883,"transit":true},{"i_long":106.858896,"distance":1275,"station_id":"MTR","line":1,"time":2,"is_transit":false,"transit":false,"i_lat":-6.212485,"station_name":"Matraman"},{"line":1,"is_transit":true,"i_lat":-6.215091,"station_name":"Jatinegara","time":8,"distance":1377,"transit":true,"station_id":"JNG","i_long":106.86807400000001},{"i_lat":-6.209188,"time":2,"is_transit":false,"station_id":"POK","distance":1236,"station_name":"Pondok Jati","i_long":106.861737,"transit":false,"line":11},{"station_name":"Kramat","transit":false,"line":11,"i_lat":-6.193792,"station_id":"KMT","distance":1829,"is_transit":false,"i_long":106.855437,"time":2},{"time":1,"station_id":"GST","line":11,"transit":false,"i_long":106.850107,"distance":973,"station_name":"Gang Sentiong","is_transit":false,"i_lat":-6.185975},{"is_transit":false,"i_long":106.84368,"station_id":"PSE","i_lat":-6.174784,"transit":false,"time":8,"station_name":"Pasar Senen","distance":1567,"line":11},{"is_transit":false,"time":4,"i_long":106.839204,"distance":1436,"transit":false,"station_name":"Kemayoran","line":11,"i_lat":-6.161728,"station_id":"KMO"},{"line":11,"i_long":106.836569,"transit":false,"distance":1901,"station_id":"RJW","station_name":"Rajawali","time":5,"i_lat":-6.14505,"is_transit":false},{"time":3,"is_transit":true,"transit":true,"line":4,"distance":1444,"i_lat":-6.132549,"station_id":"KPB","station_name":"Kampung Bandan","i_long":106.826365},{"i_long":106.812439,"transit":true,"distance":1364,"is_transit":true,"time":3,"station_id":"JAKK","i_lat":-6.137569,"line":2,"station_name":"Jakarta Kota"},{"transit":false,"is_transit":false,"station_id":"JAY","i_lat":-6.141205,"distance":1264,"line":2,"station_name":"Jayakarta","i_long":106.820901,"time":4},{"is_transit":false,"transit":false,"station_name":"Manggabesar","i_long":106.82482,"i_lat":-6.149769,"line":2,"time":2,"distance":1080,"station_id":"MGB"},{"time":2,"transit":false,"i_lat":-6.160725,"station_id":"SW","distance":906,"is_transit":false,"station_name":"Sawah Besar","i_long":106.827103,"line":2}]]}