{"data":[[{"i_lat":-6.369073,"i_long":106.831114,"line":2,"is_transit":false,"transit":false,"distance":0,"time":0,"station_id":"POC","station_name":"Pondok Cina"},{"line":2,"station_name":"Univ. Indonesia","i_lat":-6.360749,"distance":1109,"station_id":"UI","transit":false,"is_transit":false,"time":2,"i_long":106.831474},{"i_long":106.834175,"line":2,"distance":2264,"station_name":"Univ. Pancasila","time":3,"is_transit":false,"transit":false,"station_id":"UP","i_lat":-6.339291},{"station_name":"Lenteng Agung","i_lat":-6.330363,"transit":false,"distance":1029,"line":2,"station_id":"LNA","time":2,"is_transit":false,"i_long":106.832616},{"distance":2671,"time":3,"transit":false,"station_id":"TNT","i_lat":-6.3080680000000005,"is_transit":false,"line":2,"i_long":106.838896,"station_name":"Tanjung Barat"},{"station_name":"Pasar Minggu","time":4,"station_id":"PSM","line":2,"i_lat":-6.2842400000000005,"distance":2820,"is_transit":false,"transit":false,"i_long":106.843999},{"is_transit":false,"transit":false,"i_long":106.851577,"distance":2380,"line":2,"i_lat":-6.263214,"time":2,"station_name":"Pasar Minggu Baru","station_id":"PSMB"},{"station_id":"DRN","time":2,"distance":824,"i_lat":-6.255332,"line":2,"i_long":106.85449,"is_transit":false,"station_name":"Duren Kalibata","transit":false},{"i_long":106.856607,"is_transit":false,"line":2,"station_name":"Cawang","distance":1546,"i_lat":-6.242512,"station_id":"CW","transit":false,"time":3},{"transit":false,"is_transit":false,"distance":1230,"i_lat":-6.226659,"time":2,"line":2,"i_long":106.857948,"station_name":"Tebet","station_id":"TEB"},{"station_id":"MRI","line":2,"station_name":"Manggarai","distance":2610,"i_lat":-6.209883,"transit":false,"is_transit":false,"i_long":106.84912,"time":4},{"distance":1590,"i_long":106.840169,"is_transit":false,"station_id":"CKI","i_lat":-6.198556,"station_name":"Cikini","transit":false,"time":4,"line":2},{"transit":false,"i_long":106.832183,"time":3,"is_transit":false,"station_id":"GDD","line":2,"distance":1750,"station_name":"Gondangdia","i_lat":-6.186295},{"i_lat":-6.166716,"time":4,"station_name":"Juanda","transit":false,"line":2,"station_id":"JUA","is_transit":false,"distance":2015,"i_long":106.828284},{"transit":false,"i_long":106.827103,"distance":1149,"line":2,"i_lat":-6.160725,"time":2,"is_transit":false,"station_name":"Sawah Besar","station_id":"SW"}],[{"station_id":"POC","i_lat":-6.369073,"i_long":106.831114,"transit":false,"line":2,"is_transit":false,"station_name":"Pondok Cina","time":0,"distance":0},{"line":2,"i_long":106.831474,"station_name":"Univ. Indonesia","time":2,"station_id":"UI","is_transit":false,"distance":1109,"transit":false,"i_lat":-6.360749},{"i_long":106.834175,"station_id":"UP","transit":false,"line":2,"distance":2264,"is_transit":false,"time":3,"i_lat":-6.339291,"station_name":"Univ. Pancasila"},{"distance":1029,"transit":false,"station_name":"Lenteng Agung","time":2,"i_lat":-6.330363,"i_long":106.832616,"station_id":"LNA","is_transit":false,"line":2},{"line":2,"station_id":"TNT","i_long":106.838896,"time":3,"transit":false,"station_name":"Tanjung Barat","i_lat":-6.3080680000000005,"is_transit":false,"distance":2671},{"is_transit":false,"line":2,"station_id":"PSM","distance":2820,"transit":false,"i_lat":-6.2842400000000005,"station_name":"Pasar Minggu","i_long":106.843999,"time":4},{"i_lat":-6.263214,"i_long":106.851577,"transit":false,"line":2,"station_id":"PSMB","is_transit":false,"station_name":"Pasar Minggu Baru","time":2,"distance":2380},{"is_transit":false,"i_lat":-6.255332,"distance":824,"transit":false,"station_name":"Duren Kalibata","line":2,"time":2,"station_id":"DRN","i_long":106.85449},{"is_transit":false,"station_id":"CW","i_lat":-6.242512,"station_name":"Cawang","transit":false,"i_long":106.856607,"distance":1546,"time":3,"line":2},{"i_lat":-6.226659,"station_name":"Tebet","distance":1230,"i_long":106.857948,"line":2,"transit":false,"station_id":"TEB","time":2,"is_transit":false},{"i_lat":-6.209883,"time":4,"station_name":"Manggarai","station_id":"MRI","is_transit":true,"i_long":106.84912,"line":2,"distance":2610,"transit":true},{"station_name":"Sudirman","station_id":"SUD","i_lat":-6.202263,"line":1,"time":4,"transit":false,"distance":3186,"i_long":106.822649,"is_transit":false},{"i_lat":-6.201433,"i_long":106.819881,"station_id":"SUDB","line":1,"is_transit":false,"transit":false,"station_name":"Sudirman Baru","distance":280,"time":1},{"i_long":106.816351,"station_id":"KAT","distance":471,"transit":false,"station_name":"Karet","time":1,"i_lat":-6.20132,"line":1,"is_transit":false},{"station_id":"THB","i_lat":-6.185545,"line":1,"is_transit":false,"i_long":106.811091,"distance":2029,"transit":false,"station_name":"Tanah Abang","time":5},{"i_long":106.800832,"line":1,"time":8,"distance":3632,"station_name":"Duri","transit":false,"station_id":"DU","i_lat":-6.155215,"is_transit":false},{"station_id":"AK","i_lat":-6.144674,"transit":false,"distance":1230,"is_transit":false,"i_long":106.79867,"line":1,"station_name":"Angke","time":4},{"i_lat":-6.132549,"station_name":"Kampung Bandan","time":9,"station_id":"KPB","transit":true,"distance":4102,"line":4,"i_long":106.826365,"is_transit":true},{"station_id":"JAKK","distance":1364,"station_name":"Jakarta Kota","line":2,"i_long":106.812439,"transit":true,"time":3,"i_lat":-6.137569,"is_transit":true},{"i_lat":-6.141205,"station_name":"Jayakarta","transit":false,"time":4,"distance":1264,"i_long":106.820901,"is_transit":false,"line":2,"station_id":"JAY"},{"transit":false,"distance":1080,"i_long":106.82482,"time":2,"is_transit":false,"station_name":"Manggabesar","station_id":"MGB","i_lat":-6.149769,"line":2},{"transit":false,"line":2,"i_lat":-6.160725,"time":2,"i_long":106.827103,"station_id":"SW","station_name":"Sawah Besar","is_transit":false,"distance":906}],[{"transit":false,"distance":0,"station_name":"Pondok Cina","time":0,"is_transit":false,"i_lat":-6.369073,"i_long":106.831114,"line":2,"station_id":"POC"},{"time":2,"transit":false,"i_lat":-6.360749,"line":2,"station_id":"UI","is_transit":false,"distance":1109,"i_long":106.831474,"station_name":"Univ. Indonesia"},{"distance":2264,"is_transit":false,"time":3,"station_id":"UP","station_name":"Univ. Pancasila","i_lat":-6.339291,"i_long":106.834175,"transit":false,"line":2},{"is_transit":false,"station_name":"Lenteng Agung","station_id":"LNA","i_long":106.832616,"line":2,"time":2,"transit":false,"distance":1029,"i_lat":-6.330363},{"time":3,"station_id":"TNT","distance":2671,"station_name":"Tanjung Barat","transit":false,"is_transit":false,"i_lat":-6.3080680000000005,"i_long":106.838896,"line":2},{"transit":false,"time":4,"line":2,"is_transit":false,"distance":2820,"station_id":"PSM","i_lat":-6.2842400000000005,"station_name":"Pasar Minggu","i_long":106.843999},{"station_id":"PSMB","time":2,"i_lat":-6.263214,"i_long":106.851577,"distance":2380,"line":2,"is_transit":false,"station_name":"Pasar Minggu Baru","transit":false},{"distance":824,"line":2,"station_name":"Duren Kalibata","transit":false,"station_id":"DRN","is_transit":false,"i_lat":-6.255332,"i_long":106.85449,"time":2},{"i_long":106.856607,"line":2,"is_transit":false,"time":3,"station_id":"CW","station_name":"Cawang","i_lat":-6.242512,"distance":1546,"transit":false},{"station_name":"Tebet","time":2,"distance":1230,"i_long":106.857948,"transit":false,"line":2,"i_lat":-6.226659,"station_id":"TEB","is_transit":false},{"distance":2610,"station_name":"Manggarai","transit":true,"i_lat":-6.209883,"i_long":106.84912,"line":2,"station_id":"MRI","is_transit":true,"time":4},{"i_long":106.858896,"is_transit":false,"line":1,"time":2,"station_name":"Matraman","i_lat":-6.212485,"station_id":"MTR","distance":1275,"transit":false},{"i_lat":-6.215091,"line":1,"i_long":106.86807400000001,"transit":true,"station_name":"Jatinegara","station_id":"JNG","time":8,"distance":1377,"is_transit":true},{"line":11,"i_lat":-6.209188,"time":2,"is_transit":false,"station_name":"Pondok Jati","distance":1236,"i_long":106.861737,"transit":false,"station_id":"POK"},{"is_transit":false,"distance":1829,"transit":false,"i_long":106.855437,"i_lat":-6.193792,"station_id":"KMT","station_name":"Kramat","line":11,"time":2},{"transit":false,"station_id":"GST","time":1,"distance":973,"i_lat":-6.185975,"i_long":106.850107,"line":11,"is_transit":false,"station_name":"Gang Sentiong"},{"station_name":"Pasar Senen","is_transit":false,"distance":1567,"transit":false,"station_id":"PSE","time":8,"i_lat":-6.174784,"i_long":106.84368,"line":11},{"line":11,"is_transit":false,"distance":1436,"station_id":"KMO","i_long":106.839204,"time":4,"transit":false,"i_lat":-6.161728,"station_name":"Kemayoran"},{"station_id":"RJW","distance":1901,"time":5,"line":11,"is_transit":false,"station_name":"Rajawali","transit":false,"i_lat":-6.14505,"i_long":106.836569},{"distance":1444,"i_lat":-6.132549,"line":4,"time":3,"station_name":"Kampung Bandan","i_long":106.826365,"station_id":"KPB","transit":true,"is_transit":true},{"time":3,"is_transit":true,"distance":1364,"transit":true,"i_long":106.812439,"line":2,"i_lat":-6.137569,"station_id":"JAKK","station_name":"Jakarta Kota"},{"is_transit":false,"i_lat":-6.141205,"station_id":"JAY","line":2,"distance":1264,"i_long":106.820901,"transit":false,"station_name":"Jayakarta","time":4},{"station_id":"MGB","i_lat":-6.149769,"distance":1080,"transit":false,"station_name":"Manggabesar","is_transit":false,"line":2,"i_long":106.82482,"time":2},{"i_lat":-6.160725,"station_name":"Sawah Besar","time":2,"transit":false,"station_id":"SW","i_long":106.827103,"line":2,"distance":906,"is_transit":false}]]}