{"data":[[{"station_name":"Pondok Cina","time":0,"distance":0,"i_lat":-6.369073,"i_long":106.831114,"transit":false,"station_id":"POC","is_transit":false,"line":2},{"station_id":"UI","i_long":106.831474,"line":2,"distance":1109,"is_transit":false,"transit":false,"station_name":"Univ. Indonesia","time":2,"i_lat":-6.360749},{"transit":false,"distance":2264,"is_transit":false,"i_long":106.834175,"station_id":"UP","time":3,"station_name":"Univ. Pancasila","i_lat":-6.339291,"line":2},{"time":2,"station_id":"LNA","is_transit":false,"line":2,"station_name":"Lenteng Agung","transit":false,"i_lat":-6.330363,"i_long":106.832616,"distance":1029},{"station_id":"TNT","i_long":106.838896,"time":3,"distance":2671,"line":2,"transit":false,"station_name":"Tanjung Barat","i_lat":-6.3080680000000005,"is_transit":false},{"station_id":"PSM","distance":2820,"time":4,"transit":false,"station_name":"Pasar Minggu","is_transit":false,"i_lat":-6.2842400000000005,"i_long":106.843999,"line":2},{"station_id":"PSMB","time":2,"transit":false,"is_transit":false,"station_name":"Pasar Minggu Baru","distance":2380,"i_lat":-6.263214,"i_long":106.851577,"line":2},{"line":0,"is_transit":false,"transit":false,"distance":824,"i_lat":-6.255332,"i_long":106.85449,"station_id":"DRN","time":2,"station_name":"Duren Kalibata"},{"station_name":"Cawang","distance":1546,"transit":false,"is_transit":false,"station_id":"CW","i_lat":-6.242512,"line":0,"i_long":106.856607,"time":3},{"is_transit":false,"i_long":106.857948,"i_lat":-6.226659,"line":2,"time":2,"station_id":"TEB","transit":false,"station_name":"Tebet","distance":1230},{"i_long":106.84912,"distance":2610,"station_id":"MRI","i_lat":-6.209883,"line":0,"time":4,"station_name":"Manggarai","is_transit":true,"transit":true},{"time":4,"transit":false,"station_id":"SUD","station_name":"Sudirman","distance":3186,"i_long":106.822649,"i_lat":-6.202263,"line":1,"is_transit":false},{"station_id":"SUDB","station_name":"Sudirman Baru","transit":false,"is_transit":false,"time":1,"i_lat":-6.201433,"i_long":106.819881,"distance":280,"line":1},{"distance":471,"is_transit":false,"i_lat":-6.20132,"i_long":106.816351,"line":1,"transit":false,"station_id":"KAT","time":1,"station_name":"Karet"},{"time":5,"station_name":"Tanah Abang","is_transit":true,"station_id":"THB","distance":2029,"i_lat":-6.185545,"i_long":106.811091,"transit":false,"line":1},{"i_long":106.800832,"i_lat":-6.155215,"line":1,"time":8,"is_transit":true,"transit":true,"station_name":"Duri","station_id":"DU","distance":3632},{"i_long":106.788277,"station_id":"GGL","station_name":"Grogol","is_transit":false,"transit":false,"time":3,"i_lat":-6.162021,"line":5,"distance":1700},{"is_transit":false,"station_id":"PSG","distance":2036,"time":2,"i_long":106.771379,"line":5,"station_name":"Pesing","i_lat":-6.161433,"transit":false},{"time":2,"is_transit":false,"distance":1614,"i_lat":-6.1587309999999995,"station_id":"TKO","i_long":106.756522,"transit":false,"line":5,"station_name":"Taman Kota"},{"distance":2334,"time":2,"i_lat":-6.159876,"transit":false,"is_transit":false,"station_id":"BOI","line":0,"i_long":106.737035,"station_name":"Bojongindah"},{"is_transit":false,"line":5,"i_long":106.723064,"i_lat":-6.162758,"station_id":"RW","station_name":"Rawa Buaya","transit":false,"distance":1152,"time":4},{"is_transit":false,"station_name":"Kalideres","i_long":106.701612,"line":5,"i_lat":-6.166068,"time":3,"station_id":"KDS","transit":false,"distance":2504}],[{"transit":false,"distance":0,"station_name":"Pondok Cina","station_id":"POC","i_lat":-6.369073,"line":2,"time":0,"is_transit":false,"i_long":106.831114},{"i_long":106.831474,"station_name":"Univ. Indonesia","transit":false,"time":2,"i_lat":-6.360749,"distance":1109,"station_id":"UI","is_transit":false,"line":2},{"station_name":"Univ. Pancasila","is_transit":false,"station_id":"UP","time":3,"i_lat":-6.339291,"i_long":106.834175,"line":2,"distance":2264,"transit":false},{"line":2,"transit":false,"is_transit":false,"station_name":"Lenteng Agung","i_lat":-6.330363,"i_long":106.832616,"distance":1029,"time":2,"station_id":"LNA"},{"is_transit":false,"station_name":"Tanjung Barat","transit":false,"station_id":"TNT","time":3,"distance":2671,"i_lat":-6.3080680000000005,"line":2,"i_long":106.838896},{"station_name":"Pasar Minggu","transit":false,"is_transit":false,"station_id":"PSM","distance":2820,"line":2,"time":4,"i_long":106.843999,"i_lat":-6.2842400000000005},{"i_lat":-6.263214,"transit":false,"station_id":"PSMB","i_long":106.851577,"is_transit":false,"station_name":"Pasar Minggu Baru","time":2,"line":2,"distance":2380},{"distance":824,"line":0,"i_long":106.85449,"is_transit":false,"time":2,"transit":false,"station_name":"Duren Kalibata","i_lat":-6.255332,"station_id":"DRN"},{"station_id":"CW","distance":1546,"time":3,"station_name":"Cawang","line":0,"transit":false,"i_lat":-6.242512,"i_long":106.856607,"is_transit":false},{"i_long":106.857948,"time":2,"is_transit":false,"distance":1230,"station_name":"Tebet","line":2,"station_id":"TEB","transit":false,"i_lat":-6.226659},{"station_name":"Manggarai","distance":2610,"i_lat":-6.209883,"transit":true,"time":4,"line":0,"is_transit":true,"i_long":106.84912,"station_id":"MRI"},{"station_name":"Cikini","distance":1590,"transit":false,"i_long":106.840169,"line":0,"station_id":"CKI","time":4,"i_lat":-6.198556,"is_transit":false},{"i_lat":-6.186295,"station_id":"GDD","transit":false,"time":3,"distance":1750,"i_long":106.832183,"station_name":"Gondangdia","is_transit":false,"line":2},{"line":2,"time":4,"station_name":"Juanda","distance":2015,"station_id":"JUA","i_long":106.828284,"transit":false,"is_transit":false,"i_lat":-6.166716},{"distance":1149,"station_id":"SW","line":2,"i_lat":-6.160725,"i_long":106.827103,"time":2,"station_name":"Sawah Besar","transit":false,"is_transit":false},{"transit":false,"distance":906,"i_lat":-6.149769,"line":2,"station_id":"MGB","time":2,"is_transit":false,"i_long":106.82482,"station_name":"Manggabesar"},{"is_transit":false,"distance":1080,"station_id":"JAY","transit":false,"i_long":106.820901,"station_name":"Jayakarta","i_lat":-6.141205,"line":7,"time":2},{"i_long":106.812439,"station_id":"JAKK","i_lat":-6.137569,"distance":1264,"line":0,"transit":true,"station_name":"Jakarta Kota","is_transit":true,"time":4},{"transit":false,"i_lat":-6.132549,"is_transit":true,"time":3,"station_name":"Kampung Bandan","station_id":"KPB","distance":1364,"i_long":106.826365,"line":0},{"distance":4102,"station_name":"Angke","transit":false,"i_long":106.79867,"is_transit":false,"line":0,"station_id":"AK","time":9,"i_lat":-6.144674},{"station_id":"DU","distance":1230,"station_name":"Duri","transit":true,"i_lat":-6.155215,"i_long":106.800832,"time":4,"line":1,"is_transit":true},{"is_transit":false,"distance":1700,"time":3,"station_id":"GGL","i_lat":-6.162021,"transit":false,"i_long":106.788277,"line":5,"station_name":"Grogol"},{"distance":2036,"transit":false,"i_long":106.771379,"station_id":"PSG","i_lat":-6.161433,"station_name":"Pesing","is_transit":false,"line":5,"time":2},{"station_name":"Taman Kota","is_transit":false,"time":2,"i_long":106.756522,"transit":false,"line":5,"distance":1614,"station_id":"TKO","i_lat":-6.1587309999999995},{"distance":2334,"time":2,"i_lat":-6.159876,"i_long":106.737035,"line":0,"station_id":"BOI","station_name":"Bojongindah","transit":false,"is_transit":false},{"distance":1152,"time":4,"i_lat":-6.162758,"station_name":"Rawa Buaya","is_transit":false,"i_long":106.723064,"line":5,"transit":false,"station_id":"RW"},{"station_id":"KDS","time":3,"i_long":106.701612,"station_name":"Kalideres","line":5,"distance":2504,"transit":false,"is_transit":false,"i_lat":-6.166068}],[{"station_id":"POC","time":0,"i_long":106.831114,"station_name":"Pondok Cina","line":2,"is_transit":false,"distance":0,"i_lat":-6.369073,"transit":false},{"time":2,"is_transit":false,"line":2,"i_lat":-6.360749,"station_name":"Univ. Indonesia","transit":false,"station_id":"UI","distance":1109,"i_long":106.831474},{"line":2,"station_name":"Univ. Pancasila","is_transit":false,"i_long":106.834175,"transit":false,"time":3,"station_id":"UP","distance":2264,"i_lat":-6.339291},{"line":2,"transit":false,"station_name":"Lenteng Agung","i_lat":-6.330363,"is_transit":false,"time":2,"station_id":"LNA","distance":1029,"i_long":106.832616},{"transit":false,"is_transit":false,"line":2,"distance":2671,"time":3,"station_name":"Tanjung Barat","i_lat":-6.3080680000000005,"station_id":"TNT","i_long":106.838896},{"station_id":"PSM","station_name":"Pasar Minggu","i_lat":-6.2842400000000005,"i_long":106.843999,"is_transit":false,"transit":false,"line":2,"distance":2820,"time":4},{"is_transit":false,"i_long":106.851577,"station_id":"PSMB","time":2,"transit":false,"distance":2380,"i_lat":-6.263214,"line":2,"station_name":"Pasar Minggu Baru"},{"i_lat":-6.255332,"station_name":"Duren Kalibata","transit":false,"time":2,"is_transit":false,"distance":824,"station_id":"DRN","i_long":106.85449,"line":0},{"distance":1546,"i_long":106.856607,"station_id":"CW","i_lat":-6.242512,"transit":false,"station_name":"Cawang","time":3,"line":0,"is_transit":false},{"line":2,"time":2,"transit":false,"i_long":106.857948,"station_id":"TEB","is_transit":false,"i_lat":-6.226659,"distance":1230,"station_name":"Tebet"},{"time":4,"distance":2610,"i_lat":-6.209883,"station_name":"Manggarai","transit":true,"station_id":"MRI","i_long":106.84912,"line":0,"is_transit":true},{"is_transit":false,"i_long":106.858896,"station_id":"MTR","line":1,"station_name":"Matraman","time":2,"transit":false,"distance":1275,"i_lat":-6.212485},{"station_name":"Jatinegara","transit":true,"distance":1377,"i_long":106.86807400000001,"time":8,"station_id":"JNG","i_lat":-6.215091,"line":0,"is_transit":true},{"transit":false,"distance":1236,"station_id":"POK","station_name":"Pondok Jati","time":2,"i_long":106.861737,"line":11,"i_lat":-6.209188,"is_transit":false},{"is_transit":false,"station_name":"Kramat","time":2,"i_long":106.855437,"line":11,"station_id":"KMT","i_lat":-6.193792,"distance":1829,"transit":false},{"distance":973,"i_lat":-6.185975,"i_long":106.850107,"line":11,"is_transit":false,"transit":false,"station_id":"GST","station_name":"Gang Sentiong","time":1},{"transit":false,"station_name":"Pasar Senen","is_transit":false,"i_lat":-6.174784,"station_id":"PSE","distance":1567,"time":8,"i_long":106.84368,"line":11},{"time":4,"i_lat":-6.161728,"is_transit":false,"line":11,"transit":false,"i_long":106.839204,"station_id":"KMO","station_name":"Kemayoran","distance":1436},{"transit":false,"station_name":"Rajawali","i_lat":-6.14505,"is_transit":false,"time":5,"distance":1901,"i_long":106.836569,"line":11,"station_id":"RJW"},{"is_transit":true,"line":0,"i_long":106.826365,"station_name":"Kampung Bandan","distance":1444,"i_lat":-6.132549,"time":3,"station_id":"KPB","transit":true},{"transit":false,"is_transit":false,"distance":4102,"time":9,"i_long":106.79867,"i_lat":-6.144674,"line":0,"station_name":"Angke","station_id":"AK"},{"distance":1230,"station_id":"DU","line":1,"is_transit":true,"time":4,"transit":true,"i_lat":-6.155215,"station_name":"Duri","i_long":106.800832},{"i_lat":-6.162021,"line":5,"distance":1700,"i_long":106.788277,"time":3,"station_name":"Grogol","is_transit":false,"station_id":"GGL","transit":false},{"i_long":106.771379,"transit":false,"station_id":"PSG","station_name":"Pesing","is_transit":false,"distance":2036,"i_lat":-6.161433,"line":5,"time":2},{"station_id":"TKO","station_name":"Taman Kota","is_transit":false,"distance":1614,"time":2,"i_long":106.756522,"line":5,"transit":false,"i_lat":-6.1587309999999995},{"i_lat":-6.159876,"is_transit":false,"time":2,"transit":false,"distance":2334,"line":0,"station_name":"Bojongindah","i_long":106.737035,"station_id":"BOI"},{"time":4,"i_long":106.723064,"station_id":"RW","i_lat":-6.162758,"station_name":"Rawa Buaya","is_transit":false,"transit":false,"distance":1152,"line":5},{"station_name":"Kalideres","station_id":"KDS","transit":false,"is_transit":false,"time":3,"i_long":106.701612,"i_lat":-6.166068,"line":5,"distance":2504}]]}