{"data":[[{"i_lat":-6.369073,"line":2,"transit":false,"i_long":106.831114,"time":0,"distance":0,"station_name":"Pondok Cina","is_transit":false,"station_id":"POC"},{"station_id":"UI","time":2,"station_name":"Univ. Indonesia","is_transit":false,"i_lat":-6.360749,"transit":false,"line":2,"distance":1109,"i_long":106.831474},{"station_id":"UP","line":2,"time":3,"is_transit":false,"i_lat":-6.339291,"transit":false,"station_name":"Univ. Pancasila","i_long":106.834175,"distance":2264},{"time":2,"i_lat":-6.330363,"distance":1029,"line":2,"transit":false,"is_transit":false,"station_id":"LNA","station_name":"Lenteng Agung","i_long":106.832616},{"i_lat":-6.3080680000000005,"time":3,"distance":2671,"station_id":"TNT","is_transit":false,"transit":false,"station_name":"Tanjung Barat","i_long":106.838896,"line":2},{"station_id":"PSM","transit":false,"distance":2820,"i_long":106.843999,"line":2,"station_name":"Pasar Minggu","is_transit":false,"time":4,"i_lat":-6.2842400000000005},{"distance":2380,"station_name":"Pasar Minggu Baru","line":2,"transit":false,"i_long":106.851577,"i_lat":-6.263214,"time":2,"is_transit":false,"station_id":"PSMB"},{"station_name":"Duren Kalibata","distance":824,"transit":false,"time":2,"station_id":"DRN","i_long":106.85449,"i_lat":-6.255332,"is_transit":false,"line":0},{"distance":1546,"is_transit":false,"i_lat":-6.242512,"station_name":"Cawang","station_id":"CW","i_long":106.856607,"line":0,"transit":false,"time":3},{"station_name":"Tebet","distance":1230,"i_long":106.857948,"time":2,"line":2,"station_id":"TEB","i_lat":-6.226659,"transit":false,"is_transit":false},{"transit":true,"station_name":"Manggarai","i_long":106.84912,"time":4,"distance":2610,"is_transit":true,"i_lat":-6.209883,"line":0,"station_id":"MRI"},{"line":1,"distance":1275,"transit":false,"station_name":"Matraman","station_id":"MTR","is_transit":false,"i_lat":-6.212485,"time":2,"i_long":106.858896},{"transit":false,"line":0,"i_lat":-6.215091,"time":8,"station_id":"JNG","is_transit":true,"station_name":"Jatinegara","i_long":106.86807400000001,"distance":1377},{"station_name":"Klender","distance":3395,"i_long":106.899548,"station_id":"KLD","time":3,"i_lat":-6.2135,"line":1,"transit":false,"is_transit":false},{"time":2,"transit":false,"distance":3100,"station_id":"BUA","is_transit":false,"i_long":106.922662,"i_lat":-6.215568,"line":0,"station_name":"Buaran"},{"station_id":"KLDB","distance":1305,"transit":false,"station_name":"Klenderbaru","i_lat":-6.217455,"is_transit":false,"line":1,"i_long":106.939679,"time":1},{"is_transit":false,"i_lat":-6.219053,"station_id":"CUK","station_name":"Cakung","time":8,"i_long":106.951283,"line":0,"distance":1385,"transit":false},{"i_lat":-6.224515,"transit":false,"time":3,"station_id":"KRI","is_transit":false,"distance":3097,"i_long":106.977657,"station_name":"Kranji","line":1},{"station_id":"BKS","is_transit":false,"distance":2520,"line":0,"i_long":106.997013,"i_lat":-6.236616,"station_name":"Bekasi","time":4,"transit":false}],[{"line":2,"i_long":106.831114,"station_name":"Pondok Cina","transit":false,"station_id":"POC","is_transit":false,"time":0,"distance":0,"i_lat":-6.369073},{"distance":1109,"line":2,"time":2,"station_id":"UI","i_lat":-6.360749,"i_long":106.831474,"is_transit":false,"station_name":"Univ. Indonesia","transit":false},{"station_name":"Univ. Pancasila","line":2,"time":3,"transit":false,"station_id":"UP","distance":2264,"i_long":106.834175,"is_transit":false,"i_lat":-6.339291},{"i_long":106.832616,"station_id":"LNA","station_name":"Lenteng Agung","time":2,"line":2,"i_lat":-6.330363,"transit":false,"is_transit":false,"distance":1029},{"station_id":"TNT","is_transit":false,"station_name":"Tanjung Barat","line":2,"i_lat":-6.3080680000000005,"transit":false,"distance":2671,"i_long":106.838896,"time":3},{"is_transit":false,"i_long":106.843999,"line":2,"station_id":"PSM","transit":false,"distance":2820,"time":4,"i_lat":-6.2842400000000005,"station_name":"Pasar Minggu"},{"i_long":106.851577,"transit":false,"station_name":"Pasar Minggu Baru","i_lat":-6.263214,"distance":2380,"station_id":"PSMB","line":2,"is_transit":false,"time":2},{"distance":824,"is_transit":false,"time":2,"station_name":"Duren Kalibata","station_id":"DRN","transit":false,"i_lat":-6.255332,"line":0,"i_long":106.85449},{"line":0,"time":3,"station_name":"Cawang","transit":false,"i_long":106.856607,"i_lat":-6.242512,"station_id":"CW","is_transit":false,"distance":1546},{"station_id":"TEB","is_transit":false,"i_lat":-6.226659,"transit":false,"distance":1230,"station_name":"Tebet","time":2,"line":2,"i_long":106.857948},{"is_transit":true,"station_name":"Manggarai","i_lat":-6.209883,"line":0,"time":4,"station_id":"MRI","distance":2610,"transit":true,"i_long":106.84912},{"transit":false,"line":1,"station_id":"SUD","i_lat":-6.202263,"time":4,"i_long":106.822649,"station_name":"Sudirman","distance":3186,"is_transit":false},{"transit":false,"line":1,"i_lat":-6.201433,"time":1,"is_transit":false,"i_long":106.819881,"station_name":"Sudirman Baru","station_id":"SUDB","distance":280},{"station_id":"KAT","time":1,"distance":471,"line":1,"i_lat":-6.20132,"is_transit":false,"station_name":"Karet","transit":false,"i_long":106.816351},{"station_id":"THB","i_long":106.811091,"line":1,"time":5,"distance":2029,"station_name":"Tanah Abang","i_lat":-6.185545,"transit":false,"is_transit":true},{"transit":true,"station_name":"Duri","line":1,"time":8,"distance":3632,"station_id":"DU","is_transit":true,"i_lat":-6.155215,"i_long":106.800832},{"transit":false,"station_name":"Angke","station_id":"AK","i_lat":-6.144674,"is_transit":false,"time":4,"distance":1230,"i_long":106.79867,"line":0},{"station_name":"Kampung Bandan","i_lat":-6.132549,"is_transit":true,"time":9,"i_long":106.826365,"transit":true,"station_id":"KPB","distance":4102,"line":0},{"is_transit":false,"station_id":"RJW","time":3,"i_lat":-6.14505,"distance":1444,"transit":false,"station_name":"Rajawali","i_long":106.836569,"line":11},{"i_long":106.839204,"station_id":"KMO","station_name":"Kemayoran","i_lat":-6.161728,"transit":false,"is_transit":false,"line":11,"time":5,"distance":1901},{"line":11,"station_name":"Pasar Senen","i_long":106.84368,"station_id":"PSE","is_transit":false,"transit":false,"i_lat":-6.174784,"time":4,"distance":1436},{"time":8,"station_name":"Gang Sentiong","distance":1567,"is_transit":false,"i_lat":-6.185975,"i_long":106.850107,"line":11,"transit":false,"station_id":"GST"},{"is_transit":false,"station_id":"KMT","transit":false,"line":11,"i_lat":-6.193792,"station_name":"Kramat","time":1,"i_long":106.855437,"distance":973},{"transit":false,"distance":1829,"time":2,"is_transit":false,"station_name":"Pondok Jati","i_lat":-6.209188,"i_long":106.861737,"line":11,"station_id":"POK"},{"station_name":"Jatinegara","time":9,"is_transit":true,"distance":1236,"line":0,"i_long":106.86807400000001,"transit":true,"station_id":"JNG","i_lat":-6.215091},{"distance":3395,"station_id":"KLD","i_lat":-6.2135,"time":3,"transit":false,"station_name":"Klender","line":1,"is_transit":false,"i_long":106.899548},{"i_lat":-6.215568,"line":0,"time":2,"station_name":"Buaran","station_id":"BUA","is_transit":false,"transit":false,"distance":3100,"i_long":106.922662},{"line":1,"station_id":"KLDB","station_name":"Klenderbaru","i_long":106.939679,"distance":1305,"time":1,"transit":false,"is_transit":false,"i_lat":-6.217455},{"i_lat":-6.219053,"is_transit":false,"transit":false,"i_long":106.951283,"line":0,"time":8,"station_name":"Cakung","distance":1385,"station_id":"CUK"},{"time":3,"station_id":"KRI","transit":false,"is_transit":false,"i_long":106.977657,"distance":3097,"line":1,"i_lat":-6.224515,"station_name":"Kranji"},{"i_long":106.997013,"transit":false,"line":0,"station_id":"BKS","time":4,"is_transit":false,"distance":2520,"station_name":"Bekasi","i_lat":-6.236616}],[{"i_lat":-6.369073,"is_transit":false,"station_name":"Pondok Cina","distance":0,"station_id":"POC","line":2,"time":0,"i_long":106.831114,"transit":false},{"distance":1109,"station_name":"Univ. Indonesia","i_long":106.831474,"line":2,"i_lat":-6.360749,"transit":false,"time":2,"is_transit":false,"station_id":"UI"},{"i_long":106.834175,"transit":false,"is_transit":false,"station_name":"Univ. Pancasila","i_lat":-6.339291,"time":3,"line":2,"distance":2264,"station_id":"UP"},{"distance":1029,"i_long":106.832616,"i_lat":-6.330363,"time":2,"transit":false,"station_name":"Lenteng Agung","station_id":"LNA","line":2,"is_transit":false},{"i_long":106.838896,"line":2,"is_transit":false,"transit":false,"distance":2671,"station_id":"TNT","station_name":"Tanjung Barat","time":3,"i_lat":-6.3080680000000005},{"transit":false,"line":2,"station_id":"PSM","distance":2820,"i_lat":-6.2842400000000005,"time":4,"is_transit":false,"station_name":"Pasar Minggu","i_long":106.843999},{"i_lat":-6.263214,"line":2,"distance":2380,"transit":false,"i_long":106.851577,"station_id":"PSMB","is_transit":false,"time":2,"station_name":"Pasar Minggu Baru"},{"distance":824,"transit":false,"station_name":"Duren Kalibata","i_lat":-6.255332,"line":0,"is_transit":false,"i_long":106.85449,"station_id":"DRN","time":2},{"is_transit":false,"time":3,"line":0,"i_lat":-6.242512,"distance":1546,"station_id":"CW","i_long":106.856607,"transit":false,"station_name":"Cawang"},{"i_lat":-6.226659,"line":2,"station_id":"TEB","time":2,"distance":1230,"i_long":106.857948,"transit":false,"station_name":"Tebet","is_transit":false},{"time":4,"station_name":"Manggarai","transit":true,"distance":2610,"i_lat":-6.209883,"line":0,"station_id":"MRI","i_long":106.84912,"is_transit":true},{"transit":false,"distance":1590,"time":4,"i_lat":-6.198556,"station_id":"CKI","station_name":"Cikini","is_transit":false,"line":0,"i_long":106.840169},{"time":3,"i_lat":-6.186295,"i_long":106.832183,"distance":1750,"transit":false,"station_name":"Gondangdia","is_transit":false,"line":2,"station_id":"GDD"},{"i_lat":-6.166716,"station_name":"Juanda","is_transit":false,"transit":false,"distance":2015,"line":2,"station_id":"JUA","i_long":106.828284,"time":4},{"station_name":"Sawah Besar","i_lat":-6.160725,"i_long":106.827103,"line":2,"transit":false,"station_id":"SW","time":2,"is_transit":false,"distance":1149},{"is_transit":false,"time":2,"i_long":106.82482,"line":2,"distance":906,"transit":false,"station_id":"MGB","station_name":"Manggabesar","i_lat":-6.149769},{"transit":false,"distance":1080,"station_name":"Jayakarta","station_id":"JAY","time":2,"is_transit":false,"i_lat":-6.141205,"i_long":106.820901,"line":7},{"is_transit":true,"time":4,"station_id":"JAKK","distance":1264,"i_long":106.812439,"transit":true,"i_lat":-6.137569,"line":0,"station_name":"Jakarta Kota"},{"is_transit":true,"station_name":"Kampung Bandan","time":3,"distance":1364,"station_id":"KPB","transit":true,"i_long":106.826365,"i_lat":-6.132549,"line":0},{"distance":1444,"station_name":"Rajawali","line":11,"i_lat":-6.14505,"time":3,"is_transit":false,"transit":false,"i_long":106.836569,"station_id":"RJW"},{"station_name":"Kemayoran","line":11,"transit":false,"is_transit":false,"i_lat":-6.161728,"station_id":"KMO","i_long":106.839204,"distance":1901,"time":5},{"transit":false,"station_id":"PSE","distance":1436,"i_lat":-6.174784,"station_name":"Pasar Senen","is_transit":false,"time":4,"i_long":106.84368,"line":11},{"transit":false,"time":8,"station_name":"Gang Sentiong","i_lat":-6.185975,"is_transit":false,"station_id":"GST","distance":1567,"i_long":106.850107,"line":11},{"transit":false,"i_lat":-6.193792,"is_transit":false,"station_name":"Kramat","i_long":106.855437,"time":1,"line":11,"distance":973,"station_id":"KMT"},{"i_lat":-6.209188,"time":2,"is_transit":false,"station_name":"Pondok Jati","line":11,"distance":1829,"i_long":106.861737,"station_id":"POK","transit":false},{"transit":true,"time":9,"i_lat":-6.215091,"distance":1236,"station_id":"JNG","is_transit":true,"station_name":"Jatinegara","i_long":106.86807400000001,"line":0},{"line":1,"time":3,"i_lat":-6.2135,"transit":false,"i_long":106.899548,"is_transit":false,"station_name":"Klender","station_id":"KLD","distance":3395},{"distance":3100,"transit":false,"is_transit":false,"time":2,"line":0,"station_id":"BUA","station_name":"Buaran","i_long":106.922662,"i_lat":-6.215568},{"i_long":106.939679,"transit":false,"is_transit":false,"time":1,"line":1,"station_id":"KLDB","station_name":"Klenderbaru","i_lat":-6.217455,"distance":1305},{"is_transit":false,"transit":false,"station_name":"Cakung","i_lat":-6.219053,"i_long":106.951283,"station_id":"CUK","time":8,"distance":1385,"line":0},{"transit":false,"i_long":106.977657,"line":1,"station_id":"KRI","is_transit":false,"distance":3097,"i_lat":-6.224515,"time":3,"station_name":"Kranji"},{"transit":false,"is_transit":false,"time":4,"i_long":106.997013,"i_lat":-6.236616,"station_name":"Bekasi","distance":2520,"line":0,"station_id":"BKS"}]]}