{"data":[[{"i_long":106.831114,"time":0,"station_name":"Pondok Cina","transit":false,"is_transit":false,"distance":0,"i_lat":-6.369073,"line":2,"station_id":"POC"},{"station_name":"Univ. Indonesia","station_id":"UI","is_transit":false,"time":2,"i_lat":-6.360749,"transit":false,"i_long":106.831474,"line":2,"distance":1109},{"distance":2264,"i_lat":-6.339291,"line":2,"transit":false,"station_id":"UP","time":3,"i_long":106.834175,"station_name":"Univ. Pancasila","is_transit":false},{"transit":false,"station_id":"LNA","is_transit":false,"station_name":"Lenteng Agung","i_lat":-6.330363,"line":2,"i_long":106.832616,"time":2,"distance":1029},{"i_long":106.838896,"is_transit":false,"transit":false,"station_name":"Tanjung Barat","time":3,"station_id":"TNT","distance":2671,"i_lat":-6.3080680000000005,"line":2},{"i_lat":-6.2842400000000005,"distance":2820,"is_transit":false,"station_id":"PSM","station_name":"Pasar Minggu","time":4,"transit":false,"i_long":106.843999,"line":2},{"i_long":106.851577,"station_id":"PSMB","station_name":"Pasar Minggu Baru","time":2,"i_lat":-6.263214,"transit":false,"is_transit":false,"distance":2380,"line":2},{"is_transit":false,"time":2,"distance":824,"i_lat":-6.255332,"station_name":"Duren Kalibata","transit":false,"station_id":"DRN","i_long":106.85449,"line":2},{"i_lat":-6.242512,"transit":false,"station_name":"Cawang","station_id":"CW","is_transit":false,"distance":1546,"i_long":106.856607,"line":2,"time":3},{"distance":1230,"transit":false,"station_name":"Tebet","line":2,"i_lat":-6.226659,"station_id":"TEB","i_long":106.857948,"is_transit":false,"time":2},{"line":2,"i_long":106.84912,"transit":true,"station_name":"Manggarai","station_id":"MRI","time":4,"distance":2610,"i_lat":-6.209883,"is_transit":true},{"station_name":"Matraman","station_id":"MTR","is_transit":false,"distance":1275,"transit":false,"time":2,"i_lat":-6.212485,"line":1,"i_long":106.858896},{"transit":true,"time":8,"station_name":"Jatinegara","line":1,"i_long":106.86807400000001,"i_lat":-6.215091,"distance":1377,"station_id":"JNG","is_transit":true},{"line":11,"transit":false,"station_name":"Pondok Jati","is_transit":false,"time":2,"station_id":"POK","i_long":106.861737,"distance":1236,"i_lat":-6.209188},{"station_id":"KMT","station_name":"Kramat","is_transit":false,"distance":1829,"i_lat":-6.193792,"transit":false,"i_long":106.855437,"time":2,"line":11},{"i_lat":-6.185975,"is_transit":false,"station_id":"GST","line":11,"transit":false,"station_name":"Gang Sentiong","i_long":106.850107,"time":1,"distance":973},{"i_lat":-6.174784,"station_id":"PSE","time":8,"is_transit":false,"distance":1567,"i_long":106.84368,"line":11,"transit":false,"station_name":"Pasar Senen"},{"station_name":"Kemayoran","i_lat":-6.161728,"i_long":106.839204,"line":11,"station_id":"KMO","transit":false,"distance":1436,"is_transit":false,"time":4},{"time":5,"distance":1901,"is_transit":false,"station_name":"Rajawali","i_lat":-6.14505,"i_long":106.836569,"transit":false,"line":11,"station_id":"RJW"}],[{"transit":false,"i_long":106.831114,"station_id":"POC","time":0,"station_name":"Pondok Cina","distance":0,"i_lat":-6.369073,"line":2,"is_transit":false},{"station_id":"UI","is_transit":false,"time":2,"line":2,"i_lat":-6.360749,"i_long":106.831474,"transit":false,"distance":1109,"station_name":"Univ. Indonesia"},{"station_id":"UP","distance":2264,"time":3,"i_lat":-6.339291,"i_long":106.834175,"line":2,"transit":false,"is_transit":false,"station_name":"Univ. Pancasila"},{"station_id":"LNA","distance":1029,"station_name":"Lenteng Agung","time":2,"transit":false,"line":2,"is_transit":false,"i_lat":-6.330363,"i_long":106.832616},{"transit":false,"i_lat":-6.3080680000000005,"distance":2671,"i_long":106.838896,"line":2,"is_transit":false,"station_name":"Tanjung Barat","station_id":"TNT","time":3},{"time":4,"transit":false,"station_name":"Pasar Minggu","is_transit":false,"distance":2820,"i_long":106.843999,"line":2,"i_lat":-6.2842400000000005,"station_id":"PSM"},{"station_id":"PSMB","transit":false,"is_transit":false,"distance":2380,"i_lat":-6.263214,"time":2,"i_long":106.851577,"line":2,"station_name":"Pasar Minggu Baru"},{"distance":824,"time":2,"i_lat":-6.255332,"i_long":106.85449,"transit":false,"station_name":"Duren Kalibata","is_transit":false,"station_id":"DRN","line":2},{"time":3,"i_lat":-6.242512,"line":2,"transit":false,"station_name":"Cawang","distance":1546,"station_id":"CW","is_transit":false,"i_long":106.856607},{"station_name":"Tebet","transit":false,"distance":1230,"line":2,"i_long":106.857948,"station_id":"TEB","is_transit":false,"i_lat":-6.226659,"time":2},{"is_transit":true,"distance":2610,"i_lat":-6.209883,"i_long":106.84912,"transit":true,"station_name":"Manggarai","time":4,"station_id":"MRI","line":2},{"station_name":"Sudirman","i_lat":-6.202263,"line":1,"station_id":"SUD","is_transit":false,"distance":3186,"i_long":106.822649,"transit":false,"time":4},{"time":1,"distance":280,"transit":false,"station_name":"Sudirman Baru","is_transit":false,"i_long":106.819881,"i_lat":-6.201433,"station_id":"SUDB","line":1},{"is_transit":false,"i_lat":-6.20132,"line":1,"station_id":"KAT","i_long":106.816351,"transit":false,"distance":471,"station_name":"Karet","time":1},{"station_name":"Tanah Abang","station_id":"THB","line":1,"time":5,"i_long":106.811091,"distance":2029,"i_lat":-6.185545,"transit":false,"is_transit":false},{"time":8,"distance":3632,"station_name":"Duri","i_long":106.800832,"i_lat":-6.155215,"transit":false,"station_id":"DU","is_transit":false,"line":1},{"is_transit":false,"line":1,"time":4,"transit":false,"distance":1230,"i_lat":-6.144674,"station_id":"AK","station_name":"Angke","i_long":106.79867},{"station_id":"KPB","is_transit":true,"time":9,"station_name":"Kampung Bandan","line":4,"i_long":106.826365,"i_lat":-6.132549,"distance":4102,"transit":true},{"line":11,"i_lat":-6.14505,"station_id":"RJW","is_transit":false,"distance":1444,"i_long":106.836569,"transit":false,"station_name":"Rajawali","time":3}],[{"i_lat":-6.369073,"is_transit":false,"station_name":"Pondok Cina","time":0,"line":2,"transit":false,"i_long":106.831114,"distance":0,"station_id":"POC"},{"distance":1109,"is_transit":false,"station_name":"Univ. Indonesia","i_lat":-6.360749,"line":2,"station_id":"UI","time":2,"transit":false,"i_long":106.831474},{"line":2,"station_id":"UP","station_name":"Univ. Pancasila","is_transit":false,"time":3,"i_lat":-6.339291,"distance":2264,"i_long":106.834175,"transit":false},{"station_id":"LNA","line":2,"station_name":"Lenteng Agung","is_transit":false,"i_lat":-6.330363,"transit":false,"distance":1029,"time":2,"i_long":106.832616},{"time":3,"station_id":"TNT","transit":false,"is_transit":false,"i_lat":-6.3080680000000005,"distance":2671,"i_long":106.838896,"line":2,"station_name":"Tanjung Barat"},{"i_lat":-6.2842400000000005,"distance":2820,"station_id":"PSM","i_long":106.843999,"line":2,"station_name":"Pasar Minggu","is_transit":false,"time":4,"transit":false},{"transit":false,"station_name":"Pasar Minggu Baru","distance":2380,"time":2,"i_lat":-6.263214,"i_long":106.851577,"is_transit":false,"station_id":"PSMB","line":2},{"time":2,"i_lat":-6.255332,"station_id":"DRN","i_long":106.85449,"line":2,"transit":false,"distance":824,"station_name":"Duren Kalibata","is_transit":false},{"line":2,"station_name":"Cawang","is_transit":false,"transit":false,"distance":1546,"station_id":"CW","time":3,"i_lat":-6.242512,"i_long":106.856607},{"is_transit":false,"station_id":"TEB","i_long":106.857948,"distance":1230,"station_name":"Tebet","transit":false,"time":2,"i_lat":-6.226659,"line":2},{"time":4,"distance":2610,"i_lat":-6.209883,"i_long":106.84912,"station_id":"MRI","line":2,"is_transit":false,"transit":false,"station_name":"Manggarai"},{"station_name":"Cikini","time":4,"station_id":"CKI","i_long":106.840169,"i_lat":-6.198556,"line":2,"distance":1590,"transit":false,"is_transit":false},{"time":3,"is_transit":false,"i_long":106.832183,"station_id":"GDD","distance":1750,"station_name":"Gondangdia","transit":false,"i_lat":-6.186295,"line":2},{"is_transit":false,"transit":false,"time":4,"i_long":106.828284,"station_name":"Juanda","line":2,"distance":2015,"station_id":"JUA","i_lat":-6.166716},{"is_transit":false,"i_long":106.827103,"line":2,"station_id":"SW","distance":1149,"time":2,"station_name":"Sawah Besar","i_lat":-6.160725,"transit":false},{"station_id":"MGB","transit":false,"i_long":106.82482,"is_transit":false,"time":2,"i_lat":-6.149769,"distance":906,"line":2,"station_name":"Manggabesar"},{"station_id":"JAY","is_transit":false,"line":2,"station_name":"Jayakarta","i_lat":-6.141205,"transit":false,"time":2,"distance":1080,"i_long":106.820901},{"is_transit":true,"line":2,"time":4,"station_name":"Jakarta Kota","station_id":"JAKK","distance":1264,"i_lat":-6.137569,"i_long":106.812439,"transit":true},{"station_name":"Kampung Bandan","line":4,"is_transit":true,"i_lat":-6.132549,"transit":true,"i_long":106.826365,"time":3,"distance":1364,"station_id":"KPB"},{"transit":false,"time":3,"i_long":106.836569,"distance":1444,"line":11,"station_id":"RJW","is_transit":false,"i_lat":-6.14505,"station_name":"Rajawali"}]]}