{"data":[[{"station_id":"POC","is_transit":false,"distance":0,"i_lat":-6.369073,"i_long":106.831114,"line":2,"station_name":"Pondok Cina","time":0,"transit":false},{"station_name":"Univ. Indonesia","distance":1109,"is_transit":false,"i_lat":-6.360749,"i_long":106.831474,"transit":false,"line":2,"time":2,"station_id":"UI"},{"station_name":"Univ. Pancasila","station_id":"UP","i_long":106.834175,"is_transit":false,"time":3,"line":2,"transit":false,"i_lat":-6.339291,"distance":2264},{"time":2,"distance":1029,"i_lat":-6.330363,"station_id":"LNA","station_name":"Lenteng Agung","i_long":106.832616,"is_transit":false,"line":2,"transit":false},{"distance":2671,"is_transit":false,"time":3,"line":2,"i_long":106.838896,"station_name":"Tanjung Barat","transit":false,"i_lat":-6.3080680000000005,"station_id":"TNT"},{"line":2,"transit":false,"time":4,"distance":2820,"i_long":106.843999,"i_lat":-6.2842400000000005,"station_name":"Pasar Minggu","station_id":"PSM","is_transit":false},{"transit":false,"line":2,"station_id":"PSMB","i_lat":-6.263214,"station_name":"Pasar Minggu Baru","distance":2380,"time":2,"is_transit":false,"i_long":106.851577},{"i_long":106.85449,"i_lat":-6.255332,"is_transit":false,"line":0,"time":2,"station_name":"Duren Kalibata","station_id":"DRN","distance":824,"transit":false},{"i_lat":-6.242512,"line":0,"i_long":106.856607,"station_id":"CW","transit":false,"station_name":"Cawang","is_transit":false,"time":3,"distance":1546},{"is_transit":false,"transit":false,"time":2,"station_id":"TEB","distance":1230,"i_long":106.857948,"i_lat":-6.226659,"station_name":"Tebet","line":2},{"i_long":106.84912,"station_name":"Manggarai","i_lat":-6.209883,"time":4,"transit":true,"is_transit":true,"distance":2610,"line":0,"station_id":"MRI"},{"i_lat":-6.212485,"station_id":"MTR","line":1,"is_transit":false,"transit":false,"i_long":106.858896,"station_name":"Matraman","time":2,"distance":1275},{"distance":1377,"time":8,"i_lat":-6.215091,"station_id":"JNG","transit":false,"is_transit":true,"line":0,"station_name":"Jatinegara","i_long":106.86807400000001},{"station_name":"Klender","station_id":"KLD","time":3,"i_long":106.899548,"line":1,"i_lat":-6.2135,"transit":false,"is_transit":false,"distance":3395},{"distance":3100,"is_transit":false,"station_id":"BUA","line":0,"transit":false,"station_name":"Buaran","time":2,"i_long":106.922662,"i_lat":-6.215568},{"i_long":106.939679,"station_id":"KLDB","is_transit":false,"station_name":"Klenderbaru","i_lat":-6.217455,"line":1,"distance":1305,"time":1,"transit":false},{"station_id":"CUK","transit":false,"i_lat":-6.219053,"distance":1385,"time":8,"i_long":106.951283,"is_transit":false,"line":0,"station_name":"Cakung"},{"station_id":"KRI","line":1,"transit":false,"i_lat":-6.224515,"distance":3097,"time":3,"i_long":106.977657,"station_name":"Kranji","is_transit":false},{"is_transit":false,"distance":2520,"line":0,"station_id":"BKS","i_long":106.997013,"station_name":"Bekasi","i_lat":-6.236616,"time":4,"transit":false},{"station_name":"Bekasi Timur","i_lat":-6.248029,"i_long":107.016735,"is_transit":false,"transit":false,"distance":2368,"line":0,"station_id":"BKST","time":2},{"is_transit":false,"line":1,"station_id":"TB","transit":false,"distance":4460,"i_lat":-6.258864,"station_name":"Tambun","time":7,"i_long":107.055722},{"distance":3420,"i_long":107.083084,"line":0,"station_id":"CIT","is_transit":false,"transit":false,"time":3,"station_name":"Cibitung","i_lat":-6.261877},{"station_name":"Metland Telaga Murni","is_transit":false,"line":1,"i_long":107.093313,"transit":false,"time":2,"station_id":"TLM","i_lat":-6.262938,"distance":2800},{"transit":false,"i_lat":-6.2553149999999995,"station_name":"Cikarang","i_long":107.144613,"time":4,"distance":3689,"is_transit":false,"station_id":"CKR","line":0}],[{"transit":false,"i_long":106.831114,"station_name":"Pondok Cina","is_transit":false,"time":0,"line":2,"distance":0,"i_lat":-6.369073,"station_id":"POC"},{"line":2,"station_name":"Univ. Indonesia","transit":false,"station_id":"UI","is_transit":false,"time":2,"i_lat":-6.360749,"i_long":106.831474,"distance":1109},{"i_long":106.834175,"station_name":"Univ. Pancasila","station_id":"UP","time":3,"transit":false,"line":2,"i_lat":-6.339291,"is_transit":false,"distance":2264},{"line":2,"distance":1029,"i_lat":-6.330363,"station_name":"Lenteng Agung","station_id":"LNA","time":2,"i_long":106.832616,"transit":false,"is_transit":false},{"station_id":"TNT","is_transit":false,"time":3,"distance":2671,"line":2,"station_name":"Tanjung Barat","transit":false,"i_lat":-6.3080680000000005,"i_long":106.838896},{"i_long":106.843999,"station_id":"PSM","distance":2820,"is_transit":false,"transit":false,"time":4,"station_name":"Pasar Minggu","i_lat":-6.2842400000000005,"line":2},{"time":2,"line":2,"station_name":"Pasar Minggu Baru","station_id":"PSMB","i_lat":-6.263214,"i_long":106.851577,"distance":2380,"transit":false,"is_transit":false},{"time":2,"line":0,"transit":false,"i_long":106.85449,"i_lat":-6.255332,"station_name":"Duren Kalibata","distance":824,"station_id":"DRN","is_transit":false},{"time":3,"station_name":"Cawang","transit":false,"line":0,"distance":1546,"i_long":106.856607,"i_lat":-6.242512,"station_id":"CW","is_transit":false},{"distance":1230,"time":2,"i_lat":-6.226659,"line":2,"i_long":106.857948,"transit":false,"is_transit":false,"station_id":"TEB","station_name":"Tebet"},{"station_name":"Manggarai","line":0,"time":4,"i_lat":-6.209883,"station_id":"MRI","transit":true,"distance":2610,"is_transit":true,"i_long":106.84912},{"station_id":"SUD","line":1,"transit":false,"time":4,"station_name":"Sudirman","distance":3186,"i_long":106.822649,"i_lat":-6.202263,"is_transit":false},{"station_id":"SUDB","distance":280,"station_name":"Sudirman Baru","i_lat":-6.201433,"i_long":106.819881,"transit":false,"line":1,"is_transit":false,"time":1},{"i_lat":-6.20132,"transit":false,"time":1,"is_transit":false,"station_name":"Karet","distance":471,"i_long":106.816351,"line":1,"station_id":"KAT"},{"i_long":106.811091,"is_transit":true,"line":1,"time":5,"station_id":"THB","distance":2029,"station_name":"Tanah Abang","transit":false,"i_lat":-6.185545},{"time":8,"i_lat":-6.155215,"i_long":106.800832,"is_transit":true,"distance":3632,"line":1,"station_id":"DU","station_name":"Duri","transit":true},{"distance":1230,"station_name":"Angke","transit":false,"i_lat":-6.144674,"i_long":106.79867,"station_id":"AK","is_transit":false,"time":4,"line":0},{"line":0,"station_name":"Kampung Bandan","transit":true,"i_lat":-6.132549,"station_id":"KPB","distance":4102,"i_long":106.826365,"is_transit":true,"time":9},{"time":3,"line":11,"i_long":106.836569,"transit":false,"is_transit":false,"distance":1444,"i_lat":-6.14505,"station_name":"Rajawali","station_id":"RJW"},{"is_transit":false,"station_id":"KMO","distance":1901,"time":5,"i_lat":-6.161728,"i_long":106.839204,"transit":false,"line":11,"station_name":"Kemayoran"},{"distance":1436,"i_lat":-6.174784,"i_long":106.84368,"station_name":"Pasar Senen","time":4,"transit":false,"line":11,"station_id":"PSE","is_transit":false},{"time":8,"distance":1567,"transit":false,"line":11,"is_transit":false,"i_lat":-6.185975,"station_id":"GST","station_name":"Gang Sentiong","i_long":106.850107},{"transit":false,"station_name":"Kramat","time":1,"i_long":106.855437,"station_id":"KMT","line":11,"is_transit":false,"i_lat":-6.193792,"distance":973},{"i_lat":-6.209188,"station_name":"Pondok Jati","line":11,"transit":false,"time":2,"distance":1829,"is_transit":false,"i_long":106.861737,"station_id":"POK"},{"is_transit":true,"distance":1236,"station_name":"Jatinegara","i_lat":-6.215091,"line":0,"transit":true,"station_id":"JNG","time":9,"i_long":106.86807400000001},{"station_id":"KLD","transit":false,"i_long":106.899548,"station_name":"Klender","is_transit":false,"distance":3395,"i_lat":-6.2135,"line":1,"time":3},{"station_name":"Buaran","i_lat":-6.215568,"line":0,"is_transit":false,"i_long":106.922662,"station_id":"BUA","time":2,"transit":false,"distance":3100},{"distance":1305,"i_long":106.939679,"transit":false,"station_id":"KLDB","line":1,"station_name":"Klenderbaru","time":1,"i_lat":-6.217455,"is_transit":false},{"i_long":106.951283,"station_name":"Cakung","station_id":"CUK","distance":1385,"i_lat":-6.219053,"line":0,"transit":false,"is_transit":false,"time":8},{"distance":3097,"i_long":106.977657,"time":3,"line":1,"station_name":"Kranji","is_transit":false,"transit":false,"station_id":"KRI","i_lat":-6.224515},{"i_lat":-6.236616,"is_transit":false,"station_name":"Bekasi","time":4,"i_long":106.997013,"line":0,"distance":2520,"station_id":"BKS","transit":false},{"line":0,"i_long":107.016735,"i_lat":-6.248029,"station_name":"Bekasi Timur","transit":false,"is_transit":false,"station_id":"BKST","distance":2368,"time":2},{"i_lat":-6.258864,"line":1,"station_name":"Tambun","transit":false,"station_id":"TB","is_transit":false,"distance":4460,"time":7,"i_long":107.055722},{"is_transit":false,"station_name":"Cibitung","time":3,"distance":3420,"station_id":"CIT","line":0,"transit":false,"i_long":107.083084,"i_lat":-6.261877},{"station_id":"TLM","transit":false,"i_long":107.093313,"is_transit":false,"station_name":"Metland Telaga Murni","time":2,"i_lat":-6.262938,"line":1,"distance":2800},{"station_name":"Cikarang","distance":3689,"i_lat":-6.2553149999999995,"is_transit":false,"i_long":107.144613,"transit":false,"line":0,"station_id":"CKR","time":4}],[{"transit":false,"i_long":106.831114,"distance":0,"station_name":"Pondok Cina","station_id":"POC","i_lat":-6.369073,"line":2,"is_transit":false,"time":0},{"station_id":"UI","i_long":106.831474,"distance":1109,"is_transit":false,"transit":false,"time":2,"line":2,"station_name":"Univ. Indonesia","i_lat":-6.360749},{"time":3,"station_id":"UP","transit":false,"is_transit":false,"distance":2264,"i_lat":-6.339291,"i_long":106.834175,"station_name":"Univ. Pancasila","line":2},{"is_transit":false,"transit":false,"i_long":106.832616,"station_id":"LNA","distance":1029,"i_lat":-6.330363,"line":2,"station_name":"Lenteng Agung","time":2},{"line":2,"i_lat":-6.3080680000000005,"station_id":"TNT","is_transit":false,"distance":2671,"i_long":106.838896,"station_name":"Tanjung Barat","transit":false,"time":3},{"distance":2820,"line":2,"i_long":106.843999,"station_id":"PSM","i_lat":-6.2842400000000005,"is_transit":false,"time":4,"transit":false,"station_name":"Pasar Minggu"},{"station_name":"Pasar Minggu Baru","station_id":"PSMB","line":2,"i_long":106.851577,"transit":false,"is_transit":false,"distance":2380,"i_lat":-6.263214,"time":2},{"line":0,"i_long":106.85449,"i_lat":-6.255332,"distance":824,"station_id":"DRN","station_name":"Duren Kalibata","is_transit":false,"time":2,"transit":false},{"station_id":"CW","line":0,"station_name":"Cawang","i_lat":-6.242512,"i_long":106.856607,"is_transit":false,"transit":false,"distance":1546,"time":3},{"is_transit":false,"line":2,"station_id":"TEB","station_name":"Tebet","time":2,"i_lat":-6.226659,"transit":false,"distance":1230,"i_long":106.857948},{"is_transit":true,"station_name":"Manggarai","transit":true,"station_id":"MRI","distance":2610,"i_lat":-6.209883,"i_long":106.84912,"time":4,"line":0},{"line":0,"is_transit":false,"station_id":"CKI","transit":false,"station_name":"Cikini","distance":1590,"i_long":106.840169,"time":4,"i_lat":-6.198556},{"is_transit":false,"i_lat":-6.186295,"line":2,"transit":false,"station_name":"Gondangdia","station_id":"GDD","time":3,"i_long":106.832183,"distance":1750},{"is_transit":false,"line":2,"i_long":106.828284,"distance":2015,"station_id":"JUA","station_name":"Juanda","transit":false,"time":4,"i_lat":-6.166716},{"station_id":"SW","transit":false,"distance":1149,"time":2,"i_long":106.827103,"line":2,"station_name":"Sawah Besar","i_lat":-6.160725,"is_transit":false},{"transit":false,"station_id":"MGB","distance":906,"station_name":"Manggabesar","i_long":106.82482,"time":2,"i_lat":-6.149769,"is_transit":false,"line":2},{"distance":1080,"i_long":106.820901,"line":7,"station_name":"Jayakarta","transit":false,"station_id":"JAY","time":2,"i_lat":-6.141205,"is_transit":false},{"transit":true,"station_name":"Jakarta Kota","station_id":"JAKK","line":0,"distance":1264,"i_lat":-6.137569,"is_transit":true,"i_long":106.812439,"time":4},{"station_id":"KPB","is_transit":true,"line":0,"time":3,"i_long":106.826365,"transit":true,"distance":1364,"i_lat":-6.132549,"station_name":"Kampung Bandan"},{"distance":1444,"station_id":"RJW","time":3,"station_name":"Rajawali","is_transit":false,"line":11,"transit":false,"i_lat":-6.14505,"i_long":106.836569},{"is_transit":false,"transit":false,"station_name":"Kemayoran","i_lat":-6.161728,"time":5,"line":11,"i_long":106.839204,"distance":1901,"station_id":"KMO"},{"transit":false,"time":4,"distance":1436,"is_transit":false,"i_long":106.84368,"line":11,"station_id":"PSE","i_lat":-6.174784,"station_name":"Pasar Senen"},{"station_name":"Gang Sentiong","distance":1567,"i_long":106.850107,"transit":false,"time":8,"i_lat":-6.185975,"station_id":"GST","line":11,"is_transit":false},{"transit":false,"station_name":"Kramat","distance":973,"station_id":"KMT","i_lat":-6.193792,"is_transit":false,"time":1,"line":11,"i_long":106.855437},{"line":11,"time":2,"distance":1829,"i_lat":-6.209188,"station_name":"Pondok Jati","station_id":"POK","is_transit":false,"i_long":106.861737,"transit":false},{"distance":1236,"line":0,"station_id":"JNG","time":9,"is_transit":true,"transit":true,"i_long":106.86807400000001,"i_lat":-6.215091,"station_name":"Jatinegara"},{"transit":false,"station_name":"Klender","i_lat":-6.2135,"i_long":106.899548,"is_transit":false,"distance":3395,"station_id":"KLD","time":3,"line":1},{"station_name":"Buaran","time":2,"i_long":106.922662,"is_transit":false,"line":0,"transit":false,"distance":3100,"i_lat":-6.215568,"station_id":"BUA"},{"is_transit":false,"transit":false,"i_lat":-6.217455,"station_id":"KLDB","line":1,"station_name":"Klenderbaru","distance":1305,"i_long":106.939679,"time":1},{"i_lat":-6.219053,"station_id":"CUK","time":8,"i_long":106.951283,"station_name":"Cakung","distance":1385,"transit":false,"line":0,"is_transit":false},{"transit":false,"station_id":"KRI","time":3,"i_long":106.977657,"i_lat":-6.224515,"distance":3097,"line":1,"is_transit":false,"station_name":"Kranji"},{"station_name":"Bekasi","station_id":"BKS","i_lat":-6.236616,"transit":false,"is_transit":false,"time":4,"line":0,"distance":2520,"i_long":106.997013},{"distance":2368,"station_id":"BKST","station_name":"Bekasi Timur","is_transit":false,"time":2,"i_lat":-6.248029,"line":0,"i_long":107.016735,"transit":false},{"i_lat":-6.258864,"distance":4460,"i_long":107.055722,"station_name":"Tambun","transit":false,"time":7,"line":1,"station_id":"TB","is_transit":false},{"is_transit":false,"time":3,"station_name":"Cibitung","distance":3420,"transit":false,"station_id":"CIT","i_long":107.083084,"line":0,"i_lat":-6.261877},{"distance":2800,"is_transit":false,"i_lat":-6.262938,"station_id":"TLM","time":2,"line":1,"i_long":107.093313,"station_name":"Metland Telaga Murni","transit":false},{"line":0,"station_name":"Cikarang","transit":false,"station_id":"CKR","i_long":107.144613,"time":4,"distance":3689,"is_transit":false,"i_lat":-6.2553149999999995}]]}