{"data":[[{"transit":false,"distance":0,"is_transit":false,"time":0,"i_lat":-6.369073,"station_id":"POC","station_name":"Pondok Cina","i_long":106.831114,"line":2},{"is_transit":false,"station_id":"UI","time":2,"line":2,"i_lat":-6.360749,"distance":1109,"transit":false,"station_name":"Univ. Indonesia","i_long":106.831474},{"station_id":"UP","i_lat":-6.339291,"distance":2264,"i_long":106.834175,"transit":false,"time":3,"line":2,"station_name":"Univ. Pancasila","is_transit":false},{"time":2,"distance":1029,"line":2,"station_name":"Lenteng Agung","i_long":106.832616,"i_lat":-6.330363,"station_id":"LNA","transit":false,"is_transit":false},{"distance":2671,"station_id":"TNT","i_lat":-6.3080680000000005,"time":3,"station_name":"Tanjung Barat","i_long":106.838896,"transit":false,"is_transit":false,"line":2},{"station_id":"PSM","time":4,"i_lat":-6.2842400000000005,"line":2,"distance":2820,"i_long":106.843999,"transit":false,"station_name":"Pasar Minggu","is_transit":false},{"is_transit":false,"station_id":"PSMB","distance":2380,"i_lat":-6.263214,"transit":false,"i_long":106.851577,"station_name":"Pasar Minggu Baru","time":2,"line":2},{"i_lat":-6.255332,"line":2,"transit":false,"station_id":"DRN","i_long":106.85449,"station_name":"Duren Kalibata","distance":824,"is_transit":false,"time":2},{"station_name":"Cawang","station_id":"CW","i_lat":-6.242512,"distance":1546,"time":3,"transit":false,"line":2,"is_transit":false,"i_long":106.856607},{"line":2,"station_name":"Tebet","transit":false,"i_lat":-6.226659,"i_long":106.857948,"distance":1230,"is_transit":false,"time":2,"station_id":"TEB"},{"station_name":"Manggarai","time":4,"i_lat":-6.209883,"distance":2610,"transit":true,"is_transit":true,"i_long":106.84912,"station_id":"MRI","line":2},{"is_transit":false,"time":4,"i_lat":-6.202263,"line":1,"station_id":"SUD","i_long":106.822649,"transit":false,"distance":3186,"station_name":"Sudirman"}],[{"station_name":"Pondok Cina","time":0,"i_long":106.831114,"station_id":"POC","transit":false,"i_lat":-6.369073,"distance":0,"is_transit":false,"line":2},{"station_name":"Univ. Indonesia","i_lat":-6.360749,"line":2,"time":2,"distance":1109,"is_transit":false,"transit":false,"station_id":"UI","i_long":106.831474},{"line":2,"transit":false,"i_long":106.834175,"time":3,"i_lat":-6.339291,"station_id":"UP","station_name":"Univ. Pancasila","is_transit":false,"distance":2264},{"transit":false,"station_name":"Lenteng Agung","station_id":"LNA","distance":1029,"is_transit":false,"i_long":106.832616,"line":2,"i_lat":-6.330363,"time":2},{"transit":false,"i_lat":-6.3080680000000005,"station_id":"TNT","time":3,"station_name":"Tanjung Barat","is_transit":false,"distance":2671,"i_long":106.838896,"line":2},{"is_transit":false,"distance":2820,"i_long":106.843999,"i_lat":-6.2842400000000005,"line":2,"time":4,"transit":false,"station_name":"Pasar Minggu","station_id":"PSM"},{"i_lat":-6.263214,"time":2,"i_long":106.851577,"is_transit":false,"transit":false,"line":2,"station_id":"PSMB","distance":2380,"station_name":"Pasar Minggu Baru"},{"i_lat":-6.255332,"is_transit":false,"station_id":"DRN","line":2,"station_name":"Duren Kalibata","transit":false,"i_long":106.85449,"distance":824,"time":2},{"i_lat":-6.242512,"station_id":"CW","station_name":"Cawang","transit":false,"is_transit":false,"i_long":106.856607,"line":2,"distance":1546,"time":3},{"is_transit":false,"station_id":"TEB","distance":1230,"station_name":"Tebet","transit":false,"line":2,"i_lat":-6.226659,"i_long":106.857948,"time":2},{"distance":2610,"station_id":"MRI","i_long":106.84912,"time":4,"is_transit":false,"transit":false,"i_lat":-6.209883,"line":2,"station_name":"Manggarai"},{"is_transit":false,"distance":1590,"station_id":"CKI","i_long":106.840169,"transit":false,"station_name":"Cikini","i_lat":-6.198556,"line":2,"time":4},{"time":3,"distance":1750,"station_id":"GDD","is_transit":false,"line":2,"i_long":106.832183,"transit":false,"i_lat":-6.186295,"station_name":"Gondangdia"},{"station_name":"Juanda","is_transit":false,"i_long":106.828284,"line":2,"time":4,"i_lat":-6.166716,"station_id":"JUA","transit":false,"distance":2015},{"transit":false,"time":2,"line":2,"is_transit":false,"distance":1149,"i_lat":-6.160725,"station_id":"SW","station_name":"Sawah Besar","i_long":106.827103},{"i_lat":-6.149769,"time":2,"station_name":"Manggabesar","station_id":"MGB","is_transit":false,"i_long":106.82482,"line":2,"transit":false,"distance":906},{"i_long":106.820901,"station_id":"JAY","is_transit":false,"station_name":"Jayakarta","i_lat":-6.141205,"distance":1080,"line":2,"time":2,"transit":false},{"transit":true,"is_transit":true,"line":2,"i_lat":-6.137569,"station_id":"JAKK","distance":1264,"i_long":106.812439,"time":4,"station_name":"Jakarta Kota"},{"distance":1364,"transit":true,"station_name":"Kampung Bandan","i_lat":-6.132549,"i_long":106.826365,"is_transit":true,"station_id":"KPB","time":3,"line":4},{"transit":false,"time":9,"station_id":"AK","distance":4102,"i_long":106.79867,"line":1,"i_lat":-6.144674,"station_name":"Angke","is_transit":false},{"time":4,"line":1,"distance":1230,"i_lat":-6.155215,"is_transit":false,"station_name":"Duri","transit":false,"i_long":106.800832,"station_id":"DU"},{"transit":false,"distance":3632,"i_long":106.811091,"station_name":"Tanah Abang","time":8,"station_id":"THB","is_transit":false,"i_lat":-6.185545,"line":1},{"i_lat":-6.20132,"i_long":106.816351,"is_transit":false,"distance":2029,"time":5,"transit":false,"station_name":"Karet","station_id":"KAT","line":1},{"station_id":"SUDB","time":1,"station_name":"Sudirman Baru","is_transit":false,"line":1,"i_lat":-6.201433,"i_long":106.819881,"distance":471,"transit":false},{"i_lat":-6.202263,"station_name":"Sudirman","station_id":"SUD","is_transit":false,"i_long":106.822649,"line":1,"time":1,"transit":false,"distance":280}],[{"time":0,"station_name":"Pondok Cina","i_long":106.831114,"i_lat":-6.369073,"transit":false,"distance":0,"is_transit":false,"line":2,"station_id":"POC"},{"time":2,"line":2,"station_name":"Univ. Indonesia","i_long":106.831474,"transit":false,"distance":1109,"is_transit":false,"i_lat":-6.360749,"station_id":"UI"},{"transit":false,"distance":2264,"station_id":"UP","time":3,"i_lat":-6.339291,"is_transit":false,"station_name":"Univ. Pancasila","i_long":106.834175,"line":2},{"station_id":"LNA","i_long":106.832616,"station_name":"Lenteng Agung","is_transit":false,"time":2,"transit":false,"line":2,"i_lat":-6.330363,"distance":1029},{"time":3,"distance":2671,"transit":false,"line":2,"i_lat":-6.3080680000000005,"i_long":106.838896,"station_name":"Tanjung Barat","station_id":"TNT","is_transit":false},{"transit":false,"line":2,"is_transit":false,"i_lat":-6.2842400000000005,"i_long":106.843999,"station_name":"Pasar Minggu","station_id":"PSM","time":4,"distance":2820},{"i_long":106.851577,"is_transit":false,"station_name":"Pasar Minggu Baru","line":2,"station_id":"PSMB","transit":false,"i_lat":-6.263214,"time":2,"distance":2380},{"station_name":"Duren Kalibata","i_long":106.85449,"transit":false,"time":2,"is_transit":false,"distance":824,"line":2,"station_id":"DRN","i_lat":-6.255332},{"transit":false,"i_long":106.856607,"line":2,"is_transit":false,"time":3,"station_id":"CW","i_lat":-6.242512,"station_name":"Cawang","distance":1546},{"i_lat":-6.226659,"station_name":"Tebet","line":2,"is_transit":false,"time":2,"station_id":"TEB","transit":false,"distance":1230,"i_long":106.857948},{"is_transit":true,"time":4,"distance":2610,"i_lat":-6.209883,"station_name":"Manggarai","i_long":106.84912,"line":2,"station_id":"MRI","transit":true},{"station_name":"Matraman","i_lat":-6.212485,"i_long":106.858896,"line":1,"distance":1275,"transit":false,"time":2,"station_id":"MTR","is_transit":false},{"distance":1377,"is_transit":true,"i_lat":-6.215091,"transit":true,"station_name":"Jatinegara","station_id":"JNG","time":8,"i_long":106.86807400000001,"line":1},{"station_name":"Pondok Jati","i_lat":-6.209188,"line":11,"time":2,"distance":1236,"transit":false,"is_transit":false,"station_id":"POK","i_long":106.861737},{"i_lat":-6.193792,"station_id":"KMT","station_name":"Kramat","is_transit":false,"time":2,"i_long":106.855437,"line":11,"distance":1829,"transit":false},{"station_name":"Gang Sentiong","is_transit":false,"distance":973,"i_long":106.850107,"time":1,"transit":false,"i_lat":-6.185975,"line":11,"station_id":"GST"},{"station_name":"Pasar Senen","i_lat":-6.174784,"i_long":106.84368,"is_transit":false,"time":8,"distance":1567,"station_id":"PSE","line":11,"transit":false},{"time":4,"is_transit":false,"station_name":"Kemayoran","line":11,"transit":false,"station_id":"KMO","i_long":106.839204,"distance":1436,"i_lat":-6.161728},{"i_long":106.836569,"time":5,"transit":false,"station_id":"RJW","distance":1901,"is_transit":false,"i_lat":-6.14505,"line":11,"station_name":"Rajawali"},{"i_long":106.826365,"line":4,"station_name":"Kampung Bandan","distance":1444,"transit":true,"time":3,"station_id":"KPB","is_transit":true,"i_lat":-6.132549},{"is_transit":false,"distance":4102,"i_lat":-6.144674,"transit":false,"i_long":106.79867,"station_name":"Angke","line":1,"time":9,"station_id":"AK"},{"is_transit":false,"i_lat":-6.155215,"line":1,"station_name":"Duri","time":4,"station_id":"DU","distance":1230,"transit":false,"i_long":106.800832},{"is_transit":false,"distance":3632,"i_long":106.811091,"transit":false,"i_lat":-6.185545,"time":8,"line":1,"station_id":"THB","station_name":"Tanah Abang"},{"i_long":106.816351,"station_id":"KAT","distance":2029,"is_transit":false,"time":5,"station_name":"Karet","line":1,"transit":false,"i_lat":-6.20132},{"distance":471,"station_name":"Sudirman Baru","time":1,"i_long":106.819881,"line":1,"transit":false,"station_id":"SUDB","is_transit":false,"i_lat":-6.201433},{"i_long":106.822649,"transit":false,"station_name":"Sudirman","is_transit":false,"i_lat":-6.202263,"distance":280,"station_id":"SUD","line":1,"time":1}]]}