{"data":[[{"i_long":106.831114,"time":0,"distance":0,"transit":false,"is_transit":false,"station_name":"Pondok Cina","station_id":"POC","i_lat":-6.369073,"line":2},{"time":2,"is_transit":false,"i_lat":-6.360749,"station_id":"UI","line":2,"station_name":"Univ. Indonesia","i_long":106.831474,"transit":false,"distance":1109},{"i_lat":-6.339291,"is_transit":false,"distance":2264,"station_name":"Univ. Pancasila","transit":false,"time":3,"station_id":"UP","i_long":106.834175,"line":2},{"i_lat":-6.330363,"station_name":"Lenteng Agung","line":2,"time":2,"station_id":"LNA","i_long":106.832616,"distance":1029,"is_transit":false,"transit":false},{"transit":false,"station_id":"TNT","is_transit":false,"i_lat":-6.3080680000000005,"line":2,"distance":2671,"station_name":"Tanjung Barat","time":3,"i_long":106.838896},{"transit":false,"station_id":"PSM","is_transit":false,"i_long":106.843999,"station_name":"Pasar Minggu","line":2,"time":4,"i_lat":-6.2842400000000005,"distance":2820},{"station_name":"Pasar Minggu Baru","line":2,"i_long":106.851577,"distance":2380,"transit":false,"i_lat":-6.263214,"time":2,"station_id":"PSMB","is_transit":false},{"transit":false,"time":2,"is_transit":false,"line":0,"i_long":106.85449,"station_name":"Duren Kalibata","distance":824,"station_id":"DRN","i_lat":-6.255332},{"station_name":"Cawang","time":3,"line":0,"i_long":106.856607,"distance":1546,"is_transit":false,"transit":false,"i_lat":-6.242512,"station_id":"CW"},{"i_lat":-6.226659,"i_long":106.857948,"is_transit":false,"distance":1230,"station_name":"Tebet","time":2,"transit":false,"line":2,"station_id":"TEB"},{"line":0,"distance":2610,"is_transit":true,"i_long":106.84912,"station_id":"MRI","station_name":"Manggarai","i_lat":-6.209883,"time":4,"transit":true},{"transit":false,"line":1,"station_id":"SUD","i_long":106.822649,"station_name":"Sudirman","i_lat":-6.202263,"time":4,"is_transit":false,"distance":3186},{"distance":280,"time":1,"station_id":"SUDB","is_transit":false,"i_long":106.819881,"i_lat":-6.201433,"station_name":"Sudirman Baru","transit":false,"line":1},{"station_id":"KAT","distance":471,"time":1,"is_transit":false,"i_long":106.816351,"line":1,"station_name":"Karet","i_lat":-6.20132,"transit":false},{"station_id":"THB","line":1,"i_lat":-6.185545,"distance":2029,"station_name":"Tanah Abang","transit":false,"i_long":106.811091,"is_transit":true,"time":5},{"transit":true,"line":1,"station_id":"DU","distance":3632,"is_transit":true,"i_lat":-6.155215,"station_name":"Duri","i_long":106.800832,"time":8},{"transit":false,"station_name":"Grogol","i_lat":-6.162021,"is_transit":false,"time":3,"station_id":"GGL","i_long":106.788277,"line":5,"distance":1700},{"line":5,"station_name":"Pesing","distance":2036,"transit":false,"station_id":"PSG","i_lat":-6.161433,"time":2,"is_transit":false,"i_long":106.771379},{"time":2,"distance":1614,"station_id":"TKO","transit":false,"i_long":106.756522,"is_transit":false,"station_name":"Taman Kota","i_lat":-6.1587309999999995,"line":5}],[{"distance":0,"time":0,"i_long":106.831114,"transit":false,"station_id":"POC","is_transit":false,"station_name":"Pondok Cina","line":2,"i_lat":-6.369073},{"time":2,"line":2,"transit":false,"i_lat":-6.360749,"i_long":106.831474,"station_id":"UI","distance":1109,"station_name":"Univ. Indonesia","is_transit":false},{"station_name":"Univ. Pancasila","is_transit":false,"i_lat":-6.339291,"transit":false,"time":3,"distance":2264,"line":2,"station_id":"UP","i_long":106.834175},{"is_transit":false,"i_long":106.832616,"i_lat":-6.330363,"time":2,"line":2,"station_id":"LNA","distance":1029,"station_name":"Lenteng Agung","transit":false},{"station_id":"TNT","is_transit":false,"i_long":106.838896,"i_lat":-6.3080680000000005,"time":3,"transit":false,"distance":2671,"station_name":"Tanjung Barat","line":2},{"transit":false,"station_id":"PSM","line":2,"i_long":106.843999,"i_lat":-6.2842400000000005,"station_name":"Pasar Minggu","time":4,"distance":2820,"is_transit":false},{"line":2,"station_name":"Pasar Minggu Baru","transit":false,"distance":2380,"time":2,"is_transit":false,"i_long":106.851577,"i_lat":-6.263214,"station_id":"PSMB"},{"station_name":"Duren Kalibata","is_transit":false,"time":2,"transit":false,"line":0,"i_lat":-6.255332,"i_long":106.85449,"station_id":"DRN","distance":824},{"transit":false,"station_id":"CW","distance":1546,"time":3,"line":0,"is_transit":false,"i_lat":-6.242512,"i_long":106.856607,"station_name":"Cawang"},{"station_id":"TEB","time":2,"station_name":"Tebet","distance":1230,"is_transit":false,"i_lat":-6.226659,"transit":false,"i_long":106.857948,"line":2},{"distance":2610,"time":4,"i_lat":-6.209883,"station_name":"Manggarai","transit":true,"station_id":"MRI","is_transit":true,"line":0,"i_long":106.84912},{"line":0,"station_id":"CKI","transit":false,"time":4,"station_name":"Cikini","distance":1590,"i_lat":-6.198556,"is_transit":false,"i_long":106.840169},{"line":2,"station_name":"Gondangdia","time":3,"station_id":"GDD","is_transit":false,"transit":false,"distance":1750,"i_lat":-6.186295,"i_long":106.832183},{"time":4,"station_name":"Juanda","station_id":"JUA","line":2,"transit":false,"i_lat":-6.166716,"is_transit":false,"distance":2015,"i_long":106.828284},{"is_transit":false,"time":2,"i_lat":-6.160725,"i_long":106.827103,"distance":1149,"station_name":"Sawah Besar","transit":false,"line":2,"station_id":"SW"},{"line":2,"time":2,"station_name":"Manggabesar","is_transit":false,"i_lat":-6.149769,"i_long":106.82482,"distance":906,"transit":false,"station_id":"MGB"},{"distance":1080,"time":2,"is_transit":false,"station_name":"Jayakarta","transit":false,"i_long":106.820901,"station_id":"JAY","i_lat":-6.141205,"line":7},{"time":4,"transit":true,"is_transit":true,"distance":1264,"station_id":"JAKK","i_lat":-6.137569,"line":0,"station_name":"Jakarta Kota","i_long":106.812439},{"i_lat":-6.132549,"distance":1364,"station_name":"Kampung Bandan","time":3,"is_transit":true,"station_id":"KPB","i_long":106.826365,"transit":false,"line":0},{"i_lat":-6.144674,"is_transit":false,"distance":4102,"transit":false,"i_long":106.79867,"line":0,"station_id":"AK","station_name":"Angke","time":9},{"station_name":"Duri","distance":1230,"line":1,"transit":true,"i_long":106.800832,"is_transit":true,"i_lat":-6.155215,"time":4,"station_id":"DU"},{"i_lat":-6.162021,"distance":1700,"i_long":106.788277,"line":5,"station_id":"GGL","station_name":"Grogol","transit":false,"is_transit":false,"time":3},{"station_id":"PSG","time":2,"transit":false,"station_name":"Pesing","is_transit":false,"distance":2036,"i_lat":-6.161433,"line":5,"i_long":106.771379},{"transit":false,"distance":1614,"i_long":106.756522,"i_lat":-6.1587309999999995,"station_name":"Taman Kota","time":2,"station_id":"TKO","is_transit":false,"line":5}],[{"station_name":"Pondok Cina","is_transit":false,"station_id":"POC","distance":0,"i_long":106.831114,"line":2,"time":0,"transit":false,"i_lat":-6.369073},{"line":2,"i_lat":-6.360749,"station_id":"UI","station_name":"Univ. Indonesia","is_transit":false,"i_long":106.831474,"distance":1109,"transit":false,"time":2},{"transit":false,"distance":2264,"station_id":"UP","i_lat":-6.339291,"line":2,"time":3,"station_name":"Univ. Pancasila","is_transit":false,"i_long":106.834175},{"station_id":"LNA","station_name":"Lenteng Agung","transit":false,"time":2,"distance":1029,"i_lat":-6.330363,"is_transit":false,"i_long":106.832616,"line":2},{"station_name":"Tanjung Barat","i_lat":-6.3080680000000005,"distance":2671,"transit":false,"time":3,"station_id":"TNT","i_long":106.838896,"line":2,"is_transit":false},{"is_transit":false,"transit":false,"station_id":"PSM","station_name":"Pasar Minggu","i_lat":-6.2842400000000005,"distance":2820,"i_long":106.843999,"time":4,"line":2},{"is_transit":false,"i_lat":-6.263214,"distance":2380,"time":2,"line":2,"station_id":"PSMB","i_long":106.851577,"station_name":"Pasar Minggu Baru","transit":false},{"line":0,"i_lat":-6.255332,"station_name":"Duren Kalibata","transit":false,"i_long":106.85449,"station_id":"DRN","distance":824,"time":2,"is_transit":false},{"station_id":"CW","transit":false,"i_lat":-6.242512,"distance":1546,"is_transit":false,"station_name":"Cawang","line":0,"i_long":106.856607,"time":3},{"is_transit":false,"transit":false,"station_name":"Tebet","i_lat":-6.226659,"i_long":106.857948,"line":2,"distance":1230,"time":2,"station_id":"TEB"},{"transit":true,"i_long":106.84912,"line":0,"station_id":"MRI","time":4,"i_lat":-6.209883,"is_transit":true,"distance":2610,"station_name":"Manggarai"},{"is_transit":false,"i_lat":-6.212485,"line":1,"station_id":"MTR","transit":false,"time":2,"station_name":"Matraman","distance":1275,"i_long":106.858896},{"distance":1377,"is_transit":true,"transit":true,"i_lat":-6.215091,"line":0,"station_name":"Jatinegara","i_long":106.86807400000001,"time":8,"station_id":"JNG"},{"i_lat":-6.209188,"i_long":106.861737,"line":11,"station_name":"Pondok Jati","distance":1236,"station_id":"POK","is_transit":false,"time":2,"transit":false},{"time":2,"is_transit":false,"line":11,"transit":false,"distance":1829,"station_name":"Kramat","station_id":"KMT","i_lat":-6.193792,"i_long":106.855437},{"time":1,"station_name":"Gang Sentiong","transit":false,"distance":973,"station_id":"GST","i_long":106.850107,"is_transit":false,"i_lat":-6.185975,"line":11},{"distance":1567,"transit":false,"i_lat":-6.174784,"station_name":"Pasar Senen","station_id":"PSE","is_transit":false,"i_long":106.84368,"line":11,"time":8},{"station_id":"KMO","time":4,"is_transit":false,"i_lat":-6.161728,"i_long":106.839204,"distance":1436,"transit":false,"station_name":"Kemayoran","line":11},{"line":11,"transit":false,"distance":1901,"station_name":"Rajawali","station_id":"RJW","is_transit":false,"i_long":106.836569,"time":5,"i_lat":-6.14505},{"line":0,"time":3,"station_name":"Kampung Bandan","station_id":"KPB","i_long":106.826365,"transit":true,"is_transit":true,"i_lat":-6.132549,"distance":1444},{"distance":4102,"time":9,"i_long":106.79867,"station_id":"AK","i_lat":-6.144674,"is_transit":false,"transit":false,"line":0,"station_name":"Angke"},{"i_long":106.800832,"line":1,"transit":true,"i_lat":-6.155215,"time":4,"distance":1230,"is_transit":true,"station_name":"Duri","station_id":"DU"},{"time":3,"i_lat":-6.162021,"distance":1700,"is_transit":false,"station_id":"GGL","transit":false,"line":5,"i_long":106.788277,"station_name":"Grogol"},{"distance":2036,"i_lat":-6.161433,"time":2,"is_transit":false,"line":5,"station_name":"Pesing","i_long":106.771379,"station_id":"PSG","transit":false},{"i_long":106.756522,"time":2,"line":5,"transit":false,"is_transit":false,"i_lat":-6.1587309999999995,"distance":1614,"station_id":"TKO","station_name":"Taman Kota"}]]}