{"data":[[{"line":2,"station_id":"POC","i_long":106.831114,"transit":false,"station_name":"Pondok Cina","distance":0,"i_lat":-6.369073,"time":0,"is_transit":false},{"is_transit":false,"station_id":"DPB","i_lat":-6.391065,"time":4,"station_name":"Depokbaru","distance":2727,"i_long":106.819451,"transit":false,"line":2},{"i_long":106.816926,"line":2,"station_id":"DP","transit":false,"station_name":"Depok","i_lat":-6.405256,"is_transit":false,"time":3,"distance":1584},{"line":2,"station_name":"Citayam","is_transit":true,"transit":true,"distance":5084,"time":6,"station_id":"CTA","i_lat":-6.448811,"i_long":106.800298},{"station_id":"PDRG","time":0,"distance":0,"i_long":106.824374,"line":21,"i_lat":-6.460735,"station_name":"Pondok Rajeg","transit":false,"is_transit":false}]]}