{"data":[[{"is_transit":false,"station_name":"Pondok Cina","i_lat":-6.369073,"station_id":"POC","distance":0,"time":0,"line":2,"transit":false,"i_long":106.831114},{"time":2,"transit":false,"distance":1109,"i_long":106.831474,"station_name":"Univ. Indonesia","i_lat":-6.360749,"station_id":"UI","line":2,"is_transit":false},{"transit":false,"i_long":106.834175,"i_lat":-6.339291,"station_name":"Univ. Pancasila","station_id":"UP","time":3,"distance":2264,"is_transit":false,"line":2},{"i_lat":-6.330363,"transit":false,"station_name":"Lenteng Agung","station_id":"LNA","distance":1029,"i_long":106.832616,"line":2,"is_transit":false,"time":2},{"line":2,"distance":2671,"i_long":106.838896,"i_lat":-6.3080680000000005,"transit":false,"station_id":"TNT","is_transit":false,"station_name":"Tanjung Barat","time":3},{"is_transit":false,"distance":2820,"station_id":"PSM","station_name":"Pasar Minggu","i_long":106.843999,"line":2,"transit":false,"time":4,"i_lat":-6.2842400000000005},{"station_name":"Pasar Minggu Baru","distance":2380,"transit":false,"i_long":106.851577,"station_id":"PSMB","i_lat":-6.263214,"line":2,"is_transit":false,"time":2},{"station_id":"DRN","distance":824,"transit":false,"time":2,"station_name":"Duren Kalibata","is_transit":false,"i_long":106.85449,"i_lat":-6.255332,"line":2},{"is_transit":false,"station_name":"Cawang","i_long":106.856607,"distance":1546,"time":3,"transit":false,"line":2,"station_id":"CW","i_lat":-6.242512},{"i_lat":-6.226659,"time":2,"distance":1230,"i_long":106.857948,"transit":false,"is_transit":false,"station_name":"Tebet","station_id":"TEB","line":2},{"line":2,"distance":2610,"i_lat":-6.209883,"station_name":"Manggarai","station_id":"MRI","time":4,"transit":false,"is_transit":false,"i_long":106.84912},{"transit":false,"distance":1590,"station_name":"Cikini","i_lat":-6.198556,"i_long":106.840169,"time":4,"is_transit":false,"line":2,"station_id":"CKI"},{"station_name":"Gondangdia","time":3,"distance":1750,"transit":false,"station_id":"GDD","i_lat":-6.186295,"i_long":106.832183,"is_transit":false,"line":2},{"i_long":106.828284,"time":4,"station_id":"JUA","is_transit":false,"station_name":"Juanda","distance":2015,"i_lat":-6.166716,"line":2,"transit":false},{"station_name":"Sawah Besar","line":2,"time":2,"transit":false,"i_long":106.827103,"station_id":"SW","distance":1149,"i_lat":-6.160725,"is_transit":false},{"time":2,"is_transit":false,"distance":906,"i_lat":-6.149769,"station_name":"Manggabesar","line":2,"transit":false,"station_id":"MGB","i_long":106.82482},{"distance":1080,"is_transit":false,"i_long":106.820901,"i_lat":-6.141205,"station_name":"Jayakarta","line":2,"station_id":"JAY","time":2,"transit":false}],[{"time":0,"line":2,"transit":false,"station_id":"POC","is_transit":false,"i_lat":-6.369073,"station_name":"Pondok Cina","distance":0,"i_long":106.831114},{"time":2,"line":2,"i_lat":-6.360749,"transit":false,"station_id":"UI","is_transit":false,"station_name":"Univ. Indonesia","i_long":106.831474,"distance":1109},{"i_lat":-6.339291,"i_long":106.834175,"time":3,"station_id":"UP","distance":2264,"transit":false,"is_transit":false,"station_name":"Univ. Pancasila","line":2},{"distance":1029,"is_transit":false,"i_lat":-6.330363,"transit":false,"station_id":"LNA","i_long":106.832616,"station_name":"Lenteng Agung","time":2,"line":2},{"transit":false,"i_long":106.838896,"station_id":"TNT","is_transit":false,"time":3,"distance":2671,"station_name":"Tanjung Barat","i_lat":-6.3080680000000005,"line":2},{"station_name":"Pasar Minggu","station_id":"PSM","i_long":106.843999,"line":2,"is_transit":false,"i_lat":-6.2842400000000005,"time":4,"transit":false,"distance":2820},{"line":2,"i_lat":-6.263214,"i_long":106.851577,"transit":false,"is_transit":false,"distance":2380,"station_id":"PSMB","station_name":"Pasar Minggu Baru","time":2},{"station_id":"DRN","station_name":"Duren Kalibata","is_transit":false,"i_long":106.85449,"line":2,"time":2,"i_lat":-6.255332,"distance":824,"transit":false},{"time":3,"is_transit":false,"station_id":"CW","station_name":"Cawang","i_lat":-6.242512,"i_long":106.856607,"transit":false,"distance":1546,"line":2},{"transit":false,"station_id":"TEB","time":2,"station_name":"Tebet","distance":1230,"i_lat":-6.226659,"i_long":106.857948,"is_transit":false,"line":2},{"i_long":106.84912,"i_lat":-6.209883,"distance":2610,"station_name":"Manggarai","station_id":"MRI","time":4,"transit":true,"is_transit":true,"line":2},{"is_transit":false,"i_lat":-6.202263,"i_long":106.822649,"transit":false,"time":4,"distance":3186,"station_name":"Sudirman","line":1,"station_id":"SUD"},{"station_id":"SUDB","i_lat":-6.201433,"is_transit":false,"time":1,"distance":280,"i_long":106.819881,"station_name":"Sudirman Baru","transit":false,"line":1},{"station_id":"KAT","is_transit":false,"i_long":106.816351,"i_lat":-6.20132,"transit":false,"distance":471,"time":1,"station_name":"Karet","line":1},{"distance":2029,"time":5,"line":1,"i_lat":-6.185545,"station_name":"Tanah Abang","i_long":106.811091,"transit":false,"station_id":"THB","is_transit":false},{"station_name":"Duri","i_lat":-6.155215,"distance":3632,"transit":false,"is_transit":false,"station_id":"DU","i_long":106.800832,"line":1,"time":8},{"i_long":106.79867,"station_name":"Angke","transit":false,"station_id":"AK","is_transit":false,"i_lat":-6.144674,"distance":1230,"line":1,"time":4},{"station_name":"Kampung Bandan","distance":4102,"i_lat":-6.132549,"transit":true,"line":4,"is_transit":true,"i_long":106.826365,"time":9,"station_id":"KPB"},{"i_lat":-6.137569,"i_long":106.812439,"station_id":"JAKK","distance":1364,"station_name":"Jakarta Kota","line":2,"transit":true,"time":3,"is_transit":true},{"station_id":"JAY","i_lat":-6.141205,"line":2,"transit":false,"station_name":"Jayakarta","i_long":106.820901,"time":4,"distance":1264,"is_transit":false}],[{"transit":false,"i_long":106.831114,"i_lat":-6.369073,"line":2,"distance":0,"station_name":"Pondok Cina","is_transit":false,"time":0,"station_id":"POC"},{"distance":1109,"is_transit":false,"station_id":"UI","i_long":106.831474,"line":2,"station_name":"Univ. Indonesia","time":2,"transit":false,"i_lat":-6.360749},{"is_transit":false,"i_lat":-6.339291,"station_name":"Univ. Pancasila","transit":false,"distance":2264,"station_id":"UP","i_long":106.834175,"line":2,"time":3},{"station_id":"LNA","station_name":"Lenteng Agung","i_long":106.832616,"time":2,"transit":false,"is_transit":false,"i_lat":-6.330363,"line":2,"distance":1029},{"transit":false,"is_transit":false,"i_lat":-6.3080680000000005,"i_long":106.838896,"station_id":"TNT","time":3,"line":2,"station_name":"Tanjung Barat","distance":2671},{"is_transit":false,"line":2,"i_long":106.843999,"distance":2820,"transit":false,"station_name":"Pasar Minggu","time":4,"station_id":"PSM","i_lat":-6.2842400000000005},{"distance":2380,"station_id":"PSMB","station_name":"Pasar Minggu Baru","i_lat":-6.263214,"transit":false,"line":2,"i_long":106.851577,"is_transit":false,"time":2},{"station_id":"DRN","station_name":"Duren Kalibata","time":2,"distance":824,"is_transit":false,"i_lat":-6.255332,"i_long":106.85449,"line":2,"transit":false},{"distance":1546,"line":2,"transit":false,"station_id":"CW","i_lat":-6.242512,"is_transit":false,"station_name":"Cawang","i_long":106.856607,"time":3},{"transit":false,"time":2,"station_name":"Tebet","i_long":106.857948,"station_id":"TEB","is_transit":false,"distance":1230,"i_lat":-6.226659,"line":2},{"time":4,"is_transit":true,"i_long":106.84912,"line":2,"i_lat":-6.209883,"distance":2610,"transit":true,"station_name":"Manggarai","station_id":"MRI"},{"i_lat":-6.212485,"i_long":106.858896,"line":1,"time":2,"station_id":"MTR","distance":1275,"transit":false,"is_transit":false,"station_name":"Matraman"},{"station_id":"JNG","transit":true,"station_name":"Jatinegara","time":8,"distance":1377,"i_long":106.86807400000001,"i_lat":-6.215091,"is_transit":true,"line":1},{"station_id":"POK","line":11,"i_lat":-6.209188,"is_transit":false,"transit":false,"i_long":106.861737,"station_name":"Pondok Jati","time":2,"distance":1236},{"transit":false,"distance":1829,"i_lat":-6.193792,"is_transit":false,"station_name":"Kramat","time":2,"line":11,"station_id":"KMT","i_long":106.855437},{"station_name":"Gang Sentiong","i_long":106.850107,"time":1,"station_id":"GST","is_transit":false,"transit":false,"i_lat":-6.185975,"distance":973,"line":11},{"is_transit":false,"station_id":"PSE","i_long":106.84368,"line":11,"transit":false,"station_name":"Pasar Senen","time":8,"distance":1567,"i_lat":-6.174784},{"is_transit":false,"i_long":106.839204,"transit":false,"station_id":"KMO","line":11,"distance":1436,"station_name":"Kemayoran","time":4,"i_lat":-6.161728},{"transit":false,"i_long":106.836569,"i_lat":-6.14505,"station_name":"Rajawali","is_transit":false,"distance":1901,"line":11,"time":5,"station_id":"RJW"},{"distance":1444,"time":3,"station_id":"KPB","is_transit":true,"transit":true,"station_name":"Kampung Bandan","i_lat":-6.132549,"i_long":106.826365,"line":4},{"i_long":106.812439,"station_name":"Jakarta Kota","distance":1364,"station_id":"JAKK","time":3,"is_transit":true,"transit":true,"i_lat":-6.137569,"line":2},{"is_transit":false,"station_name":"Jayakarta","i_long":106.820901,"time":4,"line":2,"transit":false,"i_lat":-6.141205,"station_id":"JAY","distance":1264}]]}