{"data":[[{"distance":0,"line":2,"i_lat":-6.369073,"transit":false,"station_id":"POC","is_transit":false,"i_long":106.831114,"station_name":"Pondok Cina","time":0},{"transit":false,"time":4,"distance":2727,"station_name":"Depokbaru","line":2,"i_long":106.819451,"i_lat":-6.391065,"is_transit":false,"station_id":"DPB"},{"line":2,"time":3,"station_name":"Depok","distance":1584,"i_lat":-6.405256,"transit":false,"is_transit":false,"i_long":106.816926,"station_id":"DP"},{"is_transit":true,"transit":true,"i_long":106.800298,"line":2,"distance":5084,"station_name":"Citayam","i_lat":-6.448811,"station_id":"CTA","time":6},{"distance":0,"station_name":"Pondok Rajeg","i_lat":-6.460735,"station_id":"PDRG","line":21,"time":0,"is_transit":false,"transit":false,"i_long":106.824374},{"i_lat":-6.46424,"i_long":106.851978,"distance":0,"time":0,"transit":false,"is_transit":false,"line":21,"station_id":"CBN","station_name":"Cibinong"}]]}