{"data":[[{"line":2,"is_transit":false,"distance":0,"i_long":106.831114,"transit":false,"i_lat":-6.369073,"time":0,"station_name":"Pondok Cina","station_id":"POC"},{"is_transit":false,"i_long":106.831474,"station_name":"Univ. Indonesia","i_lat":-6.360749,"transit":false,"station_id":"UI","time":2,"distance":1109,"line":2},{"time":3,"i_long":106.834175,"line":2,"distance":2264,"i_lat":-6.339291,"is_transit":false,"transit":false,"station_id":"UP","station_name":"Univ. Pancasila"},{"time":2,"i_lat":-6.330363,"station_name":"Lenteng Agung","station_id":"LNA","is_transit":false,"i_long":106.832616,"line":2,"transit":false,"distance":1029},{"line":2,"transit":false,"distance":2671,"i_lat":-6.3080680000000005,"time":3,"i_long":106.838896,"station_name":"Tanjung Barat","is_transit":false,"station_id":"TNT"},{"station_id":"PSM","is_transit":false,"distance":2820,"transit":false,"i_lat":-6.2842400000000005,"line":2,"time":4,"i_long":106.843999,"station_name":"Pasar Minggu"},{"station_id":"PSMB","station_name":"Pasar Minggu Baru","time":2,"distance":2380,"is_transit":false,"i_lat":-6.263214,"line":2,"i_long":106.851577,"transit":false},{"i_long":106.85449,"station_name":"Duren Kalibata","transit":false,"station_id":"DRN","distance":824,"is_transit":false,"time":2,"i_lat":-6.255332,"line":2},{"i_long":106.856607,"station_name":"Cawang","station_id":"CW","time":3,"i_lat":-6.242512,"line":2,"transit":false,"is_transit":false,"distance":1546},{"distance":1230,"i_lat":-6.226659,"station_id":"TEB","time":2,"station_name":"Tebet","is_transit":false,"transit":false,"i_long":106.857948,"line":2},{"station_id":"MRI","i_lat":-6.209883,"station_name":"Manggarai","i_long":106.84912,"time":4,"transit":false,"distance":2610,"line":2,"is_transit":false},{"i_lat":-6.198556,"is_transit":false,"i_long":106.840169,"station_name":"Cikini","line":2,"transit":false,"station_id":"CKI","time":4,"distance":1590},{"station_name":"Gondangdia","station_id":"GDD","distance":1750,"transit":false,"is_transit":false,"line":2,"i_lat":-6.186295,"i_long":106.832183,"time":3},{"time":4,"transit":false,"station_id":"JUA","is_transit":false,"i_lat":-6.166716,"line":2,"station_name":"Juanda","distance":2015,"i_long":106.828284},{"is_transit":false,"time":2,"transit":false,"line":2,"station_id":"SW","i_lat":-6.160725,"station_name":"Sawah Besar","i_long":106.827103,"distance":1149}],[{"i_lat":-6.369073,"line":2,"station_name":"Pondok Cina","time":0,"station_id":"POC","i_long":106.831114,"is_transit":false,"distance":0,"transit":false},{"distance":1109,"i_long":106.831474,"station_name":"Univ. Indonesia","i_lat":-6.360749,"is_transit":false,"line":2,"station_id":"UI","transit":false,"time":2},{"line":2,"is_transit":false,"i_long":106.834175,"time":3,"distance":2264,"i_lat":-6.339291,"transit":false,"station_name":"Univ. Pancasila","station_id":"UP"},{"station_id":"LNA","station_name":"Lenteng Agung","i_lat":-6.330363,"transit":false,"is_transit":false,"time":2,"distance":1029,"i_long":106.832616,"line":2},{"station_id":"TNT","transit":false,"is_transit":false,"station_name":"Tanjung Barat","time":3,"distance":2671,"i_lat":-6.3080680000000005,"i_long":106.838896,"line":2},{"station_id":"PSM","transit":false,"is_transit":false,"distance":2820,"i_long":106.843999,"time":4,"station_name":"Pasar Minggu","i_lat":-6.2842400000000005,"line":2},{"is_transit":false,"distance":2380,"i_lat":-6.263214,"line":2,"transit":false,"station_name":"Pasar Minggu Baru","station_id":"PSMB","i_long":106.851577,"time":2},{"i_lat":-6.255332,"transit":false,"line":2,"station_id":"DRN","i_long":106.85449,"distance":824,"station_name":"Duren Kalibata","is_transit":false,"time":2},{"i_lat":-6.242512,"line":2,"i_long":106.856607,"station_name":"Cawang","distance":1546,"station_id":"CW","transit":false,"is_transit":false,"time":3},{"transit":false,"time":2,"station_id":"TEB","line":2,"is_transit":false,"i_lat":-6.226659,"distance":1230,"station_name":"Tebet","i_long":106.857948},{"line":2,"transit":true,"time":4,"i_long":106.84912,"is_transit":true,"distance":2610,"station_name":"Manggarai","station_id":"MRI","i_lat":-6.209883},{"station_id":"SUD","i_lat":-6.202263,"line":1,"transit":false,"is_transit":false,"time":4,"distance":3186,"i_long":106.822649,"station_name":"Sudirman"},{"is_transit":false,"i_long":106.819881,"distance":280,"line":1,"time":1,"station_id":"SUDB","station_name":"Sudirman Baru","transit":false,"i_lat":-6.201433},{"line":1,"time":1,"distance":471,"transit":false,"is_transit":false,"i_lat":-6.20132,"i_long":106.816351,"station_name":"Karet","station_id":"KAT"},{"station_name":"Tanah Abang","station_id":"THB","distance":2029,"transit":false,"i_lat":-6.185545,"i_long":106.811091,"time":5,"line":1,"is_transit":false},{"station_id":"DU","time":8,"i_lat":-6.155215,"distance":3632,"transit":false,"line":1,"is_transit":false,"station_name":"Duri","i_long":106.800832},{"line":1,"i_long":106.79867,"is_transit":false,"transit":false,"time":4,"station_name":"Angke","distance":1230,"station_id":"AK","i_lat":-6.144674},{"station_id":"KPB","i_lat":-6.132549,"line":4,"distance":4102,"i_long":106.826365,"is_transit":true,"transit":true,"time":9,"station_name":"Kampung Bandan"},{"i_long":106.812439,"distance":1364,"station_name":"Jakarta Kota","is_transit":true,"time":3,"i_lat":-6.137569,"station_id":"JAKK","transit":true,"line":2},{"station_id":"JAY","distance":1264,"station_name":"Jayakarta","line":2,"i_long":106.820901,"is_transit":false,"transit":false,"time":4,"i_lat":-6.141205},{"is_transit":false,"station_id":"MGB","time":2,"distance":1080,"line":2,"i_lat":-6.149769,"i_long":106.82482,"station_name":"Manggabesar","transit":false},{"i_long":106.827103,"station_id":"SW","is_transit":false,"line":2,"distance":906,"station_name":"Sawah Besar","time":2,"i_lat":-6.160725,"transit":false}],[{"line":2,"station_name":"Pondok Cina","station_id":"POC","time":0,"i_long":106.831114,"is_transit":false,"transit":false,"distance":0,"i_lat":-6.369073},{"station_id":"UI","station_name":"Univ. Indonesia","i_long":106.831474,"transit":false,"line":2,"distance":1109,"i_lat":-6.360749,"time":2,"is_transit":false},{"is_transit":false,"transit":false,"station_id":"UP","line":2,"i_lat":-6.339291,"station_name":"Univ. Pancasila","distance":2264,"i_long":106.834175,"time":3},{"i_lat":-6.330363,"i_long":106.832616,"line":2,"is_transit":false,"transit":false,"station_name":"Lenteng Agung","station_id":"LNA","distance":1029,"time":2},{"i_lat":-6.3080680000000005,"time":3,"station_id":"TNT","station_name":"Tanjung Barat","i_long":106.838896,"line":2,"distance":2671,"is_transit":false,"transit":false},{"station_id":"PSM","i_long":106.843999,"time":4,"transit":false,"distance":2820,"i_lat":-6.2842400000000005,"station_name":"Pasar Minggu","is_transit":false,"line":2},{"transit":false,"is_transit":false,"line":2,"i_long":106.851577,"time":2,"station_name":"Pasar Minggu Baru","distance":2380,"i_lat":-6.263214,"station_id":"PSMB"},{"distance":824,"line":2,"i_long":106.85449,"station_name":"Duren Kalibata","station_id":"DRN","time":2,"is_transit":false,"i_lat":-6.255332,"transit":false},{"distance":1546,"i_long":106.856607,"i_lat":-6.242512,"station_name":"Cawang","is_transit":false,"station_id":"CW","line":2,"time":3,"transit":false},{"station_name":"Tebet","is_transit":false,"time":2,"distance":1230,"i_long":106.857948,"station_id":"TEB","i_lat":-6.226659,"transit":false,"line":2},{"station_name":"Manggarai","transit":true,"time":4,"i_long":106.84912,"line":2,"station_id":"MRI","is_transit":true,"distance":2610,"i_lat":-6.209883},{"i_long":106.858896,"station_id":"MTR","is_transit":false,"station_name":"Matraman","line":1,"i_lat":-6.212485,"transit":false,"time":2,"distance":1275},{"time":8,"distance":1377,"station_name":"Jatinegara","transit":true,"station_id":"JNG","i_lat":-6.215091,"i_long":106.86807400000001,"line":1,"is_transit":true},{"station_id":"POK","i_lat":-6.209188,"distance":1236,"station_name":"Pondok Jati","transit":false,"time":2,"line":11,"i_long":106.861737,"is_transit":false},{"time":2,"transit":false,"station_id":"KMT","i_lat":-6.193792,"i_long":106.855437,"is_transit":false,"distance":1829,"station_name":"Kramat","line":11},{"transit":false,"station_id":"GST","is_transit":false,"distance":973,"station_name":"Gang Sentiong","i_long":106.850107,"i_lat":-6.185975,"line":11,"time":1},{"i_lat":-6.174784,"line":11,"distance":1567,"transit":false,"station_name":"Pasar Senen","is_transit":false,"station_id":"PSE","time":8,"i_long":106.84368},{"station_id":"KMO","i_lat":-6.161728,"station_name":"Kemayoran","time":4,"distance":1436,"i_long":106.839204,"transit":false,"is_transit":false,"line":11},{"i_lat":-6.14505,"is_transit":false,"distance":1901,"transit":false,"station_name":"Rajawali","time":5,"line":11,"station_id":"RJW","i_long":106.836569},{"distance":1444,"line":4,"i_lat":-6.132549,"transit":true,"station_id":"KPB","i_long":106.826365,"is_transit":true,"time":3,"station_name":"Kampung Bandan"},{"station_id":"JAKK","is_transit":true,"i_lat":-6.137569,"station_name":"Jakarta Kota","time":3,"line":2,"transit":true,"i_long":106.812439,"distance":1364},{"time":4,"line":2,"transit":false,"station_name":"Jayakarta","i_long":106.820901,"station_id":"JAY","i_lat":-6.141205,"distance":1264,"is_transit":false},{"line":2,"station_id":"MGB","distance":1080,"time":2,"is_transit":false,"i_lat":-6.149769,"transit":false,"station_name":"Manggabesar","i_long":106.82482},{"is_transit":false,"station_name":"Sawah Besar","distance":906,"transit":false,"i_lat":-6.160725,"line":2,"station_id":"SW","i_long":106.827103,"time":2}]]}