{"data":[[{"transit":false,"station_name":"Pondok Cina","time":0,"i_lat":-6.369073,"station_id":"POC","i_long":106.831114,"distance":0,"line":2,"is_transit":false},{"station_id":"UI","i_lat":-6.360749,"transit":false,"is_transit":false,"time":2,"i_long":106.831474,"line":2,"distance":1109,"station_name":"Univ. Indonesia"},{"is_transit":false,"line":2,"station_name":"Univ. Pancasila","station_id":"UP","distance":2264,"i_long":106.834175,"i_lat":-6.339291,"transit":false,"time":3},{"time":2,"station_id":"LNA","i_lat":-6.330363,"i_long":106.832616,"distance":1029,"transit":false,"line":2,"station_name":"Lenteng Agung","is_transit":false},{"station_id":"TNT","i_lat":-6.3080680000000005,"station_name":"Tanjung Barat","i_long":106.838896,"is_transit":false,"distance":2671,"transit":false,"line":2,"time":3},{"distance":2820,"transit":false,"i_long":106.843999,"station_id":"PSM","station_name":"Pasar Minggu","line":2,"is_transit":false,"i_lat":-6.2842400000000005,"time":4},{"i_long":106.851577,"line":2,"transit":false,"i_lat":-6.263214,"time":2,"station_name":"Pasar Minggu Baru","is_transit":false,"distance":2380,"station_id":"PSMB"},{"is_transit":false,"line":2,"i_lat":-6.255332,"time":2,"transit":false,"station_id":"DRN","station_name":"Duren Kalibata","i_long":106.85449,"distance":824},{"time":3,"is_transit":false,"i_long":106.856607,"station_name":"Cawang","station_id":"CW","line":2,"transit":false,"i_lat":-6.242512,"distance":1546},{"line":2,"distance":1230,"transit":false,"station_id":"TEB","time":2,"i_long":106.857948,"is_transit":false,"station_name":"Tebet","i_lat":-6.226659},{"line":2,"transit":true,"i_lat":-6.209883,"i_long":106.84912,"station_id":"MRI","station_name":"Manggarai","distance":2610,"time":4,"is_transit":true},{"i_long":106.858896,"line":1,"time":2,"station_id":"MTR","distance":1275,"station_name":"Matraman","is_transit":false,"i_lat":-6.212485,"transit":false},{"is_transit":false,"i_lat":-6.215091,"station_name":"Jatinegara","time":8,"station_id":"JNG","line":1,"transit":false,"i_long":106.86807400000001,"distance":1377}],[{"is_transit":false,"distance":0,"i_long":106.831114,"i_lat":-6.369073,"station_id":"POC","station_name":"Pondok Cina","line":2,"transit":false,"time":0},{"line":2,"station_id":"UI","is_transit":false,"transit":false,"station_name":"Univ. Indonesia","distance":1109,"time":2,"i_lat":-6.360749,"i_long":106.831474},{"distance":2264,"line":2,"transit":false,"is_transit":false,"time":3,"station_name":"Univ. Pancasila","i_lat":-6.339291,"i_long":106.834175,"station_id":"UP"},{"is_transit":false,"i_lat":-6.330363,"line":2,"transit":false,"station_name":"Lenteng Agung","time":2,"i_long":106.832616,"station_id":"LNA","distance":1029},{"line":2,"transit":false,"station_id":"TNT","i_long":106.838896,"time":3,"i_lat":-6.3080680000000005,"station_name":"Tanjung Barat","is_transit":false,"distance":2671},{"i_lat":-6.2842400000000005,"line":2,"station_id":"PSM","i_long":106.843999,"distance":2820,"time":4,"transit":false,"is_transit":false,"station_name":"Pasar Minggu"},{"distance":2380,"line":2,"transit":false,"time":2,"is_transit":false,"station_id":"PSMB","i_lat":-6.263214,"station_name":"Pasar Minggu Baru","i_long":106.851577},{"time":2,"is_transit":false,"i_lat":-6.255332,"i_long":106.85449,"station_id":"DRN","transit":false,"distance":824,"line":2,"station_name":"Duren Kalibata"},{"transit":false,"i_lat":-6.242512,"i_long":106.856607,"line":2,"distance":1546,"station_id":"CW","time":3,"station_name":"Cawang","is_transit":false},{"is_transit":false,"i_lat":-6.226659,"station_name":"Tebet","time":2,"transit":false,"i_long":106.857948,"line":2,"station_id":"TEB","distance":1230},{"transit":true,"line":2,"time":4,"i_lat":-6.209883,"distance":2610,"station_name":"Manggarai","i_long":106.84912,"is_transit":true,"station_id":"MRI"},{"station_name":"Sudirman","i_long":106.822649,"station_id":"SUD","distance":3186,"line":1,"transit":false,"is_transit":false,"time":4,"i_lat":-6.202263},{"i_long":106.819881,"i_lat":-6.201433,"distance":280,"station_name":"Sudirman Baru","station_id":"SUDB","transit":false,"time":1,"is_transit":false,"line":1},{"time":1,"transit":false,"line":1,"is_transit":false,"distance":471,"i_long":106.816351,"station_id":"KAT","station_name":"Karet","i_lat":-6.20132},{"station_id":"THB","time":5,"station_name":"Tanah Abang","is_transit":false,"distance":2029,"transit":false,"i_lat":-6.185545,"line":1,"i_long":106.811091},{"time":8,"station_name":"Duri","is_transit":false,"i_lat":-6.155215,"i_long":106.800832,"station_id":"DU","transit":false,"distance":3632,"line":1},{"distance":1230,"station_name":"Angke","i_long":106.79867,"is_transit":false,"i_lat":-6.144674,"transit":false,"station_id":"AK","time":4,"line":1},{"i_lat":-6.132549,"distance":4102,"is_transit":true,"time":9,"station_name":"Kampung Bandan","transit":true,"station_id":"KPB","i_long":106.826365,"line":4},{"i_long":106.836569,"i_lat":-6.14505,"is_transit":false,"transit":false,"time":3,"line":11,"station_name":"Rajawali","station_id":"RJW","distance":1444},{"station_name":"Kemayoran","i_long":106.839204,"transit":false,"is_transit":false,"i_lat":-6.161728,"station_id":"KMO","time":5,"line":11,"distance":1901},{"i_lat":-6.174784,"i_long":106.84368,"line":11,"transit":false,"is_transit":false,"distance":1436,"time":4,"station_id":"PSE","station_name":"Pasar Senen"},{"line":11,"station_name":"Gang Sentiong","i_lat":-6.185975,"distance":1567,"station_id":"GST","transit":false,"is_transit":false,"time":8,"i_long":106.850107},{"i_long":106.855437,"line":11,"distance":973,"station_name":"Kramat","transit":false,"station_id":"KMT","time":1,"is_transit":false,"i_lat":-6.193792},{"station_name":"Pondok Jati","i_lat":-6.209188,"transit":false,"distance":1829,"line":11,"station_id":"POK","time":2,"is_transit":false,"i_long":106.861737},{"distance":1236,"time":9,"transit":false,"station_id":"JNG","i_lat":-6.215091,"is_transit":false,"line":1,"i_long":106.86807400000001,"station_name":"Jatinegara"}],[{"station_id":"POC","time":0,"station_name":"Pondok Cina","line":2,"i_lat":-6.369073,"transit":false,"distance":0,"is_transit":false,"i_long":106.831114},{"is_transit":false,"transit":false,"i_long":106.831474,"distance":1109,"line":2,"i_lat":-6.360749,"time":2,"station_id":"UI","station_name":"Univ. Indonesia"},{"station_id":"UP","time":3,"distance":2264,"i_lat":-6.339291,"line":2,"i_long":106.834175,"is_transit":false,"station_name":"Univ. Pancasila","transit":false},{"i_long":106.832616,"is_transit":false,"line":2,"station_name":"Lenteng Agung","distance":1029,"i_lat":-6.330363,"station_id":"LNA","transit":false,"time":2},{"transit":false,"is_transit":false,"distance":2671,"i_lat":-6.3080680000000005,"time":3,"line":2,"i_long":106.838896,"station_name":"Tanjung Barat","station_id":"TNT"},{"station_id":"PSM","line":2,"distance":2820,"station_name":"Pasar Minggu","i_lat":-6.2842400000000005,"transit":false,"is_transit":false,"i_long":106.843999,"time":4},{"distance":2380,"i_long":106.851577,"station_id":"PSMB","is_transit":false,"i_lat":-6.263214,"transit":false,"station_name":"Pasar Minggu Baru","time":2,"line":2},{"transit":false,"i_long":106.85449,"time":2,"is_transit":false,"station_id":"DRN","line":2,"distance":824,"station_name":"Duren Kalibata","i_lat":-6.255332},{"i_lat":-6.242512,"time":3,"transit":false,"station_name":"Cawang","line":2,"station_id":"CW","is_transit":false,"distance":1546,"i_long":106.856607},{"transit":false,"i_long":106.857948,"distance":1230,"line":2,"i_lat":-6.226659,"time":2,"station_id":"TEB","station_name":"Tebet","is_transit":false},{"is_transit":false,"i_lat":-6.209883,"i_long":106.84912,"transit":false,"line":2,"distance":2610,"station_id":"MRI","time":4,"station_name":"Manggarai"},{"line":2,"i_long":106.840169,"station_name":"Cikini","time":4,"station_id":"CKI","is_transit":false,"distance":1590,"transit":false,"i_lat":-6.198556},{"i_long":106.832183,"station_id":"GDD","transit":false,"line":2,"distance":1750,"is_transit":false,"time":3,"i_lat":-6.186295,"station_name":"Gondangdia"},{"transit":false,"distance":2015,"time":4,"station_name":"Juanda","i_lat":-6.166716,"i_long":106.828284,"station_id":"JUA","is_transit":false,"line":2},{"line":2,"station_id":"SW","i_long":106.827103,"time":2,"transit":false,"station_name":"Sawah Besar","i_lat":-6.160725,"is_transit":false,"distance":1149},{"is_transit":false,"line":2,"station_id":"MGB","transit":false,"distance":906,"i_lat":-6.149769,"station_name":"Manggabesar","i_long":106.82482,"time":2},{"i_lat":-6.141205,"i_long":106.820901,"transit":false,"line":2,"station_id":"JAY","time":2,"station_name":"Jayakarta","is_transit":false,"distance":1080},{"time":4,"line":2,"distance":1264,"transit":true,"station_name":"Jakarta Kota","i_lat":-6.137569,"i_long":106.812439,"station_id":"JAKK","is_transit":true},{"i_lat":-6.132549,"is_transit":true,"station_id":"KPB","line":4,"distance":1364,"i_long":106.826365,"station_name":"Kampung Bandan","transit":true,"time":3},{"transit":false,"i_long":106.836569,"time":3,"station_id":"RJW","station_name":"Rajawali","i_lat":-6.14505,"distance":1444,"is_transit":false,"line":11},{"station_id":"KMO","transit":false,"station_name":"Kemayoran","i_long":106.839204,"distance":1901,"line":11,"is_transit":false,"time":5,"i_lat":-6.161728},{"i_lat":-6.174784,"time":4,"line":11,"station_name":"Pasar Senen","i_long":106.84368,"station_id":"PSE","distance":1436,"is_transit":false,"transit":false},{"distance":1567,"station_id":"GST","line":11,"i_long":106.850107,"time":8,"is_transit":false,"i_lat":-6.185975,"transit":false,"station_name":"Gang Sentiong"},{"transit":false,"station_id":"KMT","time":1,"station_name":"Kramat","distance":973,"is_transit":false,"i_long":106.855437,"i_lat":-6.193792,"line":11},{"i_lat":-6.209188,"line":11,"station_name":"Pondok Jati","station_id":"POK","time":2,"is_transit":false,"transit":false,"distance":1829,"i_long":106.861737},{"station_name":"Jatinegara","time":9,"transit":false,"is_transit":false,"station_id":"JNG","line":1,"i_lat":-6.215091,"distance":1236,"i_long":106.86807400000001}]]}