{"data":[[{"distance":0,"line":2,"is_transit":false,"transit":false,"station_id":"POC","i_lat":-6.369073,"i_long":106.831114,"time":0,"station_name":"Pondok Cina"},{"transit":false,"i_long":106.831474,"line":2,"is_transit":false,"i_lat":-6.360749,"time":2,"distance":1109,"station_name":"Univ. Indonesia","station_id":"UI"},{"i_lat":-6.339291,"transit":false,"station_name":"Univ. Pancasila","is_transit":false,"station_id":"UP","time":3,"i_long":106.834175,"line":2,"distance":2264},{"distance":1029,"is_transit":false,"transit":false,"time":2,"i_long":106.832616,"i_lat":-6.330363,"station_id":"LNA","line":2,"station_name":"Lenteng Agung"},{"distance":2671,"station_name":"Tanjung Barat","time":3,"i_lat":-6.3080680000000005,"station_id":"TNT","line":2,"i_long":106.838896,"transit":false,"is_transit":false},{"i_long":106.843999,"time":4,"i_lat":-6.2842400000000005,"line":2,"transit":false,"distance":2820,"station_id":"PSM","is_transit":false,"station_name":"Pasar Minggu"},{"station_name":"Pasar Minggu Baru","i_lat":-6.263214,"station_id":"PSMB","time":2,"i_long":106.851577,"line":2,"distance":2380,"transit":false,"is_transit":false},{"transit":false,"i_lat":-6.255332,"station_id":"DRN","i_long":106.85449,"is_transit":false,"distance":824,"line":2,"time":2,"station_name":"Duren Kalibata"},{"is_transit":false,"station_id":"CW","station_name":"Cawang","time":3,"distance":1546,"i_lat":-6.242512,"i_long":106.856607,"line":2,"transit":false},{"station_id":"TEB","is_transit":false,"distance":1230,"i_long":106.857948,"transit":false,"time":2,"i_lat":-6.226659,"station_name":"Tebet","line":2},{"is_transit":true,"line":2,"station_id":"MRI","station_name":"Manggarai","distance":2610,"transit":true,"time":4,"i_lat":-6.209883,"i_long":106.84912},{"distance":1275,"time":2,"i_lat":-6.212485,"line":1,"transit":false,"station_name":"Matraman","station_id":"MTR","i_long":106.858896,"is_transit":false},{"line":1,"i_lat":-6.215091,"i_long":106.86807400000001,"time":8,"is_transit":false,"distance":1377,"transit":false,"station_id":"JNG","station_name":"Jatinegara"},{"is_transit":false,"i_lat":-6.2135,"line":1,"distance":3395,"station_id":"KLD","time":3,"station_name":"Klender","i_long":106.899548,"transit":false},{"is_transit":false,"station_name":"Buaran","line":1,"transit":false,"station_id":"BUA","i_long":106.922662,"time":2,"distance":3100,"i_lat":-6.215568},{"i_long":106.939679,"i_lat":-6.217455,"line":1,"distance":1305,"station_name":"Klenderbaru","is_transit":false,"station_id":"KLDB","time":1,"transit":false},{"station_id":"CUK","line":1,"station_name":"Cakung","distance":1385,"transit":false,"is_transit":false,"time":8,"i_long":106.951283,"i_lat":-6.219053},{"transit":false,"distance":3097,"line":1,"is_transit":false,"time":3,"station_name":"Kranji","i_long":106.977657,"station_id":"KRI","i_lat":-6.224515},{"transit":false,"distance":2520,"i_lat":-6.236616,"time":4,"line":1,"station_id":"BKS","station_name":"Bekasi","is_transit":false,"i_long":106.997013},{"is_transit":false,"station_id":"BKST","time":2,"station_name":"Bekasi Timur","transit":false,"line":1,"i_lat":-6.248029,"i_long":107.016735,"distance":2368},{"station_name":"Tambun","distance":4460,"transit":false,"i_lat":-6.258864,"time":7,"is_transit":false,"line":1,"i_long":107.055722,"station_id":"TB"},{"i_long":107.083084,"station_name":"Cibitung","time":3,"distance":3420,"is_transit":false,"transit":false,"line":1,"station_id":"CIT","i_lat":-6.261877},{"transit":false,"is_transit":false,"station_name":"Metland Telaga Murni","i_lat":-6.262938,"line":1,"distance":2800,"station_id":"TLM","i_long":107.093313,"time":2},{"transit":false,"i_lat":-6.2553149999999995,"i_long":107.144613,"is_transit":false,"station_id":"CKR","line":1,"time":4,"station_name":"Cikarang","distance":3689}],[{"i_lat":-6.369073,"time":0,"line":2,"is_transit":false,"i_long":106.831114,"station_id":"POC","station_name":"Pondok Cina","distance":0,"transit":false},{"transit":false,"is_transit":false,"station_name":"Univ. Indonesia","i_lat":-6.360749,"i_long":106.831474,"line":2,"station_id":"UI","distance":1109,"time":2},{"station_name":"Univ. Pancasila","station_id":"UP","i_lat":-6.339291,"distance":2264,"i_long":106.834175,"line":2,"is_transit":false,"transit":false,"time":3},{"station_name":"Lenteng Agung","transit":false,"distance":1029,"i_long":106.832616,"line":2,"station_id":"LNA","is_transit":false,"i_lat":-6.330363,"time":2},{"line":2,"time":3,"i_lat":-6.3080680000000005,"is_transit":false,"station_id":"TNT","station_name":"Tanjung Barat","distance":2671,"transit":false,"i_long":106.838896},{"line":2,"transit":false,"time":4,"distance":2820,"station_id":"PSM","is_transit":false,"i_lat":-6.2842400000000005,"i_long":106.843999,"station_name":"Pasar Minggu"},{"i_lat":-6.263214,"distance":2380,"is_transit":false,"transit":false,"i_long":106.851577,"line":2,"station_name":"Pasar Minggu Baru","time":2,"station_id":"PSMB"},{"i_lat":-6.255332,"distance":824,"is_transit":false,"line":2,"time":2,"station_name":"Duren Kalibata","transit":false,"i_long":106.85449,"station_id":"DRN"},{"i_lat":-6.242512,"station_name":"Cawang","is_transit":false,"transit":false,"line":2,"time":3,"i_long":106.856607,"station_id":"CW","distance":1546},{"station_name":"Tebet","is_transit":false,"line":2,"station_id":"TEB","time":2,"i_lat":-6.226659,"i_long":106.857948,"transit":false,"distance":1230},{"i_long":106.84912,"time":4,"station_id":"MRI","is_transit":true,"transit":true,"station_name":"Manggarai","distance":2610,"i_lat":-6.209883,"line":2},{"transit":false,"is_transit":false,"time":4,"distance":3186,"i_long":106.822649,"i_lat":-6.202263,"station_id":"SUD","line":1,"station_name":"Sudirman"},{"time":1,"distance":280,"i_lat":-6.201433,"station_id":"SUDB","station_name":"Sudirman Baru","transit":false,"is_transit":false,"i_long":106.819881,"line":1},{"i_long":106.816351,"distance":471,"time":1,"line":1,"station_id":"KAT","station_name":"Karet","i_lat":-6.20132,"transit":false,"is_transit":false},{"is_transit":false,"i_long":106.811091,"time":5,"station_name":"Tanah Abang","transit":false,"distance":2029,"station_id":"THB","i_lat":-6.185545,"line":1},{"i_lat":-6.155215,"is_transit":false,"line":1,"station_name":"Duri","station_id":"DU","i_long":106.800832,"distance":3632,"transit":false,"time":8},{"station_name":"Angke","station_id":"AK","time":4,"i_lat":-6.144674,"i_long":106.79867,"line":1,"distance":1230,"transit":false,"is_transit":false},{"station_id":"KPB","transit":true,"is_transit":true,"i_long":106.826365,"station_name":"Kampung Bandan","distance":4102,"i_lat":-6.132549,"time":9,"line":4},{"time":3,"station_name":"Rajawali","transit":false,"station_id":"RJW","i_long":106.836569,"line":11,"i_lat":-6.14505,"is_transit":false,"distance":1444},{"time":5,"i_long":106.839204,"station_name":"Kemayoran","transit":false,"distance":1901,"station_id":"KMO","line":11,"is_transit":false,"i_lat":-6.161728},{"i_lat":-6.174784,"i_long":106.84368,"station_id":"PSE","line":11,"time":4,"station_name":"Pasar Senen","transit":false,"distance":1436,"is_transit":false},{"distance":1567,"i_lat":-6.185975,"transit":false,"line":11,"station_id":"GST","is_transit":false,"time":8,"i_long":106.850107,"station_name":"Gang Sentiong"},{"i_long":106.855437,"time":1,"i_lat":-6.193792,"station_name":"Kramat","station_id":"KMT","line":11,"is_transit":false,"distance":973,"transit":false},{"transit":false,"station_id":"POK","distance":1829,"is_transit":false,"i_long":106.861737,"i_lat":-6.209188,"line":11,"station_name":"Pondok Jati","time":2},{"time":9,"i_lat":-6.215091,"station_name":"Jatinegara","distance":1236,"line":1,"is_transit":true,"i_long":106.86807400000001,"transit":true,"station_id":"JNG"},{"is_transit":false,"station_name":"Klender","transit":false,"time":3,"line":1,"i_lat":-6.2135,"station_id":"KLD","distance":3395,"i_long":106.899548},{"time":2,"distance":3100,"is_transit":false,"line":1,"station_name":"Buaran","i_lat":-6.215568,"transit":false,"station_id":"BUA","i_long":106.922662},{"station_name":"Klenderbaru","distance":1305,"transit":false,"i_lat":-6.217455,"i_long":106.939679,"is_transit":false,"station_id":"KLDB","time":1,"line":1},{"station_id":"CUK","time":8,"i_long":106.951283,"is_transit":false,"distance":1385,"transit":false,"i_lat":-6.219053,"station_name":"Cakung","line":1},{"distance":3097,"i_lat":-6.224515,"transit":false,"line":1,"i_long":106.977657,"station_name":"Kranji","is_transit":false,"station_id":"KRI","time":3},{"station_id":"BKS","i_lat":-6.236616,"distance":2520,"line":1,"i_long":106.997013,"time":4,"transit":false,"station_name":"Bekasi","is_transit":false},{"i_lat":-6.248029,"station_name":"Bekasi Timur","is_transit":false,"distance":2368,"station_id":"BKST","i_long":107.016735,"line":1,"time":2,"transit":false},{"is_transit":false,"distance":4460,"i_lat":-6.258864,"transit":false,"i_long":107.055722,"time":7,"line":1,"station_name":"Tambun","station_id":"TB"},{"distance":3420,"station_name":"Cibitung","transit":false,"time":3,"i_lat":-6.261877,"i_long":107.083084,"line":1,"station_id":"CIT","is_transit":false},{"station_id":"TLM","time":2,"is_transit":false,"distance":2800,"i_lat":-6.262938,"i_long":107.093313,"line":1,"transit":false,"station_name":"Metland Telaga Murni"},{"line":1,"transit":false,"station_id":"CKR","i_long":107.144613,"is_transit":false,"i_lat":-6.2553149999999995,"time":4,"station_name":"Cikarang","distance":3689}],[{"line":2,"station_name":"Pondok Cina","transit":false,"i_long":106.831114,"station_id":"POC","is_transit":false,"distance":0,"time":0,"i_lat":-6.369073},{"distance":1109,"station_id":"UI","line":2,"time":2,"i_lat":-6.360749,"station_name":"Univ. Indonesia","i_long":106.831474,"is_transit":false,"transit":false},{"station_name":"Univ. Pancasila","transit":false,"distance":2264,"i_lat":-6.339291,"line":2,"i_long":106.834175,"is_transit":false,"station_id":"UP","time":3},{"transit":false,"station_name":"Lenteng Agung","line":2,"station_id":"LNA","distance":1029,"i_long":106.832616,"time":2,"is_transit":false,"i_lat":-6.330363},{"i_lat":-6.3080680000000005,"i_long":106.838896,"line":2,"station_id":"TNT","transit":false,"time":3,"station_name":"Tanjung Barat","is_transit":false,"distance":2671},{"i_long":106.843999,"line":2,"station_name":"Pasar Minggu","transit":false,"is_transit":false,"distance":2820,"station_id":"PSM","time":4,"i_lat":-6.2842400000000005},{"is_transit":false,"distance":2380,"station_name":"Pasar Minggu Baru","i_lat":-6.263214,"i_long":106.851577,"time":2,"station_id":"PSMB","transit":false,"line":2},{"i_lat":-6.255332,"station_name":"Duren Kalibata","line":2,"time":2,"station_id":"DRN","transit":false,"is_transit":false,"i_long":106.85449,"distance":824},{"line":2,"distance":1546,"is_transit":false,"station_name":"Cawang","transit":false,"i_long":106.856607,"station_id":"CW","i_lat":-6.242512,"time":3},{"distance":1230,"station_id":"TEB","i_lat":-6.226659,"station_name":"Tebet","i_long":106.857948,"is_transit":false,"time":2,"transit":false,"line":2},{"station_id":"MRI","time":4,"is_transit":false,"distance":2610,"transit":false,"station_name":"Manggarai","i_lat":-6.209883,"line":2,"i_long":106.84912},{"i_long":106.840169,"is_transit":false,"line":2,"i_lat":-6.198556,"distance":1590,"transit":false,"station_name":"Cikini","station_id":"CKI","time":4},{"transit":false,"line":2,"is_transit":false,"i_lat":-6.186295,"distance":1750,"i_long":106.832183,"time":3,"station_name":"Gondangdia","station_id":"GDD"},{"distance":2015,"is_transit":false,"transit":false,"i_lat":-6.166716,"station_name":"Juanda","time":4,"line":2,"i_long":106.828284,"station_id":"JUA"},{"is_transit":false,"transit":false,"line":2,"station_name":"Sawah Besar","i_long":106.827103,"station_id":"SW","time":2,"i_lat":-6.160725,"distance":1149},{"station_name":"Manggabesar","distance":906,"is_transit":false,"time":2,"line":2,"transit":false,"i_lat":-6.149769,"i_long":106.82482,"station_id":"MGB"},{"is_transit":false,"distance":1080,"line":2,"station_name":"Jayakarta","i_long":106.820901,"station_id":"JAY","transit":false,"time":2,"i_lat":-6.141205},{"distance":1264,"station_id":"JAKK","is_transit":true,"station_name":"Jakarta Kota","transit":true,"time":4,"line":2,"i_long":106.812439,"i_lat":-6.137569},{"distance":1364,"station_name":"Kampung Bandan","transit":true,"station_id":"KPB","line":4,"time":3,"is_transit":true,"i_lat":-6.132549,"i_long":106.826365},{"i_lat":-6.14505,"transit":false,"distance":1444,"is_transit":false,"line":11,"station_id":"RJW","station_name":"Rajawali","i_long":106.836569,"time":3},{"station_name":"Kemayoran","is_transit":false,"station_id":"KMO","distance":1901,"line":11,"transit":false,"i_lat":-6.161728,"i_long":106.839204,"time":5},{"transit":false,"line":11,"is_transit":false,"station_id":"PSE","i_long":106.84368,"time":4,"i_lat":-6.174784,"distance":1436,"station_name":"Pasar Senen"},{"transit":false,"i_long":106.850107,"station_name":"Gang Sentiong","distance":1567,"station_id":"GST","line":11,"time":8,"i_lat":-6.185975,"is_transit":false},{"line":11,"distance":973,"i_long":106.855437,"transit":false,"station_name":"Kramat","time":1,"is_transit":false,"station_id":"KMT","i_lat":-6.193792},{"distance":1829,"line":11,"transit":false,"station_id":"POK","station_name":"Pondok Jati","i_lat":-6.209188,"is_transit":false,"time":2,"i_long":106.861737},{"distance":1236,"line":1,"time":9,"transit":true,"station_id":"JNG","i_long":106.86807400000001,"is_transit":true,"station_name":"Jatinegara","i_lat":-6.215091},{"station_name":"Klender","transit":false,"station_id":"KLD","time":3,"is_transit":false,"i_lat":-6.2135,"i_long":106.899548,"line":1,"distance":3395},{"i_long":106.922662,"i_lat":-6.215568,"station_name":"Buaran","distance":3100,"line":1,"is_transit":false,"transit":false,"station_id":"BUA","time":2},{"line":1,"time":1,"i_long":106.939679,"station_id":"KLDB","transit":false,"i_lat":-6.217455,"station_name":"Klenderbaru","is_transit":false,"distance":1305},{"station_name":"Cakung","line":1,"transit":false,"time":8,"i_lat":-6.219053,"distance":1385,"i_long":106.951283,"is_transit":false,"station_id":"CUK"},{"station_id":"KRI","i_lat":-6.224515,"i_long":106.977657,"station_name":"Kranji","transit":false,"line":1,"distance":3097,"time":3,"is_transit":false},{"distance":2520,"is_transit":false,"line":1,"station_name":"Bekasi","transit":false,"time":4,"station_id":"BKS","i_lat":-6.236616,"i_long":106.997013},{"i_long":107.016735,"time":2,"transit":false,"line":1,"station_id":"BKST","station_name":"Bekasi Timur","i_lat":-6.248029,"distance":2368,"is_transit":false},{"station_id":"TB","time":7,"distance":4460,"i_long":107.055722,"line":1,"i_lat":-6.258864,"is_transit":false,"station_name":"Tambun","transit":false},{"station_id":"CIT","distance":3420,"line":1,"transit":false,"is_transit":false,"i_long":107.083084,"i_lat":-6.261877,"time":3,"station_name":"Cibitung"},{"i_lat":-6.262938,"i_long":107.093313,"time":2,"distance":2800,"transit":false,"station_name":"Metland Telaga Murni","is_transit":false,"station_id":"TLM","line":1},{"station_id":"CKR","line":1,"is_transit":false,"station_name":"Cikarang","transit":false,"distance":3689,"i_long":107.144613,"time":4,"i_lat":-6.2553149999999995}]]}