{"data":[[{"station_id":"POC","distance":0,"station_name":"Pondok Cina","i_lat":-6.369073,"transit":false,"is_transit":false,"i_long":106.831114,"time":0,"line":2},{"distance":1109,"i_lat":-6.360749,"time":2,"line":2,"station_id":"UI","station_name":"Univ. Indonesia","is_transit":false,"transit":false,"i_long":106.831474},{"is_transit":false,"transit":false,"station_name":"Univ. Pancasila","line":2,"time":3,"i_lat":-6.339291,"i_long":106.834175,"station_id":"UP","distance":2264},{"i_lat":-6.330363,"i_long":106.832616,"distance":1029,"time":2,"station_name":"Lenteng Agung","line":2,"is_transit":false,"transit":false,"station_id":"LNA"},{"i_long":106.838896,"station_id":"TNT","transit":false,"i_lat":-6.3080680000000005,"line":2,"is_transit":false,"time":3,"station_name":"Tanjung Barat","distance":2671},{"distance":2820,"i_long":106.843999,"time":4,"i_lat":-6.2842400000000005,"transit":false,"station_id":"PSM","is_transit":false,"station_name":"Pasar Minggu","line":2},{"i_lat":-6.263214,"is_transit":false,"station_id":"PSMB","time":2,"station_name":"Pasar Minggu Baru","distance":2380,"line":2,"i_long":106.851577,"transit":false},{"line":2,"transit":false,"i_lat":-6.255332,"station_id":"DRN","is_transit":false,"distance":824,"station_name":"Duren Kalibata","i_long":106.85449,"time":2},{"station_id":"CW","station_name":"Cawang","transit":false,"time":3,"is_transit":false,"i_lat":-6.242512,"line":2,"i_long":106.856607,"distance":1546},{"station_name":"Tebet","i_long":106.857948,"station_id":"TEB","time":2,"distance":1230,"i_lat":-6.226659,"is_transit":false,"line":2,"transit":false},{"distance":2610,"time":4,"transit":true,"i_lat":-6.209883,"i_long":106.84912,"is_transit":true,"line":2,"station_name":"Manggarai","station_id":"MRI"},{"i_lat":-6.212485,"station_id":"MTR","line":1,"transit":false,"distance":1275,"time":2,"i_long":106.858896,"station_name":"Matraman","is_transit":false},{"distance":1377,"time":8,"is_transit":true,"i_long":106.86807400000001,"transit":true,"i_lat":-6.215091,"station_id":"JNG","station_name":"Jatinegara","line":1},{"station_id":"POK","distance":1236,"i_long":106.861737,"time":2,"is_transit":false,"station_name":"Pondok Jati","i_lat":-6.209188,"transit":false,"line":11},{"station_name":"Kramat","i_lat":-6.193792,"distance":1829,"station_id":"KMT","line":11,"is_transit":false,"i_long":106.855437,"transit":false,"time":2},{"distance":973,"i_long":106.850107,"station_id":"GST","is_transit":false,"i_lat":-6.185975,"line":11,"transit":false,"station_name":"Gang Sentiong","time":1},{"i_lat":-6.174784,"is_transit":false,"station_name":"Pasar Senen","line":11,"i_long":106.84368,"station_id":"PSE","distance":1567,"time":8,"transit":false},{"transit":false,"station_id":"KMO","is_transit":false,"distance":1436,"line":11,"i_long":106.839204,"time":4,"station_name":"Kemayoran","i_lat":-6.161728},{"transit":false,"distance":1901,"station_name":"Rajawali","is_transit":false,"i_long":106.836569,"line":11,"station_id":"RJW","time":5,"i_lat":-6.14505}],[{"i_long":106.831114,"time":0,"station_id":"POC","is_transit":false,"transit":false,"station_name":"Pondok Cina","distance":0,"line":2,"i_lat":-6.369073},{"i_lat":-6.360749,"is_transit":false,"station_id":"UI","transit":false,"time":2,"line":2,"i_long":106.831474,"distance":1109,"station_name":"Univ. Indonesia"},{"transit":false,"i_lat":-6.339291,"time":3,"station_id":"UP","distance":2264,"is_transit":false,"station_name":"Univ. Pancasila","line":2,"i_long":106.834175},{"line":2,"transit":false,"station_name":"Lenteng Agung","is_transit":false,"i_long":106.832616,"station_id":"LNA","time":2,"i_lat":-6.330363,"distance":1029},{"is_transit":false,"transit":false,"i_long":106.838896,"line":2,"station_name":"Tanjung Barat","time":3,"station_id":"TNT","distance":2671,"i_lat":-6.3080680000000005},{"station_id":"PSM","time":4,"transit":false,"i_long":106.843999,"line":2,"station_name":"Pasar Minggu","is_transit":false,"i_lat":-6.2842400000000005,"distance":2820},{"i_long":106.851577,"time":2,"i_lat":-6.263214,"line":2,"transit":false,"is_transit":false,"station_id":"PSMB","distance":2380,"station_name":"Pasar Minggu Baru"},{"i_long":106.85449,"time":2,"is_transit":false,"distance":824,"station_name":"Duren Kalibata","i_lat":-6.255332,"station_id":"DRN","line":2,"transit":false},{"is_transit":false,"line":2,"station_id":"CW","transit":false,"i_lat":-6.242512,"time":3,"i_long":106.856607,"distance":1546,"station_name":"Cawang"},{"distance":1230,"i_lat":-6.226659,"i_long":106.857948,"station_id":"TEB","station_name":"Tebet","transit":false,"is_transit":false,"time":2,"line":2},{"transit":true,"time":4,"distance":2610,"i_lat":-6.209883,"is_transit":true,"i_long":106.84912,"line":2,"station_name":"Manggarai","station_id":"MRI"},{"transit":false,"distance":3186,"i_long":106.822649,"station_name":"Sudirman","is_transit":false,"i_lat":-6.202263,"line":1,"time":4,"station_id":"SUD"},{"distance":280,"station_id":"SUDB","is_transit":false,"line":1,"i_lat":-6.201433,"transit":false,"time":1,"station_name":"Sudirman Baru","i_long":106.819881},{"is_transit":false,"transit":false,"line":1,"i_long":106.816351,"distance":471,"station_name":"Karet","station_id":"KAT","time":1,"i_lat":-6.20132},{"is_transit":false,"transit":false,"distance":2029,"station_name":"Tanah Abang","i_lat":-6.185545,"i_long":106.811091,"time":5,"line":1,"station_id":"THB"},{"time":8,"station_name":"Duri","i_long":106.800832,"station_id":"DU","is_transit":false,"transit":false,"distance":3632,"i_lat":-6.155215,"line":1},{"line":1,"i_long":106.79867,"transit":false,"i_lat":-6.144674,"is_transit":false,"station_id":"AK","time":4,"distance":1230,"station_name":"Angke"},{"transit":true,"i_long":106.826365,"line":4,"station_name":"Kampung Bandan","station_id":"KPB","is_transit":true,"time":9,"distance":4102,"i_lat":-6.132549},{"line":11,"i_lat":-6.14505,"time":3,"distance":1444,"station_id":"RJW","i_long":106.836569,"transit":false,"station_name":"Rajawali","is_transit":false}],[{"i_long":106.831114,"is_transit":false,"station_id":"POC","transit":false,"station_name":"Pondok Cina","i_lat":-6.369073,"time":0,"line":2,"distance":0},{"time":2,"transit":false,"distance":1109,"is_transit":false,"i_long":106.831474,"i_lat":-6.360749,"station_id":"UI","station_name":"Univ. Indonesia","line":2},{"is_transit":false,"station_id":"UP","transit":false,"i_lat":-6.339291,"i_long":106.834175,"distance":2264,"line":2,"time":3,"station_name":"Univ. Pancasila"},{"time":2,"i_lat":-6.330363,"transit":false,"station_id":"LNA","distance":1029,"i_long":106.832616,"station_name":"Lenteng Agung","is_transit":false,"line":2},{"is_transit":false,"station_id":"TNT","transit":false,"i_long":106.838896,"i_lat":-6.3080680000000005,"distance":2671,"line":2,"time":3,"station_name":"Tanjung Barat"},{"station_id":"PSM","time":4,"transit":false,"distance":2820,"i_lat":-6.2842400000000005,"i_long":106.843999,"station_name":"Pasar Minggu","line":2,"is_transit":false},{"distance":2380,"station_name":"Pasar Minggu Baru","time":2,"station_id":"PSMB","is_transit":false,"i_long":106.851577,"transit":false,"line":2,"i_lat":-6.263214},{"is_transit":false,"station_id":"DRN","i_lat":-6.255332,"station_name":"Duren Kalibata","line":2,"transit":false,"i_long":106.85449,"time":2,"distance":824},{"station_name":"Cawang","line":2,"i_long":106.856607,"is_transit":false,"transit":false,"station_id":"CW","distance":1546,"time":3,"i_lat":-6.242512},{"is_transit":false,"line":2,"transit":false,"station_id":"TEB","i_long":106.857948,"station_name":"Tebet","time":2,"i_lat":-6.226659,"distance":1230},{"time":4,"transit":false,"station_id":"MRI","distance":2610,"i_lat":-6.209883,"i_long":106.84912,"line":2,"is_transit":false,"station_name":"Manggarai"},{"time":4,"i_long":106.840169,"line":2,"station_id":"CKI","is_transit":false,"distance":1590,"i_lat":-6.198556,"transit":false,"station_name":"Cikini"},{"distance":1750,"is_transit":false,"station_id":"GDD","time":3,"transit":false,"i_lat":-6.186295,"i_long":106.832183,"line":2,"station_name":"Gondangdia"},{"i_long":106.828284,"transit":false,"time":4,"is_transit":false,"line":2,"i_lat":-6.166716,"station_name":"Juanda","station_id":"JUA","distance":2015},{"transit":false,"station_id":"SW","distance":1149,"is_transit":false,"i_long":106.827103,"station_name":"Sawah Besar","time":2,"i_lat":-6.160725,"line":2},{"transit":false,"i_long":106.82482,"station_name":"Manggabesar","i_lat":-6.149769,"is_transit":false,"time":2,"distance":906,"line":2,"station_id":"MGB"},{"i_long":106.820901,"distance":1080,"is_transit":false,"time":2,"station_name":"Jayakarta","line":2,"transit":false,"station_id":"JAY","i_lat":-6.141205},{"transit":true,"i_long":106.812439,"is_transit":true,"station_name":"Jakarta Kota","station_id":"JAKK","time":4,"i_lat":-6.137569,"line":2,"distance":1264},{"station_name":"Kampung Bandan","time":3,"is_transit":true,"transit":true,"i_long":106.826365,"line":4,"i_lat":-6.132549,"station_id":"KPB","distance":1364},{"i_long":106.836569,"station_name":"Rajawali","station_id":"RJW","line":11,"distance":1444,"is_transit":false,"transit":false,"i_lat":-6.14505,"time":3}]]}