{"data":[[{"distance":0,"transit":false,"i_lat":-6.369073,"time":0,"station_name":"Pondok Cina","station_id":"POC","line":2,"is_transit":false,"i_long":106.831114},{"distance":1109,"transit":false,"time":2,"i_long":106.831474,"station_name":"Univ. Indonesia","is_transit":false,"line":2,"station_id":"UI","i_lat":-6.360749},{"station_id":"UP","i_long":106.834175,"is_transit":false,"time":3,"line":2,"i_lat":-6.339291,"distance":2264,"transit":false,"station_name":"Univ. Pancasila"},{"i_lat":-6.330363,"transit":false,"time":2,"line":2,"distance":1029,"i_long":106.832616,"station_id":"LNA","station_name":"Lenteng Agung","is_transit":false},{"transit":false,"distance":2671,"is_transit":false,"station_id":"TNT","i_lat":-6.3080680000000005,"i_long":106.838896,"time":3,"station_name":"Tanjung Barat","line":2},{"station_name":"Pasar Minggu","line":2,"transit":false,"station_id":"PSM","is_transit":false,"distance":2820,"i_long":106.843999,"time":4,"i_lat":-6.2842400000000005},{"distance":2380,"is_transit":false,"station_name":"Pasar Minggu Baru","transit":false,"i_lat":-6.263214,"station_id":"PSMB","i_long":106.851577,"line":2,"time":2},{"time":2,"transit":false,"station_name":"Duren Kalibata","station_id":"DRN","i_lat":-6.255332,"line":0,"distance":824,"i_long":106.85449,"is_transit":false},{"distance":1546,"line":0,"is_transit":false,"i_lat":-6.242512,"station_id":"CW","station_name":"Cawang","transit":false,"time":3,"i_long":106.856607},{"station_name":"Tebet","line":2,"time":2,"i_lat":-6.226659,"station_id":"TEB","distance":1230,"i_long":106.857948,"transit":false,"is_transit":false},{"transit":true,"station_id":"MRI","i_lat":-6.209883,"is_transit":true,"time":4,"i_long":106.84912,"line":0,"distance":2610,"station_name":"Manggarai"},{"station_id":"CKI","i_lat":-6.198556,"is_transit":false,"station_name":"Cikini","line":0,"time":4,"i_long":106.840169,"transit":false,"distance":1590},{"line":2,"distance":1750,"station_name":"Gondangdia","station_id":"GDD","i_lat":-6.186295,"i_long":106.832183,"transit":false,"time":3,"is_transit":false},{"is_transit":false,"i_long":106.828284,"line":2,"transit":false,"station_name":"Juanda","time":4,"distance":2015,"i_lat":-6.166716,"station_id":"JUA"},{"time":2,"i_lat":-6.160725,"i_long":106.827103,"is_transit":false,"line":2,"station_name":"Sawah Besar","transit":false,"distance":1149,"station_id":"SW"},{"transit":false,"i_lat":-6.149769,"station_id":"MGB","distance":906,"time":2,"line":2,"i_long":106.82482,"is_transit":false,"station_name":"Manggabesar"},{"distance":1080,"station_id":"JAY","line":7,"station_name":"Jayakarta","transit":false,"is_transit":false,"time":2,"i_lat":-6.141205,"i_long":106.820901}],[{"i_lat":-6.369073,"station_id":"POC","distance":0,"i_long":106.831114,"line":2,"time":0,"station_name":"Pondok Cina","is_transit":false,"transit":false},{"is_transit":false,"distance":1109,"i_lat":-6.360749,"time":2,"i_long":106.831474,"station_id":"UI","transit":false,"station_name":"Univ. Indonesia","line":2},{"is_transit":false,"time":3,"line":2,"station_id":"UP","i_lat":-6.339291,"distance":2264,"i_long":106.834175,"station_name":"Univ. Pancasila","transit":false},{"station_name":"Lenteng Agung","i_lat":-6.330363,"transit":false,"line":2,"distance":1029,"i_long":106.832616,"is_transit":false,"time":2,"station_id":"LNA"},{"time":3,"line":2,"is_transit":false,"transit":false,"station_id":"TNT","i_lat":-6.3080680000000005,"station_name":"Tanjung Barat","distance":2671,"i_long":106.838896},{"is_transit":false,"distance":2820,"transit":false,"time":4,"i_lat":-6.2842400000000005,"i_long":106.843999,"line":2,"station_name":"Pasar Minggu","station_id":"PSM"},{"i_long":106.851577,"transit":false,"is_transit":false,"distance":2380,"i_lat":-6.263214,"station_name":"Pasar Minggu Baru","station_id":"PSMB","line":2,"time":2},{"transit":false,"distance":824,"station_id":"DRN","i_long":106.85449,"station_name":"Duren Kalibata","is_transit":false,"i_lat":-6.255332,"line":0,"time":2},{"i_long":106.856607,"distance":1546,"line":0,"is_transit":false,"i_lat":-6.242512,"station_id":"CW","time":3,"transit":false,"station_name":"Cawang"},{"station_name":"Tebet","is_transit":false,"time":2,"i_lat":-6.226659,"station_id":"TEB","transit":false,"distance":1230,"i_long":106.857948,"line":2},{"station_id":"MRI","is_transit":true,"line":0,"i_long":106.84912,"station_name":"Manggarai","distance":2610,"time":4,"i_lat":-6.209883,"transit":true},{"station_id":"SUD","distance":3186,"time":4,"i_lat":-6.202263,"i_long":106.822649,"transit":false,"is_transit":false,"line":1,"station_name":"Sudirman"},{"station_id":"SUDB","i_lat":-6.201433,"is_transit":false,"i_long":106.819881,"distance":280,"line":1,"station_name":"Sudirman Baru","time":1,"transit":false},{"transit":false,"i_lat":-6.20132,"is_transit":false,"station_id":"KAT","distance":471,"station_name":"Karet","time":1,"i_long":106.816351,"line":1},{"distance":2029,"transit":false,"station_id":"THB","line":1,"is_transit":true,"i_long":106.811091,"station_name":"Tanah Abang","time":5,"i_lat":-6.185545},{"i_lat":-6.155215,"is_transit":true,"transit":true,"time":8,"line":1,"distance":3632,"station_name":"Duri","i_long":106.800832,"station_id":"DU"},{"is_transit":false,"line":0,"station_id":"AK","transit":false,"distance":1230,"i_long":106.79867,"time":4,"i_lat":-6.144674,"station_name":"Angke"},{"station_name":"Kampung Bandan","transit":false,"is_transit":true,"time":9,"station_id":"KPB","line":0,"distance":4102,"i_lat":-6.132549,"i_long":106.826365},{"station_name":"Jakarta Kota","transit":true,"is_transit":true,"time":3,"i_lat":-6.137569,"i_long":106.812439,"line":0,"distance":1364,"station_id":"JAKK"},{"distance":1264,"i_long":106.820901,"station_name":"Jayakarta","i_lat":-6.141205,"time":4,"line":7,"station_id":"JAY","transit":false,"is_transit":false}],[{"station_name":"Pondok Cina","station_id":"POC","transit":false,"line":2,"is_transit":false,"time":0,"i_long":106.831114,"i_lat":-6.369073,"distance":0},{"distance":1109,"is_transit":false,"station_id":"UI","i_lat":-6.360749,"station_name":"Univ. Indonesia","transit":false,"time":2,"i_long":106.831474,"line":2},{"time":3,"distance":2264,"transit":false,"station_id":"UP","is_transit":false,"i_long":106.834175,"line":2,"station_name":"Univ. Pancasila","i_lat":-6.339291},{"station_id":"LNA","time":2,"transit":false,"is_transit":false,"i_lat":-6.330363,"distance":1029,"line":2,"station_name":"Lenteng Agung","i_long":106.832616},{"is_transit":false,"distance":2671,"transit":false,"time":3,"station_id":"TNT","station_name":"Tanjung Barat","i_long":106.838896,"i_lat":-6.3080680000000005,"line":2},{"transit":false,"is_transit":false,"time":4,"distance":2820,"station_name":"Pasar Minggu","i_long":106.843999,"station_id":"PSM","line":2,"i_lat":-6.2842400000000005},{"line":2,"time":2,"distance":2380,"station_id":"PSMB","transit":false,"i_lat":-6.263214,"i_long":106.851577,"is_transit":false,"station_name":"Pasar Minggu Baru"},{"i_lat":-6.255332,"time":2,"i_long":106.85449,"station_name":"Duren Kalibata","is_transit":false,"transit":false,"distance":824,"station_id":"DRN","line":0},{"station_id":"CW","distance":1546,"station_name":"Cawang","line":0,"i_long":106.856607,"time":3,"transit":false,"i_lat":-6.242512,"is_transit":false},{"i_lat":-6.226659,"i_long":106.857948,"distance":1230,"line":2,"transit":false,"station_name":"Tebet","time":2,"station_id":"TEB","is_transit":false},{"time":4,"is_transit":true,"station_name":"Manggarai","distance":2610,"line":0,"transit":true,"station_id":"MRI","i_lat":-6.209883,"i_long":106.84912},{"line":1,"transit":false,"station_id":"MTR","i_long":106.858896,"station_name":"Matraman","time":2,"distance":1275,"is_transit":false,"i_lat":-6.212485},{"is_transit":true,"time":8,"station_id":"JNG","i_lat":-6.215091,"line":0,"i_long":106.86807400000001,"distance":1377,"transit":true,"station_name":"Jatinegara"},{"is_transit":false,"distance":1236,"time":2,"line":11,"station_name":"Pondok Jati","transit":false,"station_id":"POK","i_long":106.861737,"i_lat":-6.209188},{"distance":1829,"is_transit":false,"time":2,"transit":false,"station_name":"Kramat","station_id":"KMT","i_lat":-6.193792,"i_long":106.855437,"line":11},{"i_lat":-6.185975,"distance":973,"station_id":"GST","i_long":106.850107,"line":11,"transit":false,"time":1,"station_name":"Gang Sentiong","is_transit":false},{"i_lat":-6.174784,"is_transit":false,"line":11,"i_long":106.84368,"station_name":"Pasar Senen","distance":1567,"time":8,"station_id":"PSE","transit":false},{"line":11,"station_id":"KMO","time":4,"i_lat":-6.161728,"station_name":"Kemayoran","i_long":106.839204,"transit":false,"is_transit":false,"distance":1436},{"line":11,"i_lat":-6.14505,"is_transit":false,"station_id":"RJW","i_long":106.836569,"distance":1901,"station_name":"Rajawali","transit":false,"time":5},{"line":0,"station_name":"Kampung Bandan","i_long":106.826365,"time":3,"distance":1444,"transit":true,"is_transit":true,"station_id":"KPB","i_lat":-6.132549},{"line":0,"transit":true,"time":3,"is_transit":true,"station_name":"Jakarta Kota","i_long":106.812439,"i_lat":-6.137569,"station_id":"JAKK","distance":1364},{"transit":false,"distance":1264,"station_name":"Jayakarta","is_transit":false,"station_id":"JAY","i_lat":-6.141205,"line":7,"time":4,"i_long":106.820901}]]}