{"data":[[{"is_transit":false,"transit":false,"line":2,"station_id":"POC","i_long":106.831114,"i_lat":-6.369073,"time":0,"distance":0,"station_name":"Pondok Cina"},{"distance":1109,"transit":false,"time":2,"line":2,"station_name":"Univ. Indonesia","i_long":106.831474,"station_id":"UI","is_transit":false,"i_lat":-6.360749},{"i_long":106.834175,"line":2,"distance":2264,"station_id":"UP","i_lat":-6.339291,"station_name":"Univ. Pancasila","time":3,"transit":false,"is_transit":false},{"distance":1029,"station_name":"Lenteng Agung","is_transit":false,"line":2,"time":2,"i_long":106.832616,"transit":false,"station_id":"LNA","i_lat":-6.330363},{"line":2,"station_name":"Tanjung Barat","transit":false,"is_transit":false,"i_long":106.838896,"time":3,"distance":2671,"station_id":"TNT","i_lat":-6.3080680000000005},{"station_id":"PSM","transit":false,"line":2,"i_long":106.843999,"is_transit":false,"time":4,"station_name":"Pasar Minggu","i_lat":-6.2842400000000005,"distance":2820},{"is_transit":false,"distance":2380,"station_name":"Pasar Minggu Baru","i_lat":-6.263214,"time":2,"transit":false,"i_long":106.851577,"line":2,"station_id":"PSMB"},{"i_lat":-6.255332,"time":2,"i_long":106.85449,"distance":824,"station_id":"DRN","is_transit":false,"line":2,"transit":false,"station_name":"Duren Kalibata"},{"is_transit":false,"distance":1546,"i_long":106.856607,"station_id":"CW","line":2,"station_name":"Cawang","transit":false,"time":3,"i_lat":-6.242512},{"time":2,"is_transit":false,"i_long":106.857948,"i_lat":-6.226659,"station_name":"Tebet","line":2,"distance":1230,"transit":false,"station_id":"TEB"},{"distance":2610,"line":2,"station_id":"MRI","time":4,"i_long":106.84912,"station_name":"Manggarai","is_transit":true,"transit":true,"i_lat":-6.209883},{"is_transit":false,"transit":false,"i_lat":-6.202263,"station_id":"SUD","distance":3186,"line":1,"time":4,"station_name":"Sudirman","i_long":106.822649}],[{"i_lat":-6.369073,"station_name":"Pondok Cina","line":2,"transit":false,"is_transit":false,"i_long":106.831114,"time":0,"distance":0,"station_id":"POC"},{"station_name":"Univ. Indonesia","is_transit":false,"i_lat":-6.360749,"i_long":106.831474,"transit":false,"station_id":"UI","time":2,"distance":1109,"line":2},{"line":2,"time":3,"i_long":106.834175,"i_lat":-6.339291,"distance":2264,"station_id":"UP","station_name":"Univ. Pancasila","is_transit":false,"transit":false},{"is_transit":false,"station_name":"Lenteng Agung","i_lat":-6.330363,"time":2,"distance":1029,"i_long":106.832616,"transit":false,"line":2,"station_id":"LNA"},{"time":3,"transit":false,"station_id":"TNT","is_transit":false,"i_long":106.838896,"line":2,"distance":2671,"i_lat":-6.3080680000000005,"station_name":"Tanjung Barat"},{"station_id":"PSM","i_lat":-6.2842400000000005,"transit":false,"station_name":"Pasar Minggu","is_transit":false,"i_long":106.843999,"line":2,"distance":2820,"time":4},{"transit":false,"station_id":"PSMB","i_long":106.851577,"distance":2380,"time":2,"i_lat":-6.263214,"station_name":"Pasar Minggu Baru","is_transit":false,"line":2},{"transit":false,"i_lat":-6.255332,"station_name":"Duren Kalibata","station_id":"DRN","i_long":106.85449,"is_transit":false,"time":2,"distance":824,"line":2},{"station_id":"CW","i_long":106.856607,"station_name":"Cawang","distance":1546,"is_transit":false,"i_lat":-6.242512,"time":3,"line":2,"transit":false},{"station_name":"Tebet","station_id":"TEB","is_transit":false,"transit":false,"distance":1230,"i_lat":-6.226659,"time":2,"line":2,"i_long":106.857948},{"i_long":106.84912,"is_transit":false,"distance":2610,"time":4,"station_name":"Manggarai","transit":false,"line":2,"station_id":"MRI","i_lat":-6.209883},{"station_name":"Cikini","time":4,"is_transit":false,"transit":false,"station_id":"CKI","i_long":106.840169,"line":2,"distance":1590,"i_lat":-6.198556},{"station_name":"Gondangdia","is_transit":false,"transit":false,"i_lat":-6.186295,"time":3,"station_id":"GDD","i_long":106.832183,"line":2,"distance":1750},{"line":2,"i_lat":-6.166716,"distance":2015,"is_transit":false,"i_long":106.828284,"time":4,"station_name":"Juanda","transit":false,"station_id":"JUA"},{"i_lat":-6.160725,"distance":1149,"transit":false,"station_name":"Sawah Besar","time":2,"i_long":106.827103,"station_id":"SW","line":2,"is_transit":false},{"time":2,"line":2,"station_name":"Manggabesar","transit":false,"distance":906,"i_long":106.82482,"is_transit":false,"station_id":"MGB","i_lat":-6.149769},{"is_transit":false,"station_name":"Jayakarta","time":2,"station_id":"JAY","line":2,"i_long":106.820901,"i_lat":-6.141205,"transit":false,"distance":1080},{"i_lat":-6.137569,"station_name":"Jakarta Kota","time":4,"is_transit":true,"transit":true,"i_long":106.812439,"distance":1264,"line":2,"station_id":"JAKK"},{"station_id":"KPB","distance":1364,"time":3,"i_lat":-6.132549,"line":4,"station_name":"Kampung Bandan","is_transit":true,"i_long":106.826365,"transit":true},{"i_long":106.79867,"transit":false,"station_name":"Angke","is_transit":false,"line":1,"time":9,"station_id":"AK","i_lat":-6.144674,"distance":4102},{"i_long":106.800832,"distance":1230,"transit":false,"is_transit":false,"line":1,"time":4,"station_id":"DU","station_name":"Duri","i_lat":-6.155215},{"time":8,"station_name":"Tanah Abang","station_id":"THB","i_lat":-6.185545,"transit":false,"i_long":106.811091,"line":1,"distance":3632,"is_transit":false},{"distance":2029,"station_name":"Karet","station_id":"KAT","is_transit":false,"transit":false,"i_lat":-6.20132,"i_long":106.816351,"line":1,"time":5},{"i_long":106.819881,"i_lat":-6.201433,"is_transit":false,"time":1,"station_name":"Sudirman Baru","station_id":"SUDB","transit":false,"distance":471,"line":1},{"is_transit":false,"station_name":"Sudirman","station_id":"SUD","transit":false,"time":1,"distance":280,"i_long":106.822649,"i_lat":-6.202263,"line":1}],[{"i_long":106.831114,"i_lat":-6.369073,"line":2,"station_id":"POC","distance":0,"station_name":"Pondok Cina","is_transit":false,"time":0,"transit":false},{"distance":1109,"station_id":"UI","station_name":"Univ. Indonesia","is_transit":false,"line":2,"time":2,"transit":false,"i_lat":-6.360749,"i_long":106.831474},{"is_transit":false,"station_name":"Univ. Pancasila","station_id":"UP","distance":2264,"i_lat":-6.339291,"i_long":106.834175,"time":3,"transit":false,"line":2},{"i_long":106.832616,"line":2,"is_transit":false,"station_name":"Lenteng Agung","time":2,"station_id":"LNA","distance":1029,"transit":false,"i_lat":-6.330363},{"distance":2671,"line":2,"time":3,"station_id":"TNT","i_lat":-6.3080680000000005,"station_name":"Tanjung Barat","i_long":106.838896,"transit":false,"is_transit":false},{"time":4,"station_name":"Pasar Minggu","station_id":"PSM","transit":false,"distance":2820,"is_transit":false,"i_lat":-6.2842400000000005,"i_long":106.843999,"line":2},{"line":2,"distance":2380,"transit":false,"station_id":"PSMB","i_long":106.851577,"i_lat":-6.263214,"time":2,"station_name":"Pasar Minggu Baru","is_transit":false},{"station_name":"Duren Kalibata","time":2,"transit":false,"i_long":106.85449,"is_transit":false,"i_lat":-6.255332,"line":2,"distance":824,"station_id":"DRN"},{"distance":1546,"is_transit":false,"i_long":106.856607,"transit":false,"station_id":"CW","station_name":"Cawang","line":2,"time":3,"i_lat":-6.242512},{"distance":1230,"i_long":106.857948,"station_name":"Tebet","time":2,"is_transit":false,"line":2,"station_id":"TEB","transit":false,"i_lat":-6.226659},{"line":2,"distance":2610,"station_id":"MRI","transit":true,"station_name":"Manggarai","i_lat":-6.209883,"time":4,"is_transit":true,"i_long":106.84912},{"time":2,"i_long":106.858896,"is_transit":false,"i_lat":-6.212485,"line":1,"station_name":"Matraman","distance":1275,"transit":false,"station_id":"MTR"},{"is_transit":true,"transit":true,"distance":1377,"i_lat":-6.215091,"i_long":106.86807400000001,"station_name":"Jatinegara","station_id":"JNG","line":1,"time":8},{"station_id":"POK","transit":false,"line":11,"i_lat":-6.209188,"distance":1236,"i_long":106.861737,"is_transit":false,"time":2,"station_name":"Pondok Jati"},{"time":2,"i_long":106.855437,"line":11,"station_name":"Kramat","station_id":"KMT","is_transit":false,"transit":false,"i_lat":-6.193792,"distance":1829},{"distance":973,"i_long":106.850107,"station_id":"GST","transit":false,"station_name":"Gang Sentiong","line":11,"time":1,"is_transit":false,"i_lat":-6.185975},{"distance":1567,"station_id":"PSE","i_long":106.84368,"station_name":"Pasar Senen","line":11,"is_transit":false,"time":8,"transit":false,"i_lat":-6.174784},{"transit":false,"i_long":106.839204,"is_transit":false,"station_id":"KMO","time":4,"station_name":"Kemayoran","i_lat":-6.161728,"line":11,"distance":1436},{"i_lat":-6.14505,"distance":1901,"is_transit":false,"transit":false,"i_long":106.836569,"line":11,"station_name":"Rajawali","station_id":"RJW","time":5},{"i_long":106.826365,"transit":true,"is_transit":true,"station_id":"KPB","distance":1444,"line":4,"time":3,"i_lat":-6.132549,"station_name":"Kampung Bandan"},{"station_id":"AK","line":1,"i_long":106.79867,"station_name":"Angke","is_transit":false,"i_lat":-6.144674,"time":9,"distance":4102,"transit":false},{"i_lat":-6.155215,"station_id":"DU","time":4,"transit":false,"i_long":106.800832,"is_transit":false,"line":1,"station_name":"Duri","distance":1230},{"is_transit":false,"transit":false,"line":1,"station_name":"Tanah Abang","i_long":106.811091,"station_id":"THB","time":8,"i_lat":-6.185545,"distance":3632},{"distance":2029,"transit":false,"line":1,"station_name":"Karet","i_lat":-6.20132,"is_transit":false,"i_long":106.816351,"station_id":"KAT","time":5},{"time":1,"is_transit":false,"station_name":"Sudirman Baru","distance":471,"i_lat":-6.201433,"transit":false,"i_long":106.819881,"station_id":"SUDB","line":1},{"line":1,"i_lat":-6.202263,"time":1,"station_id":"SUD","distance":280,"is_transit":false,"transit":false,"station_name":"Sudirman","i_long":106.822649}]]}