{"data":[[{"distance":0,"station_name":"Pondok Cina","transit":false,"i_long":106.831114,"line":2,"station_id":"POC","time":0,"i_lat":-6.369073,"is_transit":false},{"i_lat":-6.360749,"station_id":"UI","transit":false,"time":2,"distance":1109,"i_long":106.831474,"is_transit":false,"station_name":"Univ. Indonesia","line":2},{"line":2,"time":3,"distance":2264,"station_name":"Univ. Pancasila","station_id":"UP","i_long":106.834175,"transit":false,"is_transit":false,"i_lat":-6.339291},{"transit":false,"station_id":"LNA","line":2,"i_lat":-6.330363,"i_long":106.832616,"time":2,"station_name":"Lenteng Agung","distance":1029,"is_transit":false},{"transit":false,"distance":2671,"i_lat":-6.3080680000000005,"line":2,"station_id":"TNT","time":3,"is_transit":false,"i_long":106.838896,"station_name":"Tanjung Barat"},{"is_transit":false,"distance":2820,"station_id":"PSM","transit":false,"i_long":106.843999,"station_name":"Pasar Minggu","i_lat":-6.2842400000000005,"line":2,"time":4},{"distance":2380,"i_lat":-6.263214,"i_long":106.851577,"is_transit":false,"station_name":"Pasar Minggu Baru","line":2,"station_id":"PSMB","transit":false,"time":2},{"station_id":"DRN","i_lat":-6.255332,"line":0,"distance":824,"time":2,"transit":false,"is_transit":false,"i_long":106.85449,"station_name":"Duren Kalibata"},{"is_transit":false,"station_id":"CW","i_lat":-6.242512,"line":0,"distance":1546,"station_name":"Cawang","transit":false,"i_long":106.856607,"time":3},{"station_id":"TEB","distance":1230,"time":2,"i_long":106.857948,"transit":false,"i_lat":-6.226659,"line":2,"station_name":"Tebet","is_transit":false},{"distance":2610,"line":0,"is_transit":true,"i_lat":-6.209883,"i_long":106.84912,"time":4,"station_id":"MRI","station_name":"Manggarai","transit":true},{"is_transit":false,"i_lat":-6.202263,"station_id":"SUD","time":4,"distance":3186,"station_name":"Sudirman","transit":false,"i_long":106.822649,"line":1},{"transit":false,"time":1,"distance":280,"is_transit":false,"station_id":"SUDB","i_long":106.819881,"line":1,"station_name":"Sudirman Baru","i_lat":-6.201433},{"station_id":"KAT","line":1,"station_name":"Karet","time":1,"i_lat":-6.20132,"is_transit":false,"distance":471,"transit":false,"i_long":106.816351},{"station_name":"Tanah Abang","i_long":106.811091,"distance":2029,"is_transit":true,"transit":false,"i_lat":-6.185545,"line":1,"time":5,"station_id":"THB"},{"line":1,"station_id":"DU","station_name":"Duri","i_lat":-6.155215,"is_transit":true,"time":8,"transit":true,"i_long":106.800832,"distance":3632},{"station_id":"GGL","i_long":106.788277,"station_name":"Grogol","line":5,"time":3,"transit":false,"distance":1700,"i_lat":-6.162021,"is_transit":false},{"time":2,"is_transit":false,"line":5,"i_lat":-6.161433,"distance":2036,"station_name":"Pesing","station_id":"PSG","transit":false,"i_long":106.771379},{"line":5,"station_name":"Taman Kota","is_transit":false,"i_long":106.756522,"transit":false,"time":2,"station_id":"TKO","distance":1614,"i_lat":-6.1587309999999995},{"line":0,"transit":false,"station_name":"Bojongindah","i_lat":-6.159876,"is_transit":false,"time":2,"distance":2334,"station_id":"BOI","i_long":106.737035},{"transit":false,"is_transit":false,"line":5,"distance":1152,"time":4,"station_name":"Rawa Buaya","i_lat":-6.162758,"station_id":"RW","i_long":106.723064}],[{"station_id":"POC","station_name":"Pondok Cina","i_lat":-6.369073,"i_long":106.831114,"is_transit":false,"transit":false,"line":2,"distance":0,"time":0},{"station_name":"Univ. Indonesia","i_long":106.831474,"station_id":"UI","time":2,"transit":false,"distance":1109,"i_lat":-6.360749,"line":2,"is_transit":false},{"i_lat":-6.339291,"station_name":"Univ. Pancasila","transit":false,"time":3,"is_transit":false,"distance":2264,"station_id":"UP","i_long":106.834175,"line":2},{"distance":1029,"i_long":106.832616,"station_id":"LNA","i_lat":-6.330363,"transit":false,"station_name":"Lenteng Agung","time":2,"line":2,"is_transit":false},{"line":2,"time":3,"transit":false,"i_long":106.838896,"station_id":"TNT","is_transit":false,"i_lat":-6.3080680000000005,"distance":2671,"station_name":"Tanjung Barat"},{"time":4,"distance":2820,"i_lat":-6.2842400000000005,"station_name":"Pasar Minggu","station_id":"PSM","transit":false,"i_long":106.843999,"line":2,"is_transit":false},{"is_transit":false,"i_long":106.851577,"station_id":"PSMB","line":2,"station_name":"Pasar Minggu Baru","time":2,"transit":false,"distance":2380,"i_lat":-6.263214},{"station_name":"Duren Kalibata","distance":824,"transit":false,"i_long":106.85449,"time":2,"station_id":"DRN","i_lat":-6.255332,"line":0,"is_transit":false},{"transit":false,"distance":1546,"station_id":"CW","station_name":"Cawang","time":3,"i_long":106.856607,"line":0,"i_lat":-6.242512,"is_transit":false},{"is_transit":false,"station_name":"Tebet","time":2,"i_long":106.857948,"line":2,"station_id":"TEB","i_lat":-6.226659,"distance":1230,"transit":false},{"distance":2610,"i_lat":-6.209883,"i_long":106.84912,"line":0,"is_transit":true,"transit":true,"station_id":"MRI","station_name":"Manggarai","time":4},{"transit":false,"station_name":"Cikini","is_transit":false,"i_lat":-6.198556,"station_id":"CKI","distance":1590,"time":4,"i_long":106.840169,"line":0},{"station_name":"Gondangdia","time":3,"transit":false,"i_lat":-6.186295,"is_transit":false,"i_long":106.832183,"line":2,"distance":1750,"station_id":"GDD"},{"time":4,"transit":false,"line":2,"i_lat":-6.166716,"station_name":"Juanda","i_long":106.828284,"distance":2015,"station_id":"JUA","is_transit":false},{"station_name":"Sawah Besar","is_transit":false,"transit":false,"i_long":106.827103,"station_id":"SW","distance":1149,"time":2,"i_lat":-6.160725,"line":2},{"station_name":"Manggabesar","time":2,"distance":906,"station_id":"MGB","line":2,"is_transit":false,"transit":false,"i_lat":-6.149769,"i_long":106.82482},{"line":7,"is_transit":false,"distance":1080,"station_id":"JAY","i_long":106.820901,"station_name":"Jayakarta","time":2,"i_lat":-6.141205,"transit":false},{"i_lat":-6.137569,"line":0,"distance":1264,"i_long":106.812439,"time":4,"station_name":"Jakarta Kota","is_transit":true,"station_id":"JAKK","transit":true},{"i_long":106.826365,"transit":false,"station_id":"KPB","is_transit":true,"distance":1364,"station_name":"Kampung Bandan","i_lat":-6.132549,"line":0,"time":3},{"station_id":"AK","is_transit":false,"distance":4102,"station_name":"Angke","time":9,"i_long":106.79867,"line":0,"transit":false,"i_lat":-6.144674},{"i_lat":-6.155215,"is_transit":true,"time":4,"transit":true,"distance":1230,"line":1,"station_name":"Duri","i_long":106.800832,"station_id":"DU"},{"time":3,"i_long":106.788277,"station_id":"GGL","i_lat":-6.162021,"station_name":"Grogol","is_transit":false,"distance":1700,"transit":false,"line":5},{"station_name":"Pesing","station_id":"PSG","is_transit":false,"time":2,"transit":false,"i_long":106.771379,"i_lat":-6.161433,"line":5,"distance":2036},{"station_name":"Taman Kota","i_long":106.756522,"i_lat":-6.1587309999999995,"station_id":"TKO","line":5,"is_transit":false,"transit":false,"distance":1614,"time":2},{"i_long":106.737035,"transit":false,"station_id":"BOI","line":0,"distance":2334,"station_name":"Bojongindah","time":2,"i_lat":-6.159876,"is_transit":false},{"transit":false,"distance":1152,"i_long":106.723064,"station_id":"RW","is_transit":false,"time":4,"line":5,"i_lat":-6.162758,"station_name":"Rawa Buaya"}],[{"line":2,"station_id":"POC","i_lat":-6.369073,"time":0,"is_transit":false,"distance":0,"station_name":"Pondok Cina","transit":false,"i_long":106.831114},{"station_id":"UI","time":2,"station_name":"Univ. Indonesia","distance":1109,"i_lat":-6.360749,"transit":false,"line":2,"i_long":106.831474,"is_transit":false},{"distance":2264,"is_transit":false,"station_name":"Univ. Pancasila","station_id":"UP","time":3,"transit":false,"i_lat":-6.339291,"line":2,"i_long":106.834175},{"i_long":106.832616,"line":2,"station_name":"Lenteng Agung","time":2,"is_transit":false,"i_lat":-6.330363,"distance":1029,"transit":false,"station_id":"LNA"},{"station_name":"Tanjung Barat","i_long":106.838896,"transit":false,"station_id":"TNT","line":2,"distance":2671,"is_transit":false,"time":3,"i_lat":-6.3080680000000005},{"i_lat":-6.2842400000000005,"station_name":"Pasar Minggu","line":2,"time":4,"is_transit":false,"station_id":"PSM","distance":2820,"transit":false,"i_long":106.843999},{"is_transit":false,"time":2,"i_long":106.851577,"line":2,"station_id":"PSMB","i_lat":-6.263214,"distance":2380,"station_name":"Pasar Minggu Baru","transit":false},{"distance":824,"station_id":"DRN","i_lat":-6.255332,"line":0,"is_transit":false,"station_name":"Duren Kalibata","time":2,"transit":false,"i_long":106.85449},{"is_transit":false,"transit":false,"i_lat":-6.242512,"distance":1546,"station_name":"Cawang","i_long":106.856607,"line":0,"station_id":"CW","time":3},{"line":2,"station_name":"Tebet","distance":1230,"is_transit":false,"transit":false,"i_lat":-6.226659,"time":2,"station_id":"TEB","i_long":106.857948},{"station_id":"MRI","i_lat":-6.209883,"line":0,"i_long":106.84912,"transit":true,"station_name":"Manggarai","is_transit":true,"time":4,"distance":2610},{"station_id":"MTR","time":2,"i_lat":-6.212485,"i_long":106.858896,"line":1,"station_name":"Matraman","is_transit":false,"distance":1275,"transit":false},{"station_name":"Jatinegara","transit":true,"i_lat":-6.215091,"distance":1377,"is_transit":true,"time":8,"i_long":106.86807400000001,"line":0,"station_id":"JNG"},{"i_lat":-6.209188,"distance":1236,"i_long":106.861737,"line":11,"station_id":"POK","station_name":"Pondok Jati","time":2,"is_transit":false,"transit":false},{"i_lat":-6.193792,"distance":1829,"station_name":"Kramat","is_transit":false,"station_id":"KMT","i_long":106.855437,"line":11,"time":2,"transit":false},{"i_lat":-6.185975,"transit":false,"i_long":106.850107,"station_name":"Gang Sentiong","line":11,"is_transit":false,"station_id":"GST","distance":973,"time":1},{"i_lat":-6.174784,"i_long":106.84368,"distance":1567,"station_id":"PSE","transit":false,"station_name":"Pasar Senen","time":8,"is_transit":false,"line":11},{"distance":1436,"station_id":"KMO","i_lat":-6.161728,"time":4,"transit":false,"is_transit":false,"station_name":"Kemayoran","i_long":106.839204,"line":11},{"station_name":"Rajawali","is_transit":false,"time":5,"station_id":"RJW","i_long":106.836569,"distance":1901,"i_lat":-6.14505,"line":11,"transit":false},{"line":0,"i_lat":-6.132549,"is_transit":true,"station_id":"KPB","transit":true,"i_long":106.826365,"station_name":"Kampung Bandan","distance":1444,"time":3},{"station_id":"AK","is_transit":false,"i_long":106.79867,"distance":4102,"station_name":"Angke","transit":false,"time":9,"i_lat":-6.144674,"line":0},{"i_long":106.800832,"i_lat":-6.155215,"is_transit":true,"distance":1230,"line":1,"station_id":"DU","station_name":"Duri","time":4,"transit":true},{"distance":1700,"station_id":"GGL","transit":false,"station_name":"Grogol","is_transit":false,"i_long":106.788277,"time":3,"i_lat":-6.162021,"line":5},{"station_name":"Pesing","is_transit":false,"transit":false,"line":5,"i_lat":-6.161433,"station_id":"PSG","time":2,"i_long":106.771379,"distance":2036},{"station_id":"TKO","transit":false,"i_long":106.756522,"time":2,"i_lat":-6.1587309999999995,"is_transit":false,"line":5,"distance":1614,"station_name":"Taman Kota"},{"line":0,"station_id":"BOI","distance":2334,"is_transit":false,"i_long":106.737035,"station_name":"Bojongindah","transit":false,"i_lat":-6.159876,"time":2},{"station_id":"RW","time":4,"i_lat":-6.162758,"transit":false,"i_long":106.723064,"line":5,"distance":1152,"station_name":"Rawa Buaya","is_transit":false}]]}