{"data":[[{"line":2,"station_id":"POC","station_name":"Pondok Cina","distance":0,"i_long":106.831114,"time":0,"transit":false,"is_transit":false,"i_lat":-6.369073},{"time":2,"i_lat":-6.360749,"distance":1109,"transit":false,"station_name":"Univ. Indonesia","line":2,"i_long":106.831474,"station_id":"UI","is_transit":false},{"station_id":"UP","is_transit":false,"i_lat":-6.339291,"distance":2264,"i_long":106.834175,"line":2,"transit":false,"time":3,"station_name":"Univ. Pancasila"},{"distance":1029,"station_name":"Lenteng Agung","i_lat":-6.330363,"i_long":106.832616,"line":2,"is_transit":false,"station_id":"LNA","transit":false,"time":2},{"transit":false,"station_id":"TNT","is_transit":false,"i_lat":-6.3080680000000005,"station_name":"Tanjung Barat","distance":2671,"i_long":106.838896,"line":2,"time":3},{"station_id":"PSM","transit":false,"i_lat":-6.2842400000000005,"is_transit":false,"time":4,"i_long":106.843999,"distance":2820,"line":2,"station_name":"Pasar Minggu"},{"i_lat":-6.263214,"i_long":106.851577,"time":2,"station_name":"Pasar Minggu Baru","line":2,"station_id":"PSMB","is_transit":false,"distance":2380,"transit":false},{"time":2,"is_transit":false,"station_name":"Duren Kalibata","transit":false,"line":2,"distance":824,"i_long":106.85449,"station_id":"DRN","i_lat":-6.255332},{"distance":1546,"i_long":106.856607,"line":2,"i_lat":-6.242512,"station_id":"CW","station_name":"Cawang","time":3,"transit":false,"is_transit":false},{"line":2,"station_name":"Tebet","time":2,"i_lat":-6.226659,"is_transit":false,"distance":1230,"transit":false,"station_id":"TEB","i_long":106.857948},{"i_long":106.84912,"is_transit":true,"transit":true,"station_id":"MRI","time":4,"i_lat":-6.209883,"station_name":"Manggarai","line":2,"distance":2610},{"station_name":"Sudirman","line":1,"time":4,"transit":false,"i_lat":-6.202263,"i_long":106.822649,"distance":3186,"is_transit":false,"station_id":"SUD"},{"time":1,"distance":280,"i_lat":-6.201433,"station_id":"SUDB","transit":false,"is_transit":false,"i_long":106.819881,"line":1,"station_name":"Sudirman Baru"},{"time":1,"i_long":106.816351,"is_transit":false,"transit":false,"distance":471,"station_name":"Karet","station_id":"KAT","i_lat":-6.20132,"line":1},{"line":1,"i_long":106.811091,"time":5,"station_id":"THB","is_transit":true,"station_name":"Tanah Abang","transit":true,"distance":2029,"i_lat":-6.185545},{"is_transit":false,"i_lat":-6.207404,"station_name":"Palmerah","distance":3191,"i_long":106.79689,"transit":false,"time":6,"station_id":"PLM","line":6},{"line":6,"station_name":"Kebayoran","distance":3737,"transit":false,"i_long":106.780334,"is_transit":false,"station_id":"KBY","time":7,"i_lat":-6.237242},{"distance":6218,"i_long":106.74273,"time":8,"line":6,"transit":false,"is_transit":false,"station_name":"Pondokranji","station_id":"PDJ","i_lat":-6.276362},{"line":6,"time":3,"station_id":"JMU","i_lat":-6.288927,"distance":2179,"station_name":"Jurangmangu","transit":false,"is_transit":false,"i_long":106.728916},{"i_lat":-6.296963,"is_transit":false,"time":4,"line":6,"transit":false,"station_name":"Sudimara","i_long":106.712277,"distance":1994,"station_id":"SDM"},{"i_long":106.675475,"time":6,"line":6,"distance":4566,"is_transit":false,"station_name":"Rawa Buntu","i_lat":-6.314823,"transit":false,"station_id":"RU"},{"station_name":"Serpong","line":6,"i_lat":-6.319871,"time":4,"distance":2413,"station_id":"SRP","i_long":106.66566,"transit":false,"is_transit":false},{"time":4,"distance":1784,"line":3,"i_long":106.640411,"station_id":"CSK","transit":false,"i_lat":-6.32484,"is_transit":false,"station_name":"Cisauk"},{"line":3,"station_name":"Cicayur","i_long":106.617853,"time":4,"is_transit":false,"station_id":"CC","transit":false,"distance":2519,"i_lat":-6.329547},{"i_long":106.568863,"line":6,"is_transit":false,"station_id":"PRP","i_lat":-6.3441410000000005,"station_name":"Parung Panjang","distance":5968,"transit":false,"time":8},{"i_long":106.508482,"transit":false,"is_transit":false,"station_name":"Cilejit","i_lat":-6.354349,"station_id":"CJT","line":3,"distance":7025,"time":9}],[{"i_long":106.831114,"time":0,"distance":0,"i_lat":-6.369073,"station_name":"Pondok Cina","is_transit":false,"station_id":"POC","line":2,"transit":false},{"is_transit":false,"i_lat":-6.360749,"i_long":106.831474,"time":2,"station_id":"UI","distance":1109,"station_name":"Univ. Indonesia","transit":false,"line":2},{"time":3,"transit":false,"distance":2264,"station_id":"UP","is_transit":false,"i_lat":-6.339291,"line":2,"station_name":"Univ. Pancasila","i_long":106.834175},{"line":2,"transit":false,"is_transit":false,"station_id":"LNA","i_lat":-6.330363,"time":2,"i_long":106.832616,"station_name":"Lenteng Agung","distance":1029},{"distance":2671,"i_long":106.838896,"line":2,"station_id":"TNT","i_lat":-6.3080680000000005,"transit":false,"is_transit":false,"time":3,"station_name":"Tanjung Barat"},{"station_name":"Pasar Minggu","is_transit":false,"time":4,"distance":2820,"i_long":106.843999,"line":2,"transit":false,"i_lat":-6.2842400000000005,"station_id":"PSM"},{"line":2,"distance":2380,"is_transit":false,"station_name":"Pasar Minggu Baru","station_id":"PSMB","i_lat":-6.263214,"transit":false,"i_long":106.851577,"time":2},{"station_id":"DRN","station_name":"Duren Kalibata","i_lat":-6.255332,"line":2,"is_transit":false,"distance":824,"i_long":106.85449,"transit":false,"time":2},{"time":3,"line":2,"i_lat":-6.242512,"transit":false,"distance":1546,"station_id":"CW","station_name":"Cawang","i_long":106.856607,"is_transit":false},{"i_long":106.857948,"station_name":"Tebet","is_transit":false,"i_lat":-6.226659,"line":2,"distance":1230,"transit":false,"station_id":"TEB","time":2},{"time":4,"line":2,"is_transit":false,"distance":2610,"transit":false,"station_id":"MRI","i_long":106.84912,"i_lat":-6.209883,"station_name":"Manggarai"},{"i_lat":-6.198556,"i_long":106.840169,"time":4,"station_id":"CKI","station_name":"Cikini","distance":1590,"transit":false,"is_transit":false,"line":2},{"transit":false,"i_lat":-6.186295,"line":2,"station_name":"Gondangdia","time":3,"i_long":106.832183,"is_transit":false,"distance":1750,"station_id":"GDD"},{"station_id":"JUA","station_name":"Juanda","transit":false,"line":2,"time":4,"i_lat":-6.166716,"distance":2015,"is_transit":false,"i_long":106.828284},{"line":2,"transit":false,"is_transit":false,"i_lat":-6.160725,"time":2,"station_id":"SW","distance":1149,"i_long":106.827103,"station_name":"Sawah Besar"},{"is_transit":false,"station_name":"Manggabesar","time":2,"i_lat":-6.149769,"transit":false,"i_long":106.82482,"station_id":"MGB","distance":906,"line":2},{"time":2,"station_name":"Jayakarta","line":2,"i_long":106.820901,"is_transit":false,"transit":false,"station_id":"JAY","i_lat":-6.141205,"distance":1080},{"station_id":"JAKK","line":2,"i_lat":-6.137569,"is_transit":true,"i_long":106.812439,"transit":true,"time":4,"distance":1264,"station_name":"Jakarta Kota"},{"distance":1364,"i_lat":-6.132549,"time":3,"line":4,"station_id":"KPB","i_long":106.826365,"transit":true,"is_transit":true,"station_name":"Kampung Bandan"},{"transit":false,"station_name":"Angke","i_lat":-6.144674,"i_long":106.79867,"time":9,"is_transit":false,"line":1,"station_id":"AK","distance":4102},{"time":4,"station_id":"DU","distance":1230,"i_lat":-6.155215,"station_name":"Duri","is_transit":false,"transit":false,"i_long":106.800832,"line":1},{"station_id":"THB","transit":true,"station_name":"Tanah Abang","is_transit":true,"time":8,"distance":3632,"i_lat":-6.185545,"line":1,"i_long":106.811091},{"distance":3191,"line":6,"is_transit":false,"station_name":"Palmerah","time":6,"station_id":"PLM","transit":false,"i_long":106.79689,"i_lat":-6.207404},{"station_name":"Kebayoran","time":7,"i_long":106.780334,"is_transit":false,"distance":3737,"i_lat":-6.237242,"line":6,"station_id":"KBY","transit":false},{"distance":6218,"station_id":"PDJ","station_name":"Pondokranji","transit":false,"is_transit":false,"time":8,"i_long":106.74273,"line":6,"i_lat":-6.276362},{"station_name":"Jurangmangu","distance":2179,"i_long":106.728916,"station_id":"JMU","line":6,"transit":false,"is_transit":false,"time":3,"i_lat":-6.288927},{"i_lat":-6.296963,"time":4,"station_name":"Sudimara","transit":false,"distance":1994,"line":6,"is_transit":false,"station_id":"SDM","i_long":106.712277},{"station_id":"RU","station_name":"Rawa Buntu","time":6,"distance":4566,"i_long":106.675475,"transit":false,"line":6,"i_lat":-6.314823,"is_transit":false},{"line":6,"station_name":"Serpong","transit":false,"station_id":"SRP","is_transit":false,"distance":2413,"i_lat":-6.319871,"i_long":106.66566,"time":4},{"transit":false,"time":4,"i_long":106.640411,"distance":1784,"station_name":"Cisauk","station_id":"CSK","line":3,"is_transit":false,"i_lat":-6.32484},{"transit":false,"is_transit":false,"i_long":106.617853,"distance":2519,"line":3,"station_name":"Cicayur","time":4,"station_id":"CC","i_lat":-6.329547},{"i_lat":-6.3441410000000005,"is_transit":false,"station_id":"PRP","i_long":106.568863,"line":6,"station_name":"Parung Panjang","transit":false,"distance":5968,"time":8},{"i_lat":-6.354349,"line":3,"is_transit":false,"station_id":"CJT","station_name":"Cilejit","time":9,"i_long":106.508482,"transit":false,"distance":7025}],[{"is_transit":false,"distance":0,"transit":false,"station_name":"Pondok Cina","time":0,"i_lat":-6.369073,"i_long":106.831114,"line":2,"station_id":"POC"},{"i_long":106.831474,"time":2,"transit":false,"is_transit":false,"station_name":"Univ. Indonesia","i_lat":-6.360749,"distance":1109,"line":2,"station_id":"UI"},{"i_lat":-6.339291,"station_name":"Univ. Pancasila","station_id":"UP","i_long":106.834175,"time":3,"line":2,"distance":2264,"transit":false,"is_transit":false},{"transit":false,"line":2,"i_long":106.832616,"distance":1029,"time":2,"station_name":"Lenteng Agung","is_transit":false,"i_lat":-6.330363,"station_id":"LNA"},{"is_transit":false,"distance":2671,"station_name":"Tanjung Barat","i_lat":-6.3080680000000005,"station_id":"TNT","i_long":106.838896,"time":3,"line":2,"transit":false},{"time":4,"i_long":106.843999,"line":2,"i_lat":-6.2842400000000005,"is_transit":false,"transit":false,"distance":2820,"station_id":"PSM","station_name":"Pasar Minggu"},{"distance":2380,"i_lat":-6.263214,"time":2,"is_transit":false,"station_id":"PSMB","line":2,"i_long":106.851577,"station_name":"Pasar Minggu Baru","transit":false},{"i_long":106.85449,"i_lat":-6.255332,"line":2,"transit":false,"station_name":"Duren Kalibata","station_id":"DRN","time":2,"distance":824,"is_transit":false},{"station_id":"CW","line":2,"station_name":"Cawang","distance":1546,"i_long":106.856607,"transit":false,"i_lat":-6.242512,"is_transit":false,"time":3},{"is_transit":false,"station_id":"TEB","time":2,"transit":false,"station_name":"Tebet","distance":1230,"line":2,"i_long":106.857948,"i_lat":-6.226659},{"time":4,"station_name":"Manggarai","station_id":"MRI","transit":true,"is_transit":true,"i_lat":-6.209883,"i_long":106.84912,"line":2,"distance":2610},{"i_long":106.858896,"station_name":"Matraman","i_lat":-6.212485,"distance":1275,"is_transit":false,"line":1,"station_id":"MTR","transit":false,"time":2},{"transit":true,"is_transit":true,"station_name":"Jatinegara","time":8,"line":1,"distance":1377,"station_id":"JNG","i_long":106.86807400000001,"i_lat":-6.215091},{"i_long":106.861737,"line":11,"time":2,"station_id":"POK","transit":false,"i_lat":-6.209188,"station_name":"Pondok Jati","distance":1236,"is_transit":false},{"station_id":"KMT","i_lat":-6.193792,"is_transit":false,"line":11,"i_long":106.855437,"time":2,"transit":false,"distance":1829,"station_name":"Kramat"},{"distance":973,"transit":false,"i_lat":-6.185975,"i_long":106.850107,"station_name":"Gang Sentiong","is_transit":false,"station_id":"GST","time":1,"line":11},{"station_id":"PSE","is_transit":false,"i_long":106.84368,"line":11,"distance":1567,"station_name":"Pasar Senen","transit":false,"i_lat":-6.174784,"time":8},{"line":11,"i_long":106.839204,"distance":1436,"transit":false,"station_id":"KMO","station_name":"Kemayoran","i_lat":-6.161728,"is_transit":false,"time":4},{"i_lat":-6.14505,"time":5,"i_long":106.836569,"is_transit":false,"transit":false,"distance":1901,"station_name":"Rajawali","station_id":"RJW","line":11},{"i_lat":-6.132549,"time":3,"station_name":"Kampung Bandan","transit":true,"is_transit":true,"distance":1444,"i_long":106.826365,"line":4,"station_id":"KPB"},{"station_name":"Angke","time":9,"distance":4102,"transit":false,"is_transit":false,"station_id":"AK","line":1,"i_lat":-6.144674,"i_long":106.79867},{"station_id":"DU","line":1,"distance":1230,"is_transit":false,"station_name":"Duri","transit":false,"time":4,"i_lat":-6.155215,"i_long":106.800832},{"station_id":"THB","transit":true,"distance":3632,"i_lat":-6.185545,"i_long":106.811091,"time":8,"line":1,"station_name":"Tanah Abang","is_transit":true},{"station_name":"Palmerah","i_lat":-6.207404,"transit":false,"line":6,"i_long":106.79689,"station_id":"PLM","is_transit":false,"time":6,"distance":3191},{"time":7,"is_transit":false,"distance":3737,"transit":false,"line":6,"station_name":"Kebayoran","station_id":"KBY","i_long":106.780334,"i_lat":-6.237242},{"i_long":106.74273,"is_transit":false,"line":6,"station_name":"Pondokranji","i_lat":-6.276362,"station_id":"PDJ","distance":6218,"transit":false,"time":8},{"i_long":106.728916,"i_lat":-6.288927,"station_id":"JMU","line":6,"transit":false,"station_name":"Jurangmangu","is_transit":false,"time":3,"distance":2179},{"time":4,"transit":false,"is_transit":false,"i_lat":-6.296963,"station_id":"SDM","i_long":106.712277,"line":6,"distance":1994,"station_name":"Sudimara"},{"station_id":"RU","time":6,"is_transit":false,"distance":4566,"i_lat":-6.314823,"transit":false,"station_name":"Rawa Buntu","i_long":106.675475,"line":6},{"line":6,"station_id":"SRP","transit":false,"i_long":106.66566,"time":4,"distance":2413,"station_name":"Serpong","i_lat":-6.319871,"is_transit":false},{"i_lat":-6.32484,"station_name":"Cisauk","transit":false,"is_transit":false,"distance":1784,"line":3,"station_id":"CSK","i_long":106.640411,"time":4},{"time":4,"distance":2519,"i_long":106.617853,"station_id":"CC","transit":false,"is_transit":false,"i_lat":-6.329547,"line":3,"station_name":"Cicayur"},{"distance":5968,"transit":false,"is_transit":false,"line":6,"station_name":"Parung Panjang","i_lat":-6.3441410000000005,"i_long":106.568863,"station_id":"PRP","time":8},{"station_id":"CJT","distance":7025,"i_long":106.508482,"line":3,"time":9,"transit":false,"i_lat":-6.354349,"is_transit":false,"station_name":"Cilejit"}]]}