{"data":[[{"i_long":106.831114,"line":2,"time":0,"distance":0,"transit":false,"station_name":"Pondok Cina","station_id":"POC","is_transit":false,"i_lat":-6.369073},{"distance":1109,"i_long":106.831474,"i_lat":-6.360749,"station_name":"Univ. Indonesia","is_transit":false,"time":2,"station_id":"UI","transit":false,"line":2},{"time":3,"line":2,"station_id":"UP","transit":false,"is_transit":false,"distance":2264,"i_lat":-6.339291,"i_long":106.834175,"station_name":"Univ. Pancasila"},{"distance":1029,"line":2,"time":2,"i_lat":-6.330363,"i_long":106.832616,"station_id":"LNA","station_name":"Lenteng Agung","transit":false,"is_transit":false},{"time":3,"transit":false,"i_lat":-6.3080680000000005,"is_transit":false,"i_long":106.838896,"station_id":"TNT","distance":2671,"line":2,"station_name":"Tanjung Barat"},{"is_transit":false,"distance":2820,"line":2,"time":4,"i_long":106.843999,"station_name":"Pasar Minggu","transit":false,"station_id":"PSM","i_lat":-6.2842400000000005},{"distance":2380,"station_id":"PSMB","is_transit":false,"transit":false,"i_long":106.851577,"time":2,"station_name":"Pasar Minggu Baru","i_lat":-6.263214,"line":2},{"time":2,"station_id":"DRN","line":2,"station_name":"Duren Kalibata","is_transit":false,"distance":824,"transit":false,"i_long":106.85449,"i_lat":-6.255332},{"transit":false,"time":3,"is_transit":false,"distance":1546,"station_id":"CW","line":2,"i_long":106.856607,"station_name":"Cawang","i_lat":-6.242512},{"station_id":"TEB","station_name":"Tebet","i_long":106.857948,"line":2,"transit":false,"is_transit":false,"time":2,"i_lat":-6.226659,"distance":1230},{"time":4,"station_id":"MRI","i_long":106.84912,"i_lat":-6.209883,"is_transit":true,"station_name":"Manggarai","line":2,"distance":2610,"transit":true},{"distance":1275,"station_id":"MTR","transit":false,"station_name":"Matraman","i_lat":-6.212485,"i_long":106.858896,"line":1,"time":2,"is_transit":false},{"distance":1377,"i_lat":-6.215091,"transit":false,"line":1,"time":8,"station_name":"Jatinegara","i_long":106.86807400000001,"station_id":"JNG","is_transit":false},{"is_transit":false,"line":1,"station_name":"Klender","time":3,"i_lat":-6.2135,"i_long":106.899548,"transit":false,"station_id":"KLD","distance":3395},{"station_name":"Buaran","station_id":"BUA","is_transit":false,"distance":3100,"time":2,"line":1,"i_long":106.922662,"transit":false,"i_lat":-6.215568},{"i_long":106.939679,"is_transit":false,"time":1,"distance":1305,"station_id":"KLDB","transit":false,"line":1,"i_lat":-6.217455,"station_name":"Klenderbaru"},{"i_lat":-6.219053,"line":1,"time":8,"i_long":106.951283,"is_transit":false,"transit":false,"station_name":"Cakung","station_id":"CUK","distance":1385},{"line":1,"i_lat":-6.224515,"distance":3097,"i_long":106.977657,"transit":false,"station_name":"Kranji","station_id":"KRI","is_transit":false,"time":3},{"line":1,"time":4,"distance":2520,"i_lat":-6.236616,"i_long":106.997013,"station_id":"BKS","station_name":"Bekasi","is_transit":false,"transit":false},{"time":2,"i_long":107.016735,"line":1,"transit":false,"station_id":"BKST","station_name":"Bekasi Timur","is_transit":false,"distance":2368,"i_lat":-6.248029},{"i_long":107.055722,"line":1,"distance":4460,"station_name":"Tambun","is_transit":false,"time":7,"transit":false,"station_id":"TB","i_lat":-6.258864}],[{"station_id":"POC","is_transit":false,"time":0,"station_name":"Pondok Cina","distance":0,"i_lat":-6.369073,"i_long":106.831114,"transit":false,"line":2},{"i_lat":-6.360749,"time":2,"station_name":"Univ. Indonesia","transit":false,"i_long":106.831474,"line":2,"is_transit":false,"distance":1109,"station_id":"UI"},{"time":3,"is_transit":false,"station_name":"Univ. Pancasila","i_lat":-6.339291,"transit":false,"i_long":106.834175,"distance":2264,"line":2,"station_id":"UP"},{"i_long":106.832616,"station_name":"Lenteng Agung","distance":1029,"time":2,"station_id":"LNA","line":2,"is_transit":false,"i_lat":-6.330363,"transit":false},{"is_transit":false,"i_lat":-6.3080680000000005,"transit":false,"i_long":106.838896,"station_name":"Tanjung Barat","time":3,"station_id":"TNT","line":2,"distance":2671},{"station_name":"Pasar Minggu","transit":false,"i_lat":-6.2842400000000005,"station_id":"PSM","distance":2820,"line":2,"is_transit":false,"time":4,"i_long":106.843999},{"i_long":106.851577,"station_id":"PSMB","i_lat":-6.263214,"station_name":"Pasar Minggu Baru","time":2,"transit":false,"line":2,"distance":2380,"is_transit":false},{"i_long":106.85449,"is_transit":false,"time":2,"line":2,"i_lat":-6.255332,"transit":false,"distance":824,"station_id":"DRN","station_name":"Duren Kalibata"},{"i_long":106.856607,"transit":false,"distance":1546,"station_name":"Cawang","i_lat":-6.242512,"line":2,"is_transit":false,"station_id":"CW","time":3},{"station_name":"Tebet","is_transit":false,"line":2,"transit":false,"station_id":"TEB","i_lat":-6.226659,"i_long":106.857948,"time":2,"distance":1230},{"station_id":"MRI","time":4,"station_name":"Manggarai","is_transit":true,"i_lat":-6.209883,"distance":2610,"transit":true,"line":2,"i_long":106.84912},{"is_transit":false,"line":1,"distance":3186,"station_id":"SUD","i_lat":-6.202263,"station_name":"Sudirman","transit":false,"time":4,"i_long":106.822649},{"i_lat":-6.201433,"transit":false,"station_id":"SUDB","is_transit":false,"time":1,"station_name":"Sudirman Baru","i_long":106.819881,"line":1,"distance":280},{"station_name":"Karet","time":1,"is_transit":false,"i_lat":-6.20132,"i_long":106.816351,"transit":false,"distance":471,"station_id":"KAT","line":1},{"i_long":106.811091,"transit":false,"distance":2029,"station_name":"Tanah Abang","line":1,"is_transit":false,"station_id":"THB","time":5,"i_lat":-6.185545},{"time":8,"station_id":"DU","transit":false,"station_name":"Duri","is_transit":false,"distance":3632,"i_lat":-6.155215,"line":1,"i_long":106.800832},{"transit":false,"time":4,"station_name":"Angke","station_id":"AK","i_lat":-6.144674,"is_transit":false,"distance":1230,"line":1,"i_long":106.79867},{"distance":4102,"transit":true,"i_long":106.826365,"time":9,"line":4,"i_lat":-6.132549,"station_id":"KPB","is_transit":true,"station_name":"Kampung Bandan"},{"i_long":106.836569,"station_name":"Rajawali","station_id":"RJW","time":3,"distance":1444,"is_transit":false,"transit":false,"i_lat":-6.14505,"line":11},{"station_name":"Kemayoran","i_lat":-6.161728,"line":11,"time":5,"transit":false,"is_transit":false,"i_long":106.839204,"station_id":"KMO","distance":1901},{"is_transit":false,"time":4,"station_name":"Pasar Senen","distance":1436,"transit":false,"i_lat":-6.174784,"i_long":106.84368,"station_id":"PSE","line":11},{"station_id":"GST","distance":1567,"time":8,"i_lat":-6.185975,"station_name":"Gang Sentiong","i_long":106.850107,"line":11,"transit":false,"is_transit":false},{"is_transit":false,"transit":false,"time":1,"station_id":"KMT","i_long":106.855437,"distance":973,"i_lat":-6.193792,"line":11,"station_name":"Kramat"},{"transit":false,"time":2,"station_id":"POK","i_long":106.861737,"i_lat":-6.209188,"station_name":"Pondok Jati","is_transit":false,"distance":1829,"line":11},{"is_transit":true,"i_lat":-6.215091,"line":1,"i_long":106.86807400000001,"transit":true,"distance":1236,"station_name":"Jatinegara","station_id":"JNG","time":9},{"transit":false,"time":3,"line":1,"distance":3395,"i_long":106.899548,"is_transit":false,"station_name":"Klender","i_lat":-6.2135,"station_id":"KLD"},{"line":1,"station_id":"BUA","station_name":"Buaran","transit":false,"i_lat":-6.215568,"time":2,"distance":3100,"i_long":106.922662,"is_transit":false},{"is_transit":false,"distance":1305,"transit":false,"time":1,"i_long":106.939679,"station_id":"KLDB","station_name":"Klenderbaru","line":1,"i_lat":-6.217455},{"is_transit":false,"time":8,"i_lat":-6.219053,"distance":1385,"transit":false,"i_long":106.951283,"station_id":"CUK","station_name":"Cakung","line":1},{"i_long":106.977657,"line":1,"time":3,"distance":3097,"i_lat":-6.224515,"transit":false,"station_name":"Kranji","is_transit":false,"station_id":"KRI"},{"distance":2520,"line":1,"i_long":106.997013,"station_id":"BKS","transit":false,"time":4,"station_name":"Bekasi","i_lat":-6.236616,"is_transit":false},{"i_lat":-6.248029,"line":1,"i_long":107.016735,"distance":2368,"time":2,"transit":false,"station_name":"Bekasi Timur","station_id":"BKST","is_transit":false},{"time":7,"transit":false,"station_name":"Tambun","i_lat":-6.258864,"distance":4460,"is_transit":false,"i_long":107.055722,"station_id":"TB","line":1}],[{"i_long":106.831114,"transit":false,"station_id":"POC","time":0,"i_lat":-6.369073,"distance":0,"station_name":"Pondok Cina","is_transit":false,"line":2},{"i_long":106.831474,"transit":false,"station_id":"UI","distance":1109,"line":2,"time":2,"station_name":"Univ. Indonesia","is_transit":false,"i_lat":-6.360749},{"station_name":"Univ. Pancasila","distance":2264,"time":3,"i_long":106.834175,"station_id":"UP","is_transit":false,"i_lat":-6.339291,"transit":false,"line":2},{"line":2,"time":2,"station_name":"Lenteng Agung","is_transit":false,"station_id":"LNA","distance":1029,"i_long":106.832616,"transit":false,"i_lat":-6.330363},{"line":2,"station_id":"TNT","is_transit":false,"distance":2671,"transit":false,"i_long":106.838896,"i_lat":-6.3080680000000005,"station_name":"Tanjung Barat","time":3},{"station_name":"Pasar Minggu","line":2,"is_transit":false,"transit":false,"i_long":106.843999,"i_lat":-6.2842400000000005,"time":4,"station_id":"PSM","distance":2820},{"time":2,"station_id":"PSMB","line":2,"transit":false,"i_long":106.851577,"distance":2380,"i_lat":-6.263214,"station_name":"Pasar Minggu Baru","is_transit":false},{"distance":824,"station_name":"Duren Kalibata","transit":false,"time":2,"line":2,"i_lat":-6.255332,"station_id":"DRN","is_transit":false,"i_long":106.85449},{"i_long":106.856607,"transit":false,"time":3,"distance":1546,"i_lat":-6.242512,"station_name":"Cawang","station_id":"CW","line":2,"is_transit":false},{"distance":1230,"is_transit":false,"time":2,"station_id":"TEB","i_long":106.857948,"station_name":"Tebet","i_lat":-6.226659,"transit":false,"line":2},{"station_id":"MRI","line":2,"station_name":"Manggarai","is_transit":false,"i_long":106.84912,"time":4,"i_lat":-6.209883,"transit":false,"distance":2610},{"i_long":106.840169,"is_transit":false,"transit":false,"station_name":"Cikini","distance":1590,"time":4,"i_lat":-6.198556,"line":2,"station_id":"CKI"},{"distance":1750,"station_id":"GDD","line":2,"is_transit":false,"i_lat":-6.186295,"i_long":106.832183,"transit":false,"time":3,"station_name":"Gondangdia"},{"i_lat":-6.166716,"station_id":"JUA","distance":2015,"i_long":106.828284,"is_transit":false,"transit":false,"line":2,"time":4,"station_name":"Juanda"},{"station_name":"Sawah Besar","transit":false,"line":2,"station_id":"SW","distance":1149,"time":2,"i_lat":-6.160725,"i_long":106.827103,"is_transit":false},{"transit":false,"time":2,"station_id":"MGB","i_long":106.82482,"station_name":"Manggabesar","is_transit":false,"i_lat":-6.149769,"line":2,"distance":906},{"station_id":"JAY","i_lat":-6.141205,"line":2,"distance":1080,"transit":false,"i_long":106.820901,"station_name":"Jayakarta","is_transit":false,"time":2},{"i_lat":-6.137569,"time":4,"station_id":"JAKK","is_transit":true,"distance":1264,"line":2,"station_name":"Jakarta Kota","i_long":106.812439,"transit":true},{"station_id":"KPB","transit":true,"line":4,"station_name":"Kampung Bandan","i_lat":-6.132549,"i_long":106.826365,"time":3,"is_transit":true,"distance":1364},{"is_transit":false,"time":3,"distance":1444,"i_lat":-6.14505,"transit":false,"i_long":106.836569,"line":11,"station_name":"Rajawali","station_id":"RJW"},{"station_name":"Kemayoran","station_id":"KMO","distance":1901,"i_long":106.839204,"i_lat":-6.161728,"time":5,"line":11,"is_transit":false,"transit":false},{"transit":false,"distance":1436,"line":11,"time":4,"station_id":"PSE","station_name":"Pasar Senen","is_transit":false,"i_long":106.84368,"i_lat":-6.174784},{"station_id":"GST","station_name":"Gang Sentiong","is_transit":false,"distance":1567,"i_long":106.850107,"line":11,"transit":false,"time":8,"i_lat":-6.185975},{"station_name":"Kramat","line":11,"i_lat":-6.193792,"transit":false,"is_transit":false,"distance":973,"time":1,"i_long":106.855437,"station_id":"KMT"},{"is_transit":false,"distance":1829,"time":2,"i_lat":-6.209188,"transit":false,"i_long":106.861737,"station_name":"Pondok Jati","line":11,"station_id":"POK"},{"distance":1236,"i_long":106.86807400000001,"i_lat":-6.215091,"transit":true,"station_name":"Jatinegara","station_id":"JNG","line":1,"time":9,"is_transit":true},{"i_lat":-6.2135,"i_long":106.899548,"station_name":"Klender","station_id":"KLD","transit":false,"is_transit":false,"time":3,"distance":3395,"line":1},{"time":2,"i_long":106.922662,"line":1,"i_lat":-6.215568,"is_transit":false,"distance":3100,"station_name":"Buaran","station_id":"BUA","transit":false},{"line":1,"i_long":106.939679,"time":1,"distance":1305,"transit":false,"station_name":"Klenderbaru","station_id":"KLDB","i_lat":-6.217455,"is_transit":false},{"station_id":"CUK","i_long":106.951283,"line":1,"station_name":"Cakung","i_lat":-6.219053,"is_transit":false,"transit":false,"distance":1385,"time":8},{"station_name":"Kranji","is_transit":false,"i_long":106.977657,"distance":3097,"transit":false,"station_id":"KRI","line":1,"time":3,"i_lat":-6.224515},{"transit":false,"station_id":"BKS","is_transit":false,"time":4,"station_name":"Bekasi","i_long":106.997013,"distance":2520,"i_lat":-6.236616,"line":1},{"time":2,"i_lat":-6.248029,"i_long":107.016735,"line":1,"distance":2368,"transit":false,"station_name":"Bekasi Timur","station_id":"BKST","is_transit":false},{"station_id":"TB","is_transit":false,"line":1,"distance":4460,"i_lat":-6.258864,"time":7,"transit":false,"station_name":"Tambun","i_long":107.055722}]]}