{"data":[[{"is_transit":false,"transit":false,"i_long":106.831114,"time":0,"station_id":"POC","distance":0,"i_lat":-6.369073,"line":2,"station_name":"Pondok Cina"},{"distance":1109,"time":2,"i_lat":-6.360749,"i_long":106.831474,"is_transit":false,"line":2,"station_name":"Univ. Indonesia","transit":false,"station_id":"UI"},{"is_transit":false,"station_id":"UP","distance":2264,"i_long":106.834175,"i_lat":-6.339291,"time":3,"transit":false,"station_name":"Univ. Pancasila","line":2},{"station_name":"Lenteng Agung","distance":1029,"is_transit":false,"transit":false,"line":2,"time":2,"station_id":"LNA","i_lat":-6.330363,"i_long":106.832616},{"transit":false,"i_long":106.838896,"distance":2671,"is_transit":false,"station_name":"Tanjung Barat","i_lat":-6.3080680000000005,"line":2,"time":3,"station_id":"TNT"},{"i_lat":-6.2842400000000005,"time":4,"is_transit":false,"i_long":106.843999,"line":2,"distance":2820,"station_name":"Pasar Minggu","station_id":"PSM","transit":false},{"line":2,"station_name":"Pasar Minggu Baru","i_long":106.851577,"is_transit":false,"transit":false,"distance":2380,"i_lat":-6.263214,"station_id":"PSMB","time":2},{"i_long":106.85449,"i_lat":-6.255332,"time":2,"is_transit":false,"distance":824,"transit":false,"station_name":"Duren Kalibata","station_id":"DRN","line":2}]]}