{"data":[[{"line":2,"transit":false,"distance":0,"is_transit":false,"station_name":"Pondok Cina","station_id":"POC","time":0,"i_lat":-6.369073,"i_long":106.831114},{"i_lat":-6.360749,"line":2,"time":2,"station_name":"Univ. Indonesia","distance":1109,"i_long":106.831474,"transit":false,"station_id":"UI","is_transit":false},{"station_name":"Univ. Pancasila","station_id":"UP","time":3,"i_lat":-6.339291,"i_long":106.834175,"is_transit":false,"transit":false,"distance":2264,"line":2},{"distance":1029,"line":2,"station_name":"Lenteng Agung","i_lat":-6.330363,"time":2,"station_id":"LNA","is_transit":false,"i_long":106.832616,"transit":false},{"station_name":"Tanjung Barat","distance":2671,"station_id":"TNT","i_long":106.838896,"time":3,"i_lat":-6.3080680000000005,"transit":false,"is_transit":false,"line":2},{"i_lat":-6.2842400000000005,"i_long":106.843999,"transit":false,"station_name":"Pasar Minggu","line":2,"station_id":"PSM","time":4,"distance":2820,"is_transit":false},{"station_id":"PSMB","i_long":106.851577,"station_name":"Pasar Minggu Baru","transit":false,"distance":2380,"is_transit":false,"time":2,"i_lat":-6.263214,"line":2},{"time":2,"distance":824,"i_long":106.85449,"line":2,"station_name":"Duren Kalibata","is_transit":false,"station_id":"DRN","i_lat":-6.255332,"transit":false},{"station_name":"Cawang","i_lat":-6.242512,"transit":false,"station_id":"CW","is_transit":false,"i_long":106.856607,"line":2,"time":3,"distance":1546},{"i_long":106.857948,"i_lat":-6.226659,"station_name":"Tebet","time":2,"station_id":"TEB","transit":false,"is_transit":false,"distance":1230,"line":2},{"i_long":106.84912,"is_transit":true,"station_name":"Manggarai","i_lat":-6.209883,"line":2,"transit":true,"station_id":"MRI","distance":2610,"time":4},{"time":4,"station_id":"SUD","line":1,"distance":3186,"transit":false,"station_name":"Sudirman","is_transit":false,"i_long":106.822649,"i_lat":-6.202263},{"time":1,"station_name":"Sudirman Baru","is_transit":false,"i_long":106.819881,"transit":false,"station_id":"SUDB","i_lat":-6.201433,"line":1,"distance":280},{"is_transit":false,"transit":false,"time":1,"station_id":"KAT","i_long":106.816351,"station_name":"Karet","line":1,"i_lat":-6.20132,"distance":471},{"distance":2029,"i_long":106.811091,"station_name":"Tanah Abang","transit":false,"station_id":"THB","is_transit":false,"i_lat":-6.185545,"line":1,"time":5},{"is_transit":true,"distance":3632,"i_long":106.800832,"station_id":"DU","i_lat":-6.155215,"time":8,"transit":true,"line":1,"station_name":"Duri"},{"station_name":"Grogol","transit":false,"distance":1700,"i_lat":-6.162021,"is_transit":false,"station_id":"GGL","i_long":106.788277,"line":5,"time":3},{"i_lat":-6.161433,"transit":false,"is_transit":false,"time":2,"i_long":106.771379,"line":5,"station_id":"PSG","distance":2036,"station_name":"Pesing"},{"station_id":"TKO","i_long":106.756522,"transit":false,"is_transit":false,"i_lat":-6.1587309999999995,"line":5,"time":2,"station_name":"Taman Kota","distance":1614},{"i_lat":-6.159876,"transit":false,"station_name":"Bojongindah","time":2,"distance":2334,"line":5,"is_transit":false,"station_id":"BOI","i_long":106.737035},{"time":4,"i_long":106.723064,"line":5,"station_name":"Rawa Buaya","is_transit":false,"i_lat":-6.162758,"distance":1152,"transit":false,"station_id":"RW"},{"is_transit":false,"line":5,"time":3,"station_name":"Kalideres","distance":2504,"i_lat":-6.166068,"i_long":106.701612,"station_id":"KDS","transit":false}],[{"i_long":106.831114,"distance":0,"time":0,"station_id":"POC","transit":false,"station_name":"Pondok Cina","i_lat":-6.369073,"line":2,"is_transit":false},{"line":2,"distance":1109,"i_long":106.831474,"transit":false,"i_lat":-6.360749,"station_id":"UI","is_transit":false,"time":2,"station_name":"Univ. Indonesia"},{"is_transit":false,"station_id":"UP","i_lat":-6.339291,"line":2,"distance":2264,"time":3,"i_long":106.834175,"transit":false,"station_name":"Univ. Pancasila"},{"distance":1029,"transit":false,"i_long":106.832616,"line":2,"station_name":"Lenteng Agung","station_id":"LNA","i_lat":-6.330363,"is_transit":false,"time":2},{"station_id":"TNT","station_name":"Tanjung Barat","is_transit":false,"time":3,"distance":2671,"i_long":106.838896,"line":2,"transit":false,"i_lat":-6.3080680000000005},{"i_lat":-6.2842400000000005,"time":4,"station_id":"PSM","distance":2820,"is_transit":false,"station_name":"Pasar Minggu","line":2,"transit":false,"i_long":106.843999},{"is_transit":false,"time":2,"i_lat":-6.263214,"i_long":106.851577,"station_name":"Pasar Minggu Baru","station_id":"PSMB","distance":2380,"line":2,"transit":false},{"time":2,"is_transit":false,"station_id":"DRN","line":2,"transit":false,"distance":824,"i_lat":-6.255332,"station_name":"Duren Kalibata","i_long":106.85449},{"is_transit":false,"line":2,"station_id":"CW","i_lat":-6.242512,"station_name":"Cawang","time":3,"distance":1546,"i_long":106.856607,"transit":false},{"station_name":"Tebet","station_id":"TEB","i_lat":-6.226659,"is_transit":false,"transit":false,"i_long":106.857948,"line":2,"time":2,"distance":1230},{"i_lat":-6.209883,"time":4,"i_long":106.84912,"line":2,"station_name":"Manggarai","station_id":"MRI","is_transit":false,"distance":2610,"transit":false},{"station_name":"Cikini","station_id":"CKI","time":4,"distance":1590,"i_long":106.840169,"line":2,"is_transit":false,"i_lat":-6.198556,"transit":false},{"is_transit":false,"transit":false,"time":3,"i_long":106.832183,"station_id":"GDD","station_name":"Gondangdia","line":2,"distance":1750,"i_lat":-6.186295},{"station_name":"Juanda","time":4,"i_lat":-6.166716,"i_long":106.828284,"distance":2015,"station_id":"JUA","transit":false,"is_transit":false,"line":2},{"station_id":"SW","transit":false,"is_transit":false,"i_long":106.827103,"station_name":"Sawah Besar","time":2,"i_lat":-6.160725,"distance":1149,"line":2},{"distance":906,"transit":false,"station_name":"Manggabesar","is_transit":false,"time":2,"station_id":"MGB","i_lat":-6.149769,"i_long":106.82482,"line":2},{"transit":false,"line":2,"station_name":"Jayakarta","distance":1080,"i_lat":-6.141205,"station_id":"JAY","time":2,"is_transit":false,"i_long":106.820901},{"time":4,"i_lat":-6.137569,"station_name":"Jakarta Kota","station_id":"JAKK","is_transit":true,"i_long":106.812439,"line":2,"transit":true,"distance":1264},{"line":4,"transit":true,"distance":1364,"i_lat":-6.132549,"time":3,"i_long":106.826365,"station_name":"Kampung Bandan","is_transit":true,"station_id":"KPB"},{"station_id":"AK","is_transit":false,"distance":4102,"transit":false,"i_lat":-6.144674,"line":1,"time":9,"i_long":106.79867,"station_name":"Angke"},{"station_id":"DU","station_name":"Duri","time":4,"distance":1230,"is_transit":true,"i_lat":-6.155215,"line":1,"i_long":106.800832,"transit":true},{"i_long":106.788277,"station_name":"Grogol","transit":false,"station_id":"GGL","distance":1700,"is_transit":false,"time":3,"i_lat":-6.162021,"line":5},{"i_long":106.771379,"station_name":"Pesing","station_id":"PSG","time":2,"i_lat":-6.161433,"line":5,"transit":false,"is_transit":false,"distance":2036},{"distance":1614,"i_lat":-6.1587309999999995,"station_id":"TKO","time":2,"station_name":"Taman Kota","is_transit":false,"transit":false,"i_long":106.756522,"line":5},{"station_id":"BOI","i_lat":-6.159876,"station_name":"Bojongindah","i_long":106.737035,"time":2,"transit":false,"distance":2334,"line":5,"is_transit":false},{"i_lat":-6.162758,"is_transit":false,"i_long":106.723064,"station_name":"Rawa Buaya","line":5,"transit":false,"station_id":"RW","time":4,"distance":1152},{"station_name":"Kalideres","station_id":"KDS","distance":2504,"transit":false,"is_transit":false,"line":5,"i_lat":-6.166068,"i_long":106.701612,"time":3}],[{"time":0,"transit":false,"station_id":"POC","is_transit":false,"i_lat":-6.369073,"line":2,"station_name":"Pondok Cina","distance":0,"i_long":106.831114},{"is_transit":false,"time":2,"transit":false,"line":2,"station_id":"UI","i_lat":-6.360749,"station_name":"Univ. Indonesia","i_long":106.831474,"distance":1109},{"i_lat":-6.339291,"line":2,"station_name":"Univ. Pancasila","time":3,"station_id":"UP","i_long":106.834175,"is_transit":false,"distance":2264,"transit":false},{"distance":1029,"i_long":106.832616,"station_name":"Lenteng Agung","i_lat":-6.330363,"is_transit":false,"line":2,"station_id":"LNA","transit":false,"time":2},{"line":2,"is_transit":false,"i_long":106.838896,"time":3,"distance":2671,"i_lat":-6.3080680000000005,"transit":false,"station_name":"Tanjung Barat","station_id":"TNT"},{"station_id":"PSM","station_name":"Pasar Minggu","i_lat":-6.2842400000000005,"transit":false,"is_transit":false,"time":4,"distance":2820,"i_long":106.843999,"line":2},{"station_id":"PSMB","transit":false,"is_transit":false,"station_name":"Pasar Minggu Baru","time":2,"distance":2380,"i_lat":-6.263214,"i_long":106.851577,"line":2},{"station_id":"DRN","transit":false,"is_transit":false,"distance":824,"i_long":106.85449,"time":2,"station_name":"Duren Kalibata","i_lat":-6.255332,"line":2},{"is_transit":false,"distance":1546,"i_lat":-6.242512,"line":2,"transit":false,"station_name":"Cawang","station_id":"CW","i_long":106.856607,"time":3},{"i_lat":-6.226659,"transit":false,"line":2,"station_id":"TEB","i_long":106.857948,"distance":1230,"station_name":"Tebet","is_transit":false,"time":2},{"i_lat":-6.209883,"line":2,"i_long":106.84912,"station_name":"Manggarai","distance":2610,"station_id":"MRI","transit":true,"is_transit":true,"time":4},{"transit":false,"time":2,"station_id":"MTR","line":1,"is_transit":false,"i_lat":-6.212485,"distance":1275,"station_name":"Matraman","i_long":106.858896},{"line":1,"transit":true,"time":8,"i_long":106.86807400000001,"is_transit":true,"distance":1377,"station_name":"Jatinegara","station_id":"JNG","i_lat":-6.215091},{"station_id":"POK","i_lat":-6.209188,"line":11,"transit":false,"is_transit":false,"time":2,"distance":1236,"i_long":106.861737,"station_name":"Pondok Jati"},{"is_transit":false,"i_long":106.855437,"distance":1829,"line":11,"time":2,"station_id":"KMT","station_name":"Kramat","transit":false,"i_lat":-6.193792},{"line":11,"time":1,"distance":973,"transit":false,"is_transit":false,"i_lat":-6.185975,"i_long":106.850107,"station_name":"Gang Sentiong","station_id":"GST"},{"station_name":"Pasar Senen","station_id":"PSE","distance":1567,"transit":false,"i_lat":-6.174784,"i_long":106.84368,"time":8,"line":11,"is_transit":false},{"line":11,"station_name":"Kemayoran","is_transit":false,"station_id":"KMO","transit":false,"i_lat":-6.161728,"i_long":106.839204,"time":4,"distance":1436},{"i_long":106.836569,"station_id":"RJW","is_transit":false,"transit":false,"time":5,"station_name":"Rajawali","line":11,"i_lat":-6.14505,"distance":1901},{"station_id":"KPB","i_lat":-6.132549,"line":4,"distance":1444,"i_long":106.826365,"is_transit":true,"transit":true,"time":3,"station_name":"Kampung Bandan"},{"i_long":106.79867,"distance":4102,"station_name":"Angke","is_transit":false,"time":9,"i_lat":-6.144674,"station_id":"AK","transit":false,"line":1},{"station_id":"DU","distance":1230,"station_name":"Duri","line":1,"i_long":106.800832,"is_transit":true,"transit":true,"time":4,"i_lat":-6.155215},{"is_transit":false,"station_id":"GGL","time":3,"distance":1700,"line":5,"i_lat":-6.162021,"i_long":106.788277,"station_name":"Grogol","transit":false},{"i_long":106.771379,"station_id":"PSG","is_transit":false,"line":5,"distance":2036,"station_name":"Pesing","time":2,"i_lat":-6.161433,"transit":false},{"line":5,"station_name":"Taman Kota","station_id":"TKO","time":2,"i_long":106.756522,"is_transit":false,"transit":false,"distance":1614,"i_lat":-6.1587309999999995},{"station_id":"BOI","station_name":"Bojongindah","i_long":106.737035,"transit":false,"line":5,"distance":2334,"i_lat":-6.159876,"time":2,"is_transit":false},{"is_transit":false,"transit":false,"station_id":"RW","line":5,"i_lat":-6.162758,"station_name":"Rawa Buaya","distance":1152,"i_long":106.723064,"time":4},{"i_lat":-6.166068,"i_long":106.701612,"line":5,"is_transit":false,"transit":false,"station_name":"Kalideres","station_id":"KDS","distance":2504,"time":3}]]}