{"data":[[{"line":2,"time":0,"i_lat":-6.369073,"i_long":106.831114,"transit":false,"station_id":"POC","station_name":"Pondok Cina","is_transit":false,"distance":0},{"station_id":"DPB","i_long":106.819451,"transit":false,"station_name":"Depokbaru","is_transit":false,"distance":2727,"line":2,"i_lat":-6.391065,"time":4},{"distance":1584,"station_id":"DP","i_lat":-6.405256,"i_long":106.816926,"transit":false,"line":2,"is_transit":false,"station_name":"Depok","time":3},{"distance":5084,"station_id":"CTA","i_lat":-6.448811,"is_transit":true,"time":6,"station_name":"Citayam","transit":true,"i_long":106.800298,"line":2},{"distance":0,"transit":false,"station_id":"PDRG","station_name":"Pondok Rajeg","i_lat":-6.460735,"is_transit":false,"time":0,"line":21,"i_long":106.824374},{"station_id":"CBN","transit":false,"time":0,"distance":0,"station_name":"Cibinong","line":21,"i_long":106.851978,"is_transit":false,"i_lat":-6.46424}]]}