{"data":[[{"line":2,"is_transit":false,"transit":false,"station_id":"POC","station_name":"Pondok Cina","i_long":106.831114,"i_lat":-6.369073,"distance":0,"time":0},{"is_transit":false,"i_long":106.831474,"transit":false,"time":2,"i_lat":-6.360749,"station_name":"Univ. Indonesia","distance":1109,"line":2,"station_id":"UI"},{"i_long":106.834175,"station_id":"UP","distance":2264,"i_lat":-6.339291,"is_transit":false,"time":3,"transit":false,"station_name":"Univ. Pancasila","line":2},{"station_id":"LNA","distance":1029,"i_long":106.832616,"i_lat":-6.330363,"is_transit":false,"transit":false,"time":2,"station_name":"Lenteng Agung","line":2},{"transit":false,"i_long":106.838896,"time":3,"line":2,"distance":2671,"station_id":"TNT","i_lat":-6.3080680000000005,"is_transit":false,"station_name":"Tanjung Barat"},{"station_id":"PSM","time":4,"is_transit":false,"line":2,"i_lat":-6.2842400000000005,"station_name":"Pasar Minggu","distance":2820,"transit":false,"i_long":106.843999},{"is_transit":false,"transit":false,"station_name":"Pasar Minggu Baru","i_long":106.851577,"i_lat":-6.263214,"line":2,"station_id":"PSMB","time":2,"distance":2380},{"i_lat":-6.255332,"i_long":106.85449,"is_transit":false,"station_name":"Duren Kalibata","station_id":"DRN","line":2,"transit":false,"distance":824,"time":2},{"is_transit":false,"distance":1546,"station_id":"CW","i_lat":-6.242512,"transit":false,"time":3,"i_long":106.856607,"line":2,"station_name":"Cawang"},{"time":2,"is_transit":false,"station_id":"TEB","station_name":"Tebet","distance":1230,"transit":false,"line":2,"i_long":106.857948,"i_lat":-6.226659},{"station_name":"Manggarai","is_transit":true,"i_lat":-6.209883,"line":2,"station_id":"MRI","transit":true,"time":4,"i_long":106.84912,"distance":2610},{"station_id":"SUD","station_name":"Sudirman","transit":false,"is_transit":false,"i_lat":-6.202263,"distance":3186,"line":1,"i_long":106.822649,"time":4},{"i_long":106.819881,"station_name":"Sudirman Baru","line":1,"transit":false,"time":1,"is_transit":false,"distance":280,"i_lat":-6.201433,"station_id":"SUDB"},{"i_long":106.816351,"line":1,"time":1,"station_id":"KAT","station_name":"Karet","is_transit":false,"distance":471,"i_lat":-6.20132,"transit":false},{"i_long":106.811091,"distance":2029,"line":1,"station_id":"THB","transit":true,"time":5,"is_transit":true,"i_lat":-6.185545,"station_name":"Tanah Abang"},{"distance":3191,"transit":false,"station_name":"Palmerah","line":6,"i_lat":-6.207404,"time":6,"station_id":"PLM","is_transit":false,"i_long":106.79689},{"transit":false,"i_lat":-6.237242,"is_transit":false,"i_long":106.780334,"station_name":"Kebayoran","distance":3737,"line":6,"station_id":"KBY","time":7},{"is_transit":false,"transit":false,"time":8,"station_id":"PDJ","i_lat":-6.276362,"distance":6218,"station_name":"Pondokranji","line":6,"i_long":106.74273},{"i_lat":-6.288927,"station_id":"JMU","line":6,"time":3,"is_transit":false,"transit":false,"distance":2179,"i_long":106.728916,"station_name":"Jurangmangu"},{"time":4,"station_id":"SDM","station_name":"Sudimara","i_lat":-6.296963,"i_long":106.712277,"line":6,"is_transit":false,"transit":false,"distance":1994},{"is_transit":false,"time":6,"station_name":"Rawa Buntu","i_lat":-6.314823,"distance":4566,"i_long":106.675475,"station_id":"RU","line":6,"transit":false}],[{"time":0,"is_transit":false,"station_id":"POC","station_name":"Pondok Cina","i_lat":-6.369073,"line":2,"transit":false,"i_long":106.831114,"distance":0},{"distance":1109,"i_lat":-6.360749,"time":2,"station_name":"Univ. Indonesia","station_id":"UI","is_transit":false,"transit":false,"line":2,"i_long":106.831474},{"i_long":106.834175,"line":2,"distance":2264,"time":3,"station_name":"Univ. Pancasila","is_transit":false,"transit":false,"station_id":"UP","i_lat":-6.339291},{"time":2,"i_lat":-6.330363,"distance":1029,"is_transit":false,"i_long":106.832616,"station_id":"LNA","station_name":"Lenteng Agung","line":2,"transit":false},{"i_long":106.838896,"is_transit":false,"i_lat":-6.3080680000000005,"station_id":"TNT","time":3,"station_name":"Tanjung Barat","distance":2671,"line":2,"transit":false},{"station_name":"Pasar Minggu","is_transit":false,"station_id":"PSM","transit":false,"time":4,"distance":2820,"i_lat":-6.2842400000000005,"line":2,"i_long":106.843999},{"transit":false,"is_transit":false,"distance":2380,"station_name":"Pasar Minggu Baru","i_lat":-6.263214,"station_id":"PSMB","i_long":106.851577,"time":2,"line":2},{"station_id":"DRN","time":2,"i_lat":-6.255332,"line":2,"i_long":106.85449,"distance":824,"station_name":"Duren Kalibata","transit":false,"is_transit":false},{"distance":1546,"i_long":106.856607,"line":2,"station_name":"Cawang","station_id":"CW","time":3,"i_lat":-6.242512,"transit":false,"is_transit":false},{"station_name":"Tebet","i_long":106.857948,"line":2,"time":2,"is_transit":false,"distance":1230,"station_id":"TEB","i_lat":-6.226659,"transit":false},{"distance":2610,"i_long":106.84912,"is_transit":false,"transit":false,"station_id":"MRI","time":4,"station_name":"Manggarai","i_lat":-6.209883,"line":2},{"line":2,"is_transit":false,"station_id":"CKI","transit":false,"i_lat":-6.198556,"i_long":106.840169,"station_name":"Cikini","distance":1590,"time":4},{"i_long":106.832183,"line":2,"transit":false,"station_id":"GDD","distance":1750,"time":3,"is_transit":false,"station_name":"Gondangdia","i_lat":-6.186295},{"station_id":"JUA","station_name":"Juanda","transit":false,"time":4,"line":2,"is_transit":false,"i_long":106.828284,"i_lat":-6.166716,"distance":2015},{"i_lat":-6.160725,"transit":false,"time":2,"i_long":106.827103,"line":2,"station_id":"SW","distance":1149,"is_transit":false,"station_name":"Sawah Besar"},{"i_long":106.82482,"station_name":"Manggabesar","line":2,"i_lat":-6.149769,"transit":false,"station_id":"MGB","distance":906,"is_transit":false,"time":2},{"station_name":"Jayakarta","distance":1080,"i_lat":-6.141205,"station_id":"JAY","transit":false,"time":2,"i_long":106.820901,"is_transit":false,"line":2},{"i_lat":-6.137569,"station_id":"JAKK","station_name":"Jakarta Kota","i_long":106.812439,"line":2,"distance":1264,"transit":true,"time":4,"is_transit":true},{"time":3,"station_name":"Kampung Bandan","i_long":106.826365,"line":4,"is_transit":true,"station_id":"KPB","distance":1364,"transit":true,"i_lat":-6.132549},{"station_id":"AK","distance":4102,"line":1,"time":9,"station_name":"Angke","is_transit":false,"transit":false,"i_long":106.79867,"i_lat":-6.144674},{"time":4,"i_long":106.800832,"transit":false,"distance":1230,"i_lat":-6.155215,"line":1,"is_transit":false,"station_name":"Duri","station_id":"DU"},{"i_lat":-6.185545,"is_transit":true,"station_id":"THB","i_long":106.811091,"transit":true,"time":8,"line":1,"distance":3632,"station_name":"Tanah Abang"},{"station_id":"PLM","i_lat":-6.207404,"station_name":"Palmerah","transit":false,"i_long":106.79689,"is_transit":false,"time":6,"distance":3191,"line":6},{"transit":false,"time":7,"station_name":"Kebayoran","i_lat":-6.237242,"i_long":106.780334,"station_id":"KBY","line":6,"distance":3737,"is_transit":false},{"station_id":"PDJ","line":6,"transit":false,"is_transit":false,"distance":6218,"station_name":"Pondokranji","time":8,"i_long":106.74273,"i_lat":-6.276362},{"line":6,"transit":false,"distance":2179,"station_name":"Jurangmangu","i_long":106.728916,"time":3,"i_lat":-6.288927,"is_transit":false,"station_id":"JMU"},{"i_long":106.712277,"distance":1994,"is_transit":false,"transit":false,"line":6,"station_id":"SDM","time":4,"i_lat":-6.296963,"station_name":"Sudimara"},{"transit":false,"i_lat":-6.314823,"i_long":106.675475,"is_transit":false,"station_id":"RU","distance":4566,"line":6,"station_name":"Rawa Buntu","time":6}],[{"station_id":"POC","time":0,"station_name":"Pondok Cina","i_lat":-6.369073,"i_long":106.831114,"line":2,"distance":0,"is_transit":false,"transit":false},{"distance":1109,"transit":false,"i_lat":-6.360749,"is_transit":false,"station_name":"Univ. Indonesia","line":2,"station_id":"UI","i_long":106.831474,"time":2},{"is_transit":false,"distance":2264,"i_long":106.834175,"i_lat":-6.339291,"time":3,"station_id":"UP","station_name":"Univ. Pancasila","line":2,"transit":false},{"i_lat":-6.330363,"station_name":"Lenteng Agung","time":2,"transit":false,"line":2,"station_id":"LNA","is_transit":false,"distance":1029,"i_long":106.832616},{"is_transit":false,"i_long":106.838896,"line":2,"station_id":"TNT","time":3,"transit":false,"i_lat":-6.3080680000000005,"distance":2671,"station_name":"Tanjung Barat"},{"distance":2820,"time":4,"i_lat":-6.2842400000000005,"station_name":"Pasar Minggu","line":2,"is_transit":false,"i_long":106.843999,"transit":false,"station_id":"PSM"},{"i_long":106.851577,"is_transit":false,"transit":false,"time":2,"station_name":"Pasar Minggu Baru","station_id":"PSMB","distance":2380,"i_lat":-6.263214,"line":2},{"distance":824,"time":2,"line":2,"i_lat":-6.255332,"transit":false,"is_transit":false,"station_id":"DRN","i_long":106.85449,"station_name":"Duren Kalibata"},{"line":2,"station_id":"CW","time":3,"distance":1546,"is_transit":false,"station_name":"Cawang","i_long":106.856607,"transit":false,"i_lat":-6.242512},{"station_id":"TEB","time":2,"i_long":106.857948,"station_name":"Tebet","line":2,"is_transit":false,"transit":false,"i_lat":-6.226659,"distance":1230},{"station_id":"MRI","i_long":106.84912,"time":4,"is_transit":true,"station_name":"Manggarai","i_lat":-6.209883,"distance":2610,"transit":true,"line":2},{"i_lat":-6.212485,"i_long":106.858896,"line":1,"distance":1275,"is_transit":false,"station_name":"Matraman","transit":false,"time":2,"station_id":"MTR"},{"i_lat":-6.215091,"distance":1377,"time":8,"is_transit":true,"i_long":106.86807400000001,"line":1,"station_id":"JNG","transit":true,"station_name":"Jatinegara"},{"time":2,"transit":false,"distance":1236,"line":11,"i_long":106.861737,"station_id":"POK","station_name":"Pondok Jati","is_transit":false,"i_lat":-6.209188},{"station_name":"Kramat","is_transit":false,"time":2,"line":11,"i_lat":-6.193792,"i_long":106.855437,"station_id":"KMT","distance":1829,"transit":false},{"is_transit":false,"line":11,"distance":973,"station_id":"GST","station_name":"Gang Sentiong","i_lat":-6.185975,"time":1,"transit":false,"i_long":106.850107},{"is_transit":false,"i_lat":-6.174784,"station_id":"PSE","distance":1567,"time":8,"line":11,"transit":false,"i_long":106.84368,"station_name":"Pasar Senen"},{"line":11,"distance":1436,"i_lat":-6.161728,"i_long":106.839204,"transit":false,"station_id":"KMO","station_name":"Kemayoran","time":4,"is_transit":false},{"line":11,"is_transit":false,"station_name":"Rajawali","transit":false,"distance":1901,"time":5,"i_lat":-6.14505,"station_id":"RJW","i_long":106.836569},{"transit":true,"time":3,"i_lat":-6.132549,"line":4,"i_long":106.826365,"station_name":"Kampung Bandan","is_transit":true,"station_id":"KPB","distance":1444},{"i_lat":-6.144674,"transit":false,"line":1,"station_id":"AK","i_long":106.79867,"time":9,"is_transit":false,"distance":4102,"station_name":"Angke"},{"time":4,"station_name":"Duri","distance":1230,"station_id":"DU","i_long":106.800832,"line":1,"is_transit":false,"i_lat":-6.155215,"transit":false},{"i_lat":-6.185545,"line":1,"transit":true,"is_transit":true,"station_id":"THB","station_name":"Tanah Abang","time":8,"distance":3632,"i_long":106.811091},{"line":6,"is_transit":false,"distance":3191,"station_name":"Palmerah","station_id":"PLM","transit":false,"time":6,"i_lat":-6.207404,"i_long":106.79689},{"is_transit":false,"transit":false,"i_lat":-6.237242,"line":6,"station_name":"Kebayoran","time":7,"i_long":106.780334,"station_id":"KBY","distance":3737},{"station_id":"PDJ","distance":6218,"transit":false,"station_name":"Pondokranji","i_long":106.74273,"line":6,"is_transit":false,"time":8,"i_lat":-6.276362},{"station_name":"Jurangmangu","line":6,"is_transit":false,"i_long":106.728916,"transit":false,"station_id":"JMU","distance":2179,"time":3,"i_lat":-6.288927},{"i_long":106.712277,"distance":1994,"is_transit":false,"time":4,"transit":false,"line":6,"i_lat":-6.296963,"station_id":"SDM","station_name":"Sudimara"},{"station_name":"Rawa Buntu","line":6,"distance":4566,"time":6,"transit":false,"station_id":"RU","i_long":106.675475,"is_transit":false,"i_lat":-6.314823}]]}