{"data":[[{"time":0,"i_lat":-6.369073,"line":2,"transit":false,"station_id":"POC","is_transit":false,"i_long":106.831114,"station_name":"Pondok Cina","distance":0},{"station_name":"Univ. Indonesia","time":2,"i_lat":-6.360749,"i_long":106.831474,"is_transit":false,"distance":1109,"station_id":"UI","transit":false,"line":2},{"time":3,"distance":2264,"is_transit":false,"station_name":"Univ. Pancasila","i_lat":-6.339291,"i_long":106.834175,"line":2,"station_id":"UP","transit":false},{"is_transit":false,"i_lat":-6.330363,"station_id":"LNA","transit":false,"time":2,"line":2,"station_name":"Lenteng Agung","distance":1029,"i_long":106.832616},{"transit":false,"time":3,"station_id":"TNT","line":2,"i_lat":-6.3080680000000005,"i_long":106.838896,"is_transit":false,"station_name":"Tanjung Barat","distance":2671},{"time":4,"line":2,"distance":2820,"is_transit":false,"transit":false,"station_name":"Pasar Minggu","station_id":"PSM","i_lat":-6.2842400000000005,"i_long":106.843999}]]}