{"data":[[{"line":2,"distance":0,"station_id":"POC","station_name":"Pondok Cina","is_transit":false,"i_lat":-6.369073,"transit":false,"i_long":106.831114,"time":0},{"station_id":"UI","station_name":"Univ. Indonesia","i_lat":-6.360749,"line":2,"is_transit":false,"distance":1109,"i_long":106.831474,"transit":false,"time":2},{"time":3,"line":2,"i_lat":-6.339291,"transit":false,"station_id":"UP","distance":2264,"station_name":"Univ. Pancasila","i_long":106.834175,"is_transit":false},{"i_long":106.832616,"station_name":"Lenteng Agung","is_transit":false,"i_lat":-6.330363,"line":2,"distance":1029,"transit":false,"station_id":"LNA","time":2},{"time":3,"line":2,"is_transit":false,"station_id":"TNT","transit":false,"distance":2671,"i_long":106.838896,"i_lat":-6.3080680000000005,"station_name":"Tanjung Barat"},{"i_lat":-6.2842400000000005,"i_long":106.843999,"station_id":"PSM","time":4,"station_name":"Pasar Minggu","distance":2820,"transit":false,"is_transit":false,"line":2},{"transit":false,"i_lat":-6.263214,"line":2,"station_name":"Pasar Minggu Baru","time":2,"i_long":106.851577,"is_transit":false,"distance":2380,"station_id":"PSMB"},{"station_id":"DRN","transit":false,"station_name":"Duren Kalibata","line":2,"time":2,"i_lat":-6.255332,"distance":824,"is_transit":false,"i_long":106.85449},{"line":2,"transit":false,"is_transit":false,"i_lat":-6.242512,"time":3,"station_id":"CW","distance":1546,"i_long":106.856607,"station_name":"Cawang"},{"is_transit":false,"station_name":"Tebet","time":2,"i_lat":-6.226659,"transit":false,"i_long":106.857948,"station_id":"TEB","distance":1230,"line":2},{"time":4,"station_name":"Manggarai","line":2,"i_long":106.84912,"is_transit":true,"transit":true,"station_id":"MRI","i_lat":-6.209883,"distance":2610},{"i_long":106.858896,"station_name":"Matraman","line":1,"time":2,"transit":false,"station_id":"MTR","is_transit":false,"i_lat":-6.212485,"distance":1275},{"i_long":106.86807400000001,"transit":false,"is_transit":false,"station_name":"Jatinegara","distance":1377,"station_id":"JNG","time":8,"line":1,"i_lat":-6.215091}],[{"station_name":"Pondok Cina","transit":false,"i_lat":-6.369073,"distance":0,"line":2,"is_transit":false,"i_long":106.831114,"time":0,"station_id":"POC"},{"is_transit":false,"station_name":"Univ. Indonesia","time":2,"distance":1109,"station_id":"UI","transit":false,"i_long":106.831474,"i_lat":-6.360749,"line":2},{"is_transit":false,"station_id":"UP","i_lat":-6.339291,"line":2,"time":3,"station_name":"Univ. Pancasila","distance":2264,"transit":false,"i_long":106.834175},{"distance":1029,"i_lat":-6.330363,"i_long":106.832616,"time":2,"station_name":"Lenteng Agung","is_transit":false,"station_id":"LNA","transit":false,"line":2},{"i_lat":-6.3080680000000005,"is_transit":false,"transit":false,"i_long":106.838896,"station_id":"TNT","line":2,"distance":2671,"station_name":"Tanjung Barat","time":3},{"is_transit":false,"line":2,"i_long":106.843999,"station_name":"Pasar Minggu","time":4,"distance":2820,"i_lat":-6.2842400000000005,"transit":false,"station_id":"PSM"},{"transit":false,"station_id":"PSMB","station_name":"Pasar Minggu Baru","is_transit":false,"i_lat":-6.263214,"time":2,"line":2,"i_long":106.851577,"distance":2380},{"station_id":"DRN","is_transit":false,"time":2,"transit":false,"i_lat":-6.255332,"distance":824,"station_name":"Duren Kalibata","i_long":106.85449,"line":2},{"station_name":"Cawang","is_transit":false,"station_id":"CW","i_lat":-6.242512,"transit":false,"distance":1546,"i_long":106.856607,"line":2,"time":3},{"is_transit":false,"time":2,"distance":1230,"i_lat":-6.226659,"i_long":106.857948,"line":2,"station_name":"Tebet","station_id":"TEB","transit":false},{"i_lat":-6.209883,"station_name":"Manggarai","station_id":"MRI","line":2,"transit":true,"distance":2610,"is_transit":true,"time":4,"i_long":106.84912},{"line":1,"time":4,"is_transit":false,"transit":false,"station_name":"Sudirman","station_id":"SUD","distance":3186,"i_lat":-6.202263,"i_long":106.822649},{"is_transit":false,"station_name":"Sudirman Baru","i_lat":-6.201433,"transit":false,"time":1,"station_id":"SUDB","i_long":106.819881,"distance":280,"line":1},{"line":1,"distance":471,"station_name":"Karet","is_transit":false,"i_lat":-6.20132,"time":1,"transit":false,"station_id":"KAT","i_long":106.816351},{"time":5,"is_transit":false,"i_lat":-6.185545,"station_name":"Tanah Abang","line":1,"transit":false,"i_long":106.811091,"station_id":"THB","distance":2029},{"distance":3632,"station_id":"DU","time":8,"station_name":"Duri","is_transit":false,"i_long":106.800832,"i_lat":-6.155215,"line":1,"transit":false},{"transit":false,"time":4,"station_name":"Angke","is_transit":false,"i_long":106.79867,"i_lat":-6.144674,"station_id":"AK","line":1,"distance":1230},{"station_id":"KPB","time":9,"station_name":"Kampung Bandan","transit":true,"distance":4102,"is_transit":true,"i_lat":-6.132549,"line":4,"i_long":106.826365},{"transit":false,"time":3,"station_name":"Rajawali","i_long":106.836569,"i_lat":-6.14505,"line":11,"distance":1444,"is_transit":false,"station_id":"RJW"},{"time":5,"line":11,"i_long":106.839204,"distance":1901,"station_id":"KMO","transit":false,"i_lat":-6.161728,"is_transit":false,"station_name":"Kemayoran"},{"transit":false,"is_transit":false,"station_name":"Pasar Senen","i_long":106.84368,"line":11,"time":4,"station_id":"PSE","distance":1436,"i_lat":-6.174784},{"i_lat":-6.185975,"line":11,"station_id":"GST","is_transit":false,"transit":false,"distance":1567,"i_long":106.850107,"station_name":"Gang Sentiong","time":8},{"i_lat":-6.193792,"station_id":"KMT","distance":973,"station_name":"Kramat","i_long":106.855437,"is_transit":false,"time":1,"line":11,"transit":false},{"is_transit":false,"line":11,"time":2,"transit":false,"station_name":"Pondok Jati","distance":1829,"station_id":"POK","i_lat":-6.209188,"i_long":106.861737},{"transit":false,"station_name":"Jatinegara","time":9,"is_transit":false,"line":1,"distance":1236,"i_lat":-6.215091,"i_long":106.86807400000001,"station_id":"JNG"}],[{"i_lat":-6.369073,"time":0,"line":2,"i_long":106.831114,"station_name":"Pondok Cina","transit":false,"distance":0,"is_transit":false,"station_id":"POC"},{"transit":false,"is_transit":false,"distance":1109,"time":2,"station_id":"UI","i_long":106.831474,"line":2,"i_lat":-6.360749,"station_name":"Univ. Indonesia"},{"is_transit":false,"station_id":"UP","i_long":106.834175,"line":2,"station_name":"Univ. Pancasila","distance":2264,"transit":false,"time":3,"i_lat":-6.339291},{"i_lat":-6.330363,"time":2,"distance":1029,"station_name":"Lenteng Agung","transit":false,"i_long":106.832616,"is_transit":false,"line":2,"station_id":"LNA"},{"distance":2671,"i_long":106.838896,"line":2,"transit":false,"time":3,"i_lat":-6.3080680000000005,"station_id":"TNT","station_name":"Tanjung Barat","is_transit":false},{"i_long":106.843999,"time":4,"distance":2820,"line":2,"is_transit":false,"i_lat":-6.2842400000000005,"station_name":"Pasar Minggu","transit":false,"station_id":"PSM"},{"station_name":"Pasar Minggu Baru","is_transit":false,"time":2,"distance":2380,"line":2,"i_lat":-6.263214,"transit":false,"station_id":"PSMB","i_long":106.851577},{"i_lat":-6.255332,"time":2,"transit":false,"is_transit":false,"i_long":106.85449,"station_id":"DRN","distance":824,"line":2,"station_name":"Duren Kalibata"},{"station_id":"CW","is_transit":false,"i_lat":-6.242512,"station_name":"Cawang","i_long":106.856607,"distance":1546,"time":3,"transit":false,"line":2},{"transit":false,"line":2,"distance":1230,"time":2,"i_lat":-6.226659,"station_id":"TEB","is_transit":false,"i_long":106.857948,"station_name":"Tebet"},{"transit":false,"line":2,"i_lat":-6.209883,"distance":2610,"station_name":"Manggarai","time":4,"station_id":"MRI","is_transit":false,"i_long":106.84912},{"station_name":"Cikini","distance":1590,"time":4,"i_long":106.840169,"line":2,"is_transit":false,"i_lat":-6.198556,"station_id":"CKI","transit":false},{"i_long":106.832183,"transit":false,"is_transit":false,"station_id":"GDD","distance":1750,"station_name":"Gondangdia","i_lat":-6.186295,"line":2,"time":3},{"station_name":"Juanda","transit":false,"line":2,"i_lat":-6.166716,"time":4,"i_long":106.828284,"is_transit":false,"station_id":"JUA","distance":2015},{"distance":1149,"i_long":106.827103,"time":2,"station_name":"Sawah Besar","i_lat":-6.160725,"station_id":"SW","transit":false,"is_transit":false,"line":2},{"station_id":"MGB","is_transit":false,"i_long":106.82482,"line":2,"transit":false,"station_name":"Manggabesar","i_lat":-6.149769,"time":2,"distance":906},{"distance":1080,"is_transit":false,"i_long":106.820901,"transit":false,"i_lat":-6.141205,"station_name":"Jayakarta","time":2,"line":2,"station_id":"JAY"},{"transit":true,"time":4,"distance":1264,"is_transit":true,"i_lat":-6.137569,"station_id":"JAKK","i_long":106.812439,"line":2,"station_name":"Jakarta Kota"},{"distance":1364,"i_lat":-6.132549,"station_id":"KPB","time":3,"station_name":"Kampung Bandan","is_transit":true,"line":4,"transit":true,"i_long":106.826365},{"time":3,"station_name":"Rajawali","is_transit":false,"transit":false,"station_id":"RJW","distance":1444,"i_long":106.836569,"line":11,"i_lat":-6.14505},{"station_id":"KMO","is_transit":false,"line":11,"distance":1901,"i_lat":-6.161728,"transit":false,"time":5,"station_name":"Kemayoran","i_long":106.839204},{"transit":false,"i_lat":-6.174784,"i_long":106.84368,"distance":1436,"station_id":"PSE","station_name":"Pasar Senen","is_transit":false,"line":11,"time":4},{"transit":false,"time":8,"station_id":"GST","is_transit":false,"i_long":106.850107,"station_name":"Gang Sentiong","i_lat":-6.185975,"line":11,"distance":1567},{"transit":false,"station_name":"Kramat","i_lat":-6.193792,"time":1,"distance":973,"station_id":"KMT","i_long":106.855437,"line":11,"is_transit":false},{"transit":false,"station_id":"POK","line":11,"is_transit":false,"station_name":"Pondok Jati","distance":1829,"i_lat":-6.209188,"i_long":106.861737,"time":2},{"station_name":"Jatinegara","i_lat":-6.215091,"time":9,"transit":false,"is_transit":false,"i_long":106.86807400000001,"distance":1236,"station_id":"JNG","line":1}]]}