{"data":[[{"is_transit":false,"station_id":"POC","time":0,"line":2,"i_long":106.831114,"distance":0,"station_name":"Pondok Cina","transit":false,"i_lat":-6.369073},{"line":2,"station_name":"Univ. Indonesia","i_lat":-6.360749,"distance":1109,"time":2,"transit":false,"station_id":"UI","is_transit":false,"i_long":106.831474},{"transit":false,"station_id":"UP","station_name":"Univ. Pancasila","time":3,"line":2,"i_long":106.834175,"i_lat":-6.339291,"is_transit":false,"distance":2264},{"station_id":"LNA","time":2,"distance":1029,"station_name":"Lenteng Agung","i_long":106.832616,"i_lat":-6.330363,"is_transit":false,"transit":false,"line":2},{"distance":2671,"station_id":"TNT","transit":false,"i_long":106.838896,"time":3,"line":2,"station_name":"Tanjung Barat","i_lat":-6.3080680000000005,"is_transit":false},{"station_id":"PSM","distance":2820,"station_name":"Pasar Minggu","i_lat":-6.2842400000000005,"time":4,"transit":false,"i_long":106.843999,"is_transit":false,"line":2},{"station_id":"PSMB","line":2,"is_transit":false,"i_lat":-6.263214,"i_long":106.851577,"station_name":"Pasar Minggu Baru","time":2,"transit":false,"distance":2380},{"time":2,"i_long":106.85449,"distance":824,"station_name":"Duren Kalibata","i_lat":-6.255332,"is_transit":false,"transit":false,"line":0,"station_id":"DRN"},{"is_transit":false,"i_lat":-6.242512,"line":0,"station_id":"CW","transit":false,"i_long":106.856607,"distance":1546,"time":3,"station_name":"Cawang"},{"i_lat":-6.226659,"distance":1230,"line":2,"is_transit":false,"i_long":106.857948,"station_name":"Tebet","station_id":"TEB","time":2,"transit":false},{"transit":true,"time":4,"i_long":106.84912,"station_name":"Manggarai","station_id":"MRI","i_lat":-6.209883,"line":0,"is_transit":true,"distance":2610},{"i_long":106.822649,"station_name":"Sudirman","time":4,"station_id":"SUD","i_lat":-6.202263,"distance":3186,"is_transit":false,"transit":false,"line":1},{"distance":280,"transit":false,"station_id":"SUDB","is_transit":false,"i_long":106.819881,"i_lat":-6.201433,"time":1,"line":1,"station_name":"Sudirman Baru"},{"is_transit":false,"station_id":"KAT","distance":471,"i_lat":-6.20132,"i_long":106.816351,"station_name":"Karet","line":1,"time":1,"transit":false},{"station_name":"Tanah Abang","i_long":106.811091,"distance":2029,"transit":true,"is_transit":true,"time":5,"i_lat":-6.185545,"line":1,"station_id":"THB"},{"distance":3191,"line":6,"station_id":"PLM","station_name":"Palmerah","transit":false,"i_long":106.79689,"is_transit":false,"time":6,"i_lat":-6.207404},{"time":7,"distance":3737,"i_long":106.780334,"i_lat":-6.237242,"is_transit":false,"station_id":"KBY","station_name":"Kebayoran","transit":false,"line":6},{"transit":false,"is_transit":false,"distance":6218,"i_long":106.74273,"line":6,"i_lat":-6.276362,"station_id":"PDJ","time":8,"station_name":"Pondokranji"},{"is_transit":false,"distance":2179,"station_id":"JMU","i_long":106.728916,"transit":false,"i_lat":-6.288927,"line":6,"station_name":"Jurangmangu","time":3},{"distance":1994,"station_id":"SDM","i_lat":-6.296963,"is_transit":false,"transit":false,"station_name":"Sudimara","i_long":106.712277,"time":4,"line":6},{"i_long":106.675475,"station_id":"RU","transit":false,"distance":4566,"i_lat":-6.314823,"line":6,"station_name":"Rawa Buntu","is_transit":false,"time":6}],[{"station_name":"Pondok Cina","i_lat":-6.369073,"transit":false,"station_id":"POC","is_transit":false,"line":2,"time":0,"distance":0,"i_long":106.831114},{"i_long":106.831474,"line":2,"station_id":"UI","is_transit":false,"i_lat":-6.360749,"distance":1109,"station_name":"Univ. Indonesia","transit":false,"time":2},{"station_id":"UP","line":2,"distance":2264,"transit":false,"station_name":"Univ. Pancasila","i_lat":-6.339291,"is_transit":false,"time":3,"i_long":106.834175},{"transit":false,"distance":1029,"i_long":106.832616,"station_id":"LNA","i_lat":-6.330363,"line":2,"is_transit":false,"station_name":"Lenteng Agung","time":2},{"station_id":"TNT","distance":2671,"i_long":106.838896,"is_transit":false,"time":3,"line":2,"i_lat":-6.3080680000000005,"transit":false,"station_name":"Tanjung Barat"},{"i_long":106.843999,"transit":false,"station_id":"PSM","is_transit":false,"station_name":"Pasar Minggu","i_lat":-6.2842400000000005,"line":2,"time":4,"distance":2820},{"i_long":106.851577,"distance":2380,"station_name":"Pasar Minggu Baru","station_id":"PSMB","i_lat":-6.263214,"line":2,"is_transit":false,"time":2,"transit":false},{"i_long":106.85449,"station_name":"Duren Kalibata","line":0,"time":2,"transit":false,"station_id":"DRN","i_lat":-6.255332,"is_transit":false,"distance":824},{"i_long":106.856607,"line":0,"i_lat":-6.242512,"distance":1546,"time":3,"transit":false,"station_name":"Cawang","station_id":"CW","is_transit":false},{"line":2,"is_transit":false,"time":2,"distance":1230,"station_id":"TEB","station_name":"Tebet","i_lat":-6.226659,"i_long":106.857948,"transit":false},{"station_name":"Manggarai","station_id":"MRI","is_transit":true,"i_long":106.84912,"time":4,"transit":true,"i_lat":-6.209883,"distance":2610,"line":0},{"line":0,"transit":false,"i_lat":-6.198556,"time":4,"station_name":"Cikini","distance":1590,"i_long":106.840169,"station_id":"CKI","is_transit":false},{"transit":false,"is_transit":false,"i_long":106.832183,"station_name":"Gondangdia","i_lat":-6.186295,"line":2,"station_id":"GDD","distance":1750,"time":3},{"station_name":"Juanda","distance":2015,"station_id":"JUA","line":2,"is_transit":false,"transit":false,"i_lat":-6.166716,"i_long":106.828284,"time":4},{"transit":false,"station_id":"SW","distance":1149,"is_transit":false,"i_lat":-6.160725,"line":2,"station_name":"Sawah Besar","i_long":106.827103,"time":2},{"line":2,"station_id":"MGB","transit":false,"station_name":"Manggabesar","i_long":106.82482,"distance":906,"is_transit":false,"time":2,"i_lat":-6.149769},{"line":7,"is_transit":false,"time":2,"station_id":"JAY","i_long":106.820901,"transit":false,"i_lat":-6.141205,"distance":1080,"station_name":"Jayakarta"},{"station_name":"Jakarta Kota","line":0,"is_transit":true,"distance":1264,"time":4,"station_id":"JAKK","i_lat":-6.137569,"transit":true,"i_long":106.812439},{"i_lat":-6.132549,"time":3,"transit":false,"is_transit":true,"distance":1364,"i_long":106.826365,"line":0,"station_name":"Kampung Bandan","station_id":"KPB"},{"transit":false,"is_transit":false,"i_long":106.79867,"distance":4102,"i_lat":-6.144674,"station_id":"AK","line":0,"station_name":"Angke","time":9},{"is_transit":true,"station_id":"DU","i_long":106.800832,"time":4,"i_lat":-6.155215,"station_name":"Duri","distance":1230,"transit":true,"line":1},{"time":8,"i_long":106.811091,"line":1,"station_name":"Tanah Abang","transit":true,"is_transit":true,"distance":3632,"station_id":"THB","i_lat":-6.185545},{"i_lat":-6.207404,"line":6,"time":6,"is_transit":false,"distance":3191,"transit":false,"i_long":106.79689,"station_id":"PLM","station_name":"Palmerah"},{"distance":3737,"station_name":"Kebayoran","is_transit":false,"time":7,"transit":false,"station_id":"KBY","line":6,"i_lat":-6.237242,"i_long":106.780334},{"i_lat":-6.276362,"station_id":"PDJ","i_long":106.74273,"distance":6218,"station_name":"Pondokranji","line":6,"is_transit":false,"time":8,"transit":false},{"i_long":106.728916,"i_lat":-6.288927,"station_id":"JMU","transit":false,"time":3,"line":6,"is_transit":false,"station_name":"Jurangmangu","distance":2179},{"station_name":"Sudimara","is_transit":false,"i_long":106.712277,"line":6,"i_lat":-6.296963,"station_id":"SDM","time":4,"distance":1994,"transit":false},{"i_long":106.675475,"station_id":"RU","distance":4566,"station_name":"Rawa Buntu","is_transit":false,"line":6,"transit":false,"time":6,"i_lat":-6.314823}],[{"i_lat":-6.369073,"i_long":106.831114,"is_transit":false,"line":2,"transit":false,"station_name":"Pondok Cina","distance":0,"time":0,"station_id":"POC"},{"i_long":106.831474,"station_name":"Univ. Indonesia","station_id":"UI","i_lat":-6.360749,"is_transit":false,"line":2,"distance":1109,"time":2,"transit":false},{"is_transit":false,"distance":2264,"i_long":106.834175,"station_name":"Univ. Pancasila","time":3,"line":2,"station_id":"UP","i_lat":-6.339291,"transit":false},{"is_transit":false,"line":2,"station_name":"Lenteng Agung","transit":false,"time":2,"i_lat":-6.330363,"i_long":106.832616,"station_id":"LNA","distance":1029},{"station_name":"Tanjung Barat","i_long":106.838896,"transit":false,"i_lat":-6.3080680000000005,"is_transit":false,"distance":2671,"time":3,"line":2,"station_id":"TNT"},{"transit":false,"station_id":"PSM","distance":2820,"station_name":"Pasar Minggu","time":4,"i_long":106.843999,"i_lat":-6.2842400000000005,"line":2,"is_transit":false},{"i_lat":-6.263214,"i_long":106.851577,"distance":2380,"transit":false,"is_transit":false,"line":2,"station_id":"PSMB","time":2,"station_name":"Pasar Minggu Baru"},{"i_lat":-6.255332,"line":0,"is_transit":false,"station_name":"Duren Kalibata","transit":false,"station_id":"DRN","time":2,"distance":824,"i_long":106.85449},{"transit":false,"i_lat":-6.242512,"time":3,"station_id":"CW","line":0,"i_long":106.856607,"distance":1546,"station_name":"Cawang","is_transit":false},{"i_lat":-6.226659,"distance":1230,"station_name":"Tebet","line":2,"is_transit":false,"i_long":106.857948,"time":2,"station_id":"TEB","transit":false},{"distance":2610,"is_transit":true,"time":4,"i_lat":-6.209883,"station_id":"MRI","i_long":106.84912,"transit":true,"line":0,"station_name":"Manggarai"},{"line":1,"station_name":"Matraman","time":2,"transit":false,"is_transit":false,"station_id":"MTR","distance":1275,"i_long":106.858896,"i_lat":-6.212485},{"i_lat":-6.215091,"station_id":"JNG","i_long":106.86807400000001,"is_transit":true,"station_name":"Jatinegara","line":0,"distance":1377,"time":8,"transit":true},{"time":2,"distance":1236,"line":11,"i_lat":-6.209188,"station_name":"Pondok Jati","is_transit":false,"transit":false,"i_long":106.861737,"station_id":"POK"},{"time":2,"i_lat":-6.193792,"station_id":"KMT","line":11,"distance":1829,"is_transit":false,"i_long":106.855437,"transit":false,"station_name":"Kramat"},{"i_lat":-6.185975,"distance":973,"time":1,"is_transit":false,"station_id":"GST","station_name":"Gang Sentiong","transit":false,"i_long":106.850107,"line":11},{"i_long":106.84368,"station_id":"PSE","is_transit":false,"transit":false,"distance":1567,"station_name":"Pasar Senen","time":8,"i_lat":-6.174784,"line":11},{"i_long":106.839204,"line":11,"station_name":"Kemayoran","distance":1436,"station_id":"KMO","is_transit":false,"time":4,"transit":false,"i_lat":-6.161728},{"line":11,"station_id":"RJW","distance":1901,"station_name":"Rajawali","is_transit":false,"time":5,"transit":false,"i_lat":-6.14505,"i_long":106.836569},{"i_long":106.826365,"station_id":"KPB","transit":true,"i_lat":-6.132549,"line":0,"station_name":"Kampung Bandan","distance":1444,"is_transit":true,"time":3},{"station_id":"AK","station_name":"Angke","i_long":106.79867,"is_transit":false,"distance":4102,"time":9,"i_lat":-6.144674,"transit":false,"line":0},{"distance":1230,"line":1,"station_name":"Duri","is_transit":true,"time":4,"i_lat":-6.155215,"transit":true,"i_long":106.800832,"station_id":"DU"},{"time":8,"is_transit":true,"i_lat":-6.185545,"distance":3632,"i_long":106.811091,"station_id":"THB","line":1,"station_name":"Tanah Abang","transit":true},{"station_name":"Palmerah","i_long":106.79689,"time":6,"i_lat":-6.207404,"is_transit":false,"transit":false,"station_id":"PLM","line":6,"distance":3191},{"i_lat":-6.237242,"i_long":106.780334,"station_id":"KBY","transit":false,"is_transit":false,"distance":3737,"line":6,"station_name":"Kebayoran","time":7},{"time":8,"i_lat":-6.276362,"i_long":106.74273,"line":6,"is_transit":false,"station_id":"PDJ","station_name":"Pondokranji","transit":false,"distance":6218},{"distance":2179,"station_name":"Jurangmangu","is_transit":false,"station_id":"JMU","i_lat":-6.288927,"i_long":106.728916,"time":3,"transit":false,"line":6},{"i_long":106.712277,"station_name":"Sudimara","distance":1994,"is_transit":false,"station_id":"SDM","line":6,"time":4,"i_lat":-6.296963,"transit":false},{"is_transit":false,"i_lat":-6.314823,"time":6,"station_id":"RU","i_long":106.675475,"line":6,"station_name":"Rawa Buntu","transit":false,"distance":4566}]]}