{"data":[[{"i_long":106.831114,"station_id":"POC","distance":0,"station_name":"Pondok Cina","time":0,"transit":false,"is_transit":false,"i_lat":-6.369073,"line":2},{"is_transit":false,"i_long":106.831474,"line":2,"transit":false,"time":2,"station_name":"Univ. Indonesia","distance":1109,"i_lat":-6.360749,"station_id":"UI"},{"distance":2264,"time":3,"i_long":106.834175,"i_lat":-6.339291,"line":2,"station_name":"Univ. Pancasila","is_transit":false,"transit":false,"station_id":"UP"},{"i_long":106.832616,"is_transit":false,"distance":1029,"station_id":"LNA","time":2,"i_lat":-6.330363,"line":2,"transit":false,"station_name":"Lenteng Agung"},{"station_id":"TNT","i_long":106.838896,"line":2,"distance":2671,"station_name":"Tanjung Barat","i_lat":-6.3080680000000005,"time":3,"is_transit":false,"transit":false},{"is_transit":false,"station_name":"Pasar Minggu","station_id":"PSM","i_lat":-6.2842400000000005,"line":2,"time":4,"transit":false,"i_long":106.843999,"distance":2820}]]}