{"data":[[{"is_transit":false,"station_id":"POC","time":0,"i_lat":-6.369073,"line":2,"transit":false,"station_name":"Pondok Cina","distance":0,"i_long":106.831114},{"i_long":106.819451,"station_id":"DPB","is_transit":false,"line":0,"distance":2727,"time":4,"i_lat":-6.391065,"station_name":"Depokbaru","transit":false},{"is_transit":false,"i_lat":-6.405256,"time":3,"station_name":"Depok","i_long":106.816926,"station_id":"DP","transit":false,"distance":1584,"line":0},{"station_name":"Citayam","line":1,"transit":false,"distance":5084,"is_transit":true,"i_long":106.800298,"time":6,"i_lat":-6.448811,"station_id":"CTA"},{"station_name":"Cibinong","transit":false,"is_transit":false,"station_id":"CBN","time":10,"line":0,"i_lat":-6.46424,"i_long":106.851978,"distance":6740},{"time":10,"station_id":"NMO","station_name":"Nambo","is_transit":false,"i_long":106.905196,"distance":6527,"i_lat":-6.466285,"line":21,"transit":false}]]}