{"data":[[{"line":2,"time":0,"is_transit":false,"transit":false,"i_long":106.831114,"station_id":"POC","station_name":"Pondok Cina","i_lat":-6.369073,"distance":0},{"line":2,"station_id":"UI","time":2,"station_name":"Univ. Indonesia","transit":false,"i_lat":-6.360749,"is_transit":false,"i_long":106.831474,"distance":1109},{"i_lat":-6.339291,"line":2,"is_transit":false,"i_long":106.834175,"station_name":"Univ. Pancasila","time":3,"distance":2264,"station_id":"UP","transit":false},{"line":2,"transit":false,"time":2,"station_id":"LNA","is_transit":false,"distance":1029,"i_lat":-6.330363,"station_name":"Lenteng Agung","i_long":106.832616},{"distance":2671,"time":3,"is_transit":false,"i_long":106.838896,"line":2,"transit":false,"i_lat":-6.3080680000000005,"station_id":"TNT","station_name":"Tanjung Barat"},{"station_name":"Pasar Minggu","i_long":106.843999,"is_transit":false,"line":2,"transit":false,"i_lat":-6.2842400000000005,"distance":2820,"station_id":"PSM","time":4},{"i_long":106.851577,"line":2,"i_lat":-6.263214,"time":2,"station_name":"Pasar Minggu Baru","distance":2380,"station_id":"PSMB","transit":false,"is_transit":false},{"station_id":"DRN","is_transit":false,"transit":false,"i_lat":-6.255332,"line":2,"station_name":"Duren Kalibata","distance":824,"time":2,"i_long":106.85449},{"distance":1546,"i_long":106.856607,"i_lat":-6.242512,"line":2,"is_transit":false,"station_name":"Cawang","time":3,"transit":false,"station_id":"CW"},{"distance":1230,"i_long":106.857948,"station_name":"Tebet","line":2,"transit":false,"station_id":"TEB","i_lat":-6.226659,"is_transit":false,"time":2},{"station_id":"MRI","time":4,"station_name":"Manggarai","distance":2610,"is_transit":true,"i_lat":-6.209883,"transit":true,"i_long":106.84912,"line":2},{"is_transit":false,"transit":false,"line":1,"time":4,"station_name":"Sudirman","i_long":106.822649,"station_id":"SUD","i_lat":-6.202263,"distance":3186},{"time":1,"station_id":"SUDB","distance":280,"transit":false,"i_lat":-6.201433,"station_name":"Sudirman Baru","i_long":106.819881,"line":1,"is_transit":false},{"time":1,"is_transit":false,"line":1,"station_id":"KAT","i_lat":-6.20132,"i_long":106.816351,"station_name":"Karet","distance":471,"transit":false},{"time":5,"station_id":"THB","distance":2029,"is_transit":true,"transit":true,"station_name":"Tanah Abang","i_lat":-6.185545,"i_long":106.811091,"line":1},{"is_transit":false,"line":6,"distance":3191,"station_name":"Palmerah","i_lat":-6.207404,"i_long":106.79689,"transit":false,"time":6,"station_id":"PLM"},{"station_id":"KBY","is_transit":false,"line":6,"station_name":"Kebayoran","time":7,"i_lat":-6.237242,"transit":false,"i_long":106.780334,"distance":3737},{"is_transit":false,"i_lat":-6.276362,"transit":false,"station_id":"PDJ","station_name":"Pondokranji","line":6,"distance":6218,"i_long":106.74273,"time":8},{"station_name":"Jurangmangu","line":6,"is_transit":false,"i_long":106.728916,"time":3,"i_lat":-6.288927,"distance":2179,"transit":false,"station_id":"JMU"},{"station_id":"SDM","transit":false,"is_transit":false,"i_lat":-6.296963,"line":6,"i_long":106.712277,"time":4,"station_name":"Sudimara","distance":1994},{"i_lat":-6.314823,"time":6,"i_long":106.675475,"line":6,"distance":4566,"transit":false,"station_id":"RU","station_name":"Rawa Buntu","is_transit":false},{"i_long":106.66566,"i_lat":-6.319871,"distance":2413,"line":6,"time":4,"station_id":"SRP","station_name":"Serpong","is_transit":false,"transit":false},{"i_long":106.640411,"line":3,"is_transit":false,"time":4,"transit":false,"station_name":"Cisauk","station_id":"CSK","distance":1784,"i_lat":-6.32484},{"transit":false,"station_name":"Cicayur","is_transit":false,"i_lat":-6.329547,"i_long":106.617853,"station_id":"CC","line":3,"time":4,"distance":2519},{"station_id":"PRP","line":6,"is_transit":false,"distance":5968,"station_name":"Parung Panjang","i_lat":-6.3441410000000005,"transit":false,"time":8,"i_long":106.568863},{"i_lat":-6.354349,"station_name":"Cilejit","line":3,"time":9,"station_id":"CJT","transit":false,"i_long":106.508482,"is_transit":false,"distance":7025},{"transit":false,"distance":2675,"time":6,"is_transit":false,"station_name":"Daru","i_long":106.491338,"i_lat":-6.338021,"line":0,"station_id":"DAR"},{"station_name":"Tenjo","line":6,"station_id":"TEJ","transit":false,"time":5,"is_transit":false,"i_lat":-6.327251,"distance":3902,"i_long":106.460812},{"time":5,"i_long":106.425991,"transit":false,"distance":2974,"line":6,"i_lat":-6.328533,"station_id":"TGS","is_transit":false,"station_name":"Tigaraksa"},{"station_name":"Cikoya","transit":false,"distance":2651,"i_long":106.411216,"line":3,"is_transit":false,"station_id":"CKY","i_lat":-6.33561,"time":3},{"i_long":106.394373,"station_name":"Maja","line":6,"transit":false,"distance":1853,"station_id":"MJ","time":4,"is_transit":false,"i_lat":-6.332307}],[{"i_lat":-6.369073,"transit":false,"time":0,"distance":0,"station_id":"POC","station_name":"Pondok Cina","is_transit":false,"i_long":106.831114,"line":2},{"distance":1109,"station_id":"UI","transit":false,"station_name":"Univ. Indonesia","time":2,"is_transit":false,"i_lat":-6.360749,"i_long":106.831474,"line":2},{"is_transit":false,"distance":2264,"station_id":"UP","transit":false,"i_lat":-6.339291,"i_long":106.834175,"time":3,"line":2,"station_name":"Univ. Pancasila"},{"station_name":"Lenteng Agung","i_lat":-6.330363,"i_long":106.832616,"is_transit":false,"line":2,"transit":false,"station_id":"LNA","time":2,"distance":1029},{"station_id":"TNT","i_lat":-6.3080680000000005,"line":2,"i_long":106.838896,"distance":2671,"station_name":"Tanjung Barat","is_transit":false,"time":3,"transit":false},{"time":4,"transit":false,"i_long":106.843999,"line":2,"station_name":"Pasar Minggu","distance":2820,"station_id":"PSM","i_lat":-6.2842400000000005,"is_transit":false},{"distance":2380,"time":2,"line":2,"i_long":106.851577,"station_id":"PSMB","transit":false,"i_lat":-6.263214,"station_name":"Pasar Minggu Baru","is_transit":false},{"line":2,"distance":824,"time":2,"station_name":"Duren Kalibata","is_transit":false,"station_id":"DRN","transit":false,"i_lat":-6.255332,"i_long":106.85449},{"transit":false,"i_lat":-6.242512,"time":3,"is_transit":false,"i_long":106.856607,"line":2,"station_id":"CW","distance":1546,"station_name":"Cawang"},{"i_long":106.857948,"station_name":"Tebet","station_id":"TEB","line":2,"distance":1230,"is_transit":false,"time":2,"transit":false,"i_lat":-6.226659},{"i_long":106.84912,"is_transit":false,"transit":false,"distance":2610,"time":4,"i_lat":-6.209883,"line":2,"station_id":"MRI","station_name":"Manggarai"},{"transit":false,"station_id":"CKI","line":2,"distance":1590,"i_long":106.840169,"i_lat":-6.198556,"station_name":"Cikini","is_transit":false,"time":4},{"time":3,"station_name":"Gondangdia","is_transit":false,"i_long":106.832183,"line":2,"distance":1750,"transit":false,"station_id":"GDD","i_lat":-6.186295},{"transit":false,"line":2,"distance":2015,"i_long":106.828284,"i_lat":-6.166716,"station_name":"Juanda","time":4,"is_transit":false,"station_id":"JUA"},{"time":2,"station_id":"SW","is_transit":false,"i_lat":-6.160725,"station_name":"Sawah Besar","distance":1149,"transit":false,"i_long":106.827103,"line":2},{"distance":906,"time":2,"station_name":"Manggabesar","is_transit":false,"transit":false,"line":2,"i_lat":-6.149769,"station_id":"MGB","i_long":106.82482},{"transit":false,"i_lat":-6.141205,"line":2,"distance":1080,"station_name":"Jayakarta","i_long":106.820901,"is_transit":false,"time":2,"station_id":"JAY"},{"time":4,"station_id":"JAKK","is_transit":true,"transit":true,"i_lat":-6.137569,"station_name":"Jakarta Kota","i_long":106.812439,"distance":1264,"line":2},{"is_transit":true,"i_long":106.826365,"station_id":"KPB","station_name":"Kampung Bandan","i_lat":-6.132549,"distance":1364,"transit":true,"line":4,"time":3},{"is_transit":false,"i_long":106.79867,"time":9,"station_id":"AK","i_lat":-6.144674,"line":1,"station_name":"Angke","transit":false,"distance":4102},{"transit":false,"station_name":"Duri","time":4,"distance":1230,"station_id":"DU","i_lat":-6.155215,"is_transit":false,"line":1,"i_long":106.800832},{"i_lat":-6.185545,"transit":true,"i_long":106.811091,"is_transit":true,"time":8,"station_id":"THB","line":1,"distance":3632,"station_name":"Tanah Abang"},{"station_id":"PLM","i_lat":-6.207404,"time":6,"station_name":"Palmerah","transit":false,"line":6,"i_long":106.79689,"distance":3191,"is_transit":false},{"station_id":"KBY","time":7,"i_long":106.780334,"distance":3737,"transit":false,"line":6,"station_name":"Kebayoran","is_transit":false,"i_lat":-6.237242},{"station_name":"Pondokranji","distance":6218,"is_transit":false,"time":8,"transit":false,"i_long":106.74273,"i_lat":-6.276362,"line":6,"station_id":"PDJ"},{"time":3,"station_name":"Jurangmangu","station_id":"JMU","distance":2179,"i_lat":-6.288927,"line":6,"transit":false,"i_long":106.728916,"is_transit":false},{"i_long":106.712277,"transit":false,"station_name":"Sudimara","is_transit":false,"distance":1994,"time":4,"station_id":"SDM","i_lat":-6.296963,"line":6},{"time":6,"line":6,"is_transit":false,"station_name":"Rawa Buntu","distance":4566,"i_lat":-6.314823,"transit":false,"station_id":"RU","i_long":106.675475},{"transit":false,"station_name":"Serpong","station_id":"SRP","is_transit":false,"i_long":106.66566,"distance":2413,"i_lat":-6.319871,"time":4,"line":6},{"station_name":"Cisauk","i_lat":-6.32484,"line":3,"transit":false,"distance":1784,"i_long":106.640411,"is_transit":false,"time":4,"station_id":"CSK"},{"distance":2519,"transit":false,"line":3,"time":4,"station_name":"Cicayur","i_long":106.617853,"is_transit":false,"station_id":"CC","i_lat":-6.329547},{"time":8,"transit":false,"line":6,"is_transit":false,"station_id":"PRP","station_name":"Parung Panjang","i_lat":-6.3441410000000005,"distance":5968,"i_long":106.568863},{"station_id":"CJT","line":3,"i_long":106.508482,"transit":false,"station_name":"Cilejit","time":9,"distance":7025,"i_lat":-6.354349,"is_transit":false},{"time":6,"i_lat":-6.338021,"line":0,"station_name":"Daru","distance":2675,"is_transit":false,"transit":false,"i_long":106.491338,"station_id":"DAR"},{"station_name":"Tenjo","i_long":106.460812,"transit":false,"time":5,"distance":3902,"line":6,"station_id":"TEJ","is_transit":false,"i_lat":-6.327251},{"line":6,"distance":2974,"i_lat":-6.328533,"station_name":"Tigaraksa","is_transit":false,"station_id":"TGS","i_long":106.425991,"time":5,"transit":false},{"is_transit":false,"time":3,"station_id":"CKY","distance":2651,"transit":false,"i_lat":-6.33561,"line":3,"i_long":106.411216,"station_name":"Cikoya"},{"distance":1853,"is_transit":false,"time":4,"line":6,"station_id":"MJ","station_name":"Maja","i_lat":-6.332307,"i_long":106.394373,"transit":false}],[{"distance":0,"i_lat":-6.369073,"is_transit":false,"station_name":"Pondok Cina","transit":false,"i_long":106.831114,"station_id":"POC","line":2,"time":0},{"i_lat":-6.360749,"is_transit":false,"station_id":"UI","transit":false,"line":2,"time":2,"distance":1109,"i_long":106.831474,"station_name":"Univ. Indonesia"},{"i_lat":-6.339291,"time":3,"i_long":106.834175,"station_name":"Univ. Pancasila","distance":2264,"transit":false,"station_id":"UP","is_transit":false,"line":2},{"station_id":"LNA","i_long":106.832616,"i_lat":-6.330363,"transit":false,"station_name":"Lenteng Agung","is_transit":false,"line":2,"distance":1029,"time":2},{"i_lat":-6.3080680000000005,"station_id":"TNT","is_transit":false,"distance":2671,"transit":false,"i_long":106.838896,"station_name":"Tanjung Barat","line":2,"time":3},{"is_transit":false,"i_lat":-6.2842400000000005,"i_long":106.843999,"line":2,"transit":false,"station_id":"PSM","time":4,"distance":2820,"station_name":"Pasar Minggu"},{"is_transit":false,"i_lat":-6.263214,"station_id":"PSMB","transit":false,"time":2,"i_long":106.851577,"station_name":"Pasar Minggu Baru","line":2,"distance":2380},{"is_transit":false,"transit":false,"distance":824,"i_lat":-6.255332,"i_long":106.85449,"line":2,"time":2,"station_id":"DRN","station_name":"Duren Kalibata"},{"station_id":"CW","time":3,"transit":false,"is_transit":false,"i_long":106.856607,"distance":1546,"i_lat":-6.242512,"station_name":"Cawang","line":2},{"i_long":106.857948,"time":2,"distance":1230,"transit":false,"station_id":"TEB","i_lat":-6.226659,"station_name":"Tebet","line":2,"is_transit":false},{"i_lat":-6.209883,"transit":true,"distance":2610,"time":4,"is_transit":true,"line":2,"station_id":"MRI","station_name":"Manggarai","i_long":106.84912},{"transit":false,"i_long":106.858896,"line":1,"station_name":"Matraman","is_transit":false,"i_lat":-6.212485,"distance":1275,"time":2,"station_id":"MTR"},{"station_id":"JNG","station_name":"Jatinegara","i_lat":-6.215091,"is_transit":true,"distance":1377,"line":1,"transit":true,"i_long":106.86807400000001,"time":8},{"station_name":"Pondok Jati","i_lat":-6.209188,"time":2,"is_transit":false,"transit":false,"i_long":106.861737,"line":11,"distance":1236,"station_id":"POK"},{"distance":1829,"is_transit":false,"time":2,"line":11,"station_id":"KMT","transit":false,"i_lat":-6.193792,"i_long":106.855437,"station_name":"Kramat"},{"distance":973,"i_lat":-6.185975,"time":1,"line":11,"i_long":106.850107,"station_id":"GST","station_name":"Gang Sentiong","is_transit":false,"transit":false},{"station_id":"PSE","time":8,"station_name":"Pasar Senen","distance":1567,"is_transit":false,"transit":false,"i_lat":-6.174784,"i_long":106.84368,"line":11},{"transit":false,"station_id":"KMO","distance":1436,"station_name":"Kemayoran","i_long":106.839204,"time":4,"line":11,"is_transit":false,"i_lat":-6.161728},{"station_id":"RJW","time":5,"is_transit":false,"i_lat":-6.14505,"transit":false,"i_long":106.836569,"station_name":"Rajawali","line":11,"distance":1901},{"station_name":"Kampung Bandan","transit":true,"i_lat":-6.132549,"i_long":106.826365,"time":3,"distance":1444,"is_transit":true,"station_id":"KPB","line":4},{"station_id":"AK","station_name":"Angke","is_transit":false,"i_long":106.79867,"i_lat":-6.144674,"line":1,"distance":4102,"time":9,"transit":false},{"i_long":106.800832,"station_id":"DU","line":1,"is_transit":false,"distance":1230,"time":4,"station_name":"Duri","i_lat":-6.155215,"transit":false},{"station_id":"THB","transit":true,"i_lat":-6.185545,"line":1,"distance":3632,"is_transit":true,"time":8,"i_long":106.811091,"station_name":"Tanah Abang"},{"time":6,"i_lat":-6.207404,"station_id":"PLM","line":6,"is_transit":false,"station_name":"Palmerah","i_long":106.79689,"distance":3191,"transit":false},{"transit":false,"time":7,"station_name":"Kebayoran","station_id":"KBY","i_lat":-6.237242,"i_long":106.780334,"is_transit":false,"distance":3737,"line":6},{"transit":false,"distance":6218,"station_name":"Pondokranji","station_id":"PDJ","time":8,"is_transit":false,"i_lat":-6.276362,"i_long":106.74273,"line":6},{"i_long":106.728916,"station_id":"JMU","is_transit":false,"line":6,"time":3,"transit":false,"i_lat":-6.288927,"distance":2179,"station_name":"Jurangmangu"},{"i_lat":-6.296963,"station_name":"Sudimara","is_transit":false,"line":6,"distance":1994,"station_id":"SDM","transit":false,"i_long":106.712277,"time":4},{"is_transit":false,"station_name":"Rawa Buntu","time":6,"line":6,"station_id":"RU","i_long":106.675475,"i_lat":-6.314823,"transit":false,"distance":4566},{"distance":2413,"station_id":"SRP","i_lat":-6.319871,"transit":false,"line":6,"i_long":106.66566,"time":4,"station_name":"Serpong","is_transit":false},{"time":4,"station_id":"CSK","distance":1784,"is_transit":false,"transit":false,"i_lat":-6.32484,"i_long":106.640411,"station_name":"Cisauk","line":3},{"station_name":"Cicayur","i_lat":-6.329547,"time":4,"i_long":106.617853,"line":3,"distance":2519,"station_id":"CC","is_transit":false,"transit":false},{"station_name":"Parung Panjang","time":8,"is_transit":false,"line":6,"station_id":"PRP","distance":5968,"transit":false,"i_long":106.568863,"i_lat":-6.3441410000000005},{"is_transit":false,"line":3,"distance":7025,"station_id":"CJT","transit":false,"i_lat":-6.354349,"i_long":106.508482,"station_name":"Cilejit","time":9},{"time":6,"transit":false,"is_transit":false,"i_long":106.491338,"station_id":"DAR","distance":2675,"station_name":"Daru","i_lat":-6.338021,"line":0},{"distance":3902,"i_lat":-6.327251,"time":5,"station_name":"Tenjo","station_id":"TEJ","i_long":106.460812,"transit":false,"line":6,"is_transit":false},{"time":5,"i_lat":-6.328533,"is_transit":false,"station_name":"Tigaraksa","station_id":"TGS","transit":false,"distance":2974,"i_long":106.425991,"line":6},{"station_name":"Cikoya","i_long":106.411216,"time":3,"i_lat":-6.33561,"transit":false,"line":3,"is_transit":false,"distance":2651,"station_id":"CKY"},{"station_id":"MJ","station_name":"Maja","time":4,"is_transit":false,"distance":1853,"i_long":106.394373,"line":6,"transit":false,"i_lat":-6.332307}]]}