{"data":[[{"station_name":"Pondok Cina","time":0,"station_id":"POC","i_long":106.831114,"transit":false,"line":2,"distance":0,"i_lat":-6.369073,"is_transit":false},{"station_name":"Univ. Indonesia","distance":1109,"time":2,"line":2,"is_transit":false,"i_long":106.831474,"station_id":"UI","transit":false,"i_lat":-6.360749},{"i_lat":-6.339291,"is_transit":false,"transit":false,"station_id":"UP","distance":2264,"i_long":106.834175,"time":3,"line":2,"station_name":"Univ. Pancasila"},{"i_lat":-6.330363,"i_long":106.832616,"line":2,"distance":1029,"station_id":"LNA","transit":false,"station_name":"Lenteng Agung","time":2,"is_transit":false},{"distance":2671,"station_id":"TNT","transit":false,"time":3,"is_transit":false,"i_long":106.838896,"station_name":"Tanjung Barat","line":2,"i_lat":-6.3080680000000005},{"time":4,"station_name":"Pasar Minggu","transit":false,"distance":2820,"line":2,"station_id":"PSM","is_transit":false,"i_long":106.843999,"i_lat":-6.2842400000000005},{"line":2,"distance":2380,"transit":false,"i_long":106.851577,"time":2,"station_name":"Pasar Minggu Baru","i_lat":-6.263214,"is_transit":false,"station_id":"PSMB"},{"i_long":106.85449,"station_id":"DRN","transit":false,"station_name":"Duren Kalibata","is_transit":false,"i_lat":-6.255332,"line":2,"distance":824,"time":2},{"is_transit":false,"distance":1546,"line":2,"station_id":"CW","time":3,"station_name":"Cawang","transit":false,"i_lat":-6.242512,"i_long":106.856607},{"i_long":106.857948,"i_lat":-6.226659,"distance":1230,"transit":false,"is_transit":false,"time":2,"station_id":"TEB","station_name":"Tebet","line":2},{"line":2,"distance":2610,"i_lat":-6.209883,"time":4,"station_id":"MRI","station_name":"Manggarai","is_transit":true,"transit":true,"i_long":106.84912},{"station_id":"SUD","transit":false,"i_lat":-6.202263,"distance":3186,"time":4,"i_long":106.822649,"is_transit":false,"station_name":"Sudirman","line":1},{"transit":false,"i_long":106.819881,"station_id":"SUDB","distance":280,"line":1,"station_name":"Sudirman Baru","is_transit":false,"time":1,"i_lat":-6.201433},{"is_transit":false,"station_name":"Karet","time":1,"transit":false,"station_id":"KAT","i_long":106.816351,"line":1,"i_lat":-6.20132,"distance":471},{"line":1,"transit":true,"station_name":"Tanah Abang","i_lat":-6.185545,"time":5,"station_id":"THB","is_transit":true,"distance":2029,"i_long":106.811091},{"transit":false,"distance":3191,"i_lat":-6.207404,"station_id":"PLM","line":6,"station_name":"Palmerah","time":6,"i_long":106.79689,"is_transit":false},{"station_name":"Kebayoran","transit":false,"time":7,"station_id":"KBY","is_transit":false,"i_lat":-6.237242,"distance":3737,"line":6,"i_long":106.780334},{"transit":false,"station_name":"Pondokranji","time":8,"i_lat":-6.276362,"line":6,"distance":6218,"station_id":"PDJ","i_long":106.74273,"is_transit":false},{"distance":2179,"i_lat":-6.288927,"line":6,"time":3,"station_id":"JMU","is_transit":false,"transit":false,"i_long":106.728916,"station_name":"Jurangmangu"},{"i_lat":-6.296963,"i_long":106.712277,"station_id":"SDM","is_transit":false,"line":6,"transit":false,"distance":1994,"time":4,"station_name":"Sudimara"},{"station_id":"RU","line":6,"time":6,"is_transit":false,"transit":false,"i_lat":-6.314823,"distance":4566,"i_long":106.675475,"station_name":"Rawa Buntu"}],[{"station_id":"POC","distance":0,"i_long":106.831114,"time":0,"station_name":"Pondok Cina","i_lat":-6.369073,"line":2,"transit":false,"is_transit":false},{"is_transit":false,"line":2,"station_name":"Univ. Indonesia","time":2,"transit":false,"station_id":"UI","i_lat":-6.360749,"i_long":106.831474,"distance":1109},{"transit":false,"station_name":"Univ. Pancasila","station_id":"UP","time":3,"distance":2264,"i_lat":-6.339291,"is_transit":false,"i_long":106.834175,"line":2},{"station_name":"Lenteng Agung","time":2,"transit":false,"station_id":"LNA","i_long":106.832616,"i_lat":-6.330363,"is_transit":false,"line":2,"distance":1029},{"transit":false,"distance":2671,"is_transit":false,"i_lat":-6.3080680000000005,"station_id":"TNT","time":3,"i_long":106.838896,"station_name":"Tanjung Barat","line":2},{"is_transit":false,"distance":2820,"time":4,"transit":false,"i_long":106.843999,"i_lat":-6.2842400000000005,"line":2,"station_name":"Pasar Minggu","station_id":"PSM"},{"station_name":"Pasar Minggu Baru","line":2,"i_long":106.851577,"transit":false,"time":2,"station_id":"PSMB","is_transit":false,"distance":2380,"i_lat":-6.263214},{"station_id":"DRN","distance":824,"i_long":106.85449,"line":2,"transit":false,"i_lat":-6.255332,"time":2,"station_name":"Duren Kalibata","is_transit":false},{"time":3,"is_transit":false,"station_name":"Cawang","station_id":"CW","i_lat":-6.242512,"distance":1546,"i_long":106.856607,"transit":false,"line":2},{"is_transit":false,"station_name":"Tebet","i_long":106.857948,"station_id":"TEB","transit":false,"distance":1230,"time":2,"i_lat":-6.226659,"line":2},{"line":2,"station_id":"MRI","is_transit":false,"transit":false,"i_lat":-6.209883,"i_long":106.84912,"station_name":"Manggarai","distance":2610,"time":4},{"i_lat":-6.198556,"line":2,"is_transit":false,"station_name":"Cikini","station_id":"CKI","i_long":106.840169,"distance":1590,"time":4,"transit":false},{"distance":1750,"transit":false,"i_lat":-6.186295,"is_transit":false,"station_id":"GDD","i_long":106.832183,"station_name":"Gondangdia","line":2,"time":3},{"time":4,"is_transit":false,"distance":2015,"i_lat":-6.166716,"line":2,"station_name":"Juanda","station_id":"JUA","transit":false,"i_long":106.828284},{"is_transit":false,"transit":false,"distance":1149,"i_long":106.827103,"station_name":"Sawah Besar","line":2,"time":2,"station_id":"SW","i_lat":-6.160725},{"time":2,"i_lat":-6.149769,"i_long":106.82482,"distance":906,"line":2,"station_name":"Manggabesar","station_id":"MGB","is_transit":false,"transit":false},{"i_lat":-6.141205,"i_long":106.820901,"distance":1080,"transit":false,"is_transit":false,"station_id":"JAY","line":2,"station_name":"Jayakarta","time":2},{"transit":true,"line":2,"is_transit":true,"i_lat":-6.137569,"station_name":"Jakarta Kota","station_id":"JAKK","distance":1264,"i_long":106.812439,"time":4},{"transit":true,"line":4,"station_id":"KPB","i_long":106.826365,"time":3,"distance":1364,"is_transit":true,"i_lat":-6.132549,"station_name":"Kampung Bandan"},{"station_id":"AK","station_name":"Angke","transit":false,"line":1,"i_long":106.79867,"is_transit":false,"distance":4102,"i_lat":-6.144674,"time":9},{"is_transit":false,"time":4,"station_id":"DU","distance":1230,"line":1,"transit":false,"i_lat":-6.155215,"i_long":106.800832,"station_name":"Duri"},{"i_lat":-6.185545,"station_name":"Tanah Abang","is_transit":true,"transit":true,"i_long":106.811091,"line":1,"station_id":"THB","distance":3632,"time":8},{"i_lat":-6.207404,"distance":3191,"i_long":106.79689,"station_id":"PLM","is_transit":false,"line":6,"transit":false,"station_name":"Palmerah","time":6},{"station_id":"KBY","transit":false,"i_long":106.780334,"line":6,"i_lat":-6.237242,"distance":3737,"is_transit":false,"station_name":"Kebayoran","time":7},{"distance":6218,"station_id":"PDJ","time":8,"is_transit":false,"line":6,"i_lat":-6.276362,"i_long":106.74273,"station_name":"Pondokranji","transit":false},{"time":3,"is_transit":false,"station_name":"Jurangmangu","i_long":106.728916,"transit":false,"distance":2179,"i_lat":-6.288927,"line":6,"station_id":"JMU"},{"is_transit":false,"station_id":"SDM","station_name":"Sudimara","i_lat":-6.296963,"line":6,"time":4,"transit":false,"i_long":106.712277,"distance":1994},{"transit":false,"station_name":"Rawa Buntu","distance":4566,"i_lat":-6.314823,"line":6,"time":6,"is_transit":false,"i_long":106.675475,"station_id":"RU"}],[{"station_name":"Pondok Cina","i_long":106.831114,"is_transit":false,"line":2,"station_id":"POC","time":0,"i_lat":-6.369073,"transit":false,"distance":0},{"line":2,"distance":1109,"i_long":106.831474,"time":2,"station_id":"UI","transit":false,"station_name":"Univ. Indonesia","is_transit":false,"i_lat":-6.360749},{"is_transit":false,"time":3,"transit":false,"i_lat":-6.339291,"station_id":"UP","i_long":106.834175,"station_name":"Univ. Pancasila","distance":2264,"line":2},{"time":2,"i_lat":-6.330363,"line":2,"station_name":"Lenteng Agung","station_id":"LNA","is_transit":false,"transit":false,"distance":1029,"i_long":106.832616},{"line":2,"i_long":106.838896,"station_id":"TNT","time":3,"station_name":"Tanjung Barat","distance":2671,"i_lat":-6.3080680000000005,"transit":false,"is_transit":false},{"i_lat":-6.2842400000000005,"station_name":"Pasar Minggu","i_long":106.843999,"distance":2820,"time":4,"station_id":"PSM","transit":false,"line":2,"is_transit":false},{"distance":2380,"station_id":"PSMB","station_name":"Pasar Minggu Baru","transit":false,"i_long":106.851577,"time":2,"is_transit":false,"i_lat":-6.263214,"line":2},{"time":2,"i_lat":-6.255332,"station_id":"DRN","is_transit":false,"line":2,"i_long":106.85449,"transit":false,"distance":824,"station_name":"Duren Kalibata"},{"transit":false,"is_transit":false,"distance":1546,"time":3,"i_long":106.856607,"station_name":"Cawang","line":2,"station_id":"CW","i_lat":-6.242512},{"station_id":"TEB","i_long":106.857948,"time":2,"distance":1230,"line":2,"station_name":"Tebet","is_transit":false,"transit":false,"i_lat":-6.226659},{"line":2,"station_id":"MRI","station_name":"Manggarai","distance":2610,"time":4,"is_transit":true,"i_lat":-6.209883,"transit":true,"i_long":106.84912},{"transit":false,"i_lat":-6.212485,"i_long":106.858896,"is_transit":false,"line":1,"distance":1275,"station_id":"MTR","station_name":"Matraman","time":2},{"line":1,"station_name":"Jatinegara","i_lat":-6.215091,"i_long":106.86807400000001,"station_id":"JNG","distance":1377,"transit":true,"is_transit":true,"time":8},{"station_name":"Pondok Jati","is_transit":false,"line":11,"distance":1236,"i_lat":-6.209188,"station_id":"POK","transit":false,"time":2,"i_long":106.861737},{"distance":1829,"i_lat":-6.193792,"time":2,"is_transit":false,"station_name":"Kramat","station_id":"KMT","i_long":106.855437,"transit":false,"line":11},{"station_id":"GST","i_long":106.850107,"station_name":"Gang Sentiong","distance":973,"time":1,"i_lat":-6.185975,"line":11,"is_transit":false,"transit":false},{"station_id":"PSE","is_transit":false,"station_name":"Pasar Senen","time":8,"transit":false,"distance":1567,"i_long":106.84368,"i_lat":-6.174784,"line":11},{"is_transit":false,"station_name":"Kemayoran","transit":false,"distance":1436,"i_lat":-6.161728,"i_long":106.839204,"line":11,"time":4,"station_id":"KMO"},{"transit":false,"is_transit":false,"distance":1901,"i_lat":-6.14505,"station_id":"RJW","i_long":106.836569,"time":5,"station_name":"Rajawali","line":11},{"i_lat":-6.132549,"station_name":"Kampung Bandan","station_id":"KPB","transit":true,"i_long":106.826365,"time":3,"is_transit":true,"line":4,"distance":1444},{"station_name":"Angke","i_long":106.79867,"line":1,"station_id":"AK","transit":false,"is_transit":false,"i_lat":-6.144674,"time":9,"distance":4102},{"time":4,"transit":false,"distance":1230,"line":1,"station_name":"Duri","station_id":"DU","is_transit":false,"i_long":106.800832,"i_lat":-6.155215},{"station_id":"THB","i_lat":-6.185545,"station_name":"Tanah Abang","distance":3632,"line":1,"time":8,"is_transit":true,"i_long":106.811091,"transit":true},{"station_name":"Palmerah","is_transit":false,"time":6,"station_id":"PLM","transit":false,"distance":3191,"i_lat":-6.207404,"i_long":106.79689,"line":6},{"line":6,"time":7,"distance":3737,"station_name":"Kebayoran","is_transit":false,"transit":false,"i_lat":-6.237242,"station_id":"KBY","i_long":106.780334},{"station_id":"PDJ","is_transit":false,"distance":6218,"transit":false,"i_lat":-6.276362,"i_long":106.74273,"time":8,"station_name":"Pondokranji","line":6},{"station_id":"JMU","i_lat":-6.288927,"station_name":"Jurangmangu","i_long":106.728916,"line":6,"time":3,"transit":false,"is_transit":false,"distance":2179},{"station_name":"Sudimara","time":4,"is_transit":false,"i_long":106.712277,"i_lat":-6.296963,"line":6,"transit":false,"station_id":"SDM","distance":1994},{"station_name":"Rawa Buntu","i_long":106.675475,"transit":false,"is_transit":false,"station_id":"RU","line":6,"i_lat":-6.314823,"distance":4566,"time":6}]]}