{"data":[[{"station_id":"POC","line":2,"distance":0,"transit":false,"is_transit":false,"station_name":"Pondok Cina","i_lat":-6.369073,"time":0,"i_long":106.831114},{"i_long":106.831474,"station_id":"UI","line":2,"transit":false,"is_transit":false,"station_name":"Univ. Indonesia","time":2,"distance":1109,"i_lat":-6.360749},{"is_transit":false,"i_long":106.834175,"distance":2264,"line":2,"time":3,"station_name":"Univ. Pancasila","transit":false,"station_id":"UP","i_lat":-6.339291},{"station_name":"Lenteng Agung","transit":false,"time":2,"is_transit":false,"i_lat":-6.330363,"distance":1029,"station_id":"LNA","i_long":106.832616,"line":2},{"i_lat":-6.3080680000000005,"station_id":"TNT","time":3,"station_name":"Tanjung Barat","line":2,"is_transit":false,"transit":false,"distance":2671,"i_long":106.838896},{"distance":2820,"station_name":"Pasar Minggu","i_lat":-6.2842400000000005,"i_long":106.843999,"transit":false,"station_id":"PSM","time":4,"is_transit":false,"line":2},{"time":2,"transit":false,"i_lat":-6.263214,"line":2,"is_transit":false,"distance":2380,"station_name":"Pasar Minggu Baru","station_id":"PSMB","i_long":106.851577},{"distance":824,"is_transit":false,"transit":false,"line":2,"station_name":"Duren Kalibata","i_long":106.85449,"time":2,"station_id":"DRN","i_lat":-6.255332},{"time":3,"station_name":"Cawang","distance":1546,"is_transit":false,"station_id":"CW","transit":false,"i_long":106.856607,"i_lat":-6.242512,"line":2},{"distance":1230,"i_lat":-6.226659,"transit":false,"i_long":106.857948,"is_transit":false,"line":2,"station_id":"TEB","time":2,"station_name":"Tebet"},{"transit":true,"i_lat":-6.209883,"station_id":"MRI","i_long":106.84912,"line":2,"is_transit":true,"time":4,"station_name":"Manggarai","distance":2610},{"time":4,"i_lat":-6.202263,"line":1,"transit":false,"distance":3186,"is_transit":false,"station_id":"SUD","station_name":"Sudirman","i_long":106.822649},{"distance":280,"i_long":106.819881,"time":1,"transit":false,"is_transit":false,"i_lat":-6.201433,"station_id":"SUDB","line":1,"station_name":"Sudirman Baru"},{"station_name":"Karet","time":1,"distance":471,"i_long":106.816351,"line":1,"transit":false,"station_id":"KAT","i_lat":-6.20132,"is_transit":false},{"transit":false,"time":5,"distance":2029,"i_lat":-6.185545,"i_long":106.811091,"station_id":"THB","line":1,"is_transit":false,"station_name":"Tanah Abang"},{"station_name":"Duri","station_id":"DU","is_transit":true,"i_lat":-6.155215,"i_long":106.800832,"time":8,"transit":true,"line":1,"distance":3632},{"is_transit":false,"i_long":106.788277,"transit":false,"station_name":"Grogol","distance":1700,"line":5,"i_lat":-6.162021,"station_id":"GRG","time":3},{"i_lat":-6.161433,"i_long":106.771379,"station_name":"Pesing","time":2,"transit":false,"line":5,"station_id":"PSG","is_transit":false,"distance":2036},{"station_name":"Taman Kota","time":2,"line":5,"station_id":"TKO","i_lat":-6.1587309999999995,"transit":false,"distance":1614,"i_long":106.756522,"is_transit":false},{"station_id":"BOI","station_name":"Bojongindah","i_long":106.737035,"line":5,"distance":2334,"is_transit":false,"transit":false,"i_lat":-6.159876,"time":2},{"station_name":"Rawa Buaya","time":4,"i_lat":-6.162758,"is_transit":false,"transit":false,"station_id":"RW","i_long":106.723064,"distance":1152,"line":5},{"transit":false,"station_id":"KDS","station_name":"Kalideres","line":5,"is_transit":false,"i_long":106.701612,"i_lat":-6.166068,"time":3,"distance":2504}],[{"time":0,"station_id":"POC","is_transit":false,"transit":false,"i_lat":-6.369073,"distance":0,"station_name":"Pondok Cina","i_long":106.831114,"line":2},{"line":2,"time":2,"transit":false,"station_id":"UI","i_long":106.831474,"distance":1109,"i_lat":-6.360749,"is_transit":false,"station_name":"Univ. Indonesia"},{"i_lat":-6.339291,"line":2,"time":3,"is_transit":false,"station_name":"Univ. Pancasila","distance":2264,"transit":false,"i_long":106.834175,"station_id":"UP"},{"station_name":"Lenteng Agung","distance":1029,"transit":false,"station_id":"LNA","i_lat":-6.330363,"line":2,"time":2,"i_long":106.832616,"is_transit":false},{"time":3,"line":2,"station_name":"Tanjung Barat","is_transit":false,"station_id":"TNT","i_lat":-6.3080680000000005,"i_long":106.838896,"transit":false,"distance":2671},{"distance":2820,"i_long":106.843999,"i_lat":-6.2842400000000005,"is_transit":false,"line":2,"transit":false,"time":4,"station_id":"PSM","station_name":"Pasar Minggu"},{"time":2,"line":2,"station_name":"Pasar Minggu Baru","is_transit":false,"transit":false,"i_lat":-6.263214,"i_long":106.851577,"distance":2380,"station_id":"PSMB"},{"i_lat":-6.255332,"distance":824,"is_transit":false,"transit":false,"station_name":"Duren Kalibata","station_id":"DRN","time":2,"line":2,"i_long":106.85449},{"transit":false,"i_long":106.856607,"station_name":"Cawang","time":3,"i_lat":-6.242512,"station_id":"CW","is_transit":false,"line":2,"distance":1546},{"time":2,"i_lat":-6.226659,"is_transit":false,"i_long":106.857948,"transit":false,"station_name":"Tebet","distance":1230,"line":2,"station_id":"TEB"},{"line":2,"distance":2610,"station_name":"Manggarai","station_id":"MRI","i_long":106.84912,"is_transit":false,"transit":false,"time":4,"i_lat":-6.209883},{"station_id":"CKI","i_lat":-6.198556,"i_long":106.840169,"line":2,"station_name":"Cikini","distance":1590,"transit":false,"time":4,"is_transit":false},{"station_id":"GDD","i_lat":-6.186295,"time":3,"station_name":"Gondangdia","line":2,"transit":false,"i_long":106.832183,"is_transit":false,"distance":1750},{"time":4,"i_long":106.828284,"is_transit":false,"transit":false,"station_name":"Juanda","line":2,"station_id":"JUA","distance":2015,"i_lat":-6.166716},{"i_lat":-6.160725,"station_name":"Sawah Besar","time":2,"transit":false,"line":2,"is_transit":false,"distance":1149,"i_long":106.827103,"station_id":"SW"},{"time":2,"station_name":"Manggabesar","i_lat":-6.149769,"i_long":106.82482,"is_transit":false,"line":2,"transit":false,"station_id":"MGB","distance":906},{"is_transit":false,"i_lat":-6.141205,"station_id":"JAY","line":2,"time":2,"station_name":"Jayakarta","i_long":106.820901,"transit":false,"distance":1080},{"transit":true,"line":2,"time":4,"station_id":"JAKK","distance":1264,"station_name":"Jakarta Kota","i_lat":-6.137569,"is_transit":true,"i_long":106.812439},{"transit":true,"time":3,"i_lat":-6.132549,"is_transit":true,"distance":1364,"i_long":106.826365,"station_name":"Kampung Bandan","line":4,"station_id":"KPB"},{"line":1,"transit":false,"i_lat":-6.144674,"is_transit":false,"time":9,"i_long":106.79867,"station_id":"AK","station_name":"Angke","distance":4102},{"line":1,"i_lat":-6.155215,"time":4,"distance":1230,"i_long":106.800832,"is_transit":true,"station_name":"Duri","transit":true,"station_id":"DU"},{"distance":1700,"station_name":"Grogol","i_long":106.788277,"i_lat":-6.162021,"station_id":"GRG","is_transit":false,"time":3,"line":5,"transit":false},{"time":2,"is_transit":false,"station_name":"Pesing","i_lat":-6.161433,"station_id":"PSG","distance":2036,"i_long":106.771379,"line":5,"transit":false},{"station_name":"Taman Kota","transit":false,"distance":1614,"is_transit":false,"station_id":"TKO","i_lat":-6.1587309999999995,"line":5,"i_long":106.756522,"time":2},{"i_long":106.737035,"distance":2334,"i_lat":-6.159876,"station_name":"Bojongindah","time":2,"transit":false,"station_id":"BOI","is_transit":false,"line":5},{"line":5,"station_id":"RW","distance":1152,"transit":false,"is_transit":false,"time":4,"i_lat":-6.162758,"station_name":"Rawa Buaya","i_long":106.723064},{"station_id":"KDS","transit":false,"is_transit":false,"i_lat":-6.166068,"line":5,"time":3,"distance":2504,"station_name":"Kalideres","i_long":106.701612}],[{"station_name":"Pondok Cina","i_long":106.831114,"distance":0,"station_id":"POC","time":0,"is_transit":false,"line":2,"i_lat":-6.369073,"transit":false},{"line":2,"time":2,"i_lat":-6.360749,"distance":1109,"i_long":106.831474,"station_name":"Univ. Indonesia","is_transit":false,"station_id":"UI","transit":false},{"time":3,"distance":2264,"transit":false,"i_lat":-6.339291,"i_long":106.834175,"line":2,"is_transit":false,"station_id":"UP","station_name":"Univ. Pancasila"},{"distance":1029,"time":2,"is_transit":false,"transit":false,"i_lat":-6.330363,"i_long":106.832616,"line":2,"station_id":"LNA","station_name":"Lenteng Agung"},{"i_lat":-6.3080680000000005,"is_transit":false,"i_long":106.838896,"station_name":"Tanjung Barat","time":3,"transit":false,"distance":2671,"line":2,"station_id":"TNT"},{"is_transit":false,"i_long":106.843999,"i_lat":-6.2842400000000005,"station_id":"PSM","station_name":"Pasar Minggu","time":4,"transit":false,"distance":2820,"line":2},{"distance":2380,"is_transit":false,"time":2,"i_lat":-6.263214,"station_id":"PSMB","i_long":106.851577,"transit":false,"station_name":"Pasar Minggu Baru","line":2},{"distance":824,"line":2,"station_name":"Duren Kalibata","station_id":"DRN","time":2,"is_transit":false,"i_lat":-6.255332,"i_long":106.85449,"transit":false},{"i_lat":-6.242512,"is_transit":false,"i_long":106.856607,"station_name":"Cawang","station_id":"CW","line":2,"time":3,"distance":1546,"transit":false},{"station_name":"Tebet","i_long":106.857948,"is_transit":false,"transit":false,"i_lat":-6.226659,"line":2,"station_id":"TEB","time":2,"distance":1230},{"i_lat":-6.209883,"line":2,"station_id":"MRI","time":4,"transit":true,"is_transit":true,"i_long":106.84912,"station_name":"Manggarai","distance":2610},{"transit":false,"i_lat":-6.212485,"is_transit":false,"distance":1275,"i_long":106.858896,"line":1,"station_name":"Matraman","time":2,"station_id":"MTR"},{"station_id":"JNG","distance":1377,"station_name":"Jatinegara","transit":true,"i_lat":-6.215091,"line":1,"i_long":106.86807400000001,"time":8,"is_transit":true},{"distance":1236,"station_id":"POK","station_name":"Pondok Jati","i_lat":-6.209188,"time":2,"transit":false,"is_transit":false,"i_long":106.861737,"line":11},{"distance":1829,"i_long":106.855437,"is_transit":false,"i_lat":-6.193792,"time":2,"line":11,"station_name":"Kramat","station_id":"KMT","transit":false},{"i_lat":-6.185975,"distance":973,"station_name":"Gang Sentiong","time":1,"transit":false,"i_long":106.850107,"line":11,"station_id":"GST","is_transit":false},{"transit":false,"station_id":"PSE","is_transit":false,"time":8,"line":11,"distance":1567,"station_name":"Pasar Senen","i_lat":-6.174784,"i_long":106.84368},{"transit":false,"time":4,"i_long":106.839204,"distance":1436,"is_transit":false,"station_name":"Kemayoran","i_lat":-6.161728,"line":11,"station_id":"KMO"},{"is_transit":false,"i_long":106.836569,"time":5,"i_lat":-6.14505,"station_id":"RJW","distance":1901,"transit":false,"line":11,"station_name":"Rajawali"},{"time":3,"line":4,"transit":true,"i_long":106.826365,"station_id":"KPB","i_lat":-6.132549,"is_transit":true,"distance":1444,"station_name":"Kampung Bandan"},{"transit":false,"i_lat":-6.144674,"line":1,"i_long":106.79867,"station_name":"Angke","time":9,"station_id":"AK","distance":4102,"is_transit":false},{"station_id":"DU","is_transit":true,"distance":1230,"time":4,"transit":true,"i_lat":-6.155215,"i_long":106.800832,"line":1,"station_name":"Duri"},{"line":5,"i_lat":-6.162021,"distance":1700,"station_id":"GRG","station_name":"Grogol","is_transit":false,"transit":false,"time":3,"i_long":106.788277},{"station_id":"PSG","distance":2036,"station_name":"Pesing","i_long":106.771379,"transit":false,"is_transit":false,"i_lat":-6.161433,"time":2,"line":5},{"station_id":"TKO","transit":false,"i_lat":-6.1587309999999995,"line":5,"time":2,"i_long":106.756522,"is_transit":false,"station_name":"Taman Kota","distance":1614},{"i_lat":-6.159876,"transit":false,"distance":2334,"station_name":"Bojongindah","station_id":"BOI","line":5,"is_transit":false,"i_long":106.737035,"time":2},{"is_transit":false,"time":4,"i_long":106.723064,"i_lat":-6.162758,"line":5,"transit":false,"station_id":"RW","distance":1152,"station_name":"Rawa Buaya"},{"station_id":"KDS","is_transit":false,"station_name":"Kalideres","time":3,"i_lat":-6.166068,"line":5,"distance":2504,"i_long":106.701612,"transit":false}]]}