{"data":[[{"distance":0,"line":2,"time":0,"transit":false,"is_transit":false,"i_lat":-6.369073,"station_id":"POC","station_name":"Pondok Cina","i_long":106.831114},{"transit":false,"is_transit":false,"distance":1109,"i_lat":-6.360749,"i_long":106.831474,"line":2,"station_id":"UI","time":2,"station_name":"Univ. Indonesia"},{"i_lat":-6.339291,"station_id":"UP","is_transit":false,"station_name":"Univ. Pancasila","transit":false,"line":2,"i_long":106.834175,"distance":2264,"time":3},{"station_name":"Lenteng Agung","transit":false,"line":2,"time":2,"is_transit":false,"i_long":106.832616,"station_id":"LNA","distance":1029,"i_lat":-6.330363},{"station_name":"Tanjung Barat","i_lat":-6.3080680000000005,"line":2,"time":3,"distance":2671,"transit":false,"station_id":"TNT","is_transit":false,"i_long":106.838896},{"transit":false,"line":2,"is_transit":false,"station_name":"Pasar Minggu","station_id":"PSM","time":4,"i_lat":-6.2842400000000005,"i_long":106.843999,"distance":2820},{"i_lat":-6.263214,"station_name":"Pasar Minggu Baru","transit":false,"is_transit":false,"i_long":106.851577,"line":2,"station_id":"PSMB","distance":2380,"time":2},{"i_lat":-6.255332,"i_long":106.85449,"station_name":"Duren Kalibata","is_transit":false,"transit":false,"distance":824,"line":2,"time":2,"station_id":"DRN"},{"station_name":"Cawang","time":3,"is_transit":false,"station_id":"CW","distance":1546,"transit":false,"i_lat":-6.242512,"i_long":106.856607,"line":2},{"station_id":"TEB","transit":false,"i_long":106.857948,"time":2,"distance":1230,"is_transit":false,"line":2,"i_lat":-6.226659,"station_name":"Tebet"},{"station_id":"MRI","transit":true,"is_transit":true,"distance":2610,"station_name":"Manggarai","line":2,"i_long":106.84912,"i_lat":-6.209883,"time":4},{"station_id":"SUD","transit":false,"is_transit":false,"distance":3186,"i_long":106.822649,"station_name":"Sudirman","time":4,"line":1,"i_lat":-6.202263},{"time":1,"i_lat":-6.201433,"station_id":"SUDB","is_transit":false,"distance":280,"transit":false,"i_long":106.819881,"station_name":"Sudirman Baru","line":1},{"is_transit":false,"station_id":"KAT","station_name":"Karet","distance":471,"line":1,"transit":false,"i_long":106.816351,"time":1,"i_lat":-6.20132},{"station_id":"THB","transit":true,"is_transit":true,"i_long":106.811091,"station_name":"Tanah Abang","distance":2029,"i_lat":-6.185545,"time":5,"line":1},{"distance":3191,"station_name":"Palmerah","transit":false,"station_id":"PLM","i_long":106.79689,"line":6,"i_lat":-6.207404,"is_transit":false,"time":6},{"time":7,"i_long":106.780334,"station_name":"Kebayoran","transit":false,"distance":3737,"station_id":"KBY","line":6,"is_transit":false,"i_lat":-6.237242}],[{"line":2,"station_id":"POC","transit":false,"i_lat":-6.369073,"time":0,"station_name":"Pondok Cina","is_transit":false,"distance":0,"i_long":106.831114},{"transit":false,"is_transit":false,"line":2,"i_lat":-6.360749,"time":2,"i_long":106.831474,"station_id":"UI","distance":1109,"station_name":"Univ. Indonesia"},{"station_id":"UP","station_name":"Univ. Pancasila","transit":false,"i_lat":-6.339291,"is_transit":false,"line":2,"distance":2264,"i_long":106.834175,"time":3},{"station_name":"Lenteng Agung","line":2,"transit":false,"time":2,"is_transit":false,"distance":1029,"station_id":"LNA","i_lat":-6.330363,"i_long":106.832616},{"station_name":"Tanjung Barat","time":3,"station_id":"TNT","i_lat":-6.3080680000000005,"i_long":106.838896,"line":2,"transit":false,"is_transit":false,"distance":2671},{"time":4,"station_id":"PSM","is_transit":false,"i_lat":-6.2842400000000005,"transit":false,"line":2,"distance":2820,"station_name":"Pasar Minggu","i_long":106.843999},{"transit":false,"station_id":"PSMB","is_transit":false,"time":2,"station_name":"Pasar Minggu Baru","distance":2380,"i_long":106.851577,"line":2,"i_lat":-6.263214},{"i_long":106.85449,"distance":824,"is_transit":false,"station_name":"Duren Kalibata","transit":false,"time":2,"station_id":"DRN","line":2,"i_lat":-6.255332},{"distance":1546,"line":2,"i_long":106.856607,"station_id":"CW","is_transit":false,"i_lat":-6.242512,"transit":false,"time":3,"station_name":"Cawang"},{"time":2,"is_transit":false,"station_id":"TEB","station_name":"Tebet","i_lat":-6.226659,"i_long":106.857948,"line":2,"transit":false,"distance":1230},{"distance":2610,"i_long":106.84912,"is_transit":false,"i_lat":-6.209883,"line":2,"station_id":"MRI","time":4,"station_name":"Manggarai","transit":false},{"station_name":"Cikini","line":2,"station_id":"CKI","time":4,"is_transit":false,"i_lat":-6.198556,"transit":false,"distance":1590,"i_long":106.840169},{"is_transit":false,"i_long":106.832183,"distance":1750,"station_name":"Gondangdia","time":3,"transit":false,"station_id":"GDD","i_lat":-6.186295,"line":2},{"i_lat":-6.166716,"distance":2015,"i_long":106.828284,"is_transit":false,"transit":false,"line":2,"time":4,"station_id":"JUA","station_name":"Juanda"},{"i_long":106.827103,"time":2,"station_id":"SW","i_lat":-6.160725,"distance":1149,"station_name":"Sawah Besar","is_transit":false,"transit":false,"line":2},{"i_long":106.82482,"transit":false,"is_transit":false,"station_name":"Manggabesar","line":2,"time":2,"distance":906,"station_id":"MGB","i_lat":-6.149769},{"i_lat":-6.141205,"station_id":"JAY","i_long":106.820901,"time":2,"is_transit":false,"transit":false,"line":2,"distance":1080,"station_name":"Jayakarta"},{"distance":1264,"station_id":"JAKK","i_long":106.812439,"line":2,"transit":true,"i_lat":-6.137569,"is_transit":true,"time":4,"station_name":"Jakarta Kota"},{"time":3,"station_name":"Kampung Bandan","i_long":106.826365,"distance":1364,"transit":true,"is_transit":true,"i_lat":-6.132549,"line":4,"station_id":"KPB"},{"station_name":"Angke","time":9,"station_id":"AK","is_transit":false,"distance":4102,"i_lat":-6.144674,"line":1,"i_long":106.79867,"transit":false},{"station_name":"Duri","transit":false,"station_id":"DU","time":4,"i_lat":-6.155215,"i_long":106.800832,"line":1,"is_transit":false,"distance":1230},{"line":1,"station_name":"Tanah Abang","i_lat":-6.185545,"is_transit":true,"station_id":"THB","time":8,"i_long":106.811091,"distance":3632,"transit":true},{"line":6,"time":6,"station_name":"Palmerah","transit":false,"distance":3191,"is_transit":false,"i_lat":-6.207404,"i_long":106.79689,"station_id":"PLM"},{"station_id":"KBY","i_lat":-6.237242,"time":7,"is_transit":false,"station_name":"Kebayoran","distance":3737,"transit":false,"line":6,"i_long":106.780334}],[{"time":0,"distance":0,"line":2,"station_name":"Pondok Cina","i_long":106.831114,"i_lat":-6.369073,"transit":false,"is_transit":false,"station_id":"POC"},{"is_transit":false,"distance":1109,"i_long":106.831474,"station_id":"UI","station_name":"Univ. Indonesia","i_lat":-6.360749,"time":2,"line":2,"transit":false},{"i_long":106.834175,"time":3,"distance":2264,"i_lat":-6.339291,"is_transit":false,"line":2,"station_name":"Univ. Pancasila","station_id":"UP","transit":false},{"transit":false,"time":2,"line":2,"station_id":"LNA","i_lat":-6.330363,"i_long":106.832616,"distance":1029,"station_name":"Lenteng Agung","is_transit":false},{"time":3,"is_transit":false,"i_long":106.838896,"i_lat":-6.3080680000000005,"station_name":"Tanjung Barat","transit":false,"station_id":"TNT","distance":2671,"line":2},{"i_long":106.843999,"transit":false,"i_lat":-6.2842400000000005,"station_id":"PSM","time":4,"station_name":"Pasar Minggu","distance":2820,"is_transit":false,"line":2},{"time":2,"is_transit":false,"line":2,"i_lat":-6.263214,"i_long":106.851577,"distance":2380,"station_id":"PSMB","transit":false,"station_name":"Pasar Minggu Baru"},{"i_long":106.85449,"distance":824,"time":2,"is_transit":false,"station_name":"Duren Kalibata","i_lat":-6.255332,"transit":false,"line":2,"station_id":"DRN"},{"station_name":"Cawang","i_lat":-6.242512,"time":3,"station_id":"CW","i_long":106.856607,"line":2,"is_transit":false,"transit":false,"distance":1546},{"distance":1230,"line":2,"transit":false,"time":2,"station_id":"TEB","i_long":106.857948,"is_transit":false,"i_lat":-6.226659,"station_name":"Tebet"},{"time":4,"station_name":"Manggarai","distance":2610,"line":2,"transit":true,"i_long":106.84912,"i_lat":-6.209883,"is_transit":true,"station_id":"MRI"},{"line":1,"i_long":106.858896,"station_id":"MTR","distance":1275,"transit":false,"time":2,"station_name":"Matraman","i_lat":-6.212485,"is_transit":false},{"transit":true,"station_id":"JNG","distance":1377,"i_long":106.86807400000001,"line":1,"time":8,"station_name":"Jatinegara","is_transit":true,"i_lat":-6.215091},{"is_transit":false,"line":11,"i_lat":-6.209188,"i_long":106.861737,"transit":false,"station_id":"POK","time":2,"distance":1236,"station_name":"Pondok Jati"},{"is_transit":false,"time":2,"transit":false,"i_long":106.855437,"i_lat":-6.193792,"line":11,"distance":1829,"station_id":"KMT","station_name":"Kramat"},{"is_transit":false,"i_long":106.850107,"time":1,"distance":973,"station_name":"Gang Sentiong","transit":false,"station_id":"GST","i_lat":-6.185975,"line":11},{"time":8,"line":11,"station_name":"Pasar Senen","station_id":"PSE","i_lat":-6.174784,"distance":1567,"transit":false,"i_long":106.84368,"is_transit":false},{"i_lat":-6.161728,"line":11,"transit":false,"time":4,"is_transit":false,"i_long":106.839204,"distance":1436,"station_name":"Kemayoran","station_id":"KMO"},{"time":5,"transit":false,"i_long":106.836569,"i_lat":-6.14505,"station_name":"Rajawali","line":11,"station_id":"RJW","is_transit":false,"distance":1901},{"transit":true,"i_lat":-6.132549,"distance":1444,"i_long":106.826365,"line":4,"time":3,"station_name":"Kampung Bandan","is_transit":true,"station_id":"KPB"},{"transit":false,"station_name":"Angke","station_id":"AK","is_transit":false,"i_long":106.79867,"i_lat":-6.144674,"line":1,"distance":4102,"time":9},{"station_name":"Duri","transit":false,"distance":1230,"time":4,"is_transit":false,"i_lat":-6.155215,"station_id":"DU","line":1,"i_long":106.800832},{"i_lat":-6.185545,"station_name":"Tanah Abang","is_transit":true,"i_long":106.811091,"time":8,"transit":true,"line":1,"station_id":"THB","distance":3632},{"i_long":106.79689,"station_id":"PLM","i_lat":-6.207404,"station_name":"Palmerah","line":6,"distance":3191,"time":6,"is_transit":false,"transit":false},{"line":6,"time":7,"is_transit":false,"station_name":"Kebayoran","station_id":"KBY","transit":false,"distance":3737,"i_long":106.780334,"i_lat":-6.237242}]]}