{"data":[[{"i_long":106.831114,"i_lat":-6.369073,"station_id":"POC","transit":false,"time":0,"line":2,"station_name":"Pondok Cina","distance":0,"is_transit":false},{"is_transit":false,"station_id":"UI","transit":false,"i_lat":-6.360749,"i_long":106.831474,"station_name":"Univ. Indonesia","line":2,"distance":1109,"time":2},{"transit":false,"distance":2264,"station_name":"Univ. Pancasila","is_transit":false,"i_lat":-6.339291,"line":2,"i_long":106.834175,"time":3,"station_id":"UP"},{"i_lat":-6.330363,"transit":false,"distance":1029,"time":2,"i_long":106.832616,"station_id":"LNA","station_name":"Lenteng Agung","is_transit":false,"line":2},{"i_long":106.838896,"is_transit":false,"station_id":"TNT","i_lat":-6.3080680000000005,"time":3,"station_name":"Tanjung Barat","distance":2671,"line":2,"transit":false}]]}