{"data":[[{"distance":0,"i_long":106.831114,"i_lat":-6.369073,"is_transit":false,"station_name":"Pondok Cina","transit":false,"time":0,"line":2,"station_id":"POC"},{"distance":2727,"i_lat":-6.391065,"transit":false,"is_transit":false,"i_long":106.819451,"time":4,"line":2,"station_name":"Depokbaru","station_id":"DPB"},{"station_id":"DP","line":2,"i_long":106.816926,"i_lat":-6.405256,"station_name":"Depok","transit":false,"distance":1584,"is_transit":false,"time":3},{"station_name":"Citayam","distance":5084,"station_id":"CTA","transit":false,"i_long":106.800298,"i_lat":-6.448811,"time":6,"is_transit":false,"line":2},{"time":5,"i_long":106.792719,"line":2,"station_name":"Bojonggede","transit":false,"i_lat":-6.493243,"station_id":"BJD","distance":5197,"is_transit":false}]]}