{"data":[[{"station_id":"POC","is_transit":false,"time":0,"i_lat":-6.369073,"transit":false,"i_long":106.831114,"distance":0,"station_name":"Pondok Cina","line":2},{"station_name":"Univ. Indonesia","distance":1109,"i_lat":-6.360749,"i_long":106.831474,"transit":false,"station_id":"UI","is_transit":false,"time":2,"line":2},{"time":3,"distance":2264,"station_id":"UP","i_lat":-6.339291,"line":2,"transit":false,"station_name":"Univ. Pancasila","is_transit":false,"i_long":106.834175},{"station_name":"Lenteng Agung","line":2,"distance":1029,"transit":false,"time":2,"i_long":106.832616,"i_lat":-6.330363,"station_id":"LNA","is_transit":false},{"line":2,"station_id":"TNT","is_transit":false,"distance":2671,"i_lat":-6.3080680000000005,"time":3,"transit":false,"i_long":106.838896,"station_name":"Tanjung Barat"},{"line":2,"is_transit":false,"transit":false,"station_id":"PSM","station_name":"Pasar Minggu","distance":2820,"i_lat":-6.2842400000000005,"i_long":106.843999,"time":4},{"is_transit":false,"distance":2380,"i_long":106.851577,"line":2,"station_name":"Pasar Minggu Baru","time":2,"transit":false,"i_lat":-6.263214,"station_id":"PSMB"},{"station_id":"DRN","is_transit":false,"i_lat":-6.255332,"distance":824,"transit":false,"line":2,"time":2,"i_long":106.85449,"station_name":"Duren Kalibata"},{"distance":1546,"i_lat":-6.242512,"line":2,"station_id":"CW","is_transit":false,"transit":false,"station_name":"Cawang","time":3,"i_long":106.856607},{"station_name":"Tebet","line":2,"i_lat":-6.226659,"station_id":"TEB","transit":false,"distance":1230,"time":2,"i_long":106.857948,"is_transit":false},{"station_id":"MRI","is_transit":true,"line":2,"time":4,"i_lat":-6.209883,"distance":2610,"transit":true,"station_name":"Manggarai","i_long":106.84912},{"time":4,"is_transit":false,"distance":3186,"transit":false,"station_name":"Sudirman","i_long":106.822649,"line":1,"i_lat":-6.202263,"station_id":"SUD"},{"station_name":"Sudirman Baru","distance":280,"line":1,"i_lat":-6.201433,"time":1,"is_transit":false,"station_id":"SUDB","i_long":106.819881,"transit":false},{"transit":false,"station_id":"KAT","station_name":"Karet","i_long":106.816351,"is_transit":false,"distance":471,"i_lat":-6.20132,"line":1,"time":1},{"station_name":"Tanah Abang","line":1,"i_lat":-6.185545,"i_long":106.811091,"transit":false,"time":5,"distance":2029,"is_transit":false,"station_id":"THB"},{"is_transit":true,"distance":3632,"time":8,"station_id":"DU","station_name":"Duri","i_long":106.800832,"line":1,"transit":true,"i_lat":-6.155215},{"i_lat":-6.162021,"station_name":"Grogol","distance":1700,"i_long":106.788277,"line":5,"transit":false,"time":3,"is_transit":false,"station_id":"GRG"},{"time":2,"i_lat":-6.161433,"line":5,"station_id":"PSG","transit":false,"is_transit":false,"distance":2036,"i_long":106.771379,"station_name":"Pesing"},{"distance":1614,"is_transit":false,"i_lat":-6.1587309999999995,"station_id":"TKO","i_long":106.756522,"time":2,"line":5,"transit":false,"station_name":"Taman Kota"},{"is_transit":false,"distance":2334,"station_name":"Bojongindah","station_id":"BOI","line":5,"time":2,"i_long":106.737035,"transit":false,"i_lat":-6.159876}],[{"time":0,"line":2,"station_name":"Pondok Cina","i_long":106.831114,"transit":false,"station_id":"POC","is_transit":false,"distance":0,"i_lat":-6.369073},{"station_id":"UI","transit":false,"distance":1109,"i_lat":-6.360749,"i_long":106.831474,"is_transit":false,"time":2,"line":2,"station_name":"Univ. Indonesia"},{"time":3,"station_id":"UP","transit":false,"line":2,"station_name":"Univ. Pancasila","i_lat":-6.339291,"is_transit":false,"i_long":106.834175,"distance":2264},{"is_transit":false,"transit":false,"i_lat":-6.330363,"i_long":106.832616,"station_name":"Lenteng Agung","station_id":"LNA","time":2,"distance":1029,"line":2},{"i_long":106.838896,"distance":2671,"station_name":"Tanjung Barat","line":2,"is_transit":false,"transit":false,"station_id":"TNT","time":3,"i_lat":-6.3080680000000005},{"i_lat":-6.2842400000000005,"line":2,"station_id":"PSM","is_transit":false,"transit":false,"distance":2820,"time":4,"i_long":106.843999,"station_name":"Pasar Minggu"},{"time":2,"i_long":106.851577,"station_id":"PSMB","is_transit":false,"transit":false,"distance":2380,"i_lat":-6.263214,"station_name":"Pasar Minggu Baru","line":2},{"line":2,"transit":false,"is_transit":false,"i_lat":-6.255332,"distance":824,"station_name":"Duren Kalibata","i_long":106.85449,"station_id":"DRN","time":2},{"line":2,"i_long":106.856607,"distance":1546,"station_name":"Cawang","time":3,"i_lat":-6.242512,"station_id":"CW","is_transit":false,"transit":false},{"i_long":106.857948,"distance":1230,"time":2,"line":2,"is_transit":false,"station_id":"TEB","transit":false,"i_lat":-6.226659,"station_name":"Tebet"},{"station_id":"MRI","time":4,"is_transit":false,"transit":false,"distance":2610,"i_lat":-6.209883,"i_long":106.84912,"station_name":"Manggarai","line":2},{"distance":1590,"i_lat":-6.198556,"i_long":106.840169,"line":2,"is_transit":false,"transit":false,"time":4,"station_name":"Cikini","station_id":"CKI"},{"transit":false,"i_lat":-6.186295,"i_long":106.832183,"is_transit":false,"station_id":"GDD","station_name":"Gondangdia","time":3,"line":2,"distance":1750},{"station_id":"JUA","transit":false,"is_transit":false,"time":4,"line":2,"station_name":"Juanda","i_long":106.828284,"i_lat":-6.166716,"distance":2015},{"transit":false,"time":2,"i_lat":-6.160725,"is_transit":false,"i_long":106.827103,"distance":1149,"station_name":"Sawah Besar","line":2,"station_id":"SW"},{"line":2,"transit":false,"station_name":"Manggabesar","is_transit":false,"station_id":"MGB","i_long":106.82482,"time":2,"distance":906,"i_lat":-6.149769},{"distance":1080,"station_name":"Jayakarta","time":2,"i_long":106.820901,"station_id":"JAY","i_lat":-6.141205,"line":2,"is_transit":false,"transit":false},{"station_id":"JAKK","station_name":"Jakarta Kota","distance":1264,"i_long":106.812439,"time":4,"transit":true,"i_lat":-6.137569,"line":2,"is_transit":true},{"station_name":"Kampung Bandan","distance":1364,"i_lat":-6.132549,"time":3,"transit":true,"line":4,"i_long":106.826365,"is_transit":true,"station_id":"KPB"},{"transit":false,"station_id":"AK","i_lat":-6.144674,"station_name":"Angke","distance":4102,"is_transit":false,"i_long":106.79867,"time":9,"line":1},{"station_id":"DU","transit":true,"is_transit":true,"distance":1230,"station_name":"Duri","time":4,"i_lat":-6.155215,"line":1,"i_long":106.800832},{"station_name":"Grogol","time":3,"transit":false,"i_lat":-6.162021,"i_long":106.788277,"station_id":"GRG","is_transit":false,"distance":1700,"line":5},{"transit":false,"station_id":"PSG","is_transit":false,"time":2,"i_lat":-6.161433,"line":5,"station_name":"Pesing","distance":2036,"i_long":106.771379},{"distance":1614,"transit":false,"is_transit":false,"time":2,"i_long":106.756522,"i_lat":-6.1587309999999995,"station_name":"Taman Kota","line":5,"station_id":"TKO"},{"line":5,"i_long":106.737035,"i_lat":-6.159876,"station_name":"Bojongindah","distance":2334,"transit":false,"station_id":"BOI","time":2,"is_transit":false}],[{"station_id":"POC","i_long":106.831114,"station_name":"Pondok Cina","distance":0,"transit":false,"is_transit":false,"time":0,"i_lat":-6.369073,"line":2},{"station_id":"UI","transit":false,"time":2,"i_long":106.831474,"line":2,"distance":1109,"is_transit":false,"station_name":"Univ. Indonesia","i_lat":-6.360749},{"is_transit":false,"station_name":"Univ. Pancasila","time":3,"line":2,"station_id":"UP","distance":2264,"i_long":106.834175,"transit":false,"i_lat":-6.339291},{"i_long":106.832616,"is_transit":false,"station_name":"Lenteng Agung","time":2,"line":2,"i_lat":-6.330363,"transit":false,"station_id":"LNA","distance":1029},{"is_transit":false,"line":2,"distance":2671,"i_lat":-6.3080680000000005,"i_long":106.838896,"station_id":"TNT","station_name":"Tanjung Barat","time":3,"transit":false},{"time":4,"transit":false,"station_name":"Pasar Minggu","i_long":106.843999,"i_lat":-6.2842400000000005,"distance":2820,"line":2,"station_id":"PSM","is_transit":false},{"is_transit":false,"transit":false,"station_name":"Pasar Minggu Baru","station_id":"PSMB","i_long":106.851577,"line":2,"distance":2380,"i_lat":-6.263214,"time":2},{"i_long":106.85449,"station_name":"Duren Kalibata","time":2,"line":2,"is_transit":false,"transit":false,"station_id":"DRN","distance":824,"i_lat":-6.255332},{"station_name":"Cawang","time":3,"transit":false,"i_long":106.856607,"line":2,"i_lat":-6.242512,"is_transit":false,"distance":1546,"station_id":"CW"},{"time":2,"station_name":"Tebet","transit":false,"is_transit":false,"i_lat":-6.226659,"station_id":"TEB","line":2,"distance":1230,"i_long":106.857948},{"station_name":"Manggarai","i_lat":-6.209883,"line":2,"transit":true,"time":4,"station_id":"MRI","i_long":106.84912,"is_transit":true,"distance":2610},{"line":1,"station_id":"MTR","i_long":106.858896,"is_transit":false,"i_lat":-6.212485,"transit":false,"distance":1275,"time":2,"station_name":"Matraman"},{"station_name":"Jatinegara","i_long":106.86807400000001,"is_transit":true,"station_id":"JNG","time":8,"distance":1377,"transit":true,"i_lat":-6.215091,"line":1},{"station_id":"POK","i_long":106.861737,"transit":false,"station_name":"Pondok Jati","is_transit":false,"i_lat":-6.209188,"line":11,"time":2,"distance":1236},{"time":2,"is_transit":false,"distance":1829,"i_lat":-6.193792,"station_id":"KMT","station_name":"Kramat","i_long":106.855437,"line":11,"transit":false},{"i_long":106.850107,"station_id":"GST","is_transit":false,"station_name":"Gang Sentiong","i_lat":-6.185975,"line":11,"distance":973,"transit":false,"time":1},{"distance":1567,"i_long":106.84368,"transit":false,"i_lat":-6.174784,"is_transit":false,"station_name":"Pasar Senen","time":8,"line":11,"station_id":"PSE"},{"is_transit":false,"i_long":106.839204,"transit":false,"station_name":"Kemayoran","line":11,"time":4,"distance":1436,"station_id":"KMO","i_lat":-6.161728},{"time":5,"station_id":"RJW","is_transit":false,"station_name":"Rajawali","i_long":106.836569,"line":11,"distance":1901,"transit":false,"i_lat":-6.14505},{"is_transit":true,"line":4,"i_lat":-6.132549,"distance":1444,"time":3,"station_name":"Kampung Bandan","station_id":"KPB","transit":true,"i_long":106.826365},{"transit":false,"station_id":"AK","i_long":106.79867,"i_lat":-6.144674,"distance":4102,"line":1,"is_transit":false,"station_name":"Angke","time":9},{"i_long":106.800832,"is_transit":true,"station_id":"DU","station_name":"Duri","i_lat":-6.155215,"time":4,"distance":1230,"transit":true,"line":1},{"distance":1700,"transit":false,"time":3,"station_id":"GRG","i_long":106.788277,"station_name":"Grogol","i_lat":-6.162021,"is_transit":false,"line":5},{"transit":false,"time":2,"station_id":"PSG","i_lat":-6.161433,"i_long":106.771379,"is_transit":false,"station_name":"Pesing","distance":2036,"line":5},{"transit":false,"line":5,"i_lat":-6.1587309999999995,"i_long":106.756522,"distance":1614,"station_id":"TKO","is_transit":false,"time":2,"station_name":"Taman Kota"},{"i_lat":-6.159876,"is_transit":false,"time":2,"station_name":"Bojongindah","line":5,"station_id":"BOI","distance":2334,"transit":false,"i_long":106.737035}]]}