{"data":[[{"distance":0,"transit":false,"time":0,"is_transit":false,"station_name":"Pondok Cina","i_lat":-6.369073,"i_long":106.831114,"station_id":"POC","line":2},{"station_name":"Univ. Indonesia","is_transit":false,"station_id":"UI","line":2,"transit":false,"distance":1109,"i_long":106.831474,"i_lat":-6.360749,"time":2},{"i_lat":-6.339291,"is_transit":false,"time":3,"i_long":106.834175,"line":2,"distance":2264,"station_name":"Univ. Pancasila","station_id":"UP","transit":false},{"station_id":"LNA","station_name":"Lenteng Agung","time":2,"transit":false,"is_transit":false,"i_lat":-6.330363,"distance":1029,"i_long":106.832616,"line":2},{"is_transit":false,"line":2,"time":3,"transit":false,"station_id":"TNT","i_long":106.838896,"distance":2671,"station_name":"Tanjung Barat","i_lat":-6.3080680000000005},{"is_transit":false,"station_id":"PSM","i_lat":-6.2842400000000005,"distance":2820,"time":4,"station_name":"Pasar Minggu","i_long":106.843999,"line":2,"transit":false},{"distance":2380,"i_long":106.851577,"station_name":"Pasar Minggu Baru","i_lat":-6.263214,"is_transit":false,"line":2,"time":2,"station_id":"PSMB","transit":false},{"distance":824,"station_id":"DRN","time":2,"line":0,"i_long":106.85449,"is_transit":false,"station_name":"Duren Kalibata","i_lat":-6.255332,"transit":false}]]}