{"data":[[{"is_transit":false,"time":0,"i_long":106.831114,"transit":false,"distance":0,"station_id":"POC","i_lat":-6.369073,"station_name":"Pondok Cina","line":2},{"distance":1109,"i_long":106.831474,"time":2,"line":2,"station_id":"UI","is_transit":false,"station_name":"Univ. Indonesia","transit":false,"i_lat":-6.360749},{"station_name":"Univ. Pancasila","station_id":"UP","distance":2264,"time":3,"line":2,"transit":false,"i_lat":-6.339291,"i_long":106.834175,"is_transit":false},{"transit":false,"is_transit":false,"station_name":"Lenteng Agung","station_id":"LNA","time":2,"i_lat":-6.330363,"i_long":106.832616,"distance":1029,"line":2},{"i_lat":-6.3080680000000005,"station_name":"Tanjung Barat","transit":false,"is_transit":false,"distance":2671,"i_long":106.838896,"line":2,"station_id":"TNT","time":3},{"i_lat":-6.2842400000000005,"line":2,"is_transit":false,"distance":2820,"i_long":106.843999,"transit":false,"station_name":"Pasar Minggu","station_id":"PSM","time":4},{"i_long":106.851577,"distance":2380,"time":2,"is_transit":false,"i_lat":-6.263214,"transit":false,"station_name":"Pasar Minggu Baru","line":2,"station_id":"PSMB"},{"distance":824,"station_id":"DRN","station_name":"Duren Kalibata","transit":false,"is_transit":false,"i_lat":-6.255332,"i_long":106.85449,"line":2,"time":2},{"line":2,"i_long":106.856607,"station_id":"CW","time":3,"transit":false,"station_name":"Cawang","is_transit":false,"distance":1546,"i_lat":-6.242512},{"i_long":106.857948,"time":2,"line":2,"station_id":"TEB","transit":false,"distance":1230,"is_transit":false,"station_name":"Tebet","i_lat":-6.226659},{"transit":true,"station_name":"Manggarai","i_lat":-6.209883,"time":4,"station_id":"MRI","line":2,"i_long":106.84912,"is_transit":true,"distance":2610},{"station_name":"Sudirman","is_transit":false,"line":1,"station_id":"SUD","transit":false,"i_lat":-6.202263,"distance":3186,"i_long":106.822649,"time":4},{"station_name":"Sudirman Baru","time":1,"distance":280,"line":1,"i_lat":-6.201433,"transit":false,"i_long":106.819881,"station_id":"SUDB","is_transit":false},{"transit":false,"i_lat":-6.20132,"is_transit":false,"line":1,"station_name":"Karet","station_id":"KAT","i_long":106.816351,"distance":471,"time":1},{"station_name":"Tanah Abang","time":5,"transit":false,"is_transit":false,"i_lat":-6.185545,"station_id":"THB","distance":2029,"i_long":106.811091,"line":1},{"transit":true,"time":8,"line":1,"station_id":"DU","i_lat":-6.155215,"i_long":106.800832,"is_transit":true,"station_name":"Duri","distance":3632},{"station_id":"GGL","station_name":"Grogol","is_transit":false,"i_lat":-6.162021,"transit":false,"i_long":106.788277,"distance":1700,"line":5,"time":3},{"station_id":"PSG","i_long":106.771379,"station_name":"Pesing","transit":false,"i_lat":-6.161433,"distance":2036,"is_transit":false,"line":5,"time":2},{"line":5,"distance":1614,"station_name":"Taman Kota","transit":false,"i_lat":-6.1587309999999995,"i_long":106.756522,"station_id":"TKO","is_transit":false,"time":2},{"i_long":106.737035,"i_lat":-6.159876,"is_transit":false,"time":2,"station_name":"Bojongindah","transit":false,"station_id":"BOI","line":5,"distance":2334}],[{"i_lat":-6.369073,"time":0,"distance":0,"station_id":"POC","transit":false,"is_transit":false,"line":2,"i_long":106.831114,"station_name":"Pondok Cina"},{"line":2,"time":2,"i_lat":-6.360749,"distance":1109,"station_name":"Univ. Indonesia","transit":false,"is_transit":false,"station_id":"UI","i_long":106.831474},{"time":3,"i_lat":-6.339291,"line":2,"transit":false,"station_id":"UP","distance":2264,"i_long":106.834175,"is_transit":false,"station_name":"Univ. Pancasila"},{"line":2,"transit":false,"is_transit":false,"station_name":"Lenteng Agung","i_long":106.832616,"station_id":"LNA","time":2,"i_lat":-6.330363,"distance":1029},{"distance":2671,"transit":false,"line":2,"is_transit":false,"station_id":"TNT","i_lat":-6.3080680000000005,"i_long":106.838896,"station_name":"Tanjung Barat","time":3},{"line":2,"is_transit":false,"transit":false,"station_name":"Pasar Minggu","distance":2820,"i_long":106.843999,"time":4,"station_id":"PSM","i_lat":-6.2842400000000005},{"station_id":"PSMB","time":2,"station_name":"Pasar Minggu Baru","transit":false,"is_transit":false,"distance":2380,"i_lat":-6.263214,"i_long":106.851577,"line":2},{"station_name":"Duren Kalibata","is_transit":false,"transit":false,"station_id":"DRN","distance":824,"i_lat":-6.255332,"i_long":106.85449,"line":2,"time":2},{"distance":1546,"i_long":106.856607,"station_id":"CW","time":3,"transit":false,"line":2,"i_lat":-6.242512,"is_transit":false,"station_name":"Cawang"},{"distance":1230,"transit":false,"station_name":"Tebet","i_long":106.857948,"time":2,"line":2,"is_transit":false,"i_lat":-6.226659,"station_id":"TEB"},{"station_name":"Manggarai","time":4,"is_transit":false,"distance":2610,"i_lat":-6.209883,"station_id":"MRI","line":2,"transit":false,"i_long":106.84912},{"i_long":106.840169,"i_lat":-6.198556,"line":2,"station_name":"Cikini","is_transit":false,"time":4,"distance":1590,"transit":false,"station_id":"CKI"},{"is_transit":false,"i_lat":-6.186295,"station_id":"GDD","station_name":"Gondangdia","transit":false,"distance":1750,"line":2,"time":3,"i_long":106.832183},{"station_id":"JUA","is_transit":false,"time":4,"distance":2015,"i_lat":-6.166716,"i_long":106.828284,"transit":false,"station_name":"Juanda","line":2},{"station_id":"SW","time":2,"distance":1149,"transit":false,"i_lat":-6.160725,"is_transit":false,"i_long":106.827103,"line":2,"station_name":"Sawah Besar"},{"station_id":"MGB","distance":906,"i_lat":-6.149769,"station_name":"Manggabesar","i_long":106.82482,"is_transit":false,"time":2,"transit":false,"line":2},{"distance":1080,"is_transit":false,"i_long":106.820901,"station_name":"Jayakarta","i_lat":-6.141205,"station_id":"JAY","transit":false,"time":2,"line":2},{"station_id":"JAKK","station_name":"Jakarta Kota","transit":true,"is_transit":true,"i_long":106.812439,"line":2,"i_lat":-6.137569,"time":4,"distance":1264},{"transit":true,"station_id":"KPB","i_long":106.826365,"station_name":"Kampung Bandan","is_transit":true,"time":3,"distance":1364,"i_lat":-6.132549,"line":4},{"i_long":106.79867,"line":1,"distance":4102,"station_id":"AK","time":9,"is_transit":false,"station_name":"Angke","transit":false,"i_lat":-6.144674},{"transit":true,"time":4,"station_name":"Duri","is_transit":true,"station_id":"DU","distance":1230,"i_long":106.800832,"line":1,"i_lat":-6.155215},{"transit":false,"is_transit":false,"station_id":"GGL","time":3,"station_name":"Grogol","i_lat":-6.162021,"i_long":106.788277,"distance":1700,"line":5},{"time":2,"distance":2036,"station_id":"PSG","i_lat":-6.161433,"i_long":106.771379,"station_name":"Pesing","is_transit":false,"line":5,"transit":false},{"i_lat":-6.1587309999999995,"i_long":106.756522,"distance":1614,"transit":false,"station_name":"Taman Kota","station_id":"TKO","is_transit":false,"time":2,"line":5},{"distance":2334,"transit":false,"line":5,"is_transit":false,"station_id":"BOI","time":2,"i_long":106.737035,"i_lat":-6.159876,"station_name":"Bojongindah"}],[{"is_transit":false,"transit":false,"distance":0,"i_lat":-6.369073,"i_long":106.831114,"line":2,"time":0,"station_name":"Pondok Cina","station_id":"POC"},{"station_name":"Univ. Indonesia","is_transit":false,"time":2,"distance":1109,"i_lat":-6.360749,"line":2,"transit":false,"i_long":106.831474,"station_id":"UI"},{"i_long":106.834175,"distance":2264,"i_lat":-6.339291,"station_id":"UP","station_name":"Univ. Pancasila","is_transit":false,"time":3,"transit":false,"line":2},{"i_lat":-6.330363,"time":2,"station_name":"Lenteng Agung","line":2,"transit":false,"distance":1029,"is_transit":false,"station_id":"LNA","i_long":106.832616},{"line":2,"i_lat":-6.3080680000000005,"i_long":106.838896,"is_transit":false,"distance":2671,"station_name":"Tanjung Barat","station_id":"TNT","transit":false,"time":3},{"i_long":106.843999,"line":2,"is_transit":false,"distance":2820,"station_name":"Pasar Minggu","station_id":"PSM","time":4,"transit":false,"i_lat":-6.2842400000000005},{"station_name":"Pasar Minggu Baru","distance":2380,"transit":false,"is_transit":false,"i_long":106.851577,"line":2,"i_lat":-6.263214,"time":2,"station_id":"PSMB"},{"i_long":106.85449,"station_id":"DRN","time":2,"distance":824,"is_transit":false,"i_lat":-6.255332,"line":2,"station_name":"Duren Kalibata","transit":false},{"station_id":"CW","i_lat":-6.242512,"i_long":106.856607,"transit":false,"is_transit":false,"distance":1546,"station_name":"Cawang","time":3,"line":2},{"transit":false,"time":2,"station_id":"TEB","distance":1230,"line":2,"station_name":"Tebet","is_transit":false,"i_long":106.857948,"i_lat":-6.226659},{"time":4,"line":2,"station_id":"MRI","distance":2610,"transit":true,"station_name":"Manggarai","i_lat":-6.209883,"is_transit":true,"i_long":106.84912},{"transit":false,"line":1,"station_id":"MTR","is_transit":false,"distance":1275,"i_lat":-6.212485,"time":2,"i_long":106.858896,"station_name":"Matraman"},{"i_long":106.86807400000001,"transit":true,"is_transit":true,"station_id":"JNG","line":1,"time":8,"i_lat":-6.215091,"station_name":"Jatinegara","distance":1377},{"line":11,"station_name":"Pondok Jati","station_id":"POK","is_transit":false,"i_lat":-6.209188,"transit":false,"time":2,"i_long":106.861737,"distance":1236},{"transit":false,"is_transit":false,"time":2,"distance":1829,"station_id":"KMT","station_name":"Kramat","i_long":106.855437,"i_lat":-6.193792,"line":11},{"station_id":"GST","i_lat":-6.185975,"station_name":"Gang Sentiong","is_transit":false,"time":1,"line":11,"distance":973,"i_long":106.850107,"transit":false},{"is_transit":false,"distance":1567,"i_lat":-6.174784,"line":11,"i_long":106.84368,"station_name":"Pasar Senen","station_id":"PSE","time":8,"transit":false},{"line":11,"station_id":"KMO","is_transit":false,"time":4,"i_long":106.839204,"transit":false,"i_lat":-6.161728,"distance":1436,"station_name":"Kemayoran"},{"station_id":"RJW","is_transit":false,"distance":1901,"station_name":"Rajawali","transit":false,"time":5,"i_lat":-6.14505,"i_long":106.836569,"line":11},{"transit":true,"station_name":"Kampung Bandan","line":4,"i_lat":-6.132549,"station_id":"KPB","i_long":106.826365,"is_transit":true,"time":3,"distance":1444},{"distance":4102,"time":9,"station_id":"AK","i_lat":-6.144674,"line":1,"station_name":"Angke","i_long":106.79867,"is_transit":false,"transit":false},{"line":1,"station_name":"Duri","i_long":106.800832,"i_lat":-6.155215,"is_transit":true,"transit":true,"time":4,"distance":1230,"station_id":"DU"},{"line":5,"station_name":"Grogol","is_transit":false,"distance":1700,"time":3,"station_id":"GGL","i_lat":-6.162021,"transit":false,"i_long":106.788277},{"is_transit":false,"station_id":"PSG","time":2,"i_lat":-6.161433,"i_long":106.771379,"distance":2036,"station_name":"Pesing","transit":false,"line":5},{"line":5,"station_name":"Taman Kota","station_id":"TKO","transit":false,"i_lat":-6.1587309999999995,"i_long":106.756522,"time":2,"is_transit":false,"distance":1614},{"time":2,"is_transit":false,"transit":false,"i_long":106.737035,"line":5,"station_name":"Bojongindah","distance":2334,"i_lat":-6.159876,"station_id":"BOI"}]]}