{"data":[[{"i_lat":-6.369073,"distance":0,"station_name":"Pondok Cina","time":0,"i_long":106.831114,"line":2,"is_transit":false,"transit":false,"station_id":"POC"},{"i_long":106.831474,"station_id":"UI","distance":1109,"transit":false,"station_name":"Univ. Indonesia","time":2,"line":2,"i_lat":-6.360749,"is_transit":false},{"distance":2264,"i_lat":-6.339291,"station_name":"Univ. Pancasila","line":2,"i_long":106.834175,"transit":false,"station_id":"UP","is_transit":false,"time":3},{"transit":false,"time":2,"i_lat":-6.330363,"i_long":106.832616,"station_name":"Lenteng Agung","station_id":"LNA","line":2,"distance":1029,"is_transit":false},{"line":2,"time":3,"transit":false,"i_long":106.838896,"station_id":"TNT","station_name":"Tanjung Barat","i_lat":-6.3080680000000005,"is_transit":false,"distance":2671},{"i_long":106.843999,"time":4,"transit":false,"line":2,"station_name":"Pasar Minggu","distance":2820,"i_lat":-6.2842400000000005,"station_id":"PSM","is_transit":false},{"is_transit":false,"line":2,"i_long":106.851577,"transit":false,"distance":2380,"time":2,"station_id":"PSMB","i_lat":-6.263214,"station_name":"Pasar Minggu Baru"},{"is_transit":false,"line":2,"distance":824,"i_long":106.85449,"i_lat":-6.255332,"station_name":"Duren Kalibata","time":2,"station_id":"DRN","transit":false},{"distance":1546,"line":2,"station_id":"CW","time":3,"transit":false,"i_lat":-6.242512,"i_long":106.856607,"station_name":"Cawang","is_transit":false},{"transit":false,"line":2,"distance":1230,"i_lat":-6.226659,"station_name":"Tebet","station_id":"TEB","i_long":106.857948,"is_transit":false,"time":2},{"is_transit":true,"i_long":106.84912,"line":2,"distance":2610,"time":4,"i_lat":-6.209883,"transit":true,"station_name":"Manggarai","station_id":"MRI"},{"i_long":106.822649,"station_id":"SUD","distance":3186,"is_transit":false,"station_name":"Sudirman","transit":false,"time":4,"i_lat":-6.202263,"line":1},{"line":1,"time":1,"transit":false,"station_name":"Sudirman Baru","i_lat":-6.201433,"station_id":"SUDB","distance":280,"is_transit":false,"i_long":106.819881},{"station_id":"KAT","transit":false,"time":1,"i_long":106.816351,"line":1,"station_name":"Karet","is_transit":false,"i_lat":-6.20132,"distance":471},{"time":5,"station_name":"Tanah Abang","station_id":"THB","i_lat":-6.185545,"distance":2029,"i_long":106.811091,"line":1,"is_transit":false,"transit":false},{"line":1,"transit":true,"station_id":"DU","time":8,"distance":3632,"i_long":106.800832,"is_transit":true,"i_lat":-6.155215,"station_name":"Duri"},{"is_transit":false,"time":3,"i_lat":-6.162021,"station_id":"GGL","station_name":"Grogol","transit":false,"distance":1700,"i_long":106.788277,"line":5},{"distance":2036,"i_long":106.771379,"station_name":"Pesing","station_id":"PSG","line":5,"transit":false,"i_lat":-6.161433,"is_transit":false,"time":2},{"time":2,"transit":false,"is_transit":false,"distance":1614,"i_lat":-6.1587309999999995,"i_long":106.756522,"station_name":"Taman Kota","station_id":"TKO","line":5}],[{"i_lat":-6.369073,"line":2,"is_transit":false,"time":0,"distance":0,"station_id":"POC","i_long":106.831114,"transit":false,"station_name":"Pondok Cina"},{"i_long":106.831474,"station_id":"UI","is_transit":false,"transit":false,"distance":1109,"line":2,"time":2,"station_name":"Univ. Indonesia","i_lat":-6.360749},{"time":3,"i_lat":-6.339291,"distance":2264,"station_id":"UP","line":2,"is_transit":false,"i_long":106.834175,"transit":false,"station_name":"Univ. Pancasila"},{"i_lat":-6.330363,"i_long":106.832616,"distance":1029,"transit":false,"station_name":"Lenteng Agung","time":2,"is_transit":false,"line":2,"station_id":"LNA"},{"time":3,"distance":2671,"line":2,"is_transit":false,"transit":false,"i_long":106.838896,"i_lat":-6.3080680000000005,"station_name":"Tanjung Barat","station_id":"TNT"},{"station_name":"Pasar Minggu","i_lat":-6.2842400000000005,"distance":2820,"time":4,"line":2,"is_transit":false,"transit":false,"station_id":"PSM","i_long":106.843999},{"transit":false,"i_long":106.851577,"is_transit":false,"distance":2380,"time":2,"station_id":"PSMB","i_lat":-6.263214,"station_name":"Pasar Minggu Baru","line":2},{"is_transit":false,"i_long":106.85449,"station_id":"DRN","transit":false,"line":2,"distance":824,"time":2,"station_name":"Duren Kalibata","i_lat":-6.255332},{"distance":1546,"transit":false,"i_long":106.856607,"station_name":"Cawang","is_transit":false,"i_lat":-6.242512,"line":2,"station_id":"CW","time":3},{"time":2,"line":2,"station_name":"Tebet","station_id":"TEB","is_transit":false,"distance":1230,"i_lat":-6.226659,"transit":false,"i_long":106.857948},{"i_lat":-6.209883,"is_transit":false,"transit":false,"i_long":106.84912,"line":2,"distance":2610,"station_name":"Manggarai","station_id":"MRI","time":4},{"distance":1590,"i_long":106.840169,"time":4,"transit":false,"i_lat":-6.198556,"line":2,"station_name":"Cikini","station_id":"CKI","is_transit":false},{"time":3,"i_long":106.832183,"transit":false,"is_transit":false,"station_id":"GDD","station_name":"Gondangdia","distance":1750,"i_lat":-6.186295,"line":2},{"transit":false,"distance":2015,"station_id":"JUA","i_lat":-6.166716,"time":4,"i_long":106.828284,"station_name":"Juanda","line":2,"is_transit":false},{"i_lat":-6.160725,"line":2,"station_name":"Sawah Besar","is_transit":false,"time":2,"transit":false,"station_id":"SW","i_long":106.827103,"distance":1149},{"station_name":"Manggabesar","distance":906,"transit":false,"is_transit":false,"i_lat":-6.149769,"i_long":106.82482,"station_id":"MGB","time":2,"line":2},{"time":2,"station_name":"Jayakarta","i_long":106.820901,"transit":false,"station_id":"JAY","i_lat":-6.141205,"distance":1080,"line":2,"is_transit":false},{"transit":true,"line":2,"station_id":"JAKK","i_long":106.812439,"distance":1264,"station_name":"Jakarta Kota","time":4,"i_lat":-6.137569,"is_transit":true},{"i_lat":-6.132549,"time":3,"line":4,"is_transit":true,"distance":1364,"i_long":106.826365,"transit":true,"station_name":"Kampung Bandan","station_id":"KPB"},{"line":1,"station_name":"Angke","station_id":"AK","distance":4102,"i_lat":-6.144674,"time":9,"transit":false,"is_transit":false,"i_long":106.79867},{"station_name":"Duri","i_lat":-6.155215,"transit":true,"i_long":106.800832,"line":1,"distance":1230,"time":4,"is_transit":true,"station_id":"DU"},{"station_id":"GGL","time":3,"line":5,"transit":false,"station_name":"Grogol","i_lat":-6.162021,"is_transit":false,"i_long":106.788277,"distance":1700},{"station_id":"PSG","i_lat":-6.161433,"is_transit":false,"i_long":106.771379,"transit":false,"time":2,"station_name":"Pesing","line":5,"distance":2036},{"station_name":"Taman Kota","line":5,"transit":false,"distance":1614,"i_lat":-6.1587309999999995,"i_long":106.756522,"station_id":"TKO","time":2,"is_transit":false}],[{"station_id":"POC","transit":false,"time":0,"distance":0,"station_name":"Pondok Cina","i_lat":-6.369073,"line":2,"is_transit":false,"i_long":106.831114},{"distance":1109,"line":2,"is_transit":false,"transit":false,"station_name":"Univ. Indonesia","station_id":"UI","time":2,"i_long":106.831474,"i_lat":-6.360749},{"is_transit":false,"station_id":"UP","i_lat":-6.339291,"i_long":106.834175,"line":2,"transit":false,"distance":2264,"station_name":"Univ. Pancasila","time":3},{"i_lat":-6.330363,"station_name":"Lenteng Agung","time":2,"distance":1029,"transit":false,"station_id":"LNA","is_transit":false,"i_long":106.832616,"line":2},{"station_name":"Tanjung Barat","transit":false,"i_lat":-6.3080680000000005,"is_transit":false,"line":2,"distance":2671,"i_long":106.838896,"time":3,"station_id":"TNT"},{"distance":2820,"is_transit":false,"station_name":"Pasar Minggu","i_long":106.843999,"time":4,"station_id":"PSM","line":2,"i_lat":-6.2842400000000005,"transit":false},{"station_id":"PSMB","transit":false,"station_name":"Pasar Minggu Baru","is_transit":false,"time":2,"distance":2380,"i_long":106.851577,"i_lat":-6.263214,"line":2},{"station_id":"DRN","time":2,"station_name":"Duren Kalibata","is_transit":false,"i_long":106.85449,"line":2,"i_lat":-6.255332,"distance":824,"transit":false},{"i_long":106.856607,"time":3,"line":2,"station_id":"CW","i_lat":-6.242512,"distance":1546,"station_name":"Cawang","is_transit":false,"transit":false},{"time":2,"line":2,"distance":1230,"i_lat":-6.226659,"transit":false,"station_name":"Tebet","station_id":"TEB","is_transit":false,"i_long":106.857948},{"station_id":"MRI","i_lat":-6.209883,"time":4,"station_name":"Manggarai","distance":2610,"line":2,"transit":true,"is_transit":true,"i_long":106.84912},{"transit":false,"is_transit":false,"distance":1275,"time":2,"i_lat":-6.212485,"station_name":"Matraman","i_long":106.858896,"station_id":"MTR","line":1},{"transit":true,"station_id":"JNG","i_lat":-6.215091,"distance":1377,"i_long":106.86807400000001,"is_transit":true,"line":1,"station_name":"Jatinegara","time":8},{"station_id":"POK","is_transit":false,"distance":1236,"i_long":106.861737,"i_lat":-6.209188,"time":2,"line":11,"transit":false,"station_name":"Pondok Jati"},{"time":2,"distance":1829,"station_name":"Kramat","transit":false,"is_transit":false,"station_id":"KMT","line":11,"i_long":106.855437,"i_lat":-6.193792},{"distance":973,"i_long":106.850107,"transit":false,"time":1,"i_lat":-6.185975,"line":11,"is_transit":false,"station_name":"Gang Sentiong","station_id":"GST"},{"is_transit":false,"station_name":"Pasar Senen","i_lat":-6.174784,"transit":false,"i_long":106.84368,"station_id":"PSE","distance":1567,"time":8,"line":11},{"transit":false,"i_lat":-6.161728,"station_id":"KMO","time":4,"line":11,"station_name":"Kemayoran","is_transit":false,"distance":1436,"i_long":106.839204},{"is_transit":false,"i_lat":-6.14505,"i_long":106.836569,"transit":false,"distance":1901,"line":11,"station_name":"Rajawali","time":5,"station_id":"RJW"},{"distance":1444,"station_id":"KPB","i_long":106.826365,"transit":true,"station_name":"Kampung Bandan","is_transit":true,"i_lat":-6.132549,"time":3,"line":4},{"line":1,"distance":4102,"i_lat":-6.144674,"is_transit":false,"time":9,"i_long":106.79867,"station_id":"AK","station_name":"Angke","transit":false},{"distance":1230,"i_lat":-6.155215,"station_name":"Duri","i_long":106.800832,"station_id":"DU","line":1,"transit":true,"is_transit":true,"time":4},{"station_name":"Grogol","station_id":"GGL","transit":false,"line":5,"is_transit":false,"i_long":106.788277,"i_lat":-6.162021,"distance":1700,"time":3},{"transit":false,"i_long":106.771379,"distance":2036,"i_lat":-6.161433,"line":5,"time":2,"station_name":"Pesing","is_transit":false,"station_id":"PSG"},{"time":2,"distance":1614,"transit":false,"is_transit":false,"i_lat":-6.1587309999999995,"i_long":106.756522,"station_id":"TKO","station_name":"Taman Kota","line":5}]]}