{"data":[[{"station_id":"POC","transit":false,"station_name":"Pondok Cina","time":0,"i_long":106.831114,"line":2,"i_lat":-6.369073,"is_transit":false,"distance":0},{"line":2,"i_long":106.831474,"is_transit":false,"time":2,"i_lat":-6.360749,"distance":1109,"transit":false,"station_name":"Univ. Indonesia","station_id":"UI"},{"i_lat":-6.339291,"i_long":106.834175,"line":2,"transit":false,"time":3,"station_name":"Univ. Pancasila","is_transit":false,"station_id":"UP","distance":2264},{"line":2,"distance":1029,"is_transit":false,"transit":false,"station_name":"Lenteng Agung","station_id":"LNA","time":2,"i_long":106.832616,"i_lat":-6.330363},{"distance":2671,"is_transit":false,"transit":false,"i_lat":-6.3080680000000005,"line":2,"station_id":"TNT","i_long":106.838896,"station_name":"Tanjung Barat","time":3},{"i_lat":-6.2842400000000005,"transit":false,"time":4,"station_name":"Pasar Minggu","line":2,"is_transit":false,"i_long":106.843999,"station_id":"PSM","distance":2820},{"i_lat":-6.263214,"station_name":"Pasar Minggu Baru","i_long":106.851577,"station_id":"PSMB","line":2,"is_transit":false,"transit":false,"time":2,"distance":2380},{"i_long":106.85449,"transit":false,"station_id":"DRN","station_name":"Duren Kalibata","is_transit":false,"time":2,"distance":824,"line":2,"i_lat":-6.255332},{"distance":1546,"line":2,"station_name":"Cawang","i_lat":-6.242512,"transit":false,"is_transit":false,"i_long":106.856607,"time":3,"station_id":"CW"},{"line":2,"distance":1230,"time":2,"station_id":"TEB","i_long":106.857948,"station_name":"Tebet","i_lat":-6.226659,"is_transit":false,"transit":false},{"time":4,"i_lat":-6.209883,"distance":2610,"station_id":"MRI","transit":false,"station_name":"Manggarai","i_long":106.84912,"line":2,"is_transit":false},{"distance":1590,"station_id":"CKI","i_lat":-6.198556,"time":4,"i_long":106.840169,"is_transit":false,"station_name":"Cikini","transit":false,"line":2},{"station_name":"Gondangdia","i_long":106.832183,"distance":1750,"line":2,"transit":false,"is_transit":false,"time":3,"station_id":"GDD","i_lat":-6.186295}],[{"is_transit":false,"time":0,"i_long":106.831114,"line":2,"i_lat":-6.369073,"distance":0,"station_name":"Pondok Cina","transit":false,"station_id":"POC"},{"i_long":106.831474,"transit":false,"is_transit":false,"station_name":"Univ. Indonesia","station_id":"UI","time":2,"i_lat":-6.360749,"distance":1109,"line":2},{"i_long":106.834175,"i_lat":-6.339291,"line":2,"is_transit":false,"time":3,"transit":false,"distance":2264,"station_name":"Univ. Pancasila","station_id":"UP"},{"i_long":106.832616,"distance":1029,"i_lat":-6.330363,"time":2,"station_id":"LNA","line":2,"transit":false,"station_name":"Lenteng Agung","is_transit":false},{"i_long":106.838896,"line":2,"is_transit":false,"distance":2671,"transit":false,"station_id":"TNT","time":3,"i_lat":-6.3080680000000005,"station_name":"Tanjung Barat"},{"distance":2820,"line":2,"station_name":"Pasar Minggu","station_id":"PSM","time":4,"i_lat":-6.2842400000000005,"i_long":106.843999,"transit":false,"is_transit":false},{"line":2,"transit":false,"station_name":"Pasar Minggu Baru","time":2,"distance":2380,"station_id":"PSMB","is_transit":false,"i_lat":-6.263214,"i_long":106.851577},{"transit":false,"time":2,"station_name":"Duren Kalibata","distance":824,"i_lat":-6.255332,"station_id":"DRN","is_transit":false,"i_long":106.85449,"line":2},{"transit":false,"station_id":"CW","is_transit":false,"distance":1546,"time":3,"i_lat":-6.242512,"line":2,"i_long":106.856607,"station_name":"Cawang"},{"distance":1230,"transit":false,"station_id":"TEB","line":2,"is_transit":false,"station_name":"Tebet","time":2,"i_lat":-6.226659,"i_long":106.857948},{"transit":true,"i_lat":-6.209883,"station_name":"Manggarai","station_id":"MRI","time":4,"distance":2610,"line":2,"is_transit":true,"i_long":106.84912},{"is_transit":false,"time":4,"i_long":106.822649,"station_name":"Sudirman","line":1,"i_lat":-6.202263,"distance":3186,"station_id":"SUD","transit":false},{"is_transit":false,"line":1,"time":1,"i_lat":-6.201433,"station_name":"Sudirman Baru","transit":false,"station_id":"SUDB","distance":280,"i_long":106.819881},{"line":1,"station_name":"Karet","transit":false,"is_transit":false,"station_id":"KAT","i_long":106.816351,"i_lat":-6.20132,"distance":471,"time":1},{"is_transit":false,"time":5,"station_id":"THB","transit":false,"line":1,"station_name":"Tanah Abang","i_lat":-6.185545,"i_long":106.811091,"distance":2029},{"station_name":"Duri","station_id":"DU","i_long":106.800832,"is_transit":false,"distance":3632,"time":8,"transit":false,"i_lat":-6.155215,"line":1},{"i_lat":-6.144674,"i_long":106.79867,"station_id":"AK","distance":1230,"station_name":"Angke","time":4,"transit":false,"line":1,"is_transit":false},{"distance":4102,"i_lat":-6.132549,"transit":true,"line":4,"station_id":"KPB","station_name":"Kampung Bandan","is_transit":true,"time":9,"i_long":106.826365},{"station_id":"JAKK","line":2,"time":3,"transit":true,"is_transit":true,"distance":1364,"i_lat":-6.137569,"station_name":"Jakarta Kota","i_long":106.812439},{"transit":false,"distance":1264,"is_transit":false,"i_long":106.820901,"time":4,"line":2,"station_id":"JAY","station_name":"Jayakarta","i_lat":-6.141205},{"station_id":"MGB","is_transit":false,"station_name":"Manggabesar","distance":1080,"time":2,"i_long":106.82482,"transit":false,"line":2,"i_lat":-6.149769},{"time":2,"i_long":106.827103,"i_lat":-6.160725,"transit":false,"station_id":"SW","station_name":"Sawah Besar","distance":906,"is_transit":false,"line":2},{"line":2,"station_id":"JUA","i_long":106.828284,"is_transit":false,"station_name":"Juanda","time":2,"transit":false,"distance":1149,"i_lat":-6.166716},{"i_lat":-6.186295,"transit":false,"station_name":"Gondangdia","station_id":"GDD","time":4,"i_long":106.832183,"distance":2015,"line":2,"is_transit":false}],[{"line":2,"i_long":106.831114,"is_transit":false,"distance":0,"station_id":"POC","i_lat":-6.369073,"transit":false,"station_name":"Pondok Cina","time":0},{"station_id":"UI","transit":false,"is_transit":false,"distance":1109,"i_lat":-6.360749,"station_name":"Univ. Indonesia","time":2,"line":2,"i_long":106.831474},{"i_long":106.834175,"station_name":"Univ. Pancasila","line":2,"distance":2264,"transit":false,"i_lat":-6.339291,"station_id":"UP","time":3,"is_transit":false},{"time":2,"transit":false,"i_lat":-6.330363,"station_name":"Lenteng Agung","station_id":"LNA","is_transit":false,"distance":1029,"i_long":106.832616,"line":2},{"time":3,"i_long":106.838896,"i_lat":-6.3080680000000005,"is_transit":false,"distance":2671,"transit":false,"station_id":"TNT","station_name":"Tanjung Barat","line":2},{"i_lat":-6.2842400000000005,"i_long":106.843999,"transit":false,"is_transit":false,"station_name":"Pasar Minggu","time":4,"station_id":"PSM","distance":2820,"line":2},{"is_transit":false,"transit":false,"station_name":"Pasar Minggu Baru","distance":2380,"i_lat":-6.263214,"station_id":"PSMB","time":2,"i_long":106.851577,"line":2},{"station_id":"DRN","i_lat":-6.255332,"line":2,"station_name":"Duren Kalibata","is_transit":false,"distance":824,"transit":false,"time":2,"i_long":106.85449},{"distance":1546,"is_transit":false,"i_lat":-6.242512,"line":2,"station_id":"CW","station_name":"Cawang","transit":false,"time":3,"i_long":106.856607},{"transit":false,"station_name":"Tebet","time":2,"i_lat":-6.226659,"i_long":106.857948,"distance":1230,"station_id":"TEB","is_transit":false,"line":2},{"is_transit":true,"transit":true,"station_name":"Manggarai","station_id":"MRI","time":4,"distance":2610,"i_lat":-6.209883,"i_long":106.84912,"line":2},{"distance":1275,"time":2,"station_id":"MTR","i_lat":-6.212485,"station_name":"Matraman","line":1,"i_long":106.858896,"transit":false,"is_transit":false},{"is_transit":true,"transit":true,"station_name":"Jatinegara","time":8,"distance":1377,"station_id":"JNG","i_long":106.86807400000001,"line":1,"i_lat":-6.215091},{"station_name":"Pondok Jati","station_id":"POK","time":2,"distance":1236,"i_lat":-6.209188,"i_long":106.861737,"line":11,"is_transit":false,"transit":false},{"station_id":"KMT","transit":false,"i_long":106.855437,"i_lat":-6.193792,"is_transit":false,"line":11,"time":2,"distance":1829,"station_name":"Kramat"},{"i_long":106.850107,"line":11,"distance":973,"station_name":"Gang Sentiong","station_id":"GST","time":1,"i_lat":-6.185975,"is_transit":false,"transit":false},{"i_lat":-6.174784,"transit":false,"is_transit":false,"station_id":"PSE","station_name":"Pasar Senen","time":8,"distance":1567,"i_long":106.84368,"line":11},{"line":11,"time":4,"distance":1436,"i_long":106.839204,"transit":false,"i_lat":-6.161728,"station_name":"Kemayoran","station_id":"KMO","is_transit":false},{"i_lat":-6.14505,"transit":false,"i_long":106.836569,"is_transit":false,"station_id":"RJW","time":5,"line":11,"distance":1901,"station_name":"Rajawali"},{"station_name":"Kampung Bandan","time":3,"i_long":106.826365,"station_id":"KPB","is_transit":true,"line":4,"transit":true,"distance":1444,"i_lat":-6.132549},{"transit":true,"time":3,"is_transit":true,"station_id":"JAKK","distance":1364,"i_long":106.812439,"line":2,"i_lat":-6.137569,"station_name":"Jakarta Kota"},{"station_id":"JAY","i_lat":-6.141205,"time":4,"i_long":106.820901,"distance":1264,"is_transit":false,"line":2,"transit":false,"station_name":"Jayakarta"},{"i_lat":-6.149769,"transit":false,"i_long":106.82482,"station_name":"Manggabesar","is_transit":false,"distance":1080,"time":2,"line":2,"station_id":"MGB"},{"time":2,"distance":906,"i_lat":-6.160725,"line":2,"station_name":"Sawah Besar","is_transit":false,"i_long":106.827103,"transit":false,"station_id":"SW"},{"i_lat":-6.166716,"i_long":106.828284,"line":2,"station_name":"Juanda","time":2,"station_id":"JUA","distance":1149,"transit":false,"is_transit":false},{"line":2,"station_id":"GDD","transit":false,"i_lat":-6.186295,"is_transit":false,"distance":2015,"station_name":"Gondangdia","i_long":106.832183,"time":4}]]}