{"data":[[{"is_transit":false,"station_name":"Pondok Cina","transit":false,"i_long":106.831114,"station_id":"POC","line":2,"i_lat":-6.369073,"distance":0,"time":0},{"i_long":106.831474,"station_id":"UI","station_name":"Univ. Indonesia","line":2,"is_transit":false,"time":2,"distance":1109,"i_lat":-6.360749,"transit":false},{"time":3,"station_name":"Univ. Pancasila","is_transit":false,"transit":false,"i_lat":-6.339291,"line":2,"i_long":106.834175,"station_id":"UP","distance":2264},{"i_lat":-6.330363,"distance":1029,"station_id":"LNA","time":2,"transit":false,"i_long":106.832616,"is_transit":false,"line":2,"station_name":"Lenteng Agung"},{"station_id":"TNT","station_name":"Tanjung Barat","transit":false,"is_transit":false,"time":3,"i_lat":-6.3080680000000005,"i_long":106.838896,"distance":2671,"line":2},{"transit":false,"i_lat":-6.2842400000000005,"station_id":"PSM","station_name":"Pasar Minggu","time":4,"is_transit":false,"distance":2820,"i_long":106.843999,"line":2},{"distance":2380,"station_name":"Pasar Minggu Baru","is_transit":false,"i_lat":-6.263214,"i_long":106.851577,"time":2,"line":2,"transit":false,"station_id":"PSMB"},{"distance":824,"i_lat":-6.255332,"station_name":"Duren Kalibata","line":2,"i_long":106.85449,"is_transit":false,"transit":false,"time":2,"station_id":"DRN"},{"distance":1546,"i_long":106.856607,"i_lat":-6.242512,"time":3,"station_id":"CW","line":2,"station_name":"Cawang","is_transit":false,"transit":false},{"transit":false,"line":2,"station_name":"Tebet","station_id":"TEB","time":2,"distance":1230,"is_transit":false,"i_lat":-6.226659,"i_long":106.857948},{"i_lat":-6.209883,"time":4,"is_transit":true,"i_long":106.84912,"station_name":"Manggarai","transit":true,"line":2,"station_id":"MRI","distance":2610},{"time":2,"i_lat":-6.212485,"is_transit":false,"i_long":106.858896,"station_id":"MTR","line":1,"transit":false,"distance":1275,"station_name":"Matraman"},{"station_name":"Jatinegara","is_transit":false,"transit":false,"i_lat":-6.215091,"line":1,"distance":1377,"station_id":"JNG","i_long":106.86807400000001,"time":8},{"station_id":"KLD","station_name":"Klender","is_transit":false,"i_lat":-6.2135,"time":3,"distance":3395,"transit":false,"i_long":106.899548,"line":1},{"is_transit":false,"distance":3100,"time":2,"transit":false,"i_long":106.922662,"station_id":"BUA","i_lat":-6.215568,"station_name":"Buaran","line":1},{"station_id":"KLDB","line":1,"station_name":"Klenderbaru","transit":false,"is_transit":false,"i_long":106.939679,"distance":1305,"i_lat":-6.217455,"time":1}],[{"station_name":"Pondok Cina","time":0,"distance":0,"transit":false,"i_lat":-6.369073,"i_long":106.831114,"station_id":"POC","is_transit":false,"line":2},{"time":2,"station_id":"UI","station_name":"Univ. Indonesia","i_lat":-6.360749,"i_long":106.831474,"is_transit":false,"line":2,"transit":false,"distance":1109},{"station_name":"Univ. Pancasila","transit":false,"line":2,"station_id":"UP","distance":2264,"i_lat":-6.339291,"is_transit":false,"i_long":106.834175,"time":3},{"line":2,"i_lat":-6.330363,"i_long":106.832616,"is_transit":false,"distance":1029,"time":2,"station_name":"Lenteng Agung","transit":false,"station_id":"LNA"},{"line":2,"time":3,"station_name":"Tanjung Barat","station_id":"TNT","i_lat":-6.3080680000000005,"transit":false,"distance":2671,"i_long":106.838896,"is_transit":false},{"station_name":"Pasar Minggu","is_transit":false,"time":4,"distance":2820,"i_lat":-6.2842400000000005,"transit":false,"i_long":106.843999,"station_id":"PSM","line":2},{"i_long":106.851577,"transit":false,"station_id":"PSMB","distance":2380,"is_transit":false,"line":2,"i_lat":-6.263214,"time":2,"station_name":"Pasar Minggu Baru"},{"distance":824,"station_name":"Duren Kalibata","i_lat":-6.255332,"i_long":106.85449,"transit":false,"station_id":"DRN","is_transit":false,"time":2,"line":2},{"time":3,"i_long":106.856607,"transit":false,"i_lat":-6.242512,"distance":1546,"station_id":"CW","station_name":"Cawang","line":2,"is_transit":false},{"station_name":"Tebet","is_transit":false,"i_lat":-6.226659,"distance":1230,"station_id":"TEB","time":2,"transit":false,"i_long":106.857948,"line":2},{"station_name":"Manggarai","i_lat":-6.209883,"i_long":106.84912,"time":4,"is_transit":true,"station_id":"MRI","transit":true,"line":2,"distance":2610},{"station_name":"Sudirman","time":4,"is_transit":false,"transit":false,"station_id":"SUD","line":1,"distance":3186,"i_lat":-6.202263,"i_long":106.822649},{"i_lat":-6.201433,"i_long":106.819881,"distance":280,"station_id":"SUDB","time":1,"station_name":"Sudirman Baru","is_transit":false,"transit":false,"line":1},{"i_long":106.816351,"station_name":"Karet","is_transit":false,"distance":471,"i_lat":-6.20132,"line":1,"transit":false,"time":1,"station_id":"KAT"},{"station_name":"Tanah Abang","line":1,"distance":2029,"is_transit":false,"station_id":"THB","transit":false,"time":5,"i_lat":-6.185545,"i_long":106.811091},{"i_long":106.800832,"time":8,"station_name":"Duri","distance":3632,"transit":false,"line":1,"is_transit":false,"i_lat":-6.155215,"station_id":"DU"},{"station_id":"AK","transit":false,"time":4,"distance":1230,"station_name":"Angke","line":1,"i_lat":-6.144674,"is_transit":false,"i_long":106.79867},{"station_name":"Kampung Bandan","i_long":106.826365,"line":4,"time":9,"distance":4102,"transit":true,"station_id":"KPB","i_lat":-6.132549,"is_transit":true},{"time":3,"is_transit":false,"i_long":106.836569,"station_id":"RJW","i_lat":-6.14505,"line":11,"transit":false,"station_name":"Rajawali","distance":1444},{"transit":false,"i_lat":-6.161728,"distance":1901,"station_id":"KMO","station_name":"Kemayoran","is_transit":false,"i_long":106.839204,"line":11,"time":5},{"distance":1436,"station_id":"PSE","i_long":106.84368,"station_name":"Pasar Senen","line":11,"time":4,"is_transit":false,"transit":false,"i_lat":-6.174784},{"transit":false,"station_id":"GST","distance":1567,"time":8,"line":11,"i_long":106.850107,"is_transit":false,"station_name":"Gang Sentiong","i_lat":-6.185975},{"distance":973,"time":1,"station_id":"KMT","i_long":106.855437,"is_transit":false,"line":11,"station_name":"Kramat","i_lat":-6.193792,"transit":false},{"station_id":"POK","transit":false,"time":2,"is_transit":false,"i_lat":-6.209188,"line":11,"distance":1829,"station_name":"Pondok Jati","i_long":106.861737},{"station_id":"JNG","is_transit":true,"line":1,"transit":true,"i_lat":-6.215091,"station_name":"Jatinegara","i_long":106.86807400000001,"time":9,"distance":1236},{"is_transit":false,"station_id":"KLD","line":1,"i_long":106.899548,"time":3,"i_lat":-6.2135,"transit":false,"distance":3395,"station_name":"Klender"},{"is_transit":false,"i_long":106.922662,"station_id":"BUA","i_lat":-6.215568,"line":1,"station_name":"Buaran","time":2,"distance":3100,"transit":false},{"i_lat":-6.217455,"station_id":"KLDB","distance":1305,"time":1,"station_name":"Klenderbaru","line":1,"i_long":106.939679,"is_transit":false,"transit":false}],[{"is_transit":false,"station_name":"Pondok Cina","time":0,"i_long":106.831114,"distance":0,"station_id":"POC","line":2,"i_lat":-6.369073,"transit":false},{"distance":1109,"is_transit":false,"transit":false,"i_long":106.831474,"i_lat":-6.360749,"line":2,"station_id":"UI","station_name":"Univ. Indonesia","time":2},{"time":3,"distance":2264,"station_id":"UP","is_transit":false,"i_lat":-6.339291,"i_long":106.834175,"station_name":"Univ. Pancasila","line":2,"transit":false},{"transit":false,"i_lat":-6.330363,"i_long":106.832616,"time":2,"station_id":"LNA","line":2,"is_transit":false,"distance":1029,"station_name":"Lenteng Agung"},{"station_id":"TNT","line":2,"time":3,"distance":2671,"is_transit":false,"transit":false,"i_long":106.838896,"station_name":"Tanjung Barat","i_lat":-6.3080680000000005},{"transit":false,"time":4,"distance":2820,"line":2,"i_lat":-6.2842400000000005,"station_name":"Pasar Minggu","i_long":106.843999,"is_transit":false,"station_id":"PSM"},{"time":2,"i_long":106.851577,"is_transit":false,"transit":false,"station_id":"PSMB","line":2,"station_name":"Pasar Minggu Baru","i_lat":-6.263214,"distance":2380},{"i_long":106.85449,"station_id":"DRN","station_name":"Duren Kalibata","is_transit":false,"i_lat":-6.255332,"transit":false,"line":2,"time":2,"distance":824},{"line":2,"station_name":"Cawang","distance":1546,"transit":false,"station_id":"CW","i_long":106.856607,"is_transit":false,"time":3,"i_lat":-6.242512},{"is_transit":false,"line":2,"i_lat":-6.226659,"station_name":"Tebet","distance":1230,"transit":false,"time":2,"station_id":"TEB","i_long":106.857948},{"time":4,"distance":2610,"transit":false,"station_name":"Manggarai","i_lat":-6.209883,"i_long":106.84912,"station_id":"MRI","line":2,"is_transit":false},{"line":2,"is_transit":false,"station_name":"Cikini","station_id":"CKI","time":4,"i_lat":-6.198556,"distance":1590,"transit":false,"i_long":106.840169},{"station_name":"Gondangdia","distance":1750,"i_long":106.832183,"transit":false,"i_lat":-6.186295,"station_id":"GDD","is_transit":false,"line":2,"time":3},{"transit":false,"station_name":"Juanda","time":4,"is_transit":false,"distance":2015,"i_long":106.828284,"i_lat":-6.166716,"line":2,"station_id":"JUA"},{"i_long":106.827103,"time":2,"is_transit":false,"station_id":"SW","line":2,"station_name":"Sawah Besar","transit":false,"i_lat":-6.160725,"distance":1149},{"is_transit":false,"distance":906,"time":2,"i_lat":-6.149769,"i_long":106.82482,"transit":false,"station_id":"MGB","line":2,"station_name":"Manggabesar"},{"time":2,"i_lat":-6.141205,"line":2,"is_transit":false,"transit":false,"station_name":"Jayakarta","i_long":106.820901,"distance":1080,"station_id":"JAY"},{"is_transit":true,"distance":1264,"time":4,"station_id":"JAKK","transit":true,"i_lat":-6.137569,"line":2,"i_long":106.812439,"station_name":"Jakarta Kota"},{"line":4,"i_lat":-6.132549,"distance":1364,"station_id":"KPB","is_transit":true,"i_long":106.826365,"transit":true,"station_name":"Kampung Bandan","time":3},{"i_lat":-6.14505,"is_transit":false,"station_name":"Rajawali","i_long":106.836569,"distance":1444,"line":11,"transit":false,"time":3,"station_id":"RJW"},{"i_lat":-6.161728,"i_long":106.839204,"line":11,"transit":false,"time":5,"is_transit":false,"station_name":"Kemayoran","distance":1901,"station_id":"KMO"},{"station_id":"PSE","i_lat":-6.174784,"station_name":"Pasar Senen","is_transit":false,"transit":false,"distance":1436,"i_long":106.84368,"line":11,"time":4},{"is_transit":false,"station_name":"Gang Sentiong","station_id":"GST","line":11,"time":8,"transit":false,"i_long":106.850107,"distance":1567,"i_lat":-6.185975},{"i_long":106.855437,"station_name":"Kramat","transit":false,"line":11,"is_transit":false,"i_lat":-6.193792,"station_id":"KMT","time":1,"distance":973},{"i_long":106.861737,"transit":false,"distance":1829,"is_transit":false,"station_id":"POK","i_lat":-6.209188,"line":11,"time":2,"station_name":"Pondok Jati"},{"station_id":"JNG","i_lat":-6.215091,"transit":true,"station_name":"Jatinegara","i_long":106.86807400000001,"line":1,"is_transit":true,"distance":1236,"time":9},{"transit":false,"station_id":"KLD","i_long":106.899548,"distance":3395,"station_name":"Klender","time":3,"i_lat":-6.2135,"is_transit":false,"line":1},{"transit":false,"i_long":106.922662,"line":1,"station_id":"BUA","i_lat":-6.215568,"time":2,"is_transit":false,"distance":3100,"station_name":"Buaran"},{"line":1,"station_id":"KLDB","i_long":106.939679,"distance":1305,"station_name":"Klenderbaru","transit":false,"i_lat":-6.217455,"time":1,"is_transit":false}]]}