{"data":[[{"i_long":106.831114,"i_lat":-6.369073,"station_name":"Pondok Cina","transit":false,"distance":0,"station_id":"POC","time":0,"line":2,"is_transit":false},{"time":2,"station_id":"UI","transit":false,"is_transit":false,"i_long":106.831474,"line":2,"station_name":"Univ. Indonesia","i_lat":-6.360749,"distance":1109},{"distance":2264,"station_name":"Univ. Pancasila","line":2,"transit":false,"i_long":106.834175,"i_lat":-6.339291,"station_id":"UP","time":3,"is_transit":false},{"i_long":106.832616,"is_transit":false,"time":2,"line":2,"distance":1029,"i_lat":-6.330363,"transit":false,"station_name":"Lenteng Agung","station_id":"LNA"},{"transit":false,"is_transit":false,"line":2,"time":3,"i_lat":-6.3080680000000005,"station_id":"TNT","station_name":"Tanjung Barat","distance":2671,"i_long":106.838896},{"distance":2820,"time":4,"line":2,"transit":false,"station_id":"PSM","i_lat":-6.2842400000000005,"i_long":106.843999,"is_transit":false,"station_name":"Pasar Minggu"},{"i_lat":-6.263214,"line":2,"i_long":106.851577,"transit":false,"station_name":"Pasar Minggu Baru","station_id":"PSMB","is_transit":false,"time":2,"distance":2380},{"line":2,"station_id":"DRN","station_name":"Duren Kalibata","i_long":106.85449,"transit":false,"time":2,"is_transit":false,"distance":824,"i_lat":-6.255332},{"is_transit":false,"distance":1546,"line":2,"station_name":"Cawang","station_id":"CW","i_lat":-6.242512,"time":3,"transit":false,"i_long":106.856607},{"station_id":"TEB","station_name":"Tebet","is_transit":false,"time":2,"distance":1230,"i_lat":-6.226659,"line":2,"transit":false,"i_long":106.857948},{"station_id":"MRI","distance":2610,"time":4,"is_transit":true,"i_long":106.84912,"line":2,"transit":true,"i_lat":-6.209883,"station_name":"Manggarai"},{"station_name":"Matraman","time":2,"distance":1275,"i_lat":-6.212485,"i_long":106.858896,"station_id":"MTR","is_transit":false,"transit":false,"line":1},{"time":8,"distance":1377,"i_long":106.86807400000001,"line":1,"i_lat":-6.215091,"transit":false,"station_id":"JNG","is_transit":false,"station_name":"Jatinegara"},{"station_id":"KLD","i_lat":-6.2135,"time":3,"transit":false,"line":1,"i_long":106.899548,"station_name":"Klender","is_transit":false,"distance":3395},{"time":2,"line":1,"i_lat":-6.215568,"transit":false,"station_name":"Buaran","i_long":106.922662,"station_id":"BUA","distance":3100,"is_transit":false},{"station_id":"KLDB","transit":false,"is_transit":false,"distance":1305,"i_lat":-6.217455,"i_long":106.939679,"station_name":"Klenderbaru","time":1,"line":1},{"i_lat":-6.219053,"distance":1385,"transit":false,"line":1,"station_id":"CUK","station_name":"Cakung","time":8,"i_long":106.951283,"is_transit":false},{"time":3,"distance":3097,"station_name":"Kranji","transit":false,"i_lat":-6.224515,"station_id":"KRI","is_transit":false,"line":1,"i_long":106.977657},{"is_transit":false,"transit":false,"i_long":106.997013,"station_id":"BKS","time":4,"i_lat":-6.236616,"distance":2520,"station_name":"Bekasi","line":1}],[{"station_id":"POC","is_transit":false,"i_lat":-6.369073,"station_name":"Pondok Cina","line":2,"distance":0,"transit":false,"time":0,"i_long":106.831114},{"transit":false,"distance":1109,"i_long":106.831474,"station_id":"UI","is_transit":false,"station_name":"Univ. Indonesia","time":2,"line":2,"i_lat":-6.360749},{"line":2,"time":3,"i_long":106.834175,"transit":false,"is_transit":false,"distance":2264,"station_name":"Univ. Pancasila","station_id":"UP","i_lat":-6.339291},{"time":2,"is_transit":false,"station_id":"LNA","distance":1029,"i_long":106.832616,"i_lat":-6.330363,"station_name":"Lenteng Agung","line":2,"transit":false},{"is_transit":false,"time":3,"distance":2671,"station_id":"TNT","i_lat":-6.3080680000000005,"line":2,"i_long":106.838896,"transit":false,"station_name":"Tanjung Barat"},{"is_transit":false,"station_id":"PSM","station_name":"Pasar Minggu","distance":2820,"time":4,"transit":false,"i_long":106.843999,"i_lat":-6.2842400000000005,"line":2},{"station_name":"Pasar Minggu Baru","is_transit":false,"i_long":106.851577,"line":2,"distance":2380,"time":2,"i_lat":-6.263214,"transit":false,"station_id":"PSMB"},{"is_transit":false,"i_lat":-6.255332,"transit":false,"station_id":"DRN","distance":824,"station_name":"Duren Kalibata","time":2,"line":2,"i_long":106.85449},{"distance":1546,"transit":false,"station_name":"Cawang","time":3,"line":2,"station_id":"CW","is_transit":false,"i_long":106.856607,"i_lat":-6.242512},{"transit":false,"station_name":"Tebet","line":2,"station_id":"TEB","time":2,"distance":1230,"i_lat":-6.226659,"i_long":106.857948,"is_transit":false},{"transit":true,"is_transit":true,"time":4,"station_id":"MRI","i_long":106.84912,"line":2,"distance":2610,"station_name":"Manggarai","i_lat":-6.209883},{"i_lat":-6.202263,"line":1,"time":4,"station_name":"Sudirman","distance":3186,"i_long":106.822649,"station_id":"SUD","transit":false,"is_transit":false},{"i_lat":-6.201433,"time":1,"transit":false,"station_name":"Sudirman Baru","is_transit":false,"i_long":106.819881,"line":1,"station_id":"SUDB","distance":280},{"station_name":"Karet","i_lat":-6.20132,"transit":false,"distance":471,"i_long":106.816351,"line":1,"station_id":"KAT","is_transit":false,"time":1},{"is_transit":false,"time":5,"i_lat":-6.185545,"transit":false,"station_name":"Tanah Abang","i_long":106.811091,"line":1,"distance":2029,"station_id":"THB"},{"distance":3632,"is_transit":false,"time":8,"station_name":"Duri","i_lat":-6.155215,"transit":false,"station_id":"DU","line":1,"i_long":106.800832},{"i_long":106.79867,"time":4,"line":1,"distance":1230,"i_lat":-6.144674,"transit":false,"station_id":"AK","station_name":"Angke","is_transit":false},{"station_id":"KPB","transit":true,"station_name":"Kampung Bandan","time":9,"i_long":106.826365,"line":4,"i_lat":-6.132549,"is_transit":true,"distance":4102},{"line":11,"i_long":106.836569,"is_transit":false,"time":3,"i_lat":-6.14505,"distance":1444,"transit":false,"station_name":"Rajawali","station_id":"RJW"},{"i_lat":-6.161728,"i_long":106.839204,"line":11,"transit":false,"time":5,"station_name":"Kemayoran","is_transit":false,"station_id":"KMO","distance":1901},{"line":11,"distance":1436,"is_transit":false,"transit":false,"station_name":"Pasar Senen","station_id":"PSE","time":4,"i_long":106.84368,"i_lat":-6.174784},{"distance":1567,"is_transit":false,"transit":false,"i_lat":-6.185975,"line":11,"station_id":"GST","i_long":106.850107,"station_name":"Gang Sentiong","time":8},{"i_lat":-6.193792,"transit":false,"time":1,"station_name":"Kramat","line":11,"is_transit":false,"i_long":106.855437,"station_id":"KMT","distance":973},{"i_lat":-6.209188,"station_name":"Pondok Jati","i_long":106.861737,"station_id":"POK","line":11,"is_transit":false,"transit":false,"time":2,"distance":1829},{"i_long":106.86807400000001,"transit":true,"station_id":"JNG","station_name":"Jatinegara","is_transit":true,"time":9,"distance":1236,"line":1,"i_lat":-6.215091},{"distance":3395,"line":1,"station_name":"Klender","i_lat":-6.2135,"transit":false,"is_transit":false,"i_long":106.899548,"time":3,"station_id":"KLD"},{"line":1,"distance":3100,"time":2,"station_id":"BUA","i_long":106.922662,"station_name":"Buaran","i_lat":-6.215568,"is_transit":false,"transit":false},{"time":1,"i_lat":-6.217455,"distance":1305,"station_id":"KLDB","transit":false,"station_name":"Klenderbaru","i_long":106.939679,"line":1,"is_transit":false},{"distance":1385,"station_id":"CUK","i_lat":-6.219053,"time":8,"i_long":106.951283,"is_transit":false,"station_name":"Cakung","transit":false,"line":1},{"station_name":"Kranji","i_long":106.977657,"distance":3097,"line":1,"transit":false,"is_transit":false,"time":3,"station_id":"KRI","i_lat":-6.224515},{"is_transit":false,"time":4,"i_long":106.997013,"line":1,"i_lat":-6.236616,"distance":2520,"station_name":"Bekasi","transit":false,"station_id":"BKS"}],[{"i_long":106.831114,"transit":false,"is_transit":false,"station_name":"Pondok Cina","station_id":"POC","time":0,"i_lat":-6.369073,"distance":0,"line":2},{"i_long":106.831474,"i_lat":-6.360749,"line":2,"is_transit":false,"time":2,"transit":false,"distance":1109,"station_name":"Univ. Indonesia","station_id":"UI"},{"i_long":106.834175,"distance":2264,"i_lat":-6.339291,"time":3,"station_id":"UP","line":2,"transit":false,"station_name":"Univ. Pancasila","is_transit":false},{"i_long":106.832616,"line":2,"is_transit":false,"distance":1029,"transit":false,"station_id":"LNA","time":2,"i_lat":-6.330363,"station_name":"Lenteng Agung"},{"distance":2671,"line":2,"station_name":"Tanjung Barat","station_id":"TNT","time":3,"i_lat":-6.3080680000000005,"i_long":106.838896,"transit":false,"is_transit":false},{"line":2,"transit":false,"station_name":"Pasar Minggu","time":4,"distance":2820,"station_id":"PSM","is_transit":false,"i_lat":-6.2842400000000005,"i_long":106.843999},{"transit":false,"time":2,"station_name":"Pasar Minggu Baru","distance":2380,"i_lat":-6.263214,"station_id":"PSMB","is_transit":false,"i_long":106.851577,"line":2},{"transit":false,"station_id":"DRN","is_transit":false,"distance":824,"time":2,"i_lat":-6.255332,"line":2,"i_long":106.85449,"station_name":"Duren Kalibata"},{"distance":1546,"transit":false,"station_id":"CW","line":2,"is_transit":false,"station_name":"Cawang","time":3,"i_lat":-6.242512,"i_long":106.856607},{"transit":false,"i_lat":-6.226659,"station_name":"Tebet","station_id":"TEB","time":2,"distance":1230,"line":2,"is_transit":false,"i_long":106.857948},{"is_transit":false,"time":4,"i_long":106.84912,"station_name":"Manggarai","line":2,"i_lat":-6.209883,"distance":2610,"station_id":"MRI","transit":false},{"is_transit":false,"line":2,"time":4,"i_lat":-6.198556,"station_name":"Cikini","transit":false,"station_id":"CKI","distance":1590,"i_long":106.840169},{"line":2,"station_name":"Gondangdia","transit":false,"is_transit":false,"station_id":"GDD","i_long":106.832183,"i_lat":-6.186295,"distance":1750,"time":3},{"is_transit":false,"time":4,"station_id":"JUA","transit":false,"line":2,"station_name":"Juanda","i_lat":-6.166716,"i_long":106.828284,"distance":2015},{"station_name":"Sawah Besar","station_id":"SW","i_long":106.827103,"is_transit":false,"distance":1149,"time":2,"transit":false,"i_lat":-6.160725,"line":2},{"i_lat":-6.149769,"i_long":106.82482,"station_id":"MGB","distance":906,"station_name":"Manggabesar","time":2,"transit":false,"line":2,"is_transit":false},{"distance":1080,"station_id":"JAY","station_name":"Jayakarta","transit":false,"time":2,"i_lat":-6.141205,"i_long":106.820901,"is_transit":false,"line":2},{"i_lat":-6.137569,"i_long":106.812439,"line":2,"station_name":"Jakarta Kota","is_transit":true,"time":4,"transit":true,"station_id":"JAKK","distance":1264},{"i_lat":-6.132549,"is_transit":true,"distance":1364,"transit":true,"i_long":106.826365,"station_id":"KPB","line":4,"station_name":"Kampung Bandan","time":3},{"i_lat":-6.14505,"is_transit":false,"time":3,"distance":1444,"station_name":"Rajawali","transit":false,"station_id":"RJW","i_long":106.836569,"line":11},{"is_transit":false,"transit":false,"distance":1901,"line":11,"station_id":"KMO","time":5,"i_lat":-6.161728,"station_name":"Kemayoran","i_long":106.839204},{"line":11,"transit":false,"i_lat":-6.174784,"i_long":106.84368,"is_transit":false,"station_id":"PSE","station_name":"Pasar Senen","time":4,"distance":1436},{"transit":false,"i_long":106.850107,"line":11,"i_lat":-6.185975,"is_transit":false,"station_id":"GST","distance":1567,"time":8,"station_name":"Gang Sentiong"},{"transit":false,"station_id":"KMT","i_lat":-6.193792,"i_long":106.855437,"time":1,"distance":973,"station_name":"Kramat","is_transit":false,"line":11},{"line":11,"station_name":"Pondok Jati","distance":1829,"transit":false,"station_id":"POK","is_transit":false,"i_lat":-6.209188,"i_long":106.861737,"time":2},{"distance":1236,"line":1,"i_lat":-6.215091,"i_long":106.86807400000001,"station_name":"Jatinegara","time":9,"transit":true,"station_id":"JNG","is_transit":true},{"i_long":106.899548,"station_name":"Klender","line":1,"distance":3395,"is_transit":false,"i_lat":-6.2135,"transit":false,"time":3,"station_id":"KLD"},{"is_transit":false,"i_lat":-6.215568,"line":1,"station_name":"Buaran","transit":false,"station_id":"BUA","i_long":106.922662,"distance":3100,"time":2},{"station_name":"Klenderbaru","i_lat":-6.217455,"time":1,"distance":1305,"transit":false,"line":1,"is_transit":false,"station_id":"KLDB","i_long":106.939679},{"distance":1385,"line":1,"station_id":"CUK","i_long":106.951283,"i_lat":-6.219053,"is_transit":false,"time":8,"transit":false,"station_name":"Cakung"},{"time":3,"station_name":"Kranji","i_long":106.977657,"is_transit":false,"line":1,"station_id":"KRI","transit":false,"distance":3097,"i_lat":-6.224515},{"station_id":"BKS","transit":false,"station_name":"Bekasi","is_transit":false,"i_lat":-6.236616,"line":1,"i_long":106.997013,"distance":2520,"time":4}]]}