{"data":[[{"i_lat":-6.369073,"is_transit":false,"station_name":"Pondok Cina","i_long":106.831114,"distance":0,"transit":false,"time":0,"line":2,"station_id":"POC"},{"station_id":"UI","time":2,"transit":false,"i_long":106.831474,"i_lat":-6.360749,"station_name":"Univ. Indonesia","distance":1109,"line":2,"is_transit":false},{"distance":2264,"is_transit":false,"line":2,"i_long":106.834175,"station_id":"UP","i_lat":-6.339291,"transit":false,"station_name":"Univ. Pancasila","time":3},{"line":2,"station_name":"Lenteng Agung","is_transit":false,"i_long":106.832616,"station_id":"LNA","transit":false,"i_lat":-6.330363,"time":2,"distance":1029},{"distance":2671,"line":2,"transit":false,"station_id":"TNT","i_lat":-6.3080680000000005,"station_name":"Tanjung Barat","time":3,"i_long":106.838896,"is_transit":false},{"station_name":"Pasar Minggu","time":4,"distance":2820,"station_id":"PSM","transit":false,"i_long":106.843999,"line":2,"is_transit":false,"i_lat":-6.2842400000000005},{"station_name":"Pasar Minggu Baru","station_id":"PSMB","transit":false,"i_lat":-6.263214,"i_long":106.851577,"distance":2380,"line":2,"time":2,"is_transit":false},{"i_long":106.85449,"is_transit":false,"station_name":"Duren Kalibata","distance":824,"time":2,"transit":false,"line":2,"i_lat":-6.255332,"station_id":"DRN"},{"i_long":106.856607,"station_id":"CW","time":3,"is_transit":false,"i_lat":-6.242512,"station_name":"Cawang","line":2,"distance":1546,"transit":false},{"time":2,"i_lat":-6.226659,"distance":1230,"is_transit":false,"station_id":"TEB","i_long":106.857948,"station_name":"Tebet","transit":false,"line":2},{"is_transit":true,"line":2,"station_id":"MRI","transit":true,"station_name":"Manggarai","distance":2610,"time":4,"i_lat":-6.209883,"i_long":106.84912},{"i_lat":-6.212485,"line":1,"station_id":"MTR","i_long":106.858896,"station_name":"Matraman","time":2,"distance":1275,"transit":false,"is_transit":false},{"i_long":106.86807400000001,"station_id":"JNG","is_transit":false,"transit":false,"station_name":"Jatinegara","time":8,"distance":1377,"i_lat":-6.215091,"line":1},{"distance":3395,"is_transit":false,"i_long":106.899548,"station_id":"KLD","transit":false,"i_lat":-6.2135,"time":3,"line":1,"station_name":"Klender"},{"distance":3100,"i_lat":-6.215568,"station_name":"Buaran","is_transit":false,"station_id":"BUA","transit":false,"i_long":106.922662,"line":1,"time":2},{"time":1,"i_lat":-6.217455,"station_name":"Klenderbaru","distance":1305,"station_id":"KLDB","transit":false,"line":1,"is_transit":false,"i_long":106.939679}],[{"station_name":"Pondok Cina","distance":0,"time":0,"station_id":"POC","i_lat":-6.369073,"i_long":106.831114,"line":2,"is_transit":false,"transit":false},{"station_name":"Univ. Indonesia","distance":1109,"line":2,"is_transit":false,"i_lat":-6.360749,"time":2,"i_long":106.831474,"transit":false,"station_id":"UI"},{"is_transit":false,"station_id":"UP","transit":false,"time":3,"distance":2264,"i_lat":-6.339291,"station_name":"Univ. Pancasila","line":2,"i_long":106.834175},{"station_id":"LNA","distance":1029,"time":2,"transit":false,"is_transit":false,"i_lat":-6.330363,"station_name":"Lenteng Agung","line":2,"i_long":106.832616},{"time":3,"station_id":"TNT","line":2,"distance":2671,"is_transit":false,"station_name":"Tanjung Barat","i_long":106.838896,"i_lat":-6.3080680000000005,"transit":false},{"i_lat":-6.2842400000000005,"distance":2820,"time":4,"line":2,"is_transit":false,"i_long":106.843999,"transit":false,"station_name":"Pasar Minggu","station_id":"PSM"},{"is_transit":false,"station_name":"Pasar Minggu Baru","station_id":"PSMB","line":2,"i_long":106.851577,"distance":2380,"transit":false,"time":2,"i_lat":-6.263214},{"line":2,"is_transit":false,"distance":824,"i_lat":-6.255332,"station_id":"DRN","i_long":106.85449,"station_name":"Duren Kalibata","transit":false,"time":2},{"station_name":"Cawang","distance":1546,"i_lat":-6.242512,"transit":false,"time":3,"i_long":106.856607,"line":2,"is_transit":false,"station_id":"CW"},{"i_lat":-6.226659,"line":2,"distance":1230,"transit":false,"station_name":"Tebet","time":2,"station_id":"TEB","is_transit":false,"i_long":106.857948},{"time":4,"i_long":106.84912,"station_name":"Manggarai","distance":2610,"is_transit":true,"transit":true,"i_lat":-6.209883,"line":2,"station_id":"MRI"},{"station_id":"SUD","station_name":"Sudirman","i_long":106.822649,"is_transit":false,"transit":false,"i_lat":-6.202263,"distance":3186,"line":1,"time":4},{"time":1,"distance":280,"transit":false,"i_lat":-6.201433,"station_name":"Sudirman Baru","i_long":106.819881,"station_id":"SUDB","is_transit":false,"line":1},{"is_transit":false,"station_id":"KAT","line":1,"distance":471,"time":1,"i_long":106.816351,"transit":false,"i_lat":-6.20132,"station_name":"Karet"},{"transit":false,"distance":2029,"time":5,"i_lat":-6.185545,"station_id":"THB","line":1,"is_transit":false,"i_long":106.811091,"station_name":"Tanah Abang"},{"station_id":"DU","i_long":106.800832,"line":1,"station_name":"Duri","i_lat":-6.155215,"distance":3632,"time":8,"is_transit":false,"transit":false},{"i_long":106.79867,"transit":false,"station_name":"Angke","is_transit":false,"i_lat":-6.144674,"station_id":"AK","line":1,"distance":1230,"time":4},{"line":4,"distance":4102,"i_lat":-6.132549,"time":9,"station_id":"KPB","is_transit":true,"i_long":106.826365,"station_name":"Kampung Bandan","transit":true},{"time":3,"station_id":"RJW","distance":1444,"transit":false,"is_transit":false,"i_long":106.836569,"i_lat":-6.14505,"station_name":"Rajawali","line":11},{"transit":false,"station_id":"KMO","station_name":"Kemayoran","distance":1901,"i_lat":-6.161728,"i_long":106.839204,"line":11,"is_transit":false,"time":5},{"i_lat":-6.174784,"distance":1436,"transit":false,"i_long":106.84368,"time":4,"is_transit":false,"line":11,"station_name":"Pasar Senen","station_id":"PSE"},{"station_id":"GST","i_lat":-6.185975,"line":11,"transit":false,"is_transit":false,"i_long":106.850107,"time":8,"station_name":"Gang Sentiong","distance":1567},{"line":11,"time":1,"transit":false,"distance":973,"i_long":106.855437,"i_lat":-6.193792,"is_transit":false,"station_name":"Kramat","station_id":"KMT"},{"time":2,"is_transit":false,"line":11,"station_name":"Pondok Jati","i_lat":-6.209188,"station_id":"POK","transit":false,"i_long":106.861737,"distance":1829},{"transit":true,"station_name":"Jatinegara","i_long":106.86807400000001,"is_transit":true,"time":9,"line":1,"i_lat":-6.215091,"distance":1236,"station_id":"JNG"},{"i_long":106.899548,"time":3,"station_id":"KLD","line":1,"station_name":"Klender","is_transit":false,"transit":false,"distance":3395,"i_lat":-6.2135},{"station_name":"Buaran","distance":3100,"transit":false,"station_id":"BUA","time":2,"i_lat":-6.215568,"i_long":106.922662,"is_transit":false,"line":1},{"i_long":106.939679,"i_lat":-6.217455,"line":1,"is_transit":false,"transit":false,"station_name":"Klenderbaru","distance":1305,"time":1,"station_id":"KLDB"}],[{"line":2,"distance":0,"is_transit":false,"i_lat":-6.369073,"station_id":"POC","i_long":106.831114,"station_name":"Pondok Cina","time":0,"transit":false},{"is_transit":false,"distance":1109,"time":2,"station_id":"UI","transit":false,"station_name":"Univ. Indonesia","i_lat":-6.360749,"i_long":106.831474,"line":2},{"transit":false,"i_long":106.834175,"distance":2264,"station_id":"UP","time":3,"is_transit":false,"i_lat":-6.339291,"line":2,"station_name":"Univ. Pancasila"},{"i_long":106.832616,"station_name":"Lenteng Agung","time":2,"distance":1029,"i_lat":-6.330363,"line":2,"is_transit":false,"transit":false,"station_id":"LNA"},{"line":2,"is_transit":false,"transit":false,"i_lat":-6.3080680000000005,"station_name":"Tanjung Barat","distance":2671,"station_id":"TNT","time":3,"i_long":106.838896},{"station_name":"Pasar Minggu","i_lat":-6.2842400000000005,"transit":false,"distance":2820,"is_transit":false,"time":4,"line":2,"i_long":106.843999,"station_id":"PSM"},{"is_transit":false,"time":2,"transit":false,"i_long":106.851577,"distance":2380,"line":2,"station_name":"Pasar Minggu Baru","i_lat":-6.263214,"station_id":"PSMB"},{"transit":false,"line":2,"distance":824,"station_id":"DRN","i_long":106.85449,"time":2,"is_transit":false,"station_name":"Duren Kalibata","i_lat":-6.255332},{"is_transit":false,"i_long":106.856607,"station_name":"Cawang","transit":false,"i_lat":-6.242512,"station_id":"CW","time":3,"line":2,"distance":1546},{"is_transit":false,"transit":false,"i_lat":-6.226659,"line":2,"distance":1230,"station_id":"TEB","time":2,"station_name":"Tebet","i_long":106.857948},{"line":2,"time":4,"station_id":"MRI","i_long":106.84912,"is_transit":false,"transit":false,"station_name":"Manggarai","distance":2610,"i_lat":-6.209883},{"station_id":"CKI","i_long":106.840169,"transit":false,"distance":1590,"line":2,"is_transit":false,"time":4,"i_lat":-6.198556,"station_name":"Cikini"},{"transit":false,"time":3,"i_long":106.832183,"distance":1750,"station_name":"Gondangdia","line":2,"i_lat":-6.186295,"is_transit":false,"station_id":"GDD"},{"line":2,"distance":2015,"transit":false,"station_id":"JUA","i_lat":-6.166716,"is_transit":false,"i_long":106.828284,"station_name":"Juanda","time":4},{"station_id":"SW","i_long":106.827103,"distance":1149,"time":2,"i_lat":-6.160725,"transit":false,"station_name":"Sawah Besar","is_transit":false,"line":2},{"station_name":"Manggabesar","transit":false,"is_transit":false,"line":2,"time":2,"distance":906,"station_id":"MGB","i_lat":-6.149769,"i_long":106.82482},{"station_name":"Jayakarta","transit":false,"time":2,"i_lat":-6.141205,"station_id":"JAY","line":2,"is_transit":false,"distance":1080,"i_long":106.820901},{"station_id":"JAKK","i_lat":-6.137569,"time":4,"transit":true,"i_long":106.812439,"line":2,"station_name":"Jakarta Kota","is_transit":true,"distance":1264},{"i_long":106.826365,"time":3,"i_lat":-6.132549,"line":4,"distance":1364,"station_name":"Kampung Bandan","is_transit":true,"transit":true,"station_id":"KPB"},{"i_long":106.836569,"transit":false,"station_name":"Rajawali","i_lat":-6.14505,"is_transit":false,"station_id":"RJW","line":11,"distance":1444,"time":3},{"station_name":"Kemayoran","time":5,"distance":1901,"i_lat":-6.161728,"line":11,"is_transit":false,"transit":false,"i_long":106.839204,"station_id":"KMO"},{"line":11,"distance":1436,"transit":false,"station_name":"Pasar Senen","is_transit":false,"time":4,"station_id":"PSE","i_long":106.84368,"i_lat":-6.174784},{"station_id":"GST","line":11,"transit":false,"station_name":"Gang Sentiong","i_long":106.850107,"i_lat":-6.185975,"is_transit":false,"distance":1567,"time":8},{"i_long":106.855437,"station_id":"KMT","i_lat":-6.193792,"is_transit":false,"line":11,"time":1,"transit":false,"station_name":"Kramat","distance":973},{"station_id":"POK","line":11,"time":2,"is_transit":false,"i_lat":-6.209188,"distance":1829,"transit":false,"station_name":"Pondok Jati","i_long":106.861737},{"i_long":106.86807400000001,"transit":true,"is_transit":true,"line":1,"station_id":"JNG","station_name":"Jatinegara","i_lat":-6.215091,"time":9,"distance":1236},{"time":3,"i_lat":-6.2135,"station_id":"KLD","transit":false,"distance":3395,"i_long":106.899548,"station_name":"Klender","is_transit":false,"line":1},{"distance":3100,"time":2,"i_lat":-6.215568,"i_long":106.922662,"station_id":"BUA","station_name":"Buaran","line":1,"is_transit":false,"transit":false},{"station_id":"KLDB","i_long":106.939679,"i_lat":-6.217455,"distance":1305,"is_transit":false,"transit":false,"station_name":"Klenderbaru","line":1,"time":1}]]}