{"data":[[{"i_lat":-6.369073,"station_id":"POC","is_transit":false,"time":0,"transit":false,"station_name":"Pondok Cina","distance":0,"line":2,"i_long":106.831114},{"time":2,"transit":false,"is_transit":false,"distance":1109,"i_lat":-6.360749,"station_name":"Univ. Indonesia","line":2,"station_id":"UI","i_long":106.831474},{"is_transit":false,"i_lat":-6.339291,"distance":2264,"station_name":"Univ. Pancasila","line":2,"i_long":106.834175,"transit":false,"station_id":"UP","time":3},{"transit":false,"is_transit":false,"station_id":"LNA","distance":1029,"time":2,"station_name":"Lenteng Agung","i_lat":-6.330363,"line":2,"i_long":106.832616},{"is_transit":false,"station_id":"TNT","i_lat":-6.3080680000000005,"line":2,"time":3,"station_name":"Tanjung Barat","distance":2671,"transit":false,"i_long":106.838896},{"station_name":"Pasar Minggu","i_long":106.843999,"line":2,"time":4,"is_transit":false,"station_id":"PSM","transit":false,"i_lat":-6.2842400000000005,"distance":2820},{"station_name":"Pasar Minggu Baru","time":2,"i_long":106.851577,"distance":2380,"station_id":"PSMB","transit":false,"is_transit":false,"i_lat":-6.263214,"line":2},{"distance":824,"transit":false,"station_name":"Duren Kalibata","i_long":106.85449,"line":0,"time":2,"is_transit":false,"i_lat":-6.255332,"station_id":"DRN"},{"distance":1546,"i_long":106.856607,"line":0,"station_id":"CW","transit":false,"i_lat":-6.242512,"time":3,"is_transit":false,"station_name":"Cawang"},{"time":2,"station_name":"Tebet","i_long":106.857948,"line":2,"is_transit":false,"distance":1230,"transit":false,"i_lat":-6.226659,"station_id":"TEB"},{"is_transit":true,"station_id":"MRI","i_lat":-6.209883,"station_name":"Manggarai","line":0,"time":4,"i_long":106.84912,"transit":true,"distance":2610},{"line":1,"is_transit":false,"distance":1275,"time":2,"station_id":"MTR","i_long":106.858896,"transit":false,"station_name":"Matraman","i_lat":-6.212485},{"distance":1377,"time":8,"i_long":106.86807400000001,"station_name":"Jatinegara","station_id":"JNG","transit":false,"i_lat":-6.215091,"line":0,"is_transit":true},{"i_lat":-6.2135,"station_id":"KLD","distance":3395,"is_transit":false,"station_name":"Klender","transit":false,"i_long":106.899548,"line":1,"time":3},{"station_name":"Buaran","distance":3100,"line":0,"time":2,"station_id":"BUA","transit":false,"i_long":106.922662,"i_lat":-6.215568,"is_transit":false},{"is_transit":false,"time":1,"i_long":106.939679,"line":1,"distance":1305,"station_name":"Klenderbaru","i_lat":-6.217455,"station_id":"KLDB","transit":false},{"station_name":"Cakung","i_long":106.951283,"is_transit":false,"distance":1385,"line":0,"time":8,"station_id":"CUK","transit":false,"i_lat":-6.219053},{"time":3,"transit":false,"i_lat":-6.224515,"i_long":106.977657,"is_transit":false,"line":1,"station_name":"Kranji","station_id":"KRI","distance":3097},{"is_transit":false,"transit":false,"i_long":106.997013,"distance":2520,"station_name":"Bekasi","time":4,"line":0,"station_id":"BKS","i_lat":-6.236616},{"distance":2368,"transit":false,"station_id":"BKST","i_lat":-6.248029,"i_long":107.016735,"is_transit":false,"line":0,"station_name":"Bekasi Timur","time":2},{"i_lat":-6.258864,"station_id":"TB","i_long":107.055722,"distance":4460,"station_name":"Tambun","time":7,"line":1,"transit":false,"is_transit":false}],[{"station_name":"Pondok Cina","is_transit":false,"station_id":"POC","transit":false,"i_lat":-6.369073,"time":0,"i_long":106.831114,"line":2,"distance":0},{"line":2,"station_id":"UI","distance":1109,"i_long":106.831474,"transit":false,"station_name":"Univ. Indonesia","is_transit":false,"time":2,"i_lat":-6.360749},{"transit":false,"is_transit":false,"distance":2264,"time":3,"station_name":"Univ. Pancasila","station_id":"UP","i_lat":-6.339291,"i_long":106.834175,"line":2},{"station_name":"Lenteng Agung","station_id":"LNA","transit":false,"time":2,"line":2,"is_transit":false,"distance":1029,"i_lat":-6.330363,"i_long":106.832616},{"time":3,"distance":2671,"is_transit":false,"station_name":"Tanjung Barat","i_lat":-6.3080680000000005,"transit":false,"i_long":106.838896,"line":2,"station_id":"TNT"},{"station_name":"Pasar Minggu","line":2,"time":4,"is_transit":false,"station_id":"PSM","transit":false,"distance":2820,"i_long":106.843999,"i_lat":-6.2842400000000005},{"i_long":106.851577,"is_transit":false,"time":2,"line":2,"station_name":"Pasar Minggu Baru","station_id":"PSMB","i_lat":-6.263214,"distance":2380,"transit":false},{"line":0,"transit":false,"station_name":"Duren Kalibata","is_transit":false,"distance":824,"station_id":"DRN","time":2,"i_lat":-6.255332,"i_long":106.85449},{"station_name":"Cawang","transit":false,"i_lat":-6.242512,"is_transit":false,"line":0,"distance":1546,"station_id":"CW","i_long":106.856607,"time":3},{"i_long":106.857948,"station_id":"TEB","distance":1230,"station_name":"Tebet","time":2,"is_transit":false,"i_lat":-6.226659,"line":2,"transit":false},{"line":0,"station_id":"MRI","i_lat":-6.209883,"transit":true,"station_name":"Manggarai","distance":2610,"i_long":106.84912,"is_transit":true,"time":4},{"station_name":"Sudirman","i_lat":-6.202263,"i_long":106.822649,"line":1,"station_id":"SUD","transit":false,"time":4,"is_transit":false,"distance":3186},{"is_transit":false,"i_long":106.819881,"time":1,"station_id":"SUDB","station_name":"Sudirman Baru","i_lat":-6.201433,"line":1,"distance":280,"transit":false},{"is_transit":false,"station_name":"Karet","i_long":106.816351,"station_id":"KAT","line":1,"i_lat":-6.20132,"distance":471,"transit":false,"time":1},{"is_transit":true,"station_id":"THB","line":1,"transit":false,"distance":2029,"station_name":"Tanah Abang","time":5,"i_lat":-6.185545,"i_long":106.811091},{"station_name":"Duri","is_transit":true,"transit":true,"distance":3632,"i_long":106.800832,"line":1,"time":8,"station_id":"DU","i_lat":-6.155215},{"distance":1230,"transit":false,"i_long":106.79867,"is_transit":false,"station_id":"AK","time":4,"station_name":"Angke","i_lat":-6.144674,"line":0},{"line":0,"transit":true,"distance":4102,"i_lat":-6.132549,"station_name":"Kampung Bandan","is_transit":true,"station_id":"KPB","time":9,"i_long":106.826365},{"is_transit":false,"i_lat":-6.14505,"line":11,"i_long":106.836569,"station_id":"RJW","transit":false,"distance":1444,"time":3,"station_name":"Rajawali"},{"i_lat":-6.161728,"is_transit":false,"station_name":"Kemayoran","distance":1901,"transit":false,"time":5,"station_id":"KMO","i_long":106.839204,"line":11},{"i_lat":-6.174784,"distance":1436,"line":11,"station_name":"Pasar Senen","transit":false,"i_long":106.84368,"is_transit":false,"station_id":"PSE","time":4},{"station_name":"Gang Sentiong","transit":false,"distance":1567,"station_id":"GST","i_lat":-6.185975,"time":8,"line":11,"is_transit":false,"i_long":106.850107},{"is_transit":false,"time":1,"line":11,"transit":false,"station_id":"KMT","i_long":106.855437,"station_name":"Kramat","distance":973,"i_lat":-6.193792},{"transit":false,"distance":1829,"i_lat":-6.209188,"station_name":"Pondok Jati","time":2,"station_id":"POK","i_long":106.861737,"is_transit":false,"line":11},{"is_transit":true,"station_name":"Jatinegara","time":9,"i_lat":-6.215091,"i_long":106.86807400000001,"line":0,"transit":true,"distance":1236,"station_id":"JNG"},{"time":3,"is_transit":false,"distance":3395,"station_id":"KLD","station_name":"Klender","transit":false,"i_long":106.899548,"line":1,"i_lat":-6.2135},{"station_name":"Buaran","distance":3100,"i_lat":-6.215568,"is_transit":false,"station_id":"BUA","line":0,"transit":false,"time":2,"i_long":106.922662},{"station_id":"KLDB","time":1,"line":1,"station_name":"Klenderbaru","distance":1305,"i_long":106.939679,"is_transit":false,"i_lat":-6.217455,"transit":false},{"transit":false,"line":0,"i_lat":-6.219053,"i_long":106.951283,"is_transit":false,"time":8,"station_name":"Cakung","distance":1385,"station_id":"CUK"},{"is_transit":false,"station_id":"KRI","i_lat":-6.224515,"distance":3097,"i_long":106.977657,"line":1,"station_name":"Kranji","transit":false,"time":3},{"distance":2520,"station_id":"BKS","station_name":"Bekasi","time":4,"i_long":106.997013,"line":0,"is_transit":false,"transit":false,"i_lat":-6.236616},{"line":0,"station_name":"Bekasi Timur","station_id":"BKST","i_lat":-6.248029,"is_transit":false,"distance":2368,"transit":false,"i_long":107.016735,"time":2},{"station_id":"TB","is_transit":false,"time":7,"i_lat":-6.258864,"station_name":"Tambun","line":1,"i_long":107.055722,"transit":false,"distance":4460}],[{"station_name":"Pondok Cina","is_transit":false,"distance":0,"time":0,"station_id":"POC","i_long":106.831114,"transit":false,"i_lat":-6.369073,"line":2},{"distance":1109,"station_name":"Univ. Indonesia","i_long":106.831474,"station_id":"UI","transit":false,"i_lat":-6.360749,"line":2,"is_transit":false,"time":2},{"transit":false,"is_transit":false,"station_id":"UP","i_lat":-6.339291,"time":3,"distance":2264,"station_name":"Univ. Pancasila","line":2,"i_long":106.834175},{"transit":false,"station_name":"Lenteng Agung","distance":1029,"time":2,"is_transit":false,"station_id":"LNA","i_lat":-6.330363,"i_long":106.832616,"line":2},{"is_transit":false,"time":3,"distance":2671,"line":2,"station_name":"Tanjung Barat","station_id":"TNT","i_long":106.838896,"transit":false,"i_lat":-6.3080680000000005},{"distance":2820,"station_name":"Pasar Minggu","time":4,"is_transit":false,"station_id":"PSM","i_lat":-6.2842400000000005,"line":2,"i_long":106.843999,"transit":false},{"distance":2380,"is_transit":false,"station_name":"Pasar Minggu Baru","station_id":"PSMB","transit":false,"time":2,"i_long":106.851577,"i_lat":-6.263214,"line":2},{"station_id":"DRN","i_long":106.85449,"station_name":"Duren Kalibata","transit":false,"time":2,"i_lat":-6.255332,"distance":824,"line":0,"is_transit":false},{"is_transit":false,"i_long":106.856607,"station_id":"CW","time":3,"i_lat":-6.242512,"line":0,"station_name":"Cawang","transit":false,"distance":1546},{"transit":false,"is_transit":false,"station_name":"Tebet","station_id":"TEB","i_lat":-6.226659,"i_long":106.857948,"line":2,"distance":1230,"time":2},{"station_id":"MRI","i_lat":-6.209883,"i_long":106.84912,"is_transit":true,"time":4,"line":0,"station_name":"Manggarai","transit":true,"distance":2610},{"line":0,"station_name":"Cikini","station_id":"CKI","distance":1590,"is_transit":false,"transit":false,"time":4,"i_lat":-6.198556,"i_long":106.840169},{"i_long":106.832183,"time":3,"distance":1750,"is_transit":false,"station_id":"GDD","i_lat":-6.186295,"station_name":"Gondangdia","line":2,"transit":false},{"line":2,"station_id":"JUA","distance":2015,"transit":false,"station_name":"Juanda","i_lat":-6.166716,"i_long":106.828284,"time":4,"is_transit":false},{"i_long":106.827103,"distance":1149,"is_transit":false,"station_name":"Sawah Besar","time":2,"i_lat":-6.160725,"line":2,"transit":false,"station_id":"SW"},{"is_transit":false,"station_id":"MGB","i_long":106.82482,"distance":906,"station_name":"Manggabesar","transit":false,"time":2,"i_lat":-6.149769,"line":2},{"i_long":106.820901,"line":7,"time":2,"transit":false,"is_transit":false,"station_name":"Jayakarta","station_id":"JAY","i_lat":-6.141205,"distance":1080},{"transit":true,"i_lat":-6.137569,"station_name":"Jakarta Kota","station_id":"JAKK","line":0,"is_transit":true,"i_long":106.812439,"time":4,"distance":1264},{"i_long":106.826365,"transit":true,"i_lat":-6.132549,"distance":1364,"line":0,"station_name":"Kampung Bandan","station_id":"KPB","is_transit":true,"time":3},{"i_long":106.836569,"is_transit":false,"distance":1444,"station_id":"RJW","transit":false,"station_name":"Rajawali","line":11,"time":3,"i_lat":-6.14505},{"i_long":106.839204,"distance":1901,"is_transit":false,"i_lat":-6.161728,"line":11,"transit":false,"time":5,"station_id":"KMO","station_name":"Kemayoran"},{"i_long":106.84368,"time":4,"line":11,"is_transit":false,"station_name":"Pasar Senen","distance":1436,"station_id":"PSE","transit":false,"i_lat":-6.174784},{"time":8,"i_long":106.850107,"line":11,"station_name":"Gang Sentiong","i_lat":-6.185975,"distance":1567,"transit":false,"is_transit":false,"station_id":"GST"},{"station_id":"KMT","transit":false,"line":11,"station_name":"Kramat","i_long":106.855437,"distance":973,"is_transit":false,"time":1,"i_lat":-6.193792},{"line":11,"i_lat":-6.209188,"station_name":"Pondok Jati","i_long":106.861737,"station_id":"POK","distance":1829,"transit":false,"time":2,"is_transit":false},{"transit":true,"station_name":"Jatinegara","i_lat":-6.215091,"line":0,"i_long":106.86807400000001,"distance":1236,"station_id":"JNG","is_transit":true,"time":9},{"station_id":"KLD","time":3,"distance":3395,"i_lat":-6.2135,"is_transit":false,"station_name":"Klender","line":1,"i_long":106.899548,"transit":false},{"is_transit":false,"distance":3100,"station_name":"Buaran","station_id":"BUA","transit":false,"i_lat":-6.215568,"i_long":106.922662,"line":0,"time":2},{"distance":1305,"station_name":"Klenderbaru","i_long":106.939679,"line":1,"station_id":"KLDB","is_transit":false,"transit":false,"i_lat":-6.217455,"time":1},{"station_id":"CUK","time":8,"i_lat":-6.219053,"line":0,"distance":1385,"i_long":106.951283,"station_name":"Cakung","transit":false,"is_transit":false},{"station_id":"KRI","transit":false,"i_long":106.977657,"is_transit":false,"station_name":"Kranji","distance":3097,"i_lat":-6.224515,"time":3,"line":1},{"station_id":"BKS","transit":false,"time":4,"is_transit":false,"station_name":"Bekasi","i_long":106.997013,"distance":2520,"i_lat":-6.236616,"line":0},{"line":0,"station_name":"Bekasi Timur","distance":2368,"station_id":"BKST","transit":false,"i_long":107.016735,"time":2,"i_lat":-6.248029,"is_transit":false},{"i_lat":-6.258864,"i_long":107.055722,"station_id":"TB","line":1,"station_name":"Tambun","distance":4460,"is_transit":false,"time":7,"transit":false}]]}