{"data":[[{"is_transit":false,"station_name":"Pondok Cina","time":0,"i_long":106.831114,"line":2,"distance":0,"transit":false,"i_lat":-6.369073,"station_id":"POC"},{"time":4,"is_transit":false,"i_long":106.819451,"transit":false,"station_name":"Depokbaru","i_lat":-6.391065,"station_id":"DPB","distance":2727,"line":2},{"station_name":"Depok","time":3,"is_transit":false,"line":2,"transit":false,"station_id":"DP","i_lat":-6.405256,"i_long":106.816926,"distance":1584},{"i_long":106.800298,"station_id":"CTA","distance":5084,"transit":true,"station_name":"Citayam","time":6,"i_lat":-6.448811,"line":2,"is_transit":true},{"distance":0,"station_id":"PDRG","is_transit":false,"time":0,"i_long":106.824374,"transit":false,"i_lat":-6.460735,"line":21,"station_name":"Pondok Rajeg"},{"i_long":106.851978,"transit":false,"time":0,"station_id":"CBN","line":21,"station_name":"Cibinong","i_lat":-6.46424,"distance":0,"is_transit":false},{"station_id":"NMO","distance":6527,"line":21,"transit":false,"time":10,"station_name":"Nambo","i_long":106.905196,"is_transit":false,"i_lat":-6.466285}]]}