{"data":[[{"line":2,"i_long":106.831114,"time":0,"is_transit":false,"i_lat":-6.369073,"distance":0,"transit":false,"station_name":"Pondok Cina","station_id":"POC"},{"transit":false,"i_long":106.831474,"line":2,"is_transit":false,"i_lat":-6.360749,"station_name":"Univ. Indonesia","time":2,"distance":1109,"station_id":"UI"},{"i_lat":-6.339291,"is_transit":false,"transit":false,"station_id":"UP","time":3,"station_name":"Univ. Pancasila","distance":2264,"i_long":106.834175,"line":2},{"station_id":"LNA","distance":1029,"station_name":"Lenteng Agung","i_lat":-6.330363,"time":2,"i_long":106.832616,"line":2,"transit":false,"is_transit":false},{"distance":2671,"i_lat":-6.3080680000000005,"i_long":106.838896,"transit":false,"station_id":"TNT","station_name":"Tanjung Barat","is_transit":false,"time":3,"line":2},{"is_transit":false,"time":4,"line":2,"station_id":"PSM","i_long":106.843999,"distance":2820,"station_name":"Pasar Minggu","i_lat":-6.2842400000000005,"transit":false},{"i_lat":-6.263214,"i_long":106.851577,"transit":false,"distance":2380,"is_transit":false,"line":2,"station_id":"PSMB","time":2,"station_name":"Pasar Minggu Baru"},{"station_id":"DRN","i_lat":-6.255332,"i_long":106.85449,"is_transit":false,"time":2,"distance":824,"station_name":"Duren Kalibata","transit":false,"line":2},{"station_id":"CW","transit":false,"distance":1546,"i_lat":-6.242512,"i_long":106.856607,"is_transit":false,"line":2,"time":3,"station_name":"Cawang"},{"transit":false,"station_name":"Tebet","is_transit":false,"i_long":106.857948,"line":2,"time":2,"distance":1230,"i_lat":-6.226659,"station_id":"TEB"},{"i_long":106.84912,"station_id":"MRI","station_name":"Manggarai","is_transit":true,"time":4,"distance":2610,"i_lat":-6.209883,"transit":true,"line":2},{"transit":false,"line":1,"distance":1275,"is_transit":false,"i_long":106.858896,"time":2,"station_name":"Matraman","station_id":"MTR","i_lat":-6.212485},{"station_name":"Jatinegara","i_lat":-6.215091,"time":8,"i_long":106.86807400000001,"line":1,"distance":1377,"station_id":"JNG","is_transit":false,"transit":false},{"is_transit":false,"transit":false,"line":1,"i_lat":-6.2135,"distance":3395,"time":3,"station_id":"KLD","i_long":106.899548,"station_name":"Klender"},{"is_transit":false,"station_id":"BUA","transit":false,"time":2,"i_lat":-6.215568,"i_long":106.922662,"station_name":"Buaran","line":1,"distance":3100},{"station_id":"KLDB","i_lat":-6.217455,"i_long":106.939679,"transit":false,"line":1,"time":1,"distance":1305,"is_transit":false,"station_name":"Klenderbaru"},{"i_long":106.951283,"i_lat":-6.219053,"station_name":"Cakung","line":1,"is_transit":false,"time":8,"transit":false,"distance":1385,"station_id":"CUK"},{"time":3,"distance":3097,"line":1,"i_lat":-6.224515,"station_id":"KRI","transit":false,"station_name":"Kranji","is_transit":false,"i_long":106.977657},{"time":4,"distance":2520,"transit":false,"line":1,"station_id":"BKS","i_long":106.997013,"i_lat":-6.236616,"is_transit":false,"station_name":"Bekasi"},{"i_lat":-6.248029,"station_name":"Bekasi Timur","distance":2368,"station_id":"BKST","time":2,"line":1,"i_long":107.016735,"is_transit":false,"transit":false},{"transit":false,"time":7,"station_name":"Tambun","distance":4460,"line":1,"is_transit":false,"i_lat":-6.258864,"station_id":"TB","i_long":107.055722},{"line":1,"distance":3420,"station_id":"CIT","station_name":"Cibitung","transit":false,"is_transit":false,"time":3,"i_lat":-6.261877,"i_long":107.083084},{"station_id":"TLM","time":2,"line":1,"is_transit":false,"distance":2800,"i_long":107.093313,"i_lat":-6.262938,"transit":false,"station_name":"Metland Telaga Murni"}],[{"transit":false,"station_name":"Pondok Cina","i_long":106.831114,"distance":0,"i_lat":-6.369073,"time":0,"line":2,"is_transit":false,"station_id":"POC"},{"distance":1109,"i_lat":-6.360749,"i_long":106.831474,"transit":false,"line":2,"station_id":"UI","is_transit":false,"time":2,"station_name":"Univ. Indonesia"},{"station_name":"Univ. Pancasila","i_long":106.834175,"transit":false,"line":2,"is_transit":false,"time":3,"distance":2264,"i_lat":-6.339291,"station_id":"UP"},{"distance":1029,"i_long":106.832616,"station_name":"Lenteng Agung","station_id":"LNA","is_transit":false,"transit":false,"i_lat":-6.330363,"time":2,"line":2},{"i_lat":-6.3080680000000005,"station_id":"TNT","distance":2671,"i_long":106.838896,"transit":false,"time":3,"is_transit":false,"station_name":"Tanjung Barat","line":2},{"station_id":"PSM","is_transit":false,"station_name":"Pasar Minggu","i_long":106.843999,"time":4,"line":2,"transit":false,"i_lat":-6.2842400000000005,"distance":2820},{"station_id":"PSMB","i_long":106.851577,"station_name":"Pasar Minggu Baru","i_lat":-6.263214,"distance":2380,"transit":false,"is_transit":false,"line":2,"time":2},{"station_name":"Duren Kalibata","time":2,"station_id":"DRN","is_transit":false,"distance":824,"i_lat":-6.255332,"transit":false,"i_long":106.85449,"line":2},{"is_transit":false,"time":3,"i_long":106.856607,"station_id":"CW","transit":false,"i_lat":-6.242512,"line":2,"station_name":"Cawang","distance":1546},{"distance":1230,"i_long":106.857948,"station_name":"Tebet","i_lat":-6.226659,"station_id":"TEB","time":2,"line":2,"transit":false,"is_transit":false},{"is_transit":true,"i_lat":-6.209883,"i_long":106.84912,"station_id":"MRI","transit":true,"time":4,"distance":2610,"station_name":"Manggarai","line":2},{"station_id":"SUD","i_long":106.822649,"line":1,"transit":false,"time":4,"station_name":"Sudirman","distance":3186,"is_transit":false,"i_lat":-6.202263},{"line":1,"i_lat":-6.201433,"station_name":"Sudirman Baru","station_id":"SUDB","i_long":106.819881,"time":1,"transit":false,"is_transit":false,"distance":280},{"station_id":"KAT","is_transit":false,"distance":471,"transit":false,"station_name":"Karet","i_long":106.816351,"time":1,"i_lat":-6.20132,"line":1},{"distance":2029,"transit":false,"is_transit":false,"station_id":"THB","station_name":"Tanah Abang","line":1,"i_long":106.811091,"time":5,"i_lat":-6.185545},{"station_id":"DU","time":8,"i_lat":-6.155215,"transit":false,"distance":3632,"i_long":106.800832,"is_transit":false,"station_name":"Duri","line":1},{"time":4,"i_long":106.79867,"transit":false,"is_transit":false,"distance":1230,"station_name":"Angke","station_id":"AK","line":1,"i_lat":-6.144674},{"line":4,"time":9,"transit":true,"i_long":106.826365,"station_id":"KPB","station_name":"Kampung Bandan","i_lat":-6.132549,"is_transit":true,"distance":4102},{"i_long":106.836569,"time":3,"transit":false,"line":11,"station_name":"Rajawali","distance":1444,"i_lat":-6.14505,"station_id":"RJW","is_transit":false},{"is_transit":false,"line":11,"i_long":106.839204,"transit":false,"distance":1901,"time":5,"station_id":"KMO","i_lat":-6.161728,"station_name":"Kemayoran"},{"is_transit":false,"line":11,"distance":1436,"i_long":106.84368,"i_lat":-6.174784,"station_name":"Pasar Senen","time":4,"station_id":"PSE","transit":false},{"distance":1567,"line":11,"station_id":"GST","time":8,"transit":false,"i_lat":-6.185975,"i_long":106.850107,"station_name":"Gang Sentiong","is_transit":false},{"transit":false,"line":11,"distance":973,"i_lat":-6.193792,"station_name":"Kramat","station_id":"KMT","i_long":106.855437,"is_transit":false,"time":1},{"is_transit":false,"i_long":106.861737,"line":11,"distance":1829,"time":2,"i_lat":-6.209188,"transit":false,"station_name":"Pondok Jati","station_id":"POK"},{"i_long":106.86807400000001,"station_id":"JNG","distance":1236,"is_transit":true,"station_name":"Jatinegara","transit":true,"time":9,"i_lat":-6.215091,"line":1},{"line":1,"time":3,"transit":false,"station_name":"Klender","i_lat":-6.2135,"station_id":"KLD","distance":3395,"is_transit":false,"i_long":106.899548},{"station_id":"BUA","transit":false,"time":2,"i_long":106.922662,"line":1,"station_name":"Buaran","is_transit":false,"i_lat":-6.215568,"distance":3100},{"time":1,"station_name":"Klenderbaru","station_id":"KLDB","i_lat":-6.217455,"distance":1305,"i_long":106.939679,"line":1,"is_transit":false,"transit":false},{"line":1,"transit":false,"station_id":"CUK","time":8,"distance":1385,"i_long":106.951283,"is_transit":false,"i_lat":-6.219053,"station_name":"Cakung"},{"is_transit":false,"time":3,"i_lat":-6.224515,"station_id":"KRI","station_name":"Kranji","transit":false,"distance":3097,"i_long":106.977657,"line":1},{"transit":false,"station_id":"BKS","i_lat":-6.236616,"station_name":"Bekasi","line":1,"i_long":106.997013,"is_transit":false,"distance":2520,"time":4},{"i_long":107.016735,"line":1,"time":2,"i_lat":-6.248029,"is_transit":false,"transit":false,"distance":2368,"station_id":"BKST","station_name":"Bekasi Timur"},{"station_id":"TB","station_name":"Tambun","is_transit":false,"distance":4460,"line":1,"i_long":107.055722,"transit":false,"i_lat":-6.258864,"time":7},{"i_lat":-6.261877,"distance":3420,"is_transit":false,"i_long":107.083084,"time":3,"station_id":"CIT","line":1,"transit":false,"station_name":"Cibitung"},{"i_long":107.093313,"station_name":"Metland Telaga Murni","i_lat":-6.262938,"distance":2800,"station_id":"TLM","transit":false,"is_transit":false,"time":2,"line":1}],[{"station_name":"Pondok Cina","line":2,"station_id":"POC","time":0,"i_lat":-6.369073,"transit":false,"i_long":106.831114,"distance":0,"is_transit":false},{"station_id":"UI","station_name":"Univ. Indonesia","is_transit":false,"time":2,"distance":1109,"i_lat":-6.360749,"i_long":106.831474,"line":2,"transit":false},{"line":2,"station_id":"UP","i_long":106.834175,"time":3,"i_lat":-6.339291,"station_name":"Univ. Pancasila","transit":false,"is_transit":false,"distance":2264},{"time":2,"i_lat":-6.330363,"station_id":"LNA","station_name":"Lenteng Agung","distance":1029,"i_long":106.832616,"line":2,"transit":false,"is_transit":false},{"transit":false,"distance":2671,"line":2,"time":3,"station_id":"TNT","is_transit":false,"i_lat":-6.3080680000000005,"i_long":106.838896,"station_name":"Tanjung Barat"},{"line":2,"distance":2820,"is_transit":false,"transit":false,"station_name":"Pasar Minggu","i_lat":-6.2842400000000005,"time":4,"station_id":"PSM","i_long":106.843999},{"i_lat":-6.263214,"line":2,"station_name":"Pasar Minggu Baru","station_id":"PSMB","transit":false,"time":2,"i_long":106.851577,"is_transit":false,"distance":2380},{"is_transit":false,"transit":false,"station_name":"Duren Kalibata","line":2,"distance":824,"i_lat":-6.255332,"i_long":106.85449,"station_id":"DRN","time":2},{"is_transit":false,"distance":1546,"i_lat":-6.242512,"i_long":106.856607,"transit":false,"line":2,"station_name":"Cawang","station_id":"CW","time":3},{"time":2,"line":2,"transit":false,"is_transit":false,"i_long":106.857948,"station_id":"TEB","station_name":"Tebet","distance":1230,"i_lat":-6.226659},{"i_long":106.84912,"station_id":"MRI","transit":false,"line":2,"distance":2610,"is_transit":false,"station_name":"Manggarai","i_lat":-6.209883,"time":4},{"station_id":"CKI","transit":false,"i_lat":-6.198556,"line":2,"i_long":106.840169,"is_transit":false,"time":4,"station_name":"Cikini","distance":1590},{"station_id":"GDD","i_long":106.832183,"is_transit":false,"transit":false,"distance":1750,"i_lat":-6.186295,"time":3,"line":2,"station_name":"Gondangdia"},{"station_name":"Juanda","distance":2015,"transit":false,"line":2,"time":4,"station_id":"JUA","i_lat":-6.166716,"i_long":106.828284,"is_transit":false},{"distance":1149,"line":2,"station_name":"Sawah Besar","time":2,"i_lat":-6.160725,"is_transit":false,"transit":false,"station_id":"SW","i_long":106.827103},{"station_name":"Manggabesar","line":2,"station_id":"MGB","transit":false,"is_transit":false,"time":2,"distance":906,"i_lat":-6.149769,"i_long":106.82482},{"station_id":"JAY","line":2,"is_transit":false,"time":2,"station_name":"Jayakarta","distance":1080,"transit":false,"i_long":106.820901,"i_lat":-6.141205},{"time":4,"station_id":"JAKK","i_long":106.812439,"transit":true,"distance":1264,"i_lat":-6.137569,"line":2,"is_transit":true,"station_name":"Jakarta Kota"},{"station_name":"Kampung Bandan","time":3,"i_lat":-6.132549,"is_transit":true,"line":4,"station_id":"KPB","distance":1364,"i_long":106.826365,"transit":true},{"station_name":"Rajawali","distance":1444,"is_transit":false,"transit":false,"station_id":"RJW","time":3,"i_lat":-6.14505,"i_long":106.836569,"line":11},{"transit":false,"station_id":"KMO","distance":1901,"i_lat":-6.161728,"line":11,"is_transit":false,"station_name":"Kemayoran","i_long":106.839204,"time":5},{"station_id":"PSE","time":4,"is_transit":false,"transit":false,"station_name":"Pasar Senen","distance":1436,"line":11,"i_long":106.84368,"i_lat":-6.174784},{"station_id":"GST","time":8,"station_name":"Gang Sentiong","i_long":106.850107,"distance":1567,"is_transit":false,"line":11,"transit":false,"i_lat":-6.185975},{"distance":973,"station_id":"KMT","is_transit":false,"station_name":"Kramat","transit":false,"time":1,"i_lat":-6.193792,"i_long":106.855437,"line":11},{"transit":false,"i_lat":-6.209188,"i_long":106.861737,"is_transit":false,"station_id":"POK","station_name":"Pondok Jati","line":11,"distance":1829,"time":2},{"station_id":"JNG","i_long":106.86807400000001,"distance":1236,"is_transit":true,"i_lat":-6.215091,"station_name":"Jatinegara","transit":true,"time":9,"line":1},{"time":3,"i_long":106.899548,"station_name":"Klender","transit":false,"is_transit":false,"station_id":"KLD","distance":3395,"i_lat":-6.2135,"line":1},{"station_name":"Buaran","distance":3100,"i_lat":-6.215568,"transit":false,"time":2,"i_long":106.922662,"line":1,"station_id":"BUA","is_transit":false},{"time":1,"transit":false,"station_id":"KLDB","i_long":106.939679,"is_transit":false,"distance":1305,"i_lat":-6.217455,"station_name":"Klenderbaru","line":1},{"station_name":"Cakung","i_lat":-6.219053,"station_id":"CUK","distance":1385,"line":1,"is_transit":false,"i_long":106.951283,"transit":false,"time":8},{"station_name":"Kranji","i_lat":-6.224515,"time":3,"i_long":106.977657,"transit":false,"distance":3097,"line":1,"station_id":"KRI","is_transit":false},{"i_lat":-6.236616,"station_id":"BKS","transit":false,"i_long":106.997013,"station_name":"Bekasi","is_transit":false,"time":4,"distance":2520,"line":1},{"station_id":"BKST","transit":false,"station_name":"Bekasi Timur","i_long":107.016735,"time":2,"i_lat":-6.248029,"line":1,"is_transit":false,"distance":2368},{"station_id":"TB","transit":false,"station_name":"Tambun","time":7,"line":1,"is_transit":false,"i_lat":-6.258864,"i_long":107.055722,"distance":4460},{"transit":false,"distance":3420,"line":1,"is_transit":false,"time":3,"station_id":"CIT","i_lat":-6.261877,"i_long":107.083084,"station_name":"Cibitung"},{"transit":false,"i_lat":-6.262938,"station_name":"Metland Telaga Murni","time":2,"station_id":"TLM","is_transit":false,"distance":2800,"i_long":107.093313,"line":1}]]}