{"data":[[{"transit":false,"is_transit":false,"i_long":106.831114,"station_id":"POC","line":2,"distance":0,"i_lat":-6.369073,"station_name":"Pondok Cina","time":0},{"is_transit":false,"i_long":106.819451,"station_id":"DPB","time":4,"station_name":"Depokbaru","line":0,"distance":2727,"i_lat":-6.391065,"transit":false},{"distance":1584,"time":3,"transit":false,"station_name":"Depok","is_transit":false,"i_long":106.816926,"line":0,"i_lat":-6.405256,"station_id":"DP"},{"is_transit":true,"distance":5084,"time":6,"i_long":106.800298,"station_name":"Citayam","station_id":"CTA","transit":false,"i_lat":-6.448811,"line":1},{"distance":6740,"time":10,"is_transit":false,"transit":false,"i_long":106.851978,"i_lat":-6.46424,"line":0,"station_id":"CBN","station_name":"Cibinong"}]]}