{"data":[[{"station_id":"POC","line":2,"distance":0,"transit":false,"station_name":"Pondok Cina","is_transit":false,"i_lat":-6.369073,"time":0,"i_long":106.831114},{"i_long":106.831474,"distance":1109,"station_id":"UI","time":2,"station_name":"Univ. Indonesia","transit":false,"line":2,"is_transit":false,"i_lat":-6.360749},{"distance":2264,"transit":false,"i_long":106.834175,"i_lat":-6.339291,"line":2,"is_transit":false,"station_id":"UP","time":3,"station_name":"Univ. Pancasila"},{"distance":1029,"line":2,"station_name":"Lenteng Agung","station_id":"LNA","i_lat":-6.330363,"time":2,"i_long":106.832616,"is_transit":false,"transit":false},{"time":3,"is_transit":false,"distance":2671,"transit":false,"station_name":"Tanjung Barat","station_id":"TNT","i_lat":-6.3080680000000005,"i_long":106.838896,"line":2},{"station_id":"PSM","station_name":"Pasar Minggu","i_long":106.843999,"is_transit":false,"time":4,"i_lat":-6.2842400000000005,"line":2,"distance":2820,"transit":false},{"time":2,"i_long":106.851577,"line":2,"station_id":"PSMB","distance":2380,"i_lat":-6.263214,"transit":false,"station_name":"Pasar Minggu Baru","is_transit":false},{"line":2,"time":2,"station_name":"Duren Kalibata","station_id":"DRN","i_long":106.85449,"i_lat":-6.255332,"distance":824,"transit":false,"is_transit":false},{"transit":false,"time":3,"distance":1546,"i_lat":-6.242512,"i_long":106.856607,"station_id":"CW","is_transit":false,"line":2,"station_name":"Cawang"},{"is_transit":false,"station_id":"TEB","station_name":"Tebet","i_lat":-6.226659,"distance":1230,"time":2,"i_long":106.857948,"line":2,"transit":false},{"station_name":"Manggarai","time":4,"i_long":106.84912,"transit":false,"station_id":"MRI","is_transit":false,"i_lat":-6.209883,"distance":2610,"line":2},{"line":2,"time":4,"transit":false,"distance":1590,"i_long":106.840169,"station_id":"CKI","is_transit":false,"i_lat":-6.198556,"station_name":"Cikini"},{"transit":false,"i_long":106.832183,"station_name":"Gondangdia","time":3,"station_id":"GDD","is_transit":false,"distance":1750,"i_lat":-6.186295,"line":2},{"station_name":"Juanda","distance":2015,"time":4,"is_transit":false,"i_lat":-6.166716,"line":2,"station_id":"JUA","transit":false,"i_long":106.828284},{"is_transit":false,"line":2,"station_name":"Sawah Besar","transit":false,"distance":1149,"time":2,"i_lat":-6.160725,"i_long":106.827103,"station_id":"SW"},{"time":2,"is_transit":false,"i_long":106.82482,"line":2,"i_lat":-6.149769,"station_name":"Manggabesar","transit":false,"distance":906,"station_id":"MGB"},{"is_transit":false,"i_long":106.820901,"line":2,"station_id":"JAY","i_lat":-6.141205,"distance":1080,"station_name":"Jayakarta","transit":false,"time":2}],[{"distance":0,"station_name":"Pondok Cina","is_transit":false,"station_id":"POC","i_long":106.831114,"time":0,"transit":false,"i_lat":-6.369073,"line":2},{"i_lat":-6.360749,"station_id":"UI","time":2,"station_name":"Univ. Indonesia","is_transit":false,"line":2,"transit":false,"distance":1109,"i_long":106.831474},{"station_id":"UP","line":2,"transit":false,"station_name":"Univ. Pancasila","time":3,"i_long":106.834175,"i_lat":-6.339291,"distance":2264,"is_transit":false},{"i_lat":-6.330363,"i_long":106.832616,"station_name":"Lenteng Agung","time":2,"distance":1029,"station_id":"LNA","is_transit":false,"line":2,"transit":false},{"i_long":106.838896,"time":3,"transit":false,"station_id":"TNT","line":2,"distance":2671,"station_name":"Tanjung Barat","is_transit":false,"i_lat":-6.3080680000000005},{"i_long":106.843999,"transit":false,"distance":2820,"is_transit":false,"time":4,"i_lat":-6.2842400000000005,"station_id":"PSM","line":2,"station_name":"Pasar Minggu"},{"distance":2380,"station_name":"Pasar Minggu Baru","station_id":"PSMB","is_transit":false,"time":2,"i_long":106.851577,"i_lat":-6.263214,"transit":false,"line":2},{"station_name":"Duren Kalibata","is_transit":false,"transit":false,"i_lat":-6.255332,"i_long":106.85449,"time":2,"line":2,"distance":824,"station_id":"DRN"},{"transit":false,"line":2,"station_name":"Cawang","distance":1546,"time":3,"i_long":106.856607,"station_id":"CW","i_lat":-6.242512,"is_transit":false},{"station_name":"Tebet","time":2,"distance":1230,"is_transit":false,"transit":false,"i_lat":-6.226659,"i_long":106.857948,"station_id":"TEB","line":2},{"distance":2610,"station_id":"MRI","i_long":106.84912,"time":4,"i_lat":-6.209883,"line":2,"station_name":"Manggarai","is_transit":true,"transit":true},{"distance":3186,"line":1,"station_name":"Sudirman","transit":false,"station_id":"SUD","i_long":106.822649,"time":4,"is_transit":false,"i_lat":-6.202263},{"line":1,"transit":false,"station_name":"Sudirman Baru","station_id":"SUDB","time":1,"distance":280,"is_transit":false,"i_lat":-6.201433,"i_long":106.819881},{"i_lat":-6.20132,"i_long":106.816351,"distance":471,"transit":false,"is_transit":false,"line":1,"time":1,"station_name":"Karet","station_id":"KAT"},{"i_long":106.811091,"line":1,"distance":2029,"station_name":"Tanah Abang","transit":false,"is_transit":false,"time":5,"station_id":"THB","i_lat":-6.185545},{"line":1,"time":8,"station_name":"Duri","distance":3632,"transit":false,"i_lat":-6.155215,"i_long":106.800832,"is_transit":false,"station_id":"DU"},{"distance":1230,"is_transit":false,"time":4,"line":1,"station_name":"Angke","i_lat":-6.144674,"station_id":"AK","transit":false,"i_long":106.79867},{"line":4,"time":9,"distance":4102,"i_long":106.826365,"i_lat":-6.132549,"transit":true,"is_transit":true,"station_name":"Kampung Bandan","station_id":"KPB"},{"i_lat":-6.137569,"station_name":"Jakarta Kota","line":2,"distance":1364,"i_long":106.812439,"transit":true,"station_id":"JAKK","is_transit":true,"time":3},{"i_long":106.820901,"station_id":"JAY","is_transit":false,"line":2,"station_name":"Jayakarta","distance":1264,"transit":false,"time":4,"i_lat":-6.141205}],[{"transit":false,"is_transit":false,"time":0,"station_name":"Pondok Cina","i_long":106.831114,"line":2,"station_id":"POC","distance":0,"i_lat":-6.369073},{"distance":1109,"i_long":106.831474,"station_name":"Univ. Indonesia","transit":false,"is_transit":false,"line":2,"time":2,"i_lat":-6.360749,"station_id":"UI"},{"line":2,"distance":2264,"i_lat":-6.339291,"transit":false,"is_transit":false,"station_name":"Univ. Pancasila","station_id":"UP","i_long":106.834175,"time":3},{"is_transit":false,"station_name":"Lenteng Agung","distance":1029,"i_lat":-6.330363,"line":2,"time":2,"station_id":"LNA","i_long":106.832616,"transit":false},{"station_id":"TNT","is_transit":false,"line":2,"transit":false,"i_lat":-6.3080680000000005,"distance":2671,"time":3,"station_name":"Tanjung Barat","i_long":106.838896},{"i_long":106.843999,"transit":false,"line":2,"distance":2820,"station_id":"PSM","i_lat":-6.2842400000000005,"station_name":"Pasar Minggu","is_transit":false,"time":4},{"station_name":"Pasar Minggu Baru","is_transit":false,"line":2,"time":2,"i_lat":-6.263214,"transit":false,"station_id":"PSMB","i_long":106.851577,"distance":2380},{"line":2,"transit":false,"station_name":"Duren Kalibata","distance":824,"station_id":"DRN","time":2,"i_long":106.85449,"i_lat":-6.255332,"is_transit":false},{"distance":1546,"i_long":106.856607,"station_id":"CW","is_transit":false,"line":2,"transit":false,"time":3,"station_name":"Cawang","i_lat":-6.242512},{"is_transit":false,"i_long":106.857948,"station_name":"Tebet","station_id":"TEB","transit":false,"time":2,"line":2,"i_lat":-6.226659,"distance":1230},{"distance":2610,"i_lat":-6.209883,"is_transit":true,"transit":true,"station_name":"Manggarai","time":4,"station_id":"MRI","i_long":106.84912,"line":2},{"i_lat":-6.212485,"time":2,"transit":false,"i_long":106.858896,"station_name":"Matraman","station_id":"MTR","distance":1275,"line":1,"is_transit":false},{"transit":true,"station_name":"Jatinegara","i_long":106.86807400000001,"is_transit":true,"i_lat":-6.215091,"station_id":"JNG","distance":1377,"time":8,"line":1},{"distance":1236,"is_transit":false,"time":2,"line":11,"transit":false,"i_lat":-6.209188,"station_name":"Pondok Jati","station_id":"POK","i_long":106.861737},{"line":11,"i_lat":-6.193792,"station_name":"Kramat","time":2,"distance":1829,"transit":false,"is_transit":false,"station_id":"KMT","i_long":106.855437},{"time":1,"station_name":"Gang Sentiong","i_long":106.850107,"line":11,"distance":973,"i_lat":-6.185975,"is_transit":false,"transit":false,"station_id":"GST"},{"distance":1567,"is_transit":false,"i_long":106.84368,"station_name":"Pasar Senen","transit":false,"time":8,"station_id":"PSE","i_lat":-6.174784,"line":11},{"time":4,"line":11,"station_name":"Kemayoran","is_transit":false,"i_long":106.839204,"transit":false,"station_id":"KMO","distance":1436,"i_lat":-6.161728},{"is_transit":false,"station_name":"Rajawali","station_id":"RJW","distance":1901,"i_long":106.836569,"i_lat":-6.14505,"time":5,"transit":false,"line":11},{"time":3,"transit":true,"i_long":106.826365,"station_id":"KPB","is_transit":true,"station_name":"Kampung Bandan","i_lat":-6.132549,"distance":1444,"line":4},{"is_transit":true,"time":3,"station_id":"JAKK","i_lat":-6.137569,"i_long":106.812439,"distance":1364,"line":2,"transit":true,"station_name":"Jakarta Kota"},{"i_lat":-6.141205,"i_long":106.820901,"is_transit":false,"transit":false,"time":4,"station_name":"Jayakarta","station_id":"JAY","distance":1264,"line":2}]]}