{"data":[[{"station_id":"POC","time":0,"distance":0,"line":2,"transit":false,"i_long":106.831114,"station_name":"Pondok Cina","is_transit":false,"i_lat":-6.369073},{"line":2,"is_transit":false,"i_long":106.831474,"station_name":"Univ. Indonesia","station_id":"UI","transit":false,"distance":1109,"time":2,"i_lat":-6.360749},{"time":3,"station_name":"Univ. Pancasila","distance":2264,"is_transit":false,"i_lat":-6.339291,"transit":false,"station_id":"UP","i_long":106.834175,"line":2},{"line":2,"is_transit":false,"time":2,"i_long":106.832616,"distance":1029,"i_lat":-6.330363,"station_name":"Lenteng Agung","station_id":"LNA","transit":false},{"distance":2671,"i_long":106.838896,"transit":false,"i_lat":-6.3080680000000005,"is_transit":false,"line":2,"time":3,"station_name":"Tanjung Barat","station_id":"TNT"},{"is_transit":false,"i_long":106.843999,"line":2,"station_id":"PSM","distance":2820,"transit":false,"station_name":"Pasar Minggu","time":4,"i_lat":-6.2842400000000005},{"station_name":"Pasar Minggu Baru","i_lat":-6.263214,"distance":2380,"i_long":106.851577,"is_transit":false,"time":2,"line":2,"station_id":"PSMB","transit":false},{"line":2,"transit":false,"i_long":106.85449,"station_name":"Duren Kalibata","is_transit":false,"station_id":"DRN","distance":824,"time":2,"i_lat":-6.255332},{"distance":1546,"transit":false,"i_long":106.856607,"station_name":"Cawang","station_id":"CW","time":3,"line":2,"is_transit":false,"i_lat":-6.242512},{"i_lat":-6.226659,"station_name":"Tebet","time":2,"station_id":"TEB","distance":1230,"transit":false,"i_long":106.857948,"is_transit":false,"line":2},{"station_name":"Manggarai","station_id":"MRI","distance":2610,"line":2,"i_long":106.84912,"transit":true,"i_lat":-6.209883,"is_transit":true,"time":4},{"distance":1275,"i_lat":-6.212485,"i_long":106.858896,"time":2,"transit":false,"station_name":"Matraman","station_id":"MTR","is_transit":false,"line":1},{"distance":1377,"i_lat":-6.215091,"transit":false,"line":1,"station_id":"JNG","station_name":"Jatinegara","is_transit":false,"time":8,"i_long":106.86807400000001},{"station_id":"KLD","line":1,"time":3,"transit":false,"is_transit":false,"distance":3395,"i_lat":-6.2135,"station_name":"Klender","i_long":106.899548},{"transit":false,"distance":3100,"is_transit":false,"i_long":106.922662,"time":2,"line":1,"station_id":"BUA","station_name":"Buaran","i_lat":-6.215568},{"station_id":"KLDB","is_transit":false,"station_name":"Klenderbaru","distance":1305,"time":1,"i_long":106.939679,"transit":false,"line":1,"i_lat":-6.217455}],[{"time":0,"i_long":106.831114,"i_lat":-6.369073,"transit":false,"station_id":"POC","station_name":"Pondok Cina","distance":0,"is_transit":false,"line":2},{"line":2,"station_id":"UI","i_long":106.831474,"is_transit":false,"station_name":"Univ. Indonesia","time":2,"transit":false,"distance":1109,"i_lat":-6.360749},{"i_lat":-6.339291,"transit":false,"station_name":"Univ. Pancasila","station_id":"UP","time":3,"i_long":106.834175,"distance":2264,"line":2,"is_transit":false},{"line":2,"i_long":106.832616,"is_transit":false,"distance":1029,"station_id":"LNA","i_lat":-6.330363,"transit":false,"station_name":"Lenteng Agung","time":2},{"station_id":"TNT","transit":false,"is_transit":false,"distance":2671,"i_lat":-6.3080680000000005,"station_name":"Tanjung Barat","time":3,"line":2,"i_long":106.838896},{"i_long":106.843999,"station_name":"Pasar Minggu","line":2,"distance":2820,"transit":false,"i_lat":-6.2842400000000005,"station_id":"PSM","time":4,"is_transit":false},{"time":2,"transit":false,"i_lat":-6.263214,"station_name":"Pasar Minggu Baru","station_id":"PSMB","is_transit":false,"distance":2380,"i_long":106.851577,"line":2},{"time":2,"i_long":106.85449,"i_lat":-6.255332,"is_transit":false,"distance":824,"transit":false,"station_id":"DRN","station_name":"Duren Kalibata","line":2},{"i_lat":-6.242512,"i_long":106.856607,"transit":false,"is_transit":false,"station_name":"Cawang","time":3,"station_id":"CW","distance":1546,"line":2},{"is_transit":false,"transit":false,"station_name":"Tebet","distance":1230,"i_lat":-6.226659,"station_id":"TEB","time":2,"i_long":106.857948,"line":2},{"station_id":"MRI","i_lat":-6.209883,"line":2,"station_name":"Manggarai","is_transit":true,"distance":2610,"transit":true,"time":4,"i_long":106.84912},{"distance":3186,"is_transit":false,"i_lat":-6.202263,"line":1,"station_id":"SUD","station_name":"Sudirman","transit":false,"time":4,"i_long":106.822649},{"transit":false,"station_name":"Sudirman Baru","time":1,"i_lat":-6.201433,"i_long":106.819881,"distance":280,"station_id":"SUDB","is_transit":false,"line":1},{"is_transit":false,"transit":false,"station_name":"Karet","station_id":"KAT","time":1,"distance":471,"i_lat":-6.20132,"i_long":106.816351,"line":1},{"distance":2029,"time":5,"station_id":"THB","i_lat":-6.185545,"station_name":"Tanah Abang","line":1,"i_long":106.811091,"transit":false,"is_transit":false},{"is_transit":false,"transit":false,"station_name":"Duri","time":8,"distance":3632,"station_id":"DU","i_long":106.800832,"line":1,"i_lat":-6.155215},{"station_name":"Angke","station_id":"AK","time":4,"distance":1230,"i_lat":-6.144674,"i_long":106.79867,"line":1,"is_transit":false,"transit":false},{"station_id":"KPB","transit":true,"line":4,"time":9,"station_name":"Kampung Bandan","distance":4102,"i_lat":-6.132549,"i_long":106.826365,"is_transit":true},{"station_name":"Rajawali","i_long":106.836569,"transit":false,"i_lat":-6.14505,"is_transit":false,"station_id":"RJW","distance":1444,"line":11,"time":3},{"is_transit":false,"station_id":"KMO","line":11,"station_name":"Kemayoran","i_lat":-6.161728,"distance":1901,"i_long":106.839204,"time":5,"transit":false},{"line":11,"time":4,"distance":1436,"i_long":106.84368,"transit":false,"i_lat":-6.174784,"station_name":"Pasar Senen","station_id":"PSE","is_transit":false},{"i_lat":-6.185975,"transit":false,"i_long":106.850107,"is_transit":false,"station_id":"GST","time":8,"line":11,"distance":1567,"station_name":"Gang Sentiong"},{"station_name":"Kramat","time":1,"i_long":106.855437,"station_id":"KMT","is_transit":false,"line":11,"transit":false,"distance":973,"i_lat":-6.193792},{"transit":false,"time":2,"is_transit":false,"station_id":"POK","distance":1829,"i_long":106.861737,"line":11,"i_lat":-6.209188,"station_name":"Pondok Jati"},{"station_id":"JNG","i_lat":-6.215091,"time":9,"i_long":106.86807400000001,"distance":1236,"is_transit":true,"line":1,"transit":true,"station_name":"Jatinegara"},{"i_lat":-6.2135,"transit":false,"i_long":106.899548,"station_name":"Klender","is_transit":false,"distance":3395,"time":3,"line":1,"station_id":"KLD"},{"time":2,"distance":3100,"i_lat":-6.215568,"line":1,"station_name":"Buaran","is_transit":false,"i_long":106.922662,"transit":false,"station_id":"BUA"},{"i_lat":-6.217455,"i_long":106.939679,"line":1,"station_name":"Klenderbaru","time":1,"station_id":"KLDB","distance":1305,"transit":false,"is_transit":false}],[{"line":2,"station_id":"POC","transit":false,"i_lat":-6.369073,"is_transit":false,"distance":0,"station_name":"Pondok Cina","i_long":106.831114,"time":0},{"station_name":"Univ. Indonesia","distance":1109,"time":2,"station_id":"UI","i_lat":-6.360749,"line":2,"is_transit":false,"i_long":106.831474,"transit":false},{"distance":2264,"i_long":106.834175,"station_id":"UP","station_name":"Univ. Pancasila","transit":false,"i_lat":-6.339291,"time":3,"line":2,"is_transit":false},{"i_long":106.832616,"i_lat":-6.330363,"line":2,"time":2,"station_name":"Lenteng Agung","station_id":"LNA","distance":1029,"is_transit":false,"transit":false},{"distance":2671,"is_transit":false,"transit":false,"time":3,"station_name":"Tanjung Barat","i_long":106.838896,"station_id":"TNT","line":2,"i_lat":-6.3080680000000005},{"i_long":106.843999,"is_transit":false,"line":2,"station_name":"Pasar Minggu","time":4,"transit":false,"i_lat":-6.2842400000000005,"distance":2820,"station_id":"PSM"},{"station_id":"PSMB","is_transit":false,"station_name":"Pasar Minggu Baru","distance":2380,"i_lat":-6.263214,"line":2,"i_long":106.851577,"transit":false,"time":2},{"station_id":"DRN","time":2,"transit":false,"i_long":106.85449,"distance":824,"i_lat":-6.255332,"is_transit":false,"line":2,"station_name":"Duren Kalibata"},{"station_name":"Cawang","distance":1546,"transit":false,"i_lat":-6.242512,"line":2,"is_transit":false,"i_long":106.856607,"station_id":"CW","time":3},{"line":2,"is_transit":false,"time":2,"transit":false,"i_long":106.857948,"i_lat":-6.226659,"station_id":"TEB","station_name":"Tebet","distance":1230},{"station_id":"MRI","i_lat":-6.209883,"time":4,"transit":false,"is_transit":false,"distance":2610,"i_long":106.84912,"line":2,"station_name":"Manggarai"},{"transit":false,"is_transit":false,"i_lat":-6.198556,"i_long":106.840169,"time":4,"distance":1590,"station_id":"CKI","station_name":"Cikini","line":2},{"i_long":106.832183,"time":3,"transit":false,"is_transit":false,"station_name":"Gondangdia","station_id":"GDD","distance":1750,"line":2,"i_lat":-6.186295},{"i_lat":-6.166716,"is_transit":false,"i_long":106.828284,"station_name":"Juanda","station_id":"JUA","line":2,"transit":false,"time":4,"distance":2015},{"time":2,"i_lat":-6.160725,"station_name":"Sawah Besar","line":2,"distance":1149,"i_long":106.827103,"transit":false,"station_id":"SW","is_transit":false},{"transit":false,"station_name":"Manggabesar","i_lat":-6.149769,"line":2,"distance":906,"is_transit":false,"station_id":"MGB","time":2,"i_long":106.82482},{"station_name":"Jayakarta","line":2,"i_lat":-6.141205,"distance":1080,"transit":false,"i_long":106.820901,"station_id":"JAY","is_transit":false,"time":2},{"station_name":"Jakarta Kota","station_id":"JAKK","transit":true,"distance":1264,"time":4,"is_transit":true,"i_lat":-6.137569,"line":2,"i_long":106.812439},{"line":4,"distance":1364,"transit":true,"station_name":"Kampung Bandan","station_id":"KPB","is_transit":true,"i_lat":-6.132549,"time":3,"i_long":106.826365},{"transit":false,"i_lat":-6.14505,"is_transit":false,"i_long":106.836569,"time":3,"station_name":"Rajawali","station_id":"RJW","line":11,"distance":1444},{"is_transit":false,"station_id":"KMO","distance":1901,"station_name":"Kemayoran","i_lat":-6.161728,"transit":false,"time":5,"i_long":106.839204,"line":11},{"transit":false,"distance":1436,"i_long":106.84368,"time":4,"station_id":"PSE","station_name":"Pasar Senen","line":11,"is_transit":false,"i_lat":-6.174784},{"distance":1567,"i_long":106.850107,"transit":false,"time":8,"is_transit":false,"line":11,"i_lat":-6.185975,"station_name":"Gang Sentiong","station_id":"GST"},{"i_long":106.855437,"line":11,"station_name":"Kramat","station_id":"KMT","is_transit":false,"time":1,"i_lat":-6.193792,"transit":false,"distance":973},{"i_lat":-6.209188,"transit":false,"is_transit":false,"station_id":"POK","time":2,"i_long":106.861737,"station_name":"Pondok Jati","line":11,"distance":1829},{"distance":1236,"station_id":"JNG","station_name":"Jatinegara","line":1,"is_transit":true,"i_lat":-6.215091,"transit":true,"i_long":106.86807400000001,"time":9},{"is_transit":false,"line":1,"station_id":"KLD","time":3,"i_long":106.899548,"transit":false,"station_name":"Klender","distance":3395,"i_lat":-6.2135},{"i_lat":-6.215568,"station_name":"Buaran","i_long":106.922662,"line":1,"is_transit":false,"time":2,"distance":3100,"station_id":"BUA","transit":false},{"i_long":106.939679,"distance":1305,"time":1,"transit":false,"station_id":"KLDB","station_name":"Klenderbaru","line":1,"i_lat":-6.217455,"is_transit":false}]]}