{"data":[[{"transit":false,"is_transit":false,"distance":0,"line":2,"station_id":"POC","time":0,"i_long":106.831114,"i_lat":-6.369073,"station_name":"Pondok Cina"},{"line":2,"station_id":"UI","station_name":"Univ. Indonesia","transit":false,"i_lat":-6.360749,"time":2,"distance":1109,"is_transit":false,"i_long":106.831474},{"is_transit":false,"distance":2264,"i_long":106.834175,"transit":false,"time":3,"station_id":"UP","i_lat":-6.339291,"line":2,"station_name":"Univ. Pancasila"},{"i_long":106.832616,"station_name":"Lenteng Agung","station_id":"LNA","is_transit":false,"transit":false,"time":2,"i_lat":-6.330363,"distance":1029,"line":2},{"station_name":"Tanjung Barat","transit":false,"time":3,"distance":2671,"i_lat":-6.3080680000000005,"is_transit":false,"i_long":106.838896,"station_id":"TNT","line":2},{"distance":2820,"transit":false,"i_lat":-6.2842400000000005,"station_name":"Pasar Minggu","time":4,"i_long":106.843999,"line":2,"station_id":"PSM","is_transit":false}]]}