{"data":[[{"time":0,"line":2,"station_name":"Pondok Cina","is_transit":false,"distance":0,"i_lat":-6.369073,"i_long":106.831114,"station_id":"POC","transit":false},{"transit":false,"i_long":106.831474,"time":2,"is_transit":false,"station_id":"UI","distance":1109,"station_name":"Univ. Indonesia","i_lat":-6.360749,"line":2},{"i_lat":-6.339291,"is_transit":false,"i_long":106.834175,"station_name":"Univ. Pancasila","distance":2264,"station_id":"UP","time":3,"transit":false,"line":2},{"transit":false,"i_long":106.832616,"station_id":"LNA","station_name":"Lenteng Agung","i_lat":-6.330363,"time":2,"line":2,"is_transit":false,"distance":1029},{"distance":2671,"i_long":106.838896,"is_transit":false,"line":2,"transit":false,"station_id":"TNT","station_name":"Tanjung Barat","i_lat":-6.3080680000000005,"time":3},{"distance":2820,"line":2,"i_long":106.843999,"is_transit":false,"station_name":"Pasar Minggu","station_id":"PSM","transit":false,"time":4,"i_lat":-6.2842400000000005}]]}