{"data":[[{"time":0,"station_id":"POC","transit":false,"distance":0,"is_transit":false,"i_long":106.831114,"line":2,"station_name":"Pondok Cina","i_lat":-6.369073},{"line":2,"time":2,"is_transit":false,"i_long":106.831474,"station_name":"Univ. Indonesia","transit":false,"i_lat":-6.360749,"station_id":"UI","distance":1109},{"i_long":106.834175,"distance":2264,"station_id":"UP","time":3,"line":2,"is_transit":false,"transit":false,"i_lat":-6.339291,"station_name":"Univ. Pancasila"},{"i_lat":-6.330363,"time":2,"i_long":106.832616,"is_transit":false,"line":2,"station_name":"Lenteng Agung","distance":1029,"transit":false,"station_id":"LNA"},{"station_id":"TNT","station_name":"Tanjung Barat","transit":false,"distance":2671,"time":3,"i_long":106.838896,"line":2,"i_lat":-6.3080680000000005,"is_transit":false},{"time":4,"i_lat":-6.2842400000000005,"i_long":106.843999,"distance":2820,"station_name":"Pasar Minggu","transit":false,"station_id":"PSM","line":2,"is_transit":false},{"time":2,"is_transit":false,"station_id":"PSMB","distance":2380,"line":2,"i_long":106.851577,"station_name":"Pasar Minggu Baru","transit":false,"i_lat":-6.263214},{"station_name":"Duren Kalibata","line":2,"transit":false,"station_id":"DRN","distance":824,"i_long":106.85449,"time":2,"i_lat":-6.255332,"is_transit":false},{"station_id":"CW","station_name":"Cawang","time":3,"transit":false,"line":2,"distance":1546,"i_lat":-6.242512,"is_transit":false,"i_long":106.856607},{"distance":1230,"is_transit":false,"station_name":"Tebet","time":2,"station_id":"TEB","i_lat":-6.226659,"transit":false,"i_long":106.857948,"line":2},{"is_transit":true,"station_id":"MRI","time":4,"line":2,"station_name":"Manggarai","distance":2610,"transit":true,"i_long":106.84912,"i_lat":-6.209883},{"station_name":"Sudirman","time":4,"transit":false,"station_id":"SUD","line":1,"is_transit":false,"i_long":106.822649,"distance":3186,"i_lat":-6.202263},{"i_lat":-6.201433,"transit":false,"station_name":"Sudirman Baru","i_long":106.819881,"is_transit":false,"time":1,"station_id":"SUDB","line":1,"distance":280},{"i_long":106.816351,"distance":471,"i_lat":-6.20132,"transit":false,"line":1,"is_transit":false,"station_name":"Karet","station_id":"KAT","time":1},{"line":1,"transit":false,"i_lat":-6.185545,"distance":2029,"i_long":106.811091,"station_name":"Tanah Abang","is_transit":false,"station_id":"THB","time":5},{"station_name":"Duri","i_long":106.800832,"transit":true,"line":1,"is_transit":true,"time":8,"i_lat":-6.155215,"station_id":"DU","distance":3632},{"distance":1700,"line":5,"station_name":"Grogol","is_transit":false,"time":3,"station_id":"GGL","i_long":106.788277,"i_lat":-6.162021,"transit":false},{"is_transit":false,"station_id":"PSG","i_lat":-6.161433,"transit":false,"distance":2036,"i_long":106.771379,"line":5,"station_name":"Pesing","time":2},{"is_transit":false,"station_id":"TKO","transit":false,"i_long":106.756522,"distance":1614,"time":2,"station_name":"Taman Kota","i_lat":-6.1587309999999995,"line":5},{"i_lat":-6.159876,"i_long":106.737035,"distance":2334,"line":5,"time":2,"transit":false,"station_name":"Bojongindah","is_transit":false,"station_id":"BOI"}],[{"transit":false,"time":0,"line":2,"distance":0,"station_id":"POC","station_name":"Pondok Cina","i_lat":-6.369073,"is_transit":false,"i_long":106.831114},{"transit":false,"time":2,"i_lat":-6.360749,"i_long":106.831474,"station_id":"UI","is_transit":false,"station_name":"Univ. Indonesia","line":2,"distance":1109},{"is_transit":false,"time":3,"transit":false,"distance":2264,"station_id":"UP","station_name":"Univ. Pancasila","i_lat":-6.339291,"i_long":106.834175,"line":2},{"i_lat":-6.330363,"distance":1029,"i_long":106.832616,"time":2,"transit":false,"station_id":"LNA","station_name":"Lenteng Agung","line":2,"is_transit":false},{"i_long":106.838896,"is_transit":false,"station_name":"Tanjung Barat","station_id":"TNT","i_lat":-6.3080680000000005,"line":2,"transit":false,"distance":2671,"time":3},{"station_name":"Pasar Minggu","i_lat":-6.2842400000000005,"transit":false,"is_transit":false,"line":2,"station_id":"PSM","distance":2820,"i_long":106.843999,"time":4},{"line":2,"distance":2380,"station_id":"PSMB","transit":false,"i_lat":-6.263214,"is_transit":false,"i_long":106.851577,"time":2,"station_name":"Pasar Minggu Baru"},{"station_id":"DRN","line":2,"transit":false,"station_name":"Duren Kalibata","i_long":106.85449,"i_lat":-6.255332,"is_transit":false,"time":2,"distance":824},{"i_long":106.856607,"line":2,"is_transit":false,"time":3,"distance":1546,"station_id":"CW","station_name":"Cawang","i_lat":-6.242512,"transit":false},{"is_transit":false,"transit":false,"station_name":"Tebet","time":2,"i_lat":-6.226659,"distance":1230,"station_id":"TEB","i_long":106.857948,"line":2},{"station_name":"Manggarai","transit":false,"is_transit":false,"distance":2610,"time":4,"i_lat":-6.209883,"i_long":106.84912,"line":2,"station_id":"MRI"},{"station_name":"Cikini","time":4,"station_id":"CKI","i_long":106.840169,"transit":false,"i_lat":-6.198556,"distance":1590,"is_transit":false,"line":2},{"station_id":"GDD","i_long":106.832183,"i_lat":-6.186295,"time":3,"is_transit":false,"distance":1750,"transit":false,"station_name":"Gondangdia","line":2},{"transit":false,"station_name":"Juanda","i_lat":-6.166716,"i_long":106.828284,"time":4,"distance":2015,"is_transit":false,"line":2,"station_id":"JUA"},{"time":2,"i_lat":-6.160725,"line":2,"station_name":"Sawah Besar","i_long":106.827103,"station_id":"SW","transit":false,"is_transit":false,"distance":1149},{"station_id":"MGB","i_long":106.82482,"distance":906,"station_name":"Manggabesar","time":2,"is_transit":false,"line":2,"transit":false,"i_lat":-6.149769},{"station_id":"JAY","distance":1080,"i_long":106.820901,"transit":false,"is_transit":false,"station_name":"Jayakarta","time":2,"line":2,"i_lat":-6.141205},{"station_name":"Jakarta Kota","time":4,"i_long":106.812439,"distance":1264,"i_lat":-6.137569,"line":2,"transit":true,"is_transit":true,"station_id":"JAKK"},{"time":3,"is_transit":true,"station_id":"KPB","i_long":106.826365,"line":4,"i_lat":-6.132549,"station_name":"Kampung Bandan","distance":1364,"transit":true},{"distance":4102,"i_lat":-6.144674,"station_id":"AK","transit":false,"station_name":"Angke","time":9,"i_long":106.79867,"is_transit":false,"line":1},{"i_lat":-6.155215,"transit":true,"station_id":"DU","distance":1230,"station_name":"Duri","i_long":106.800832,"line":1,"is_transit":true,"time":4},{"distance":1700,"station_name":"Grogol","line":5,"station_id":"GGL","is_transit":false,"transit":false,"i_lat":-6.162021,"i_long":106.788277,"time":3},{"station_id":"PSG","i_lat":-6.161433,"distance":2036,"time":2,"i_long":106.771379,"is_transit":false,"transit":false,"line":5,"station_name":"Pesing"},{"i_long":106.756522,"distance":1614,"i_lat":-6.1587309999999995,"is_transit":false,"station_id":"TKO","line":5,"time":2,"transit":false,"station_name":"Taman Kota"},{"station_id":"BOI","i_lat":-6.159876,"distance":2334,"i_long":106.737035,"time":2,"transit":false,"line":5,"is_transit":false,"station_name":"Bojongindah"}],[{"distance":0,"transit":false,"i_long":106.831114,"i_lat":-6.369073,"is_transit":false,"line":2,"station_id":"POC","time":0,"station_name":"Pondok Cina"},{"i_long":106.831474,"i_lat":-6.360749,"time":2,"transit":false,"station_name":"Univ. Indonesia","line":2,"is_transit":false,"station_id":"UI","distance":1109},{"i_long":106.834175,"i_lat":-6.339291,"is_transit":false,"line":2,"station_id":"UP","transit":false,"station_name":"Univ. Pancasila","distance":2264,"time":3},{"i_lat":-6.330363,"station_name":"Lenteng Agung","distance":1029,"station_id":"LNA","is_transit":false,"time":2,"line":2,"transit":false,"i_long":106.832616},{"line":2,"i_long":106.838896,"station_name":"Tanjung Barat","distance":2671,"station_id":"TNT","i_lat":-6.3080680000000005,"transit":false,"is_transit":false,"time":3},{"distance":2820,"station_name":"Pasar Minggu","is_transit":false,"time":4,"i_lat":-6.2842400000000005,"i_long":106.843999,"station_id":"PSM","line":2,"transit":false},{"is_transit":false,"time":2,"line":2,"transit":false,"station_name":"Pasar Minggu Baru","station_id":"PSMB","i_lat":-6.263214,"i_long":106.851577,"distance":2380},{"i_long":106.85449,"station_name":"Duren Kalibata","i_lat":-6.255332,"transit":false,"is_transit":false,"time":2,"line":2,"station_id":"DRN","distance":824},{"station_name":"Cawang","station_id":"CW","i_long":106.856607,"distance":1546,"line":2,"transit":false,"time":3,"i_lat":-6.242512,"is_transit":false},{"station_name":"Tebet","i_long":106.857948,"is_transit":false,"i_lat":-6.226659,"line":2,"time":2,"distance":1230,"station_id":"TEB","transit":false},{"i_long":106.84912,"time":4,"i_lat":-6.209883,"transit":true,"distance":2610,"is_transit":true,"station_id":"MRI","station_name":"Manggarai","line":2},{"i_lat":-6.212485,"time":2,"i_long":106.858896,"distance":1275,"transit":false,"is_transit":false,"line":1,"station_id":"MTR","station_name":"Matraman"},{"transit":true,"line":1,"station_name":"Jatinegara","is_transit":true,"distance":1377,"i_lat":-6.215091,"station_id":"JNG","i_long":106.86807400000001,"time":8},{"station_id":"POK","is_transit":false,"distance":1236,"station_name":"Pondok Jati","time":2,"i_lat":-6.209188,"line":11,"transit":false,"i_long":106.861737},{"line":11,"i_lat":-6.193792,"is_transit":false,"time":2,"station_id":"KMT","station_name":"Kramat","i_long":106.855437,"transit":false,"distance":1829},{"distance":973,"i_long":106.850107,"line":11,"station_id":"GST","is_transit":false,"station_name":"Gang Sentiong","transit":false,"time":1,"i_lat":-6.185975},{"line":11,"station_id":"PSE","i_lat":-6.174784,"i_long":106.84368,"distance":1567,"time":8,"is_transit":false,"station_name":"Pasar Senen","transit":false},{"distance":1436,"i_lat":-6.161728,"station_id":"KMO","is_transit":false,"time":4,"line":11,"transit":false,"station_name":"Kemayoran","i_long":106.839204},{"time":5,"transit":false,"station_name":"Rajawali","i_long":106.836569,"i_lat":-6.14505,"is_transit":false,"line":11,"station_id":"RJW","distance":1901},{"station_name":"Kampung Bandan","is_transit":true,"time":3,"i_long":106.826365,"line":4,"distance":1444,"transit":true,"i_lat":-6.132549,"station_id":"KPB"},{"is_transit":false,"i_lat":-6.144674,"i_long":106.79867,"station_name":"Angke","line":1,"station_id":"AK","time":9,"distance":4102,"transit":false},{"transit":true,"i_lat":-6.155215,"i_long":106.800832,"station_id":"DU","line":1,"station_name":"Duri","distance":1230,"is_transit":true,"time":4},{"i_long":106.788277,"time":3,"transit":false,"line":5,"distance":1700,"station_id":"GGL","is_transit":false,"station_name":"Grogol","i_lat":-6.162021},{"i_lat":-6.161433,"station_id":"PSG","station_name":"Pesing","distance":2036,"is_transit":false,"line":5,"i_long":106.771379,"time":2,"transit":false},{"i_lat":-6.1587309999999995,"transit":false,"is_transit":false,"i_long":106.756522,"distance":1614,"station_id":"TKO","station_name":"Taman Kota","time":2,"line":5},{"distance":2334,"station_name":"Bojongindah","i_long":106.737035,"is_transit":false,"transit":false,"time":2,"station_id":"BOI","i_lat":-6.159876,"line":5}]]}