{"data":[[{"i_lat":-6.369073,"line":2,"is_transit":false,"transit":false,"distance":0,"station_name":"Pondok Cina","time":0,"i_long":106.831114,"station_id":"POC"},{"distance":1109,"time":2,"station_id":"UI","i_long":106.831474,"i_lat":-6.360749,"transit":false,"is_transit":false,"line":2,"station_name":"Univ. Indonesia"},{"transit":false,"i_lat":-6.339291,"station_id":"UP","station_name":"Univ. Pancasila","i_long":106.834175,"time":3,"line":2,"distance":2264,"is_transit":false},{"i_lat":-6.330363,"time":2,"station_id":"LNA","station_name":"Lenteng Agung","distance":1029,"i_long":106.832616,"is_transit":false,"transit":false,"line":2},{"i_long":106.838896,"is_transit":false,"line":2,"station_name":"Tanjung Barat","i_lat":-6.3080680000000005,"transit":false,"station_id":"TNT","time":3,"distance":2671},{"line":2,"time":4,"is_transit":false,"station_name":"Pasar Minggu","transit":false,"i_long":106.843999,"station_id":"PSM","i_lat":-6.2842400000000005,"distance":2820},{"transit":false,"time":2,"line":2,"is_transit":false,"i_long":106.851577,"i_lat":-6.263214,"distance":2380,"station_name":"Pasar Minggu Baru","station_id":"PSMB"},{"station_name":"Duren Kalibata","transit":false,"distance":824,"i_long":106.85449,"is_transit":false,"time":2,"station_id":"DRN","i_lat":-6.255332,"line":2},{"line":2,"station_id":"CW","i_long":106.856607,"i_lat":-6.242512,"distance":1546,"is_transit":false,"time":3,"transit":false,"station_name":"Cawang"},{"i_long":106.857948,"i_lat":-6.226659,"station_id":"TEB","transit":false,"line":2,"distance":1230,"time":2,"station_name":"Tebet","is_transit":false},{"transit":true,"i_lat":-6.209883,"is_transit":true,"distance":2610,"station_name":"Manggarai","station_id":"MRI","time":4,"line":2,"i_long":106.84912},{"i_long":106.822649,"is_transit":false,"time":4,"transit":false,"station_name":"Sudirman","i_lat":-6.202263,"station_id":"SUD","distance":3186,"line":1},{"station_id":"SUDB","line":1,"is_transit":false,"distance":280,"transit":false,"time":1,"i_long":106.819881,"i_lat":-6.201433,"station_name":"Sudirman Baru"},{"i_long":106.816351,"station_name":"Karet","time":1,"transit":false,"station_id":"KAT","is_transit":false,"i_lat":-6.20132,"line":1,"distance":471},{"transit":false,"time":5,"distance":2029,"i_lat":-6.185545,"i_long":106.811091,"line":1,"station_id":"THB","station_name":"Tanah Abang","is_transit":false},{"distance":3632,"station_id":"DU","i_lat":-6.155215,"time":8,"i_long":106.800832,"is_transit":true,"transit":true,"line":1,"station_name":"Duri"},{"time":3,"transit":false,"i_long":106.788277,"station_name":"Grogol","distance":1700,"station_id":"GRG","line":5,"i_lat":-6.162021,"is_transit":false},{"time":2,"distance":2036,"is_transit":false,"transit":false,"station_name":"Pesing","station_id":"PSG","i_lat":-6.161433,"line":5,"i_long":106.771379},{"is_transit":false,"i_lat":-6.1587309999999995,"station_id":"TKO","line":5,"distance":1614,"station_name":"Taman Kota","i_long":106.756522,"transit":false,"time":2}],[{"time":0,"distance":0,"is_transit":false,"line":2,"transit":false,"station_name":"Pondok Cina","station_id":"POC","i_long":106.831114,"i_lat":-6.369073},{"line":2,"distance":1109,"transit":false,"time":2,"station_id":"UI","is_transit":false,"station_name":"Univ. Indonesia","i_long":106.831474,"i_lat":-6.360749},{"station_id":"UP","transit":false,"i_long":106.834175,"line":2,"station_name":"Univ. Pancasila","i_lat":-6.339291,"distance":2264,"time":3,"is_transit":false},{"i_lat":-6.330363,"distance":1029,"is_transit":false,"transit":false,"station_name":"Lenteng Agung","line":2,"i_long":106.832616,"time":2,"station_id":"LNA"},{"station_id":"TNT","i_lat":-6.3080680000000005,"distance":2671,"is_transit":false,"i_long":106.838896,"line":2,"transit":false,"time":3,"station_name":"Tanjung Barat"},{"is_transit":false,"station_name":"Pasar Minggu","transit":false,"i_lat":-6.2842400000000005,"i_long":106.843999,"line":2,"time":4,"distance":2820,"station_id":"PSM"},{"line":2,"transit":false,"station_name":"Pasar Minggu Baru","i_long":106.851577,"i_lat":-6.263214,"is_transit":false,"station_id":"PSMB","time":2,"distance":2380},{"time":2,"distance":824,"i_long":106.85449,"is_transit":false,"i_lat":-6.255332,"line":2,"transit":false,"station_id":"DRN","station_name":"Duren Kalibata"},{"i_long":106.856607,"transit":false,"station_id":"CW","i_lat":-6.242512,"time":3,"is_transit":false,"station_name":"Cawang","line":2,"distance":1546},{"distance":1230,"i_long":106.857948,"time":2,"station_name":"Tebet","line":2,"is_transit":false,"transit":false,"station_id":"TEB","i_lat":-6.226659},{"time":4,"i_lat":-6.209883,"transit":false,"station_id":"MRI","is_transit":false,"station_name":"Manggarai","line":2,"i_long":106.84912,"distance":2610},{"i_long":106.840169,"i_lat":-6.198556,"transit":false,"distance":1590,"line":2,"time":4,"station_name":"Cikini","is_transit":false,"station_id":"CKI"},{"distance":1750,"i_long":106.832183,"time":3,"transit":false,"station_name":"Gondangdia","is_transit":false,"i_lat":-6.186295,"station_id":"GDD","line":2},{"i_long":106.828284,"i_lat":-6.166716,"is_transit":false,"time":4,"transit":false,"distance":2015,"line":2,"station_name":"Juanda","station_id":"JUA"},{"line":2,"time":2,"is_transit":false,"distance":1149,"station_name":"Sawah Besar","station_id":"SW","transit":false,"i_lat":-6.160725,"i_long":106.827103},{"i_lat":-6.149769,"station_id":"MGB","transit":false,"station_name":"Manggabesar","is_transit":false,"distance":906,"time":2,"line":2,"i_long":106.82482},{"time":2,"station_name":"Jayakarta","station_id":"JAY","is_transit":false,"i_long":106.820901,"distance":1080,"line":2,"i_lat":-6.141205,"transit":false},{"station_id":"JAKK","transit":true,"is_transit":true,"station_name":"Jakarta Kota","time":4,"distance":1264,"i_lat":-6.137569,"line":2,"i_long":106.812439},{"station_id":"KPB","transit":true,"i_long":106.826365,"time":3,"distance":1364,"i_lat":-6.132549,"line":4,"station_name":"Kampung Bandan","is_transit":true},{"i_long":106.79867,"time":9,"station_name":"Angke","line":1,"i_lat":-6.144674,"transit":false,"is_transit":false,"station_id":"AK","distance":4102},{"station_name":"Duri","is_transit":true,"distance":1230,"line":1,"transit":true,"time":4,"i_long":106.800832,"station_id":"DU","i_lat":-6.155215},{"transit":false,"is_transit":false,"station_id":"GRG","time":3,"i_lat":-6.162021,"i_long":106.788277,"station_name":"Grogol","distance":1700,"line":5},{"station_name":"Pesing","station_id":"PSG","line":5,"time":2,"is_transit":false,"distance":2036,"transit":false,"i_long":106.771379,"i_lat":-6.161433},{"i_lat":-6.1587309999999995,"station_name":"Taman Kota","transit":false,"time":2,"line":5,"is_transit":false,"distance":1614,"station_id":"TKO","i_long":106.756522}],[{"station_id":"POC","time":0,"i_long":106.831114,"is_transit":false,"station_name":"Pondok Cina","transit":false,"line":2,"i_lat":-6.369073,"distance":0},{"time":2,"is_transit":false,"line":2,"station_name":"Univ. Indonesia","distance":1109,"transit":false,"i_long":106.831474,"i_lat":-6.360749,"station_id":"UI"},{"time":3,"transit":false,"distance":2264,"is_transit":false,"station_name":"Univ. Pancasila","i_lat":-6.339291,"i_long":106.834175,"station_id":"UP","line":2},{"station_id":"LNA","i_long":106.832616,"line":2,"station_name":"Lenteng Agung","i_lat":-6.330363,"distance":1029,"time":2,"is_transit":false,"transit":false},{"i_long":106.838896,"line":2,"station_id":"TNT","station_name":"Tanjung Barat","is_transit":false,"transit":false,"i_lat":-6.3080680000000005,"distance":2671,"time":3},{"is_transit":false,"i_lat":-6.2842400000000005,"line":2,"distance":2820,"time":4,"transit":false,"station_name":"Pasar Minggu","i_long":106.843999,"station_id":"PSM"},{"i_lat":-6.263214,"i_long":106.851577,"transit":false,"station_id":"PSMB","station_name":"Pasar Minggu Baru","is_transit":false,"line":2,"distance":2380,"time":2},{"station_id":"DRN","is_transit":false,"line":2,"station_name":"Duren Kalibata","i_long":106.85449,"time":2,"i_lat":-6.255332,"transit":false,"distance":824},{"station_name":"Cawang","distance":1546,"i_long":106.856607,"transit":false,"is_transit":false,"station_id":"CW","time":3,"i_lat":-6.242512,"line":2},{"transit":false,"distance":1230,"is_transit":false,"i_lat":-6.226659,"line":2,"i_long":106.857948,"station_name":"Tebet","station_id":"TEB","time":2},{"station_id":"MRI","transit":true,"line":2,"i_lat":-6.209883,"distance":2610,"time":4,"station_name":"Manggarai","is_transit":true,"i_long":106.84912},{"time":2,"is_transit":false,"i_long":106.858896,"station_name":"Matraman","line":1,"station_id":"MTR","distance":1275,"transit":false,"i_lat":-6.212485},{"is_transit":true,"i_long":106.86807400000001,"line":1,"distance":1377,"transit":true,"i_lat":-6.215091,"station_name":"Jatinegara","station_id":"JNG","time":8},{"i_long":106.861737,"line":11,"is_transit":false,"transit":false,"time":2,"i_lat":-6.209188,"station_name":"Pondok Jati","station_id":"POK","distance":1236},{"is_transit":false,"time":2,"distance":1829,"i_lat":-6.193792,"i_long":106.855437,"station_id":"KMT","station_name":"Kramat","transit":false,"line":11},{"time":1,"line":11,"i_long":106.850107,"distance":973,"station_name":"Gang Sentiong","is_transit":false,"station_id":"GST","i_lat":-6.185975,"transit":false},{"i_lat":-6.174784,"transit":false,"station_name":"Pasar Senen","time":8,"i_long":106.84368,"distance":1567,"station_id":"PSE","is_transit":false,"line":11},{"station_name":"Kemayoran","distance":1436,"time":4,"transit":false,"station_id":"KMO","i_long":106.839204,"line":11,"i_lat":-6.161728,"is_transit":false},{"is_transit":false,"i_lat":-6.14505,"time":5,"station_id":"RJW","line":11,"transit":false,"distance":1901,"i_long":106.836569,"station_name":"Rajawali"},{"station_name":"Kampung Bandan","station_id":"KPB","line":4,"is_transit":true,"i_lat":-6.132549,"distance":1444,"time":3,"transit":true,"i_long":106.826365},{"time":9,"is_transit":false,"line":1,"station_id":"AK","i_lat":-6.144674,"distance":4102,"i_long":106.79867,"station_name":"Angke","transit":false},{"i_long":106.800832,"distance":1230,"station_id":"DU","i_lat":-6.155215,"time":4,"station_name":"Duri","is_transit":true,"transit":true,"line":1},{"line":5,"i_long":106.788277,"time":3,"station_name":"Grogol","transit":false,"is_transit":false,"distance":1700,"i_lat":-6.162021,"station_id":"GRG"},{"station_id":"PSG","station_name":"Pesing","i_lat":-6.161433,"line":5,"time":2,"i_long":106.771379,"is_transit":false,"transit":false,"distance":2036},{"transit":false,"i_lat":-6.1587309999999995,"station_name":"Taman Kota","is_transit":false,"time":2,"line":5,"station_id":"TKO","distance":1614,"i_long":106.756522}]]}