{"data":[[{"station_id":"POC","station_name":"Pondok Cina","i_lat":-6.369073,"i_long":106.831114,"is_transit":false,"transit":false,"time":0,"distance":0,"line":2},{"distance":1109,"transit":false,"i_lat":-6.360749,"is_transit":false,"line":2,"time":2,"station_name":"Univ. Indonesia","i_long":106.831474,"station_id":"UI"},{"transit":false,"station_id":"UP","station_name":"Univ. Pancasila","is_transit":false,"i_lat":-6.339291,"line":2,"time":3,"i_long":106.834175,"distance":2264},{"station_name":"Lenteng Agung","time":2,"distance":1029,"station_id":"LNA","transit":false,"is_transit":false,"i_lat":-6.330363,"i_long":106.832616,"line":2},{"line":2,"is_transit":false,"time":3,"distance":2671,"station_name":"Tanjung Barat","station_id":"TNT","i_lat":-6.3080680000000005,"transit":false,"i_long":106.838896}]]}