{"data":[[{"is_transit":false,"distance":0,"line":2,"time":0,"i_long":106.831114,"i_lat":-6.369073,"station_id":"POC","transit":false,"station_name":"Pondok Cina"},{"time":2,"station_id":"UI","i_lat":-6.360749,"i_long":106.831474,"station_name":"Univ. Indonesia","is_transit":false,"line":2,"transit":false,"distance":1109},{"i_long":106.834175,"transit":false,"distance":2264,"is_transit":false,"i_lat":-6.339291,"station_id":"UP","line":2,"time":3,"station_name":"Univ. Pancasila"},{"distance":1029,"is_transit":false,"i_long":106.832616,"station_name":"Lenteng Agung","i_lat":-6.330363,"line":2,"station_id":"LNA","transit":false,"time":2},{"transit":false,"i_lat":-6.3080680000000005,"station_id":"TNT","is_transit":false,"station_name":"Tanjung Barat","distance":2671,"i_long":106.838896,"time":3,"line":2},{"station_id":"PSM","transit":false,"distance":2820,"i_lat":-6.2842400000000005,"station_name":"Pasar Minggu","time":4,"is_transit":false,"i_long":106.843999,"line":2},{"is_transit":false,"i_lat":-6.263214,"transit":false,"station_name":"Pasar Minggu Baru","time":2,"station_id":"PSMB","line":2,"i_long":106.851577,"distance":2380},{"station_id":"DRN","time":2,"transit":false,"distance":824,"station_name":"Duren Kalibata","i_lat":-6.255332,"i_long":106.85449,"line":2,"is_transit":false},{"distance":1546,"station_name":"Cawang","transit":false,"i_long":106.856607,"time":3,"line":2,"station_id":"CW","is_transit":false,"i_lat":-6.242512},{"transit":false,"is_transit":false,"line":2,"station_name":"Tebet","time":2,"station_id":"TEB","distance":1230,"i_lat":-6.226659,"i_long":106.857948},{"is_transit":true,"i_long":106.84912,"station_id":"MRI","line":2,"station_name":"Manggarai","distance":2610,"time":4,"i_lat":-6.209883,"transit":true},{"i_long":106.858896,"station_name":"Matraman","station_id":"MTR","line":1,"i_lat":-6.212485,"transit":false,"is_transit":false,"time":2,"distance":1275},{"i_long":106.86807400000001,"station_name":"Jatinegara","time":8,"i_lat":-6.215091,"is_transit":false,"station_id":"JNG","distance":1377,"transit":false,"line":1},{"station_name":"Klender","transit":false,"line":1,"distance":3395,"i_lat":-6.2135,"station_id":"KLD","i_long":106.899548,"time":3,"is_transit":false},{"time":2,"i_long":106.922662,"line":1,"distance":3100,"station_name":"Buaran","station_id":"BUA","is_transit":false,"transit":false,"i_lat":-6.215568},{"line":1,"station_name":"Klenderbaru","time":1,"distance":1305,"i_lat":-6.217455,"i_long":106.939679,"station_id":"KLDB","transit":false,"is_transit":false},{"station_name":"Cakung","time":8,"line":1,"transit":false,"distance":1385,"i_lat":-6.219053,"i_long":106.951283,"is_transit":false,"station_id":"CUK"},{"transit":false,"station_name":"Kranji","distance":3097,"i_long":106.977657,"line":1,"is_transit":false,"i_lat":-6.224515,"station_id":"KRI","time":3},{"station_name":"Bekasi","time":4,"i_lat":-6.236616,"station_id":"BKS","is_transit":false,"i_long":106.997013,"transit":false,"distance":2520,"line":1},{"is_transit":false,"station_name":"Bekasi Timur","time":2,"distance":2368,"i_lat":-6.248029,"i_long":107.016735,"line":1,"transit":false,"station_id":"BKST"},{"time":7,"transit":false,"is_transit":false,"line":1,"distance":4460,"station_id":"TB","station_name":"Tambun","i_lat":-6.258864,"i_long":107.055722}],[{"line":2,"distance":0,"station_id":"POC","i_lat":-6.369073,"time":0,"is_transit":false,"station_name":"Pondok Cina","i_long":106.831114,"transit":false},{"transit":false,"station_name":"Univ. Indonesia","line":2,"distance":1109,"is_transit":false,"i_long":106.831474,"i_lat":-6.360749,"time":2,"station_id":"UI"},{"distance":2264,"i_lat":-6.339291,"is_transit":false,"transit":false,"station_id":"UP","i_long":106.834175,"line":2,"station_name":"Univ. Pancasila","time":3},{"station_id":"LNA","is_transit":false,"i_lat":-6.330363,"time":2,"transit":false,"station_name":"Lenteng Agung","i_long":106.832616,"line":2,"distance":1029},{"line":2,"i_long":106.838896,"is_transit":false,"station_name":"Tanjung Barat","station_id":"TNT","time":3,"distance":2671,"i_lat":-6.3080680000000005,"transit":false},{"time":4,"line":2,"distance":2820,"i_lat":-6.2842400000000005,"i_long":106.843999,"transit":false,"station_id":"PSM","station_name":"Pasar Minggu","is_transit":false},{"time":2,"is_transit":false,"distance":2380,"i_long":106.851577,"line":2,"station_id":"PSMB","transit":false,"i_lat":-6.263214,"station_name":"Pasar Minggu Baru"},{"station_name":"Duren Kalibata","station_id":"DRN","time":2,"i_lat":-6.255332,"is_transit":false,"distance":824,"transit":false,"i_long":106.85449,"line":2},{"i_long":106.856607,"time":3,"transit":false,"is_transit":false,"distance":1546,"station_id":"CW","station_name":"Cawang","i_lat":-6.242512,"line":2},{"distance":1230,"transit":false,"line":2,"is_transit":false,"station_name":"Tebet","station_id":"TEB","time":2,"i_lat":-6.226659,"i_long":106.857948},{"station_id":"MRI","transit":true,"i_lat":-6.209883,"distance":2610,"line":2,"time":4,"i_long":106.84912,"station_name":"Manggarai","is_transit":true},{"line":1,"distance":3186,"time":4,"station_name":"Sudirman","i_lat":-6.202263,"is_transit":false,"transit":false,"i_long":106.822649,"station_id":"SUD"},{"distance":280,"i_long":106.819881,"i_lat":-6.201433,"station_id":"SUDB","transit":false,"station_name":"Sudirman Baru","time":1,"is_transit":false,"line":1},{"i_long":106.816351,"transit":false,"station_name":"Karet","is_transit":false,"i_lat":-6.20132,"station_id":"KAT","distance":471,"time":1,"line":1},{"station_id":"THB","station_name":"Tanah Abang","time":5,"i_lat":-6.185545,"distance":2029,"i_long":106.811091,"is_transit":false,"line":1,"transit":false},{"station_id":"DU","station_name":"Duri","is_transit":false,"i_long":106.800832,"distance":3632,"transit":false,"i_lat":-6.155215,"line":1,"time":8},{"station_id":"AK","station_name":"Angke","distance":1230,"is_transit":false,"time":4,"i_lat":-6.144674,"transit":false,"line":1,"i_long":106.79867},{"station_name":"Kampung Bandan","time":9,"distance":4102,"transit":true,"i_long":106.826365,"line":4,"station_id":"KPB","i_lat":-6.132549,"is_transit":true},{"line":11,"is_transit":false,"station_id":"RJW","transit":false,"i_lat":-6.14505,"time":3,"distance":1444,"i_long":106.836569,"station_name":"Rajawali"},{"time":5,"transit":false,"is_transit":false,"station_id":"KMO","station_name":"Kemayoran","distance":1901,"i_lat":-6.161728,"i_long":106.839204,"line":11},{"distance":1436,"station_id":"PSE","transit":false,"is_transit":false,"time":4,"i_lat":-6.174784,"line":11,"i_long":106.84368,"station_name":"Pasar Senen"},{"station_id":"GST","time":8,"transit":false,"station_name":"Gang Sentiong","is_transit":false,"i_long":106.850107,"distance":1567,"line":11,"i_lat":-6.185975},{"i_lat":-6.193792,"is_transit":false,"time":1,"station_name":"Kramat","line":11,"transit":false,"distance":973,"i_long":106.855437,"station_id":"KMT"},{"i_lat":-6.209188,"distance":1829,"line":11,"transit":false,"station_id":"POK","i_long":106.861737,"station_name":"Pondok Jati","is_transit":false,"time":2},{"i_lat":-6.215091,"time":9,"transit":true,"station_id":"JNG","i_long":106.86807400000001,"distance":1236,"station_name":"Jatinegara","is_transit":true,"line":1},{"time":3,"distance":3395,"i_lat":-6.2135,"line":1,"is_transit":false,"transit":false,"station_name":"Klender","i_long":106.899548,"station_id":"KLD"},{"i_lat":-6.215568,"station_id":"BUA","i_long":106.922662,"is_transit":false,"time":2,"distance":3100,"station_name":"Buaran","transit":false,"line":1},{"i_lat":-6.217455,"transit":false,"i_long":106.939679,"station_id":"KLDB","distance":1305,"station_name":"Klenderbaru","is_transit":false,"line":1,"time":1},{"line":1,"station_name":"Cakung","time":8,"station_id":"CUK","transit":false,"i_lat":-6.219053,"distance":1385,"i_long":106.951283,"is_transit":false},{"station_name":"Kranji","is_transit":false,"line":1,"time":3,"i_long":106.977657,"distance":3097,"station_id":"KRI","i_lat":-6.224515,"transit":false},{"station_id":"BKS","is_transit":false,"line":1,"station_name":"Bekasi","transit":false,"time":4,"distance":2520,"i_long":106.997013,"i_lat":-6.236616},{"i_long":107.016735,"distance":2368,"transit":false,"time":2,"station_name":"Bekasi Timur","line":1,"i_lat":-6.248029,"station_id":"BKST","is_transit":false},{"time":7,"i_long":107.055722,"station_id":"TB","transit":false,"station_name":"Tambun","is_transit":false,"distance":4460,"line":1,"i_lat":-6.258864}],[{"station_id":"POC","is_transit":false,"i_lat":-6.369073,"transit":false,"time":0,"station_name":"Pondok Cina","distance":0,"i_long":106.831114,"line":2},{"transit":false,"distance":1109,"station_name":"Univ. Indonesia","i_lat":-6.360749,"time":2,"station_id":"UI","is_transit":false,"i_long":106.831474,"line":2},{"line":2,"i_lat":-6.339291,"time":3,"i_long":106.834175,"transit":false,"station_id":"UP","is_transit":false,"station_name":"Univ. Pancasila","distance":2264},{"station_name":"Lenteng Agung","is_transit":false,"line":2,"i_lat":-6.330363,"distance":1029,"station_id":"LNA","i_long":106.832616,"time":2,"transit":false},{"transit":false,"is_transit":false,"station_id":"TNT","distance":2671,"i_long":106.838896,"line":2,"time":3,"i_lat":-6.3080680000000005,"station_name":"Tanjung Barat"},{"station_id":"PSM","i_long":106.843999,"i_lat":-6.2842400000000005,"line":2,"transit":false,"is_transit":false,"distance":2820,"station_name":"Pasar Minggu","time":4},{"i_long":106.851577,"station_name":"Pasar Minggu Baru","time":2,"i_lat":-6.263214,"line":2,"transit":false,"station_id":"PSMB","is_transit":false,"distance":2380},{"is_transit":false,"i_long":106.85449,"line":2,"transit":false,"distance":824,"station_id":"DRN","station_name":"Duren Kalibata","i_lat":-6.255332,"time":2},{"station_name":"Cawang","is_transit":false,"transit":false,"time":3,"i_lat":-6.242512,"line":2,"distance":1546,"station_id":"CW","i_long":106.856607},{"distance":1230,"i_lat":-6.226659,"is_transit":false,"line":2,"time":2,"i_long":106.857948,"transit":false,"station_id":"TEB","station_name":"Tebet"},{"is_transit":false,"i_lat":-6.209883,"distance":2610,"station_id":"MRI","station_name":"Manggarai","time":4,"i_long":106.84912,"line":2,"transit":false},{"is_transit":false,"i_lat":-6.198556,"i_long":106.840169,"line":2,"transit":false,"distance":1590,"time":4,"station_id":"CKI","station_name":"Cikini"},{"i_long":106.832183,"line":2,"station_name":"Gondangdia","transit":false,"time":3,"distance":1750,"station_id":"GDD","i_lat":-6.186295,"is_transit":false},{"time":4,"is_transit":false,"distance":2015,"station_name":"Juanda","transit":false,"i_long":106.828284,"line":2,"i_lat":-6.166716,"station_id":"JUA"},{"transit":false,"line":2,"i_lat":-6.160725,"station_id":"SW","i_long":106.827103,"is_transit":false,"station_name":"Sawah Besar","time":2,"distance":1149},{"i_lat":-6.149769,"distance":906,"transit":false,"station_name":"Manggabesar","is_transit":false,"time":2,"i_long":106.82482,"line":2,"station_id":"MGB"},{"station_id":"JAY","transit":false,"station_name":"Jayakarta","is_transit":false,"distance":1080,"time":2,"i_long":106.820901,"line":2,"i_lat":-6.141205},{"station_name":"Jakarta Kota","station_id":"JAKK","transit":true,"time":4,"i_long":106.812439,"line":2,"distance":1264,"is_transit":true,"i_lat":-6.137569},{"time":3,"station_id":"KPB","line":4,"distance":1364,"i_lat":-6.132549,"transit":true,"i_long":106.826365,"is_transit":true,"station_name":"Kampung Bandan"},{"i_long":106.836569,"transit":false,"station_id":"RJW","station_name":"Rajawali","i_lat":-6.14505,"time":3,"distance":1444,"line":11,"is_transit":false},{"distance":1901,"is_transit":false,"station_id":"KMO","time":5,"transit":false,"line":11,"station_name":"Kemayoran","i_long":106.839204,"i_lat":-6.161728},{"transit":false,"line":11,"station_id":"PSE","is_transit":false,"station_name":"Pasar Senen","time":4,"i_long":106.84368,"distance":1436,"i_lat":-6.174784},{"is_transit":false,"transit":false,"distance":1567,"station_name":"Gang Sentiong","time":8,"i_long":106.850107,"station_id":"GST","i_lat":-6.185975,"line":11},{"i_long":106.855437,"transit":false,"is_transit":false,"distance":973,"station_id":"KMT","station_name":"Kramat","line":11,"i_lat":-6.193792,"time":1},{"is_transit":false,"time":2,"i_lat":-6.209188,"line":11,"distance":1829,"i_long":106.861737,"station_name":"Pondok Jati","transit":false,"station_id":"POK"},{"is_transit":true,"station_name":"Jatinegara","time":9,"line":1,"distance":1236,"transit":true,"i_lat":-6.215091,"station_id":"JNG","i_long":106.86807400000001},{"is_transit":false,"i_long":106.899548,"station_name":"Klender","station_id":"KLD","i_lat":-6.2135,"transit":false,"time":3,"distance":3395,"line":1},{"distance":3100,"transit":false,"i_lat":-6.215568,"is_transit":false,"time":2,"i_long":106.922662,"station_name":"Buaran","line":1,"station_id":"BUA"},{"transit":false,"time":1,"i_long":106.939679,"station_id":"KLDB","station_name":"Klenderbaru","distance":1305,"is_transit":false,"i_lat":-6.217455,"line":1},{"station_id":"CUK","distance":1385,"i_long":106.951283,"line":1,"time":8,"is_transit":false,"transit":false,"i_lat":-6.219053,"station_name":"Cakung"},{"station_id":"KRI","distance":3097,"is_transit":false,"station_name":"Kranji","line":1,"i_lat":-6.224515,"time":3,"transit":false,"i_long":106.977657},{"is_transit":false,"i_lat":-6.236616,"i_long":106.997013,"transit":false,"station_name":"Bekasi","distance":2520,"time":4,"line":1,"station_id":"BKS"},{"distance":2368,"i_long":107.016735,"station_id":"BKST","line":1,"time":2,"station_name":"Bekasi Timur","transit":false,"is_transit":false,"i_lat":-6.248029},{"is_transit":false,"station_id":"TB","station_name":"Tambun","transit":false,"time":7,"i_lat":-6.258864,"i_long":107.055722,"line":1,"distance":4460}]]}