{"data":[[{"station_name":"Pondok Cina","line":2,"time":0,"transit":false,"is_transit":false,"i_lat":-6.369073,"station_id":"POC","i_long":106.831114,"distance":0},{"is_transit":false,"station_id":"DPB","station_name":"Depokbaru","time":4,"transit":false,"distance":2727,"i_lat":-6.391065,"i_long":106.819451,"line":2},{"distance":1584,"line":2,"station_id":"DP","is_transit":false,"transit":false,"i_lat":-6.405256,"i_long":106.816926,"time":3,"station_name":"Depok"},{"i_lat":-6.448811,"time":6,"transit":true,"station_id":"CTA","line":2,"station_name":"Citayam","i_long":106.800298,"distance":5084,"is_transit":true},{"i_long":106.824374,"line":21,"transit":false,"distance":0,"is_transit":false,"station_name":"Pondok Rajeg","station_id":"PDRG","i_lat":-6.460735,"time":0}]]}