{"data":[[{"station_name":"Pondok Cina","time":0,"station_id":"POC","transit":false,"i_long":106.831114,"line":2,"is_transit":false,"distance":0,"i_lat":-6.369073},{"distance":1109,"is_transit":false,"i_lat":-6.360749,"line":2,"transit":false,"station_name":"Univ. Indonesia","i_long":106.831474,"time":2,"station_id":"UI"},{"distance":2264,"i_lat":-6.339291,"transit":false,"i_long":106.834175,"line":2,"time":3,"station_id":"UP","station_name":"Univ. Pancasila","is_transit":false},{"i_long":106.832616,"line":2,"station_id":"LNA","transit":false,"distance":1029,"station_name":"Lenteng Agung","is_transit":false,"time":2,"i_lat":-6.330363},{"line":2,"i_long":106.838896,"time":3,"is_transit":false,"transit":false,"station_name":"Tanjung Barat","station_id":"TNT","distance":2671,"i_lat":-6.3080680000000005},{"transit":false,"time":4,"is_transit":false,"distance":2820,"i_lat":-6.2842400000000005,"station_id":"PSM","station_name":"Pasar Minggu","line":2,"i_long":106.843999},{"station_id":"PSMB","distance":2380,"i_lat":-6.263214,"line":2,"transit":false,"is_transit":false,"time":2,"i_long":106.851577,"station_name":"Pasar Minggu Baru"},{"transit":false,"station_name":"Duren Kalibata","distance":824,"i_lat":-6.255332,"line":2,"i_long":106.85449,"station_id":"DRN","time":2,"is_transit":false},{"time":3,"i_long":106.856607,"transit":false,"station_name":"Cawang","is_transit":false,"distance":1546,"i_lat":-6.242512,"station_id":"CW","line":2},{"transit":false,"distance":1230,"i_lat":-6.226659,"time":2,"station_id":"TEB","station_name":"Tebet","is_transit":false,"line":2,"i_long":106.857948},{"line":2,"is_transit":true,"station_id":"MRI","station_name":"Manggarai","distance":2610,"i_lat":-6.209883,"transit":true,"i_long":106.84912,"time":4},{"transit":false,"station_name":"Matraman","is_transit":false,"i_lat":-6.212485,"time":2,"line":1,"station_id":"MTR","distance":1275,"i_long":106.858896},{"line":1,"station_name":"Jatinegara","distance":1377,"transit":false,"time":8,"station_id":"JNG","is_transit":false,"i_lat":-6.215091,"i_long":106.86807400000001},{"i_lat":-6.2135,"station_id":"KLD","station_name":"Klender","is_transit":false,"i_long":106.899548,"line":1,"time":3,"transit":false,"distance":3395},{"i_lat":-6.215568,"line":1,"time":2,"station_id":"BUA","is_transit":false,"station_name":"Buaran","distance":3100,"i_long":106.922662,"transit":false},{"i_lat":-6.217455,"transit":false,"distance":1305,"station_id":"KLDB","is_transit":false,"time":1,"i_long":106.939679,"station_name":"Klenderbaru","line":1},{"time":8,"station_id":"CUK","transit":false,"station_name":"Cakung","distance":1385,"i_long":106.951283,"is_transit":false,"i_lat":-6.219053,"line":1},{"is_transit":false,"station_id":"KRI","distance":3097,"station_name":"Kranji","i_long":106.977657,"transit":false,"time":3,"i_lat":-6.224515,"line":1},{"time":4,"transit":false,"station_name":"Bekasi","line":1,"i_long":106.997013,"is_transit":false,"i_lat":-6.236616,"distance":2520,"station_id":"BKS"}],[{"is_transit":false,"line":2,"time":0,"i_long":106.831114,"transit":false,"station_name":"Pondok Cina","distance":0,"station_id":"POC","i_lat":-6.369073},{"line":2,"time":2,"transit":false,"station_id":"UI","i_lat":-6.360749,"i_long":106.831474,"station_name":"Univ. Indonesia","is_transit":false,"distance":1109},{"line":2,"time":3,"distance":2264,"station_id":"UP","i_long":106.834175,"is_transit":false,"i_lat":-6.339291,"transit":false,"station_name":"Univ. Pancasila"},{"i_long":106.832616,"time":2,"line":2,"is_transit":false,"station_id":"LNA","i_lat":-6.330363,"transit":false,"station_name":"Lenteng Agung","distance":1029},{"station_id":"TNT","line":2,"station_name":"Tanjung Barat","time":3,"i_long":106.838896,"i_lat":-6.3080680000000005,"is_transit":false,"distance":2671,"transit":false},{"transit":false,"is_transit":false,"i_long":106.843999,"time":4,"distance":2820,"station_name":"Pasar Minggu","station_id":"PSM","line":2,"i_lat":-6.2842400000000005},{"line":2,"distance":2380,"transit":false,"time":2,"station_name":"Pasar Minggu Baru","is_transit":false,"station_id":"PSMB","i_lat":-6.263214,"i_long":106.851577},{"distance":824,"time":2,"transit":false,"station_name":"Duren Kalibata","line":2,"i_lat":-6.255332,"i_long":106.85449,"station_id":"DRN","is_transit":false},{"time":3,"transit":false,"is_transit":false,"i_lat":-6.242512,"station_name":"Cawang","distance":1546,"i_long":106.856607,"line":2,"station_id":"CW"},{"transit":false,"line":2,"station_name":"Tebet","is_transit":false,"i_lat":-6.226659,"i_long":106.857948,"distance":1230,"station_id":"TEB","time":2},{"i_long":106.84912,"is_transit":true,"station_name":"Manggarai","transit":true,"time":4,"distance":2610,"station_id":"MRI","i_lat":-6.209883,"line":2},{"transit":false,"is_transit":false,"station_id":"SUD","i_lat":-6.202263,"i_long":106.822649,"line":1,"station_name":"Sudirman","time":4,"distance":3186},{"i_lat":-6.201433,"time":1,"station_name":"Sudirman Baru","i_long":106.819881,"line":1,"station_id":"SUDB","transit":false,"distance":280,"is_transit":false},{"i_long":106.816351,"distance":471,"is_transit":false,"station_name":"Karet","i_lat":-6.20132,"line":1,"transit":false,"station_id":"KAT","time":1},{"station_id":"THB","i_lat":-6.185545,"transit":false,"is_transit":false,"line":1,"distance":2029,"i_long":106.811091,"time":5,"station_name":"Tanah Abang"},{"distance":3632,"time":8,"i_lat":-6.155215,"i_long":106.800832,"line":1,"station_id":"DU","is_transit":false,"transit":false,"station_name":"Duri"},{"station_id":"AK","station_name":"Angke","distance":1230,"line":1,"transit":false,"time":4,"is_transit":false,"i_lat":-6.144674,"i_long":106.79867},{"time":9,"station_id":"KPB","i_long":106.826365,"line":4,"transit":true,"distance":4102,"i_lat":-6.132549,"is_transit":true,"station_name":"Kampung Bandan"},{"station_name":"Rajawali","distance":1444,"line":11,"i_lat":-6.14505,"station_id":"RJW","is_transit":false,"time":3,"transit":false,"i_long":106.836569},{"i_long":106.839204,"transit":false,"time":5,"is_transit":false,"i_lat":-6.161728,"station_id":"KMO","line":11,"distance":1901,"station_name":"Kemayoran"},{"transit":false,"distance":1436,"i_long":106.84368,"i_lat":-6.174784,"is_transit":false,"station_id":"PSE","time":4,"station_name":"Pasar Senen","line":11},{"is_transit":false,"line":11,"station_id":"GST","distance":1567,"station_name":"Gang Sentiong","transit":false,"time":8,"i_lat":-6.185975,"i_long":106.850107},{"line":11,"transit":false,"station_id":"KMT","time":1,"station_name":"Kramat","is_transit":false,"i_lat":-6.193792,"i_long":106.855437,"distance":973},{"time":2,"is_transit":false,"i_lat":-6.209188,"line":11,"i_long":106.861737,"distance":1829,"station_name":"Pondok Jati","transit":false,"station_id":"POK"},{"i_lat":-6.215091,"i_long":106.86807400000001,"is_transit":true,"station_id":"JNG","distance":1236,"time":9,"station_name":"Jatinegara","transit":true,"line":1},{"is_transit":false,"station_name":"Klender","i_long":106.899548,"distance":3395,"i_lat":-6.2135,"time":3,"station_id":"KLD","line":1,"transit":false},{"station_id":"BUA","line":1,"time":2,"station_name":"Buaran","distance":3100,"i_long":106.922662,"is_transit":false,"transit":false,"i_lat":-6.215568},{"time":1,"i_lat":-6.217455,"distance":1305,"i_long":106.939679,"transit":false,"station_name":"Klenderbaru","is_transit":false,"line":1,"station_id":"KLDB"},{"station_id":"CUK","station_name":"Cakung","line":1,"transit":false,"time":8,"is_transit":false,"distance":1385,"i_long":106.951283,"i_lat":-6.219053},{"i_lat":-6.224515,"station_id":"KRI","station_name":"Kranji","distance":3097,"is_transit":false,"transit":false,"line":1,"i_long":106.977657,"time":3},{"time":4,"transit":false,"station_name":"Bekasi","i_lat":-6.236616,"line":1,"station_id":"BKS","is_transit":false,"i_long":106.997013,"distance":2520}],[{"line":2,"transit":false,"station_id":"POC","distance":0,"station_name":"Pondok Cina","time":0,"is_transit":false,"i_lat":-6.369073,"i_long":106.831114},{"station_id":"UI","i_long":106.831474,"line":2,"is_transit":false,"i_lat":-6.360749,"time":2,"transit":false,"distance":1109,"station_name":"Univ. Indonesia"},{"i_long":106.834175,"line":2,"distance":2264,"station_name":"Univ. Pancasila","station_id":"UP","is_transit":false,"i_lat":-6.339291,"time":3,"transit":false},{"station_id":"LNA","line":2,"time":2,"i_lat":-6.330363,"transit":false,"distance":1029,"is_transit":false,"i_long":106.832616,"station_name":"Lenteng Agung"},{"station_id":"TNT","distance":2671,"i_lat":-6.3080680000000005,"line":2,"i_long":106.838896,"station_name":"Tanjung Barat","is_transit":false,"transit":false,"time":3},{"i_long":106.843999,"distance":2820,"station_id":"PSM","is_transit":false,"transit":false,"line":2,"time":4,"station_name":"Pasar Minggu","i_lat":-6.2842400000000005},{"station_id":"PSMB","time":2,"distance":2380,"i_lat":-6.263214,"is_transit":false,"i_long":106.851577,"line":2,"station_name":"Pasar Minggu Baru","transit":false},{"station_id":"DRN","transit":false,"distance":824,"is_transit":false,"station_name":"Duren Kalibata","line":2,"i_lat":-6.255332,"time":2,"i_long":106.85449},{"distance":1546,"i_lat":-6.242512,"line":2,"transit":false,"station_name":"Cawang","is_transit":false,"station_id":"CW","i_long":106.856607,"time":3},{"i_lat":-6.226659,"time":2,"distance":1230,"station_name":"Tebet","transit":false,"is_transit":false,"station_id":"TEB","i_long":106.857948,"line":2},{"time":4,"is_transit":false,"i_lat":-6.209883,"station_name":"Manggarai","distance":2610,"i_long":106.84912,"transit":false,"line":2,"station_id":"MRI"},{"time":4,"i_lat":-6.198556,"transit":false,"is_transit":false,"line":2,"distance":1590,"station_name":"Cikini","station_id":"CKI","i_long":106.840169},{"transit":false,"station_name":"Gondangdia","i_lat":-6.186295,"is_transit":false,"distance":1750,"time":3,"station_id":"GDD","i_long":106.832183,"line":2},{"station_id":"JUA","distance":2015,"i_long":106.828284,"time":4,"transit":false,"station_name":"Juanda","line":2,"i_lat":-6.166716,"is_transit":false},{"i_long":106.827103,"station_name":"Sawah Besar","line":2,"transit":false,"distance":1149,"is_transit":false,"time":2,"station_id":"SW","i_lat":-6.160725},{"station_name":"Manggabesar","time":2,"distance":906,"is_transit":false,"i_lat":-6.149769,"i_long":106.82482,"transit":false,"station_id":"MGB","line":2},{"line":2,"distance":1080,"transit":false,"time":2,"station_id":"JAY","i_lat":-6.141205,"i_long":106.820901,"is_transit":false,"station_name":"Jayakarta"},{"i_lat":-6.137569,"line":2,"distance":1264,"i_long":106.812439,"station_id":"JAKK","is_transit":true,"transit":true,"time":4,"station_name":"Jakarta Kota"},{"distance":1364,"is_transit":true,"station_id":"KPB","line":4,"i_lat":-6.132549,"time":3,"station_name":"Kampung Bandan","transit":true,"i_long":106.826365},{"line":11,"transit":false,"is_transit":false,"station_id":"RJW","time":3,"distance":1444,"station_name":"Rajawali","i_lat":-6.14505,"i_long":106.836569},{"station_id":"KMO","i_lat":-6.161728,"station_name":"Kemayoran","i_long":106.839204,"is_transit":false,"line":11,"transit":false,"distance":1901,"time":5},{"distance":1436,"i_long":106.84368,"i_lat":-6.174784,"line":11,"station_name":"Pasar Senen","transit":false,"is_transit":false,"station_id":"PSE","time":4},{"is_transit":false,"i_lat":-6.185975,"station_name":"Gang Sentiong","station_id":"GST","i_long":106.850107,"distance":1567,"time":8,"line":11,"transit":false},{"time":1,"station_name":"Kramat","is_transit":false,"transit":false,"i_lat":-6.193792,"station_id":"KMT","line":11,"distance":973,"i_long":106.855437},{"is_transit":false,"station_name":"Pondok Jati","transit":false,"i_lat":-6.209188,"line":11,"i_long":106.861737,"distance":1829,"station_id":"POK","time":2},{"transit":true,"i_lat":-6.215091,"time":9,"distance":1236,"station_id":"JNG","i_long":106.86807400000001,"is_transit":true,"line":1,"station_name":"Jatinegara"},{"line":1,"distance":3395,"i_long":106.899548,"transit":false,"is_transit":false,"station_id":"KLD","i_lat":-6.2135,"station_name":"Klender","time":3},{"transit":false,"line":1,"is_transit":false,"distance":3100,"station_id":"BUA","i_lat":-6.215568,"station_name":"Buaran","time":2,"i_long":106.922662},{"is_transit":false,"distance":1305,"station_id":"KLDB","station_name":"Klenderbaru","i_long":106.939679,"line":1,"time":1,"i_lat":-6.217455,"transit":false},{"line":1,"distance":1385,"i_lat":-6.219053,"is_transit":false,"station_id":"CUK","transit":false,"station_name":"Cakung","time":8,"i_long":106.951283},{"i_lat":-6.224515,"transit":false,"station_name":"Kranji","i_long":106.977657,"time":3,"distance":3097,"is_transit":false,"station_id":"KRI","line":1},{"station_id":"BKS","i_lat":-6.236616,"station_name":"Bekasi","transit":false,"distance":2520,"is_transit":false,"time":4,"i_long":106.997013,"line":1}]]}