{"data":[[{"i_long":106.831114,"time":0,"distance":0,"i_lat":-6.369073,"line":2,"transit":false,"station_id":"POC","is_transit":false,"station_name":"Pondok Cina"},{"station_name":"Univ. Indonesia","time":2,"i_long":106.831474,"i_lat":-6.360749,"line":2,"station_id":"UI","distance":1109,"transit":false,"is_transit":false},{"station_id":"UP","distance":2264,"transit":false,"i_lat":-6.339291,"line":2,"is_transit":false,"time":3,"station_name":"Univ. Pancasila","i_long":106.834175},{"transit":false,"time":2,"station_name":"Lenteng Agung","i_long":106.832616,"line":2,"i_lat":-6.330363,"station_id":"LNA","is_transit":false,"distance":1029},{"is_transit":false,"i_long":106.838896,"station_id":"TNT","line":2,"i_lat":-6.3080680000000005,"transit":false,"time":3,"distance":2671,"station_name":"Tanjung Barat"},{"station_id":"PSM","station_name":"Pasar Minggu","is_transit":false,"time":4,"i_lat":-6.2842400000000005,"transit":false,"i_long":106.843999,"line":2,"distance":2820},{"distance":2380,"i_long":106.851577,"is_transit":false,"line":2,"station_id":"PSMB","station_name":"Pasar Minggu Baru","time":2,"transit":false,"i_lat":-6.263214},{"i_lat":-6.255332,"station_id":"DRN","is_transit":false,"transit":false,"i_long":106.85449,"time":2,"distance":824,"station_name":"Duren Kalibata","line":2},{"distance":1546,"line":2,"time":3,"transit":false,"is_transit":false,"station_id":"CW","i_lat":-6.242512,"i_long":106.856607,"station_name":"Cawang"},{"transit":false,"is_transit":false,"i_lat":-6.226659,"line":2,"i_long":106.857948,"station_name":"Tebet","time":2,"distance":1230,"station_id":"TEB"},{"is_transit":true,"distance":2610,"station_name":"Manggarai","i_lat":-6.209883,"time":4,"transit":true,"station_id":"MRI","line":2,"i_long":106.84912},{"transit":false,"line":1,"i_long":106.822649,"is_transit":false,"time":4,"station_id":"SUD","station_name":"Sudirman","distance":3186,"i_lat":-6.202263},{"i_long":106.819881,"line":1,"station_id":"SUDB","distance":280,"is_transit":false,"i_lat":-6.201433,"time":1,"transit":false,"station_name":"Sudirman Baru"},{"line":1,"station_id":"KAT","transit":false,"is_transit":false,"i_long":106.816351,"station_name":"Karet","i_lat":-6.20132,"distance":471,"time":1},{"station_name":"Tanah Abang","is_transit":false,"distance":2029,"station_id":"THB","line":1,"i_lat":-6.185545,"time":5,"transit":false,"i_long":106.811091},{"line":1,"i_long":106.800832,"station_name":"Duri","station_id":"DU","distance":3632,"i_lat":-6.155215,"is_transit":true,"time":8,"transit":true},{"station_id":"GGL","station_name":"Grogol","transit":false,"i_long":106.788277,"is_transit":false,"i_lat":-6.162021,"time":3,"line":5,"distance":1700},{"station_name":"Pesing","line":5,"distance":2036,"station_id":"PSG","is_transit":false,"time":2,"transit":false,"i_long":106.771379,"i_lat":-6.161433},{"time":2,"is_transit":false,"i_lat":-6.1587309999999995,"i_long":106.756522,"line":5,"station_id":"TKO","distance":1614,"transit":false,"station_name":"Taman Kota"}],[{"station_id":"POC","line":2,"station_name":"Pondok Cina","time":0,"i_lat":-6.369073,"distance":0,"is_transit":false,"transit":false,"i_long":106.831114},{"time":2,"i_long":106.831474,"station_name":"Univ. Indonesia","line":2,"distance":1109,"transit":false,"station_id":"UI","is_transit":false,"i_lat":-6.360749},{"station_id":"UP","i_lat":-6.339291,"distance":2264,"line":2,"transit":false,"station_name":"Univ. Pancasila","is_transit":false,"i_long":106.834175,"time":3},{"station_name":"Lenteng Agung","time":2,"i_lat":-6.330363,"is_transit":false,"transit":false,"distance":1029,"station_id":"LNA","line":2,"i_long":106.832616},{"station_id":"TNT","distance":2671,"station_name":"Tanjung Barat","transit":false,"time":3,"i_long":106.838896,"line":2,"i_lat":-6.3080680000000005,"is_transit":false},{"station_id":"PSM","is_transit":false,"distance":2820,"i_long":106.843999,"transit":false,"station_name":"Pasar Minggu","time":4,"line":2,"i_lat":-6.2842400000000005},{"distance":2380,"transit":false,"is_transit":false,"station_name":"Pasar Minggu Baru","i_long":106.851577,"line":2,"station_id":"PSMB","time":2,"i_lat":-6.263214},{"i_lat":-6.255332,"i_long":106.85449,"distance":824,"transit":false,"time":2,"station_name":"Duren Kalibata","line":2,"is_transit":false,"station_id":"DRN"},{"transit":false,"station_name":"Cawang","line":2,"distance":1546,"time":3,"i_lat":-6.242512,"i_long":106.856607,"station_id":"CW","is_transit":false},{"station_name":"Tebet","i_lat":-6.226659,"line":2,"station_id":"TEB","distance":1230,"transit":false,"is_transit":false,"time":2,"i_long":106.857948},{"transit":false,"i_lat":-6.209883,"station_id":"MRI","station_name":"Manggarai","is_transit":false,"time":4,"i_long":106.84912,"line":2,"distance":2610},{"time":4,"station_name":"Cikini","i_lat":-6.198556,"transit":false,"station_id":"CKI","is_transit":false,"distance":1590,"i_long":106.840169,"line":2},{"station_id":"GDD","station_name":"Gondangdia","line":2,"i_lat":-6.186295,"distance":1750,"i_long":106.832183,"is_transit":false,"transit":false,"time":3},{"distance":2015,"is_transit":false,"station_name":"Juanda","i_lat":-6.166716,"station_id":"JUA","transit":false,"time":4,"i_long":106.828284,"line":2},{"line":2,"transit":false,"distance":1149,"i_long":106.827103,"station_id":"SW","time":2,"i_lat":-6.160725,"is_transit":false,"station_name":"Sawah Besar"},{"station_name":"Manggabesar","transit":false,"is_transit":false,"time":2,"line":2,"i_long":106.82482,"station_id":"MGB","distance":906,"i_lat":-6.149769},{"distance":1080,"transit":false,"time":2,"station_name":"Jayakarta","i_lat":-6.141205,"i_long":106.820901,"is_transit":false,"station_id":"JAY","line":2},{"i_lat":-6.137569,"time":4,"line":2,"i_long":106.812439,"is_transit":true,"station_id":"JAKK","distance":1264,"station_name":"Jakarta Kota","transit":true},{"distance":1364,"line":4,"station_name":"Kampung Bandan","time":3,"i_long":106.826365,"i_lat":-6.132549,"transit":true,"station_id":"KPB","is_transit":true},{"distance":4102,"line":1,"station_name":"Angke","is_transit":false,"station_id":"AK","transit":false,"i_long":106.79867,"i_lat":-6.144674,"time":9},{"i_lat":-6.155215,"i_long":106.800832,"transit":true,"time":4,"is_transit":true,"line":1,"station_id":"DU","distance":1230,"station_name":"Duri"},{"line":5,"time":3,"is_transit":false,"transit":false,"station_name":"Grogol","station_id":"GGL","i_lat":-6.162021,"distance":1700,"i_long":106.788277},{"i_lat":-6.161433,"i_long":106.771379,"time":2,"station_name":"Pesing","is_transit":false,"line":5,"transit":false,"station_id":"PSG","distance":2036},{"distance":1614,"is_transit":false,"station_id":"TKO","station_name":"Taman Kota","i_lat":-6.1587309999999995,"transit":false,"line":5,"time":2,"i_long":106.756522}],[{"time":0,"station_name":"Pondok Cina","transit":false,"is_transit":false,"i_long":106.831114,"i_lat":-6.369073,"station_id":"POC","distance":0,"line":2},{"time":2,"is_transit":false,"line":2,"i_long":106.831474,"distance":1109,"i_lat":-6.360749,"transit":false,"station_id":"UI","station_name":"Univ. Indonesia"},{"line":2,"distance":2264,"i_long":106.834175,"transit":false,"station_id":"UP","is_transit":false,"time":3,"station_name":"Univ. Pancasila","i_lat":-6.339291},{"time":2,"transit":false,"i_long":106.832616,"station_id":"LNA","is_transit":false,"station_name":"Lenteng Agung","line":2,"distance":1029,"i_lat":-6.330363},{"distance":2671,"transit":false,"station_id":"TNT","is_transit":false,"i_lat":-6.3080680000000005,"station_name":"Tanjung Barat","i_long":106.838896,"line":2,"time":3},{"station_id":"PSM","is_transit":false,"i_long":106.843999,"station_name":"Pasar Minggu","i_lat":-6.2842400000000005,"distance":2820,"line":2,"time":4,"transit":false},{"station_id":"PSMB","is_transit":false,"time":2,"i_long":106.851577,"i_lat":-6.263214,"line":2,"distance":2380,"transit":false,"station_name":"Pasar Minggu Baru"},{"i_lat":-6.255332,"i_long":106.85449,"distance":824,"time":2,"transit":false,"line":2,"station_id":"DRN","is_transit":false,"station_name":"Duren Kalibata"},{"distance":1546,"is_transit":false,"i_lat":-6.242512,"transit":false,"i_long":106.856607,"time":3,"station_name":"Cawang","line":2,"station_id":"CW"},{"transit":false,"time":2,"distance":1230,"line":2,"station_id":"TEB","is_transit":false,"i_long":106.857948,"station_name":"Tebet","i_lat":-6.226659},{"transit":true,"i_long":106.84912,"station_name":"Manggarai","is_transit":true,"distance":2610,"i_lat":-6.209883,"station_id":"MRI","line":2,"time":4},{"i_lat":-6.212485,"station_name":"Matraman","time":2,"is_transit":false,"i_long":106.858896,"distance":1275,"line":1,"station_id":"MTR","transit":false},{"is_transit":true,"transit":true,"time":8,"station_name":"Jatinegara","i_lat":-6.215091,"i_long":106.86807400000001,"line":1,"station_id":"JNG","distance":1377},{"time":2,"station_id":"POK","station_name":"Pondok Jati","transit":false,"is_transit":false,"i_lat":-6.209188,"i_long":106.861737,"distance":1236,"line":11},{"time":2,"i_long":106.855437,"distance":1829,"transit":false,"i_lat":-6.193792,"line":11,"is_transit":false,"station_name":"Kramat","station_id":"KMT"},{"station_id":"GST","station_name":"Gang Sentiong","is_transit":false,"i_long":106.850107,"i_lat":-6.185975,"time":1,"line":11,"transit":false,"distance":973},{"line":11,"distance":1567,"station_id":"PSE","i_lat":-6.174784,"time":8,"is_transit":false,"station_name":"Pasar Senen","transit":false,"i_long":106.84368},{"station_name":"Kemayoran","station_id":"KMO","i_lat":-6.161728,"transit":false,"is_transit":false,"distance":1436,"time":4,"i_long":106.839204,"line":11},{"i_long":106.836569,"time":5,"transit":false,"is_transit":false,"i_lat":-6.14505,"station_name":"Rajawali","station_id":"RJW","line":11,"distance":1901},{"transit":true,"time":3,"i_long":106.826365,"station_id":"KPB","distance":1444,"station_name":"Kampung Bandan","is_transit":true,"i_lat":-6.132549,"line":4},{"time":9,"is_transit":false,"station_id":"AK","transit":false,"station_name":"Angke","i_lat":-6.144674,"line":1,"i_long":106.79867,"distance":4102},{"station_id":"DU","is_transit":true,"i_lat":-6.155215,"station_name":"Duri","distance":1230,"transit":true,"line":1,"i_long":106.800832,"time":4},{"station_id":"GGL","transit":false,"i_lat":-6.162021,"distance":1700,"time":3,"i_long":106.788277,"line":5,"is_transit":false,"station_name":"Grogol"},{"distance":2036,"is_transit":false,"i_long":106.771379,"station_name":"Pesing","line":5,"i_lat":-6.161433,"time":2,"transit":false,"station_id":"PSG"},{"i_lat":-6.1587309999999995,"time":2,"station_name":"Taman Kota","line":5,"distance":1614,"i_long":106.756522,"transit":false,"station_id":"TKO","is_transit":false}]]}