{"data":[[{"transit":false,"station_id":"POC","is_transit":false,"i_lat":-6.369073,"station_name":"Pondok Cina","i_long":106.831114,"line":2,"distance":0,"time":0},{"time":2,"transit":false,"station_name":"Univ. Indonesia","is_transit":false,"station_id":"UI","i_long":106.831474,"distance":1109,"line":2,"i_lat":-6.360749},{"station_id":"UP","station_name":"Univ. Pancasila","i_lat":-6.339291,"distance":2264,"is_transit":false,"line":2,"transit":false,"time":3,"i_long":106.834175},{"line":2,"station_id":"LNA","transit":false,"is_transit":false,"distance":1029,"station_name":"Lenteng Agung","time":2,"i_long":106.832616,"i_lat":-6.330363},{"line":2,"transit":false,"station_name":"Tanjung Barat","is_transit":false,"distance":2671,"i_lat":-6.3080680000000005,"time":3,"i_long":106.838896,"station_id":"TNT"},{"i_long":106.843999,"station_id":"PSM","i_lat":-6.2842400000000005,"is_transit":false,"line":2,"station_name":"Pasar Minggu","time":4,"distance":2820,"transit":false},{"is_transit":false,"i_long":106.851577,"i_lat":-6.263214,"distance":2380,"line":2,"transit":false,"station_name":"Pasar Minggu Baru","time":2,"station_id":"PSMB"},{"transit":false,"distance":824,"i_lat":-6.255332,"line":2,"i_long":106.85449,"station_id":"DRN","is_transit":false,"time":2,"station_name":"Duren Kalibata"},{"station_name":"Cawang","station_id":"CW","distance":1546,"i_lat":-6.242512,"i_long":106.856607,"time":3,"is_transit":false,"line":2,"transit":false},{"line":2,"is_transit":false,"distance":1230,"i_long":106.857948,"station_name":"Tebet","time":2,"i_lat":-6.226659,"station_id":"TEB","transit":false},{"time":4,"station_name":"Manggarai","i_lat":-6.209883,"station_id":"MRI","distance":2610,"i_long":106.84912,"line":2,"is_transit":true,"transit":true},{"i_lat":-6.212485,"i_long":106.858896,"is_transit":false,"transit":false,"station_id":"MTR","time":2,"distance":1275,"line":1,"station_name":"Matraman"},{"is_transit":false,"station_id":"JNG","transit":false,"i_lat":-6.215091,"line":1,"i_long":106.86807400000001,"station_name":"Jatinegara","distance":1377,"time":8}],[{"i_lat":-6.369073,"station_id":"POC","is_transit":false,"station_name":"Pondok Cina","distance":0,"transit":false,"line":2,"time":0,"i_long":106.831114},{"station_name":"Univ. Indonesia","i_long":106.831474,"is_transit":false,"transit":false,"distance":1109,"station_id":"UI","i_lat":-6.360749,"line":2,"time":2},{"time":3,"distance":2264,"station_id":"UP","station_name":"Univ. Pancasila","line":2,"transit":false,"i_long":106.834175,"i_lat":-6.339291,"is_transit":false},{"station_id":"LNA","is_transit":false,"station_name":"Lenteng Agung","transit":false,"i_lat":-6.330363,"i_long":106.832616,"line":2,"distance":1029,"time":2},{"transit":false,"i_lat":-6.3080680000000005,"is_transit":false,"i_long":106.838896,"distance":2671,"station_name":"Tanjung Barat","station_id":"TNT","time":3,"line":2},{"i_lat":-6.2842400000000005,"i_long":106.843999,"line":2,"time":4,"transit":false,"station_name":"Pasar Minggu","station_id":"PSM","distance":2820,"is_transit":false},{"station_id":"PSMB","line":2,"is_transit":false,"transit":false,"station_name":"Pasar Minggu Baru","time":2,"distance":2380,"i_long":106.851577,"i_lat":-6.263214},{"transit":false,"is_transit":false,"time":2,"station_id":"DRN","distance":824,"i_lat":-6.255332,"i_long":106.85449,"line":2,"station_name":"Duren Kalibata"},{"distance":1546,"station_id":"CW","station_name":"Cawang","transit":false,"time":3,"i_lat":-6.242512,"i_long":106.856607,"is_transit":false,"line":2},{"is_transit":false,"i_lat":-6.226659,"distance":1230,"line":2,"station_id":"TEB","time":2,"transit":false,"station_name":"Tebet","i_long":106.857948},{"line":2,"transit":true,"station_name":"Manggarai","time":4,"i_lat":-6.209883,"i_long":106.84912,"station_id":"MRI","is_transit":true,"distance":2610},{"i_lat":-6.202263,"time":4,"is_transit":false,"line":1,"transit":false,"distance":3186,"station_name":"Sudirman","station_id":"SUD","i_long":106.822649},{"transit":false,"i_lat":-6.201433,"time":1,"station_name":"Sudirman Baru","station_id":"SUDB","is_transit":false,"distance":280,"i_long":106.819881,"line":1},{"is_transit":false,"i_lat":-6.20132,"i_long":106.816351,"time":1,"line":1,"distance":471,"station_name":"Karet","transit":false,"station_id":"KAT"},{"i_long":106.811091,"station_id":"THB","station_name":"Tanah Abang","line":1,"i_lat":-6.185545,"is_transit":false,"distance":2029,"transit":false,"time":5},{"station_id":"DU","transit":false,"time":8,"i_long":106.800832,"distance":3632,"i_lat":-6.155215,"station_name":"Duri","is_transit":false,"line":1},{"transit":false,"i_lat":-6.144674,"time":4,"station_name":"Angke","is_transit":false,"line":1,"station_id":"AK","distance":1230,"i_long":106.79867},{"distance":4102,"line":4,"i_lat":-6.132549,"i_long":106.826365,"station_name":"Kampung Bandan","time":9,"transit":true,"station_id":"KPB","is_transit":true},{"i_long":106.836569,"station_name":"Rajawali","line":11,"distance":1444,"is_transit":false,"i_lat":-6.14505,"transit":false,"time":3,"station_id":"RJW"},{"is_transit":false,"i_lat":-6.161728,"line":11,"station_name":"Kemayoran","transit":false,"station_id":"KMO","i_long":106.839204,"distance":1901,"time":5},{"station_name":"Pasar Senen","i_lat":-6.174784,"time":4,"distance":1436,"transit":false,"line":11,"is_transit":false,"station_id":"PSE","i_long":106.84368},{"distance":1567,"line":11,"station_id":"GST","i_long":106.850107,"i_lat":-6.185975,"is_transit":false,"time":8,"transit":false,"station_name":"Gang Sentiong"},{"time":1,"station_name":"Kramat","i_long":106.855437,"is_transit":false,"line":11,"station_id":"KMT","transit":false,"distance":973,"i_lat":-6.193792},{"station_id":"POK","transit":false,"station_name":"Pondok Jati","is_transit":false,"i_lat":-6.209188,"line":11,"i_long":106.861737,"distance":1829,"time":2},{"transit":false,"station_name":"Jatinegara","line":1,"is_transit":false,"i_lat":-6.215091,"station_id":"JNG","distance":1236,"i_long":106.86807400000001,"time":9}],[{"i_lat":-6.369073,"is_transit":false,"distance":0,"station_name":"Pondok Cina","transit":false,"time":0,"i_long":106.831114,"line":2,"station_id":"POC"},{"i_lat":-6.360749,"distance":1109,"is_transit":false,"time":2,"i_long":106.831474,"line":2,"station_id":"UI","station_name":"Univ. Indonesia","transit":false},{"station_name":"Univ. Pancasila","time":3,"is_transit":false,"station_id":"UP","transit":false,"line":2,"i_lat":-6.339291,"i_long":106.834175,"distance":2264},{"i_long":106.832616,"station_name":"Lenteng Agung","distance":1029,"station_id":"LNA","is_transit":false,"i_lat":-6.330363,"transit":false,"time":2,"line":2},{"station_name":"Tanjung Barat","distance":2671,"line":2,"time":3,"is_transit":false,"i_lat":-6.3080680000000005,"i_long":106.838896,"transit":false,"station_id":"TNT"},{"i_long":106.843999,"i_lat":-6.2842400000000005,"is_transit":false,"line":2,"time":4,"transit":false,"station_name":"Pasar Minggu","station_id":"PSM","distance":2820},{"station_name":"Pasar Minggu Baru","i_lat":-6.263214,"distance":2380,"time":2,"station_id":"PSMB","i_long":106.851577,"line":2,"transit":false,"is_transit":false},{"station_name":"Duren Kalibata","transit":false,"is_transit":false,"time":2,"line":2,"i_lat":-6.255332,"distance":824,"i_long":106.85449,"station_id":"DRN"},{"i_long":106.856607,"line":2,"station_name":"Cawang","transit":false,"is_transit":false,"time":3,"distance":1546,"i_lat":-6.242512,"station_id":"CW"},{"station_name":"Tebet","station_id":"TEB","time":2,"i_long":106.857948,"is_transit":false,"i_lat":-6.226659,"line":2,"transit":false,"distance":1230},{"line":2,"is_transit":false,"station_id":"MRI","time":4,"transit":false,"distance":2610,"i_lat":-6.209883,"station_name":"Manggarai","i_long":106.84912},{"line":2,"distance":1590,"time":4,"i_long":106.840169,"is_transit":false,"station_id":"CKI","transit":false,"i_lat":-6.198556,"station_name":"Cikini"},{"station_name":"Gondangdia","station_id":"GDD","transit":false,"i_lat":-6.186295,"i_long":106.832183,"time":3,"distance":1750,"is_transit":false,"line":2},{"time":4,"distance":2015,"line":2,"transit":false,"i_long":106.828284,"is_transit":false,"i_lat":-6.166716,"station_name":"Juanda","station_id":"JUA"},{"i_lat":-6.160725,"line":2,"station_name":"Sawah Besar","is_transit":false,"distance":1149,"i_long":106.827103,"transit":false,"time":2,"station_id":"SW"},{"line":2,"is_transit":false,"transit":false,"station_name":"Manggabesar","i_lat":-6.149769,"i_long":106.82482,"station_id":"MGB","time":2,"distance":906},{"time":2,"is_transit":false,"transit":false,"i_long":106.820901,"station_id":"JAY","line":2,"i_lat":-6.141205,"distance":1080,"station_name":"Jayakarta"},{"is_transit":true,"distance":1264,"time":4,"station_id":"JAKK","transit":true,"i_lat":-6.137569,"line":2,"i_long":106.812439,"station_name":"Jakarta Kota"},{"station_id":"KPB","transit":true,"time":3,"i_lat":-6.132549,"station_name":"Kampung Bandan","line":4,"i_long":106.826365,"is_transit":true,"distance":1364},{"station_id":"RJW","transit":false,"line":11,"distance":1444,"time":3,"i_long":106.836569,"i_lat":-6.14505,"station_name":"Rajawali","is_transit":false},{"line":11,"station_id":"KMO","i_lat":-6.161728,"distance":1901,"transit":false,"is_transit":false,"station_name":"Kemayoran","time":5,"i_long":106.839204},{"is_transit":false,"line":11,"station_name":"Pasar Senen","time":4,"i_long":106.84368,"transit":false,"distance":1436,"station_id":"PSE","i_lat":-6.174784},{"station_name":"Gang Sentiong","distance":1567,"i_lat":-6.185975,"is_transit":false,"transit":false,"time":8,"i_long":106.850107,"line":11,"station_id":"GST"},{"station_name":"Kramat","transit":false,"is_transit":false,"i_lat":-6.193792,"line":11,"distance":973,"time":1,"i_long":106.855437,"station_id":"KMT"},{"distance":1829,"line":11,"transit":false,"station_name":"Pondok Jati","station_id":"POK","time":2,"is_transit":false,"i_long":106.861737,"i_lat":-6.209188},{"distance":1236,"line":1,"station_name":"Jatinegara","transit":false,"i_long":106.86807400000001,"station_id":"JNG","is_transit":false,"time":9,"i_lat":-6.215091}]]}