{"data":[[{"i_lat":-6.369073,"time":0,"is_transit":false,"distance":0,"line":2,"station_id":"POC","station_name":"Pondok Cina","transit":false,"i_long":106.831114},{"time":2,"is_transit":false,"line":2,"i_long":106.831474,"i_lat":-6.360749,"transit":false,"station_name":"Univ. Indonesia","station_id":"UI","distance":1109},{"i_lat":-6.339291,"time":3,"i_long":106.834175,"transit":false,"station_id":"UP","is_transit":false,"distance":2264,"station_name":"Univ. Pancasila","line":2},{"station_id":"LNA","i_lat":-6.330363,"line":2,"i_long":106.832616,"is_transit":false,"distance":1029,"station_name":"Lenteng Agung","time":2,"transit":false},{"station_name":"Tanjung Barat","i_lat":-6.3080680000000005,"i_long":106.838896,"distance":2671,"is_transit":false,"station_id":"TNT","transit":false,"time":3,"line":2},{"i_long":106.843999,"i_lat":-6.2842400000000005,"transit":false,"station_name":"Pasar Minggu","station_id":"PSM","distance":2820,"line":2,"time":4,"is_transit":false},{"station_name":"Pasar Minggu Baru","line":2,"transit":false,"is_transit":false,"station_id":"PSMB","distance":2380,"i_long":106.851577,"time":2,"i_lat":-6.263214},{"station_name":"Duren Kalibata","time":2,"transit":false,"distance":824,"i_lat":-6.255332,"i_long":106.85449,"line":2,"is_transit":false,"station_id":"DRN"},{"line":2,"i_long":106.856607,"i_lat":-6.242512,"station_name":"Cawang","time":3,"is_transit":false,"station_id":"CW","transit":false,"distance":1546},{"i_long":106.857948,"time":2,"station_name":"Tebet","station_id":"TEB","is_transit":false,"i_lat":-6.226659,"transit":false,"line":2,"distance":1230},{"distance":2610,"transit":false,"i_lat":-6.209883,"is_transit":false,"line":2,"station_id":"MRI","station_name":"Manggarai","time":4,"i_long":106.84912},{"is_transit":false,"line":2,"distance":1590,"station_name":"Cikini","transit":false,"station_id":"CKI","i_lat":-6.198556,"time":4,"i_long":106.840169},{"i_lat":-6.186295,"time":3,"station_name":"Gondangdia","i_long":106.832183,"distance":1750,"station_id":"GDD","line":2,"transit":false,"is_transit":false},{"distance":2015,"line":2,"time":4,"i_long":106.828284,"station_id":"JUA","i_lat":-6.166716,"is_transit":false,"transit":false,"station_name":"Juanda"},{"time":2,"line":2,"is_transit":false,"transit":false,"i_long":106.827103,"distance":1149,"station_name":"Sawah Besar","i_lat":-6.160725,"station_id":"SW"},{"time":2,"i_long":106.82482,"transit":false,"is_transit":false,"station_name":"Manggabesar","station_id":"MGB","distance":906,"i_lat":-6.149769,"line":2},{"i_long":106.820901,"is_transit":false,"station_name":"Jayakarta","distance":1080,"i_lat":-6.141205,"line":2,"transit":false,"station_id":"JAY","time":2}],[{"time":0,"i_long":106.831114,"station_id":"POC","i_lat":-6.369073,"is_transit":false,"transit":false,"distance":0,"station_name":"Pondok Cina","line":2},{"line":2,"i_long":106.831474,"time":2,"is_transit":false,"i_lat":-6.360749,"distance":1109,"transit":false,"station_name":"Univ. Indonesia","station_id":"UI"},{"transit":false,"i_long":106.834175,"line":2,"is_transit":false,"i_lat":-6.339291,"station_name":"Univ. Pancasila","time":3,"distance":2264,"station_id":"UP"},{"i_lat":-6.330363,"is_transit":false,"transit":false,"station_id":"LNA","time":2,"station_name":"Lenteng Agung","distance":1029,"i_long":106.832616,"line":2},{"station_id":"TNT","distance":2671,"station_name":"Tanjung Barat","i_lat":-6.3080680000000005,"time":3,"i_long":106.838896,"line":2,"transit":false,"is_transit":false},{"distance":2820,"i_lat":-6.2842400000000005,"i_long":106.843999,"transit":false,"station_id":"PSM","station_name":"Pasar Minggu","is_transit":false,"time":4,"line":2},{"is_transit":false,"time":2,"line":2,"station_id":"PSMB","i_long":106.851577,"distance":2380,"station_name":"Pasar Minggu Baru","i_lat":-6.263214,"transit":false},{"i_lat":-6.255332,"i_long":106.85449,"transit":false,"distance":824,"is_transit":false,"line":2,"station_id":"DRN","time":2,"station_name":"Duren Kalibata"},{"station_id":"CW","i_lat":-6.242512,"i_long":106.856607,"is_transit":false,"time":3,"distance":1546,"station_name":"Cawang","transit":false,"line":2},{"station_id":"TEB","transit":false,"distance":1230,"i_lat":-6.226659,"i_long":106.857948,"is_transit":false,"line":2,"time":2,"station_name":"Tebet"},{"transit":true,"station_name":"Manggarai","is_transit":true,"i_long":106.84912,"line":2,"time":4,"distance":2610,"i_lat":-6.209883,"station_id":"MRI"},{"i_long":106.822649,"station_id":"SUD","station_name":"Sudirman","is_transit":false,"time":4,"distance":3186,"i_lat":-6.202263,"transit":false,"line":1},{"transit":false,"line":1,"distance":280,"is_transit":false,"i_long":106.819881,"time":1,"station_name":"Sudirman Baru","station_id":"SUDB","i_lat":-6.201433},{"station_name":"Karet","i_lat":-6.20132,"time":1,"i_long":106.816351,"line":1,"distance":471,"station_id":"KAT","is_transit":false,"transit":false},{"is_transit":false,"transit":false,"line":1,"i_lat":-6.185545,"distance":2029,"time":5,"station_id":"THB","i_long":106.811091,"station_name":"Tanah Abang"},{"is_transit":false,"station_id":"DU","transit":false,"time":8,"i_lat":-6.155215,"i_long":106.800832,"station_name":"Duri","line":1,"distance":3632},{"station_id":"AK","i_lat":-6.144674,"i_long":106.79867,"transit":false,"line":1,"time":4,"distance":1230,"is_transit":false,"station_name":"Angke"},{"i_long":106.826365,"distance":4102,"transit":true,"station_name":"Kampung Bandan","station_id":"KPB","is_transit":true,"time":9,"i_lat":-6.132549,"line":4},{"time":3,"distance":1364,"line":2,"i_lat":-6.137569,"station_id":"JAKK","transit":true,"station_name":"Jakarta Kota","is_transit":true,"i_long":106.812439},{"time":4,"distance":1264,"transit":false,"line":2,"station_id":"JAY","i_long":106.820901,"i_lat":-6.141205,"is_transit":false,"station_name":"Jayakarta"}],[{"i_lat":-6.369073,"station_name":"Pondok Cina","distance":0,"station_id":"POC","time":0,"line":2,"i_long":106.831114,"is_transit":false,"transit":false},{"transit":false,"time":2,"station_name":"Univ. Indonesia","distance":1109,"line":2,"is_transit":false,"i_lat":-6.360749,"station_id":"UI","i_long":106.831474},{"line":2,"distance":2264,"station_id":"UP","station_name":"Univ. Pancasila","transit":false,"is_transit":false,"time":3,"i_lat":-6.339291,"i_long":106.834175},{"station_id":"LNA","time":2,"line":2,"is_transit":false,"distance":1029,"i_long":106.832616,"i_lat":-6.330363,"transit":false,"station_name":"Lenteng Agung"},{"transit":false,"station_name":"Tanjung Barat","i_long":106.838896,"distance":2671,"i_lat":-6.3080680000000005,"time":3,"line":2,"is_transit":false,"station_id":"TNT"},{"distance":2820,"i_lat":-6.2842400000000005,"i_long":106.843999,"transit":false,"line":2,"station_id":"PSM","is_transit":false,"time":4,"station_name":"Pasar Minggu"},{"station_name":"Pasar Minggu Baru","i_long":106.851577,"transit":false,"line":2,"is_transit":false,"time":2,"distance":2380,"i_lat":-6.263214,"station_id":"PSMB"},{"distance":824,"i_long":106.85449,"station_name":"Duren Kalibata","station_id":"DRN","is_transit":false,"transit":false,"i_lat":-6.255332,"time":2,"line":2},{"i_lat":-6.242512,"station_id":"CW","distance":1546,"i_long":106.856607,"transit":false,"time":3,"is_transit":false,"station_name":"Cawang","line":2},{"station_id":"TEB","is_transit":false,"station_name":"Tebet","i_long":106.857948,"time":2,"line":2,"transit":false,"i_lat":-6.226659,"distance":1230},{"station_id":"MRI","i_long":106.84912,"station_name":"Manggarai","i_lat":-6.209883,"distance":2610,"transit":true,"is_transit":true,"line":2,"time":4},{"station_name":"Matraman","time":2,"station_id":"MTR","is_transit":false,"distance":1275,"i_lat":-6.212485,"transit":false,"i_long":106.858896,"line":1},{"is_transit":true,"time":8,"i_long":106.86807400000001,"station_id":"JNG","transit":true,"i_lat":-6.215091,"line":1,"station_name":"Jatinegara","distance":1377},{"distance":1236,"i_long":106.861737,"station_name":"Pondok Jati","i_lat":-6.209188,"station_id":"POK","time":2,"line":11,"transit":false,"is_transit":false},{"is_transit":false,"i_lat":-6.193792,"i_long":106.855437,"station_id":"KMT","transit":false,"time":2,"distance":1829,"station_name":"Kramat","line":11},{"station_id":"GST","i_long":106.850107,"line":11,"transit":false,"time":1,"station_name":"Gang Sentiong","distance":973,"is_transit":false,"i_lat":-6.185975},{"line":11,"i_lat":-6.174784,"station_name":"Pasar Senen","station_id":"PSE","i_long":106.84368,"time":8,"transit":false,"is_transit":false,"distance":1567},{"i_lat":-6.161728,"distance":1436,"station_name":"Kemayoran","time":4,"i_long":106.839204,"line":11,"is_transit":false,"transit":false,"station_id":"KMO"},{"i_long":106.836569,"station_id":"RJW","distance":1901,"transit":false,"station_name":"Rajawali","time":5,"line":11,"i_lat":-6.14505,"is_transit":false},{"distance":1444,"i_lat":-6.132549,"station_name":"Kampung Bandan","line":4,"i_long":106.826365,"transit":true,"station_id":"KPB","is_transit":true,"time":3},{"transit":true,"time":3,"i_lat":-6.137569,"i_long":106.812439,"station_name":"Jakarta Kota","station_id":"JAKK","line":2,"distance":1364,"is_transit":true},{"line":2,"time":4,"transit":false,"i_long":106.820901,"station_id":"JAY","station_name":"Jayakarta","i_lat":-6.141205,"is_transit":false,"distance":1264}]]}