{"data":[[{"time":0,"is_transit":false,"station_id":"POC","i_lat":-6.369073,"line":2,"transit":false,"distance":0,"i_long":106.831114,"station_name":"Pondok Cina"},{"is_transit":false,"time":2,"i_lat":-6.360749,"station_name":"Univ. Indonesia","transit":false,"distance":1109,"i_long":106.831474,"station_id":"UI","line":2},{"time":3,"station_id":"UP","is_transit":false,"line":2,"station_name":"Univ. Pancasila","i_lat":-6.339291,"transit":false,"distance":2264,"i_long":106.834175},{"station_id":"LNA","i_long":106.832616,"transit":false,"time":2,"is_transit":false,"i_lat":-6.330363,"distance":1029,"line":2,"station_name":"Lenteng Agung"},{"transit":false,"station_name":"Tanjung Barat","station_id":"TNT","is_transit":false,"distance":2671,"i_lat":-6.3080680000000005,"line":2,"i_long":106.838896,"time":3},{"station_id":"PSM","transit":false,"distance":2820,"i_lat":-6.2842400000000005,"i_long":106.843999,"time":4,"is_transit":false,"station_name":"Pasar Minggu","line":2},{"station_id":"PSMB","transit":false,"line":2,"is_transit":false,"distance":2380,"i_lat":-6.263214,"station_name":"Pasar Minggu Baru","time":2,"i_long":106.851577},{"time":2,"line":2,"i_lat":-6.255332,"distance":824,"is_transit":false,"i_long":106.85449,"transit":false,"station_id":"DRN","station_name":"Duren Kalibata"},{"station_name":"Cawang","distance":1546,"i_long":106.856607,"transit":false,"is_transit":false,"i_lat":-6.242512,"time":3,"line":2,"station_id":"CW"},{"line":2,"i_lat":-6.226659,"time":2,"is_transit":false,"transit":false,"station_name":"Tebet","distance":1230,"station_id":"TEB","i_long":106.857948},{"station_id":"MRI","distance":2610,"is_transit":true,"i_long":106.84912,"i_lat":-6.209883,"line":2,"transit":true,"time":4,"station_name":"Manggarai"},{"i_lat":-6.202263,"station_name":"Sudirman","is_transit":false,"station_id":"SUD","distance":3186,"i_long":106.822649,"line":1,"transit":false,"time":4},{"is_transit":false,"transit":false,"i_lat":-6.201433,"distance":280,"line":1,"station_name":"Sudirman Baru","time":1,"station_id":"SUDB","i_long":106.819881},{"station_id":"KAT","i_long":106.816351,"is_transit":false,"time":1,"station_name":"Karet","line":1,"i_lat":-6.20132,"distance":471,"transit":false},{"is_transit":true,"station_name":"Tanah Abang","transit":true,"station_id":"THB","distance":2029,"time":5,"i_lat":-6.185545,"line":1,"i_long":106.811091},{"line":6,"is_transit":false,"time":6,"distance":3191,"i_lat":-6.207404,"station_id":"PLM","i_long":106.79689,"transit":false,"station_name":"Palmerah"},{"transit":false,"time":7,"line":6,"is_transit":false,"station_id":"KBY","distance":3737,"i_lat":-6.237242,"i_long":106.780334,"station_name":"Kebayoran"}],[{"is_transit":false,"time":0,"i_lat":-6.369073,"i_long":106.831114,"transit":false,"station_name":"Pondok Cina","station_id":"POC","distance":0,"line":2},{"line":2,"time":2,"i_lat":-6.360749,"i_long":106.831474,"station_name":"Univ. Indonesia","transit":false,"distance":1109,"station_id":"UI","is_transit":false},{"distance":2264,"line":2,"time":3,"i_lat":-6.339291,"is_transit":false,"i_long":106.834175,"station_id":"UP","transit":false,"station_name":"Univ. Pancasila"},{"transit":false,"i_long":106.832616,"station_name":"Lenteng Agung","is_transit":false,"distance":1029,"i_lat":-6.330363,"time":2,"line":2,"station_id":"LNA"},{"i_lat":-6.3080680000000005,"line":2,"station_id":"TNT","i_long":106.838896,"transit":false,"time":3,"is_transit":false,"distance":2671,"station_name":"Tanjung Barat"},{"station_id":"PSM","i_lat":-6.2842400000000005,"time":4,"transit":false,"distance":2820,"is_transit":false,"i_long":106.843999,"station_name":"Pasar Minggu","line":2},{"i_long":106.851577,"line":2,"station_id":"PSMB","time":2,"station_name":"Pasar Minggu Baru","transit":false,"distance":2380,"is_transit":false,"i_lat":-6.263214},{"station_id":"DRN","i_lat":-6.255332,"is_transit":false,"station_name":"Duren Kalibata","i_long":106.85449,"line":2,"transit":false,"distance":824,"time":2},{"distance":1546,"line":2,"time":3,"i_lat":-6.242512,"station_name":"Cawang","station_id":"CW","transit":false,"is_transit":false,"i_long":106.856607},{"line":2,"transit":false,"is_transit":false,"time":2,"distance":1230,"station_name":"Tebet","i_long":106.857948,"i_lat":-6.226659,"station_id":"TEB"},{"station_id":"MRI","distance":2610,"i_lat":-6.209883,"line":2,"station_name":"Manggarai","is_transit":false,"i_long":106.84912,"time":4,"transit":false},{"station_id":"CKI","distance":1590,"station_name":"Cikini","transit":false,"i_lat":-6.198556,"is_transit":false,"i_long":106.840169,"line":2,"time":4},{"transit":false,"is_transit":false,"i_lat":-6.186295,"station_name":"Gondangdia","distance":1750,"line":2,"station_id":"GDD","i_long":106.832183,"time":3},{"i_lat":-6.166716,"station_id":"JUA","distance":2015,"line":2,"transit":false,"is_transit":false,"station_name":"Juanda","time":4,"i_long":106.828284},{"line":2,"i_lat":-6.160725,"distance":1149,"is_transit":false,"time":2,"i_long":106.827103,"transit":false,"station_name":"Sawah Besar","station_id":"SW"},{"line":2,"station_name":"Manggabesar","time":2,"station_id":"MGB","transit":false,"distance":906,"is_transit":false,"i_long":106.82482,"i_lat":-6.149769},{"i_lat":-6.141205,"time":2,"line":2,"station_name":"Jayakarta","distance":1080,"i_long":106.820901,"station_id":"JAY","is_transit":false,"transit":false},{"line":2,"station_name":"Jakarta Kota","distance":1264,"is_transit":true,"transit":true,"station_id":"JAKK","i_lat":-6.137569,"time":4,"i_long":106.812439},{"is_transit":true,"station_name":"Kampung Bandan","station_id":"KPB","line":4,"time":3,"transit":true,"i_lat":-6.132549,"distance":1364,"i_long":106.826365},{"transit":false,"distance":4102,"is_transit":false,"time":9,"i_lat":-6.144674,"station_id":"AK","station_name":"Angke","i_long":106.79867,"line":1},{"is_transit":false,"station_id":"DU","time":4,"line":1,"i_lat":-6.155215,"distance":1230,"transit":false,"station_name":"Duri","i_long":106.800832},{"station_id":"THB","i_lat":-6.185545,"distance":3632,"i_long":106.811091,"transit":true,"time":8,"line":1,"station_name":"Tanah Abang","is_transit":true},{"time":6,"distance":3191,"line":6,"station_name":"Palmerah","i_long":106.79689,"i_lat":-6.207404,"station_id":"PLM","transit":false,"is_transit":false},{"distance":3737,"station_id":"KBY","i_lat":-6.237242,"time":7,"station_name":"Kebayoran","i_long":106.780334,"transit":false,"is_transit":false,"line":6}],[{"station_id":"POC","time":0,"i_lat":-6.369073,"line":2,"distance":0,"i_long":106.831114,"transit":false,"station_name":"Pondok Cina","is_transit":false},{"is_transit":false,"station_id":"UI","distance":1109,"i_lat":-6.360749,"transit":false,"i_long":106.831474,"station_name":"Univ. Indonesia","time":2,"line":2},{"i_lat":-6.339291,"line":2,"transit":false,"station_id":"UP","i_long":106.834175,"station_name":"Univ. Pancasila","distance":2264,"is_transit":false,"time":3},{"station_name":"Lenteng Agung","station_id":"LNA","i_lat":-6.330363,"distance":1029,"time":2,"transit":false,"line":2,"is_transit":false,"i_long":106.832616},{"line":2,"station_name":"Tanjung Barat","transit":false,"i_lat":-6.3080680000000005,"i_long":106.838896,"distance":2671,"is_transit":false,"time":3,"station_id":"TNT"},{"station_name":"Pasar Minggu","time":4,"i_lat":-6.2842400000000005,"distance":2820,"transit":false,"is_transit":false,"i_long":106.843999,"station_id":"PSM","line":2},{"is_transit":false,"time":2,"i_lat":-6.263214,"line":2,"station_id":"PSMB","i_long":106.851577,"transit":false,"distance":2380,"station_name":"Pasar Minggu Baru"},{"station_name":"Duren Kalibata","time":2,"i_long":106.85449,"station_id":"DRN","transit":false,"i_lat":-6.255332,"distance":824,"is_transit":false,"line":2},{"station_name":"Cawang","i_lat":-6.242512,"line":2,"time":3,"distance":1546,"is_transit":false,"transit":false,"station_id":"CW","i_long":106.856607},{"line":2,"transit":false,"i_long":106.857948,"time":2,"i_lat":-6.226659,"station_id":"TEB","station_name":"Tebet","is_transit":false,"distance":1230},{"transit":true,"station_name":"Manggarai","station_id":"MRI","distance":2610,"is_transit":true,"i_long":106.84912,"line":2,"i_lat":-6.209883,"time":4},{"transit":false,"i_lat":-6.212485,"station_id":"MTR","time":2,"station_name":"Matraman","is_transit":false,"distance":1275,"i_long":106.858896,"line":1},{"is_transit":true,"distance":1377,"i_long":106.86807400000001,"i_lat":-6.215091,"line":1,"time":8,"transit":true,"station_name":"Jatinegara","station_id":"JNG"},{"i_lat":-6.209188,"time":2,"i_long":106.861737,"is_transit":false,"transit":false,"line":11,"station_id":"POK","distance":1236,"station_name":"Pondok Jati"},{"i_lat":-6.193792,"is_transit":false,"station_id":"KMT","line":11,"station_name":"Kramat","transit":false,"i_long":106.855437,"distance":1829,"time":2},{"i_lat":-6.185975,"station_id":"GST","station_name":"Gang Sentiong","transit":false,"is_transit":false,"i_long":106.850107,"line":11,"distance":973,"time":1},{"is_transit":false,"station_id":"PSE","distance":1567,"station_name":"Pasar Senen","transit":false,"line":11,"i_lat":-6.174784,"i_long":106.84368,"time":8},{"time":4,"i_lat":-6.161728,"station_id":"KMO","transit":false,"is_transit":false,"station_name":"Kemayoran","distance":1436,"line":11,"i_long":106.839204},{"is_transit":false,"i_long":106.836569,"station_id":"RJW","distance":1901,"transit":false,"time":5,"station_name":"Rajawali","line":11,"i_lat":-6.14505},{"is_transit":true,"station_id":"KPB","i_lat":-6.132549,"time":3,"distance":1444,"line":4,"transit":true,"station_name":"Kampung Bandan","i_long":106.826365},{"station_name":"Angke","line":1,"transit":false,"is_transit":false,"distance":4102,"station_id":"AK","time":9,"i_lat":-6.144674,"i_long":106.79867},{"time":4,"i_long":106.800832,"station_name":"Duri","i_lat":-6.155215,"distance":1230,"is_transit":false,"transit":false,"line":1,"station_id":"DU"},{"i_long":106.811091,"transit":true,"station_name":"Tanah Abang","time":8,"distance":3632,"station_id":"THB","i_lat":-6.185545,"is_transit":true,"line":1},{"station_name":"Palmerah","station_id":"PLM","i_lat":-6.207404,"distance":3191,"transit":false,"line":6,"i_long":106.79689,"is_transit":false,"time":6},{"transit":false,"is_transit":false,"line":6,"i_lat":-6.237242,"station_id":"KBY","distance":3737,"i_long":106.780334,"time":7,"station_name":"Kebayoran"}]]}