{"data":[[{"station_name":"Pondok Cina","time":0,"i_lat":-6.369073,"line":2,"i_long":106.831114,"transit":false,"is_transit":false,"station_id":"POC","distance":0},{"station_name":"Univ. Indonesia","line":2,"time":2,"i_lat":-6.360749,"station_id":"UI","distance":1109,"transit":false,"is_transit":false,"i_long":106.831474},{"station_id":"UP","line":2,"transit":false,"time":3,"station_name":"Univ. Pancasila","distance":2264,"i_long":106.834175,"i_lat":-6.339291,"is_transit":false},{"station_id":"LNA","distance":1029,"station_name":"Lenteng Agung","i_lat":-6.330363,"i_long":106.832616,"transit":false,"line":2,"is_transit":false,"time":2},{"i_lat":-6.3080680000000005,"transit":false,"time":3,"is_transit":false,"distance":2671,"station_name":"Tanjung Barat","i_long":106.838896,"line":2,"station_id":"TNT"},{"i_long":106.843999,"is_transit":false,"line":2,"time":4,"station_id":"PSM","distance":2820,"station_name":"Pasar Minggu","transit":false,"i_lat":-6.2842400000000005},{"time":2,"i_lat":-6.263214,"i_long":106.851577,"is_transit":false,"distance":2380,"line":2,"station_id":"PSMB","station_name":"Pasar Minggu Baru","transit":false},{"distance":824,"station_name":"Duren Kalibata","transit":false,"i_lat":-6.255332,"i_long":106.85449,"station_id":"DRN","is_transit":false,"time":2,"line":0},{"time":3,"is_transit":false,"i_lat":-6.242512,"i_long":106.856607,"line":0,"transit":false,"station_id":"CW","station_name":"Cawang","distance":1546},{"line":2,"station_id":"TEB","is_transit":false,"time":2,"distance":1230,"i_long":106.857948,"transit":false,"station_name":"Tebet","i_lat":-6.226659},{"time":4,"transit":true,"station_id":"MRI","is_transit":true,"distance":2610,"station_name":"Manggarai","i_long":106.84912,"line":0,"i_lat":-6.209883},{"transit":false,"i_long":106.858896,"i_lat":-6.212485,"station_id":"MTR","is_transit":false,"line":1,"time":2,"distance":1275,"station_name":"Matraman"},{"line":0,"i_long":106.86807400000001,"transit":false,"station_id":"JNG","distance":1377,"time":8,"station_name":"Jatinegara","i_lat":-6.215091,"is_transit":true},{"station_id":"KLD","transit":false,"i_long":106.899548,"station_name":"Klender","distance":3395,"time":3,"i_lat":-6.2135,"line":1,"is_transit":false},{"i_lat":-6.215568,"i_long":106.922662,"is_transit":false,"line":0,"station_id":"BUA","transit":false,"distance":3100,"station_name":"Buaran","time":2},{"i_long":106.939679,"time":1,"i_lat":-6.217455,"station_id":"KLDB","distance":1305,"station_name":"Klenderbaru","is_transit":false,"transit":false,"line":1}],[{"transit":false,"station_id":"POC","time":0,"i_long":106.831114,"distance":0,"is_transit":false,"i_lat":-6.369073,"station_name":"Pondok Cina","line":2},{"line":2,"station_name":"Univ. Indonesia","station_id":"UI","is_transit":false,"time":2,"i_long":106.831474,"i_lat":-6.360749,"distance":1109,"transit":false},{"i_lat":-6.339291,"line":2,"i_long":106.834175,"is_transit":false,"station_name":"Univ. Pancasila","transit":false,"station_id":"UP","distance":2264,"time":3},{"transit":false,"i_long":106.832616,"station_id":"LNA","is_transit":false,"i_lat":-6.330363,"time":2,"distance":1029,"line":2,"station_name":"Lenteng Agung"},{"station_name":"Tanjung Barat","distance":2671,"i_long":106.838896,"line":2,"i_lat":-6.3080680000000005,"is_transit":false,"transit":false,"time":3,"station_id":"TNT"},{"is_transit":false,"i_long":106.843999,"line":2,"station_id":"PSM","time":4,"station_name":"Pasar Minggu","distance":2820,"transit":false,"i_lat":-6.2842400000000005},{"distance":2380,"transit":false,"i_lat":-6.263214,"line":2,"is_transit":false,"i_long":106.851577,"time":2,"station_name":"Pasar Minggu Baru","station_id":"PSMB"},{"station_id":"DRN","i_long":106.85449,"line":0,"distance":824,"time":2,"transit":false,"is_transit":false,"i_lat":-6.255332,"station_name":"Duren Kalibata"},{"is_transit":false,"time":3,"i_lat":-6.242512,"station_id":"CW","line":0,"i_long":106.856607,"distance":1546,"transit":false,"station_name":"Cawang"},{"station_name":"Tebet","i_lat":-6.226659,"line":2,"time":2,"is_transit":false,"i_long":106.857948,"distance":1230,"transit":false,"station_id":"TEB"},{"i_lat":-6.209883,"distance":2610,"station_id":"MRI","i_long":106.84912,"time":4,"is_transit":true,"station_name":"Manggarai","transit":true,"line":0},{"distance":3186,"station_name":"Sudirman","time":4,"transit":false,"line":1,"is_transit":false,"i_lat":-6.202263,"station_id":"SUD","i_long":106.822649},{"distance":280,"is_transit":false,"i_long":106.819881,"transit":false,"station_id":"SUDB","i_lat":-6.201433,"time":1,"line":1,"station_name":"Sudirman Baru"},{"line":1,"station_id":"KAT","distance":471,"station_name":"Karet","is_transit":false,"time":1,"i_lat":-6.20132,"transit":false,"i_long":106.816351},{"i_long":106.811091,"station_id":"THB","transit":false,"i_lat":-6.185545,"time":5,"station_name":"Tanah Abang","line":1,"is_transit":true,"distance":2029},{"transit":true,"is_transit":true,"line":1,"time":8,"station_name":"Duri","distance":3632,"i_lat":-6.155215,"station_id":"DU","i_long":106.800832},{"station_id":"AK","i_long":106.79867,"time":4,"i_lat":-6.144674,"line":0,"distance":1230,"station_name":"Angke","transit":false,"is_transit":false},{"transit":true,"distance":4102,"station_id":"KPB","time":9,"station_name":"Kampung Bandan","i_long":106.826365,"is_transit":true,"line":0,"i_lat":-6.132549},{"i_lat":-6.14505,"i_long":106.836569,"transit":false,"line":11,"station_id":"RJW","is_transit":false,"station_name":"Rajawali","time":3,"distance":1444},{"distance":1901,"i_long":106.839204,"is_transit":false,"transit":false,"station_id":"KMO","station_name":"Kemayoran","line":11,"i_lat":-6.161728,"time":5},{"time":4,"station_name":"Pasar Senen","distance":1436,"i_lat":-6.174784,"i_long":106.84368,"line":11,"station_id":"PSE","transit":false,"is_transit":false},{"time":8,"line":11,"i_long":106.850107,"transit":false,"station_name":"Gang Sentiong","i_lat":-6.185975,"distance":1567,"station_id":"GST","is_transit":false},{"i_lat":-6.193792,"line":11,"i_long":106.855437,"station_name":"Kramat","distance":973,"station_id":"KMT","is_transit":false,"time":1,"transit":false},{"i_long":106.861737,"station_id":"POK","time":2,"distance":1829,"is_transit":false,"transit":false,"station_name":"Pondok Jati","i_lat":-6.209188,"line":11},{"i_lat":-6.215091,"line":0,"i_long":106.86807400000001,"station_id":"JNG","distance":1236,"time":9,"is_transit":true,"station_name":"Jatinegara","transit":true},{"is_transit":false,"time":3,"station_name":"Klender","transit":false,"i_lat":-6.2135,"distance":3395,"i_long":106.899548,"station_id":"KLD","line":1},{"station_name":"Buaran","i_lat":-6.215568,"i_long":106.922662,"line":0,"transit":false,"is_transit":false,"distance":3100,"time":2,"station_id":"BUA"},{"is_transit":false,"transit":false,"time":1,"line":1,"distance":1305,"i_lat":-6.217455,"i_long":106.939679,"station_name":"Klenderbaru","station_id":"KLDB"}],[{"is_transit":false,"line":2,"time":0,"station_name":"Pondok Cina","distance":0,"transit":false,"i_lat":-6.369073,"station_id":"POC","i_long":106.831114},{"station_id":"UI","time":2,"station_name":"Univ. Indonesia","transit":false,"is_transit":false,"line":2,"distance":1109,"i_lat":-6.360749,"i_long":106.831474},{"i_long":106.834175,"i_lat":-6.339291,"distance":2264,"line":2,"station_name":"Univ. Pancasila","time":3,"transit":false,"station_id":"UP","is_transit":false},{"is_transit":false,"station_id":"LNA","time":2,"distance":1029,"i_lat":-6.330363,"i_long":106.832616,"line":2,"transit":false,"station_name":"Lenteng Agung"},{"station_id":"TNT","station_name":"Tanjung Barat","distance":2671,"i_lat":-6.3080680000000005,"is_transit":false,"time":3,"transit":false,"line":2,"i_long":106.838896},{"station_id":"PSM","station_name":"Pasar Minggu","transit":false,"time":4,"i_long":106.843999,"is_transit":false,"distance":2820,"line":2,"i_lat":-6.2842400000000005},{"transit":false,"station_id":"PSMB","station_name":"Pasar Minggu Baru","is_transit":false,"i_lat":-6.263214,"i_long":106.851577,"line":2,"time":2,"distance":2380},{"is_transit":false,"transit":false,"i_lat":-6.255332,"i_long":106.85449,"time":2,"distance":824,"station_name":"Duren Kalibata","line":0,"station_id":"DRN"},{"station_name":"Cawang","station_id":"CW","time":3,"distance":1546,"is_transit":false,"i_lat":-6.242512,"line":0,"i_long":106.856607,"transit":false},{"i_lat":-6.226659,"station_id":"TEB","transit":false,"is_transit":false,"station_name":"Tebet","distance":1230,"i_long":106.857948,"time":2,"line":2},{"station_id":"MRI","station_name":"Manggarai","i_long":106.84912,"line":0,"i_lat":-6.209883,"transit":true,"time":4,"is_transit":true,"distance":2610},{"i_lat":-6.198556,"line":0,"station_name":"Cikini","transit":false,"station_id":"CKI","is_transit":false,"time":4,"i_long":106.840169,"distance":1590},{"i_long":106.832183,"line":2,"station_name":"Gondangdia","station_id":"GDD","transit":false,"time":3,"is_transit":false,"distance":1750,"i_lat":-6.186295},{"line":2,"station_name":"Juanda","time":4,"i_lat":-6.166716,"i_long":106.828284,"distance":2015,"transit":false,"station_id":"JUA","is_transit":false},{"transit":false,"is_transit":false,"i_long":106.827103,"station_name":"Sawah Besar","i_lat":-6.160725,"station_id":"SW","line":2,"time":2,"distance":1149},{"line":2,"i_lat":-6.149769,"i_long":106.82482,"distance":906,"station_id":"MGB","transit":false,"is_transit":false,"time":2,"station_name":"Manggabesar"},{"distance":1080,"is_transit":false,"i_lat":-6.141205,"line":7,"station_name":"Jayakarta","transit":false,"time":2,"i_long":106.820901,"station_id":"JAY"},{"transit":true,"is_transit":true,"i_long":106.812439,"station_id":"JAKK","station_name":"Jakarta Kota","time":4,"i_lat":-6.137569,"distance":1264,"line":0},{"time":3,"is_transit":true,"station_name":"Kampung Bandan","distance":1364,"i_long":106.826365,"transit":true,"station_id":"KPB","i_lat":-6.132549,"line":0},{"station_name":"Rajawali","transit":false,"i_long":106.836569,"distance":1444,"line":11,"i_lat":-6.14505,"station_id":"RJW","time":3,"is_transit":false},{"i_long":106.839204,"line":11,"station_id":"KMO","station_name":"Kemayoran","is_transit":false,"time":5,"distance":1901,"transit":false,"i_lat":-6.161728},{"distance":1436,"station_name":"Pasar Senen","line":11,"time":4,"i_lat":-6.174784,"transit":false,"i_long":106.84368,"is_transit":false,"station_id":"PSE"},{"i_long":106.850107,"line":11,"time":8,"is_transit":false,"distance":1567,"station_id":"GST","i_lat":-6.185975,"transit":false,"station_name":"Gang Sentiong"},{"is_transit":false,"time":1,"line":11,"distance":973,"station_name":"Kramat","i_lat":-6.193792,"station_id":"KMT","i_long":106.855437,"transit":false},{"transit":false,"time":2,"station_id":"POK","is_transit":false,"distance":1829,"i_long":106.861737,"line":11,"i_lat":-6.209188,"station_name":"Pondok Jati"},{"distance":1236,"is_transit":true,"i_long":106.86807400000001,"i_lat":-6.215091,"station_id":"JNG","station_name":"Jatinegara","transit":true,"line":0,"time":9},{"is_transit":false,"i_lat":-6.2135,"line":1,"station_name":"Klender","time":3,"station_id":"KLD","transit":false,"i_long":106.899548,"distance":3395},{"line":0,"i_lat":-6.215568,"i_long":106.922662,"station_id":"BUA","time":2,"is_transit":false,"station_name":"Buaran","transit":false,"distance":3100},{"transit":false,"station_name":"Klenderbaru","is_transit":false,"time":1,"i_long":106.939679,"distance":1305,"i_lat":-6.217455,"line":1,"station_id":"KLDB"}]]}