{"data":[[{"time":0,"i_lat":-6.369073,"station_name":"Pondok Cina","station_id":"POC","transit":false,"i_long":106.831114,"line":2,"is_transit":false,"distance":0},{"time":4,"station_name":"Depokbaru","line":2,"distance":2727,"transit":false,"is_transit":false,"i_lat":-6.391065,"station_id":"DPB","i_long":106.819451},{"station_name":"Depok","time":3,"distance":1584,"line":2,"i_lat":-6.405256,"i_long":106.816926,"is_transit":false,"transit":false,"station_id":"DP"},{"transit":true,"distance":5084,"station_id":"CTA","i_long":106.800298,"is_transit":true,"time":6,"i_lat":-6.448811,"station_name":"Citayam","line":2},{"is_transit":false,"i_long":106.824374,"time":0,"station_id":"PDRG","line":21,"distance":0,"transit":false,"station_name":"Pondok Rajeg","i_lat":-6.460735},{"i_long":106.851978,"station_name":"Cibinong","i_lat":-6.46424,"station_id":"CBN","time":0,"transit":false,"is_transit":false,"line":21,"distance":0},{"is_transit":false,"i_lat":-6.466285,"transit":false,"distance":6527,"line":21,"station_name":"Nambo","station_id":"NMO","time":10,"i_long":106.905196}]]}