{"data":[[{"distance":0,"i_lat":-6.369073,"line":2,"station_id":"POC","i_long":106.831114,"time":0,"is_transit":false,"transit":false,"station_name":"Pondok Cina"},{"is_transit":false,"transit":false,"station_id":"UI","station_name":"Univ. Indonesia","time":2,"distance":1109,"i_long":106.831474,"line":2,"i_lat":-6.360749},{"line":2,"time":3,"is_transit":false,"distance":2264,"transit":false,"station_name":"Univ. Pancasila","i_lat":-6.339291,"station_id":"UP","i_long":106.834175},{"i_long":106.832616,"time":2,"station_id":"LNA","distance":1029,"i_lat":-6.330363,"transit":false,"line":2,"is_transit":false,"station_name":"Lenteng Agung"},{"is_transit":false,"transit":false,"station_id":"TNT","line":2,"time":3,"distance":2671,"i_lat":-6.3080680000000005,"station_name":"Tanjung Barat","i_long":106.838896},{"distance":2820,"station_id":"PSM","station_name":"Pasar Minggu","is_transit":false,"i_lat":-6.2842400000000005,"time":4,"transit":false,"i_long":106.843999,"line":2},{"time":2,"station_name":"Pasar Minggu Baru","i_long":106.851577,"is_transit":false,"transit":false,"distance":2380,"i_lat":-6.263214,"station_id":"PSMB","line":2},{"station_id":"DRN","i_long":106.85449,"is_transit":false,"station_name":"Duren Kalibata","line":2,"distance":824,"i_lat":-6.255332,"time":2,"transit":false},{"transit":false,"time":3,"station_id":"CW","line":2,"is_transit":false,"i_long":106.856607,"i_lat":-6.242512,"station_name":"Cawang","distance":1546},{"line":2,"transit":false,"distance":1230,"time":2,"station_name":"Tebet","i_long":106.857948,"is_transit":false,"station_id":"TEB","i_lat":-6.226659},{"is_transit":false,"distance":2610,"transit":false,"station_id":"MRI","i_long":106.84912,"station_name":"Manggarai","i_lat":-6.209883,"time":4,"line":2},{"line":2,"is_transit":false,"station_name":"Cikini","time":4,"station_id":"CKI","i_lat":-6.198556,"transit":false,"i_long":106.840169,"distance":1590},{"i_lat":-6.186295,"is_transit":false,"station_name":"Gondangdia","transit":false,"line":2,"distance":1750,"station_id":"GDD","time":3,"i_long":106.832183}],[{"i_lat":-6.369073,"is_transit":false,"transit":false,"line":2,"distance":0,"station_id":"POC","time":0,"station_name":"Pondok Cina","i_long":106.831114},{"station_name":"Univ. Indonesia","time":2,"i_lat":-6.360749,"line":2,"is_transit":false,"station_id":"UI","transit":false,"distance":1109,"i_long":106.831474},{"station_id":"UP","time":3,"line":2,"i_long":106.834175,"transit":false,"is_transit":false,"station_name":"Univ. Pancasila","i_lat":-6.339291,"distance":2264},{"is_transit":false,"transit":false,"i_lat":-6.330363,"station_name":"Lenteng Agung","time":2,"i_long":106.832616,"line":2,"station_id":"LNA","distance":1029},{"line":2,"i_long":106.838896,"station_name":"Tanjung Barat","is_transit":false,"distance":2671,"time":3,"station_id":"TNT","i_lat":-6.3080680000000005,"transit":false},{"i_long":106.843999,"time":4,"transit":false,"is_transit":false,"station_name":"Pasar Minggu","distance":2820,"station_id":"PSM","i_lat":-6.2842400000000005,"line":2},{"station_name":"Pasar Minggu Baru","transit":false,"distance":2380,"i_lat":-6.263214,"time":2,"i_long":106.851577,"line":2,"station_id":"PSMB","is_transit":false},{"i_long":106.85449,"transit":false,"is_transit":false,"station_name":"Duren Kalibata","station_id":"DRN","i_lat":-6.255332,"line":2,"distance":824,"time":2},{"time":3,"station_name":"Cawang","distance":1546,"is_transit":false,"i_lat":-6.242512,"i_long":106.856607,"station_id":"CW","line":2,"transit":false},{"transit":false,"is_transit":false,"distance":1230,"i_long":106.857948,"line":2,"time":2,"station_id":"TEB","i_lat":-6.226659,"station_name":"Tebet"},{"time":4,"line":2,"transit":true,"station_id":"MRI","is_transit":true,"i_lat":-6.209883,"station_name":"Manggarai","distance":2610,"i_long":106.84912},{"time":4,"line":1,"i_lat":-6.202263,"transit":false,"is_transit":false,"station_name":"Sudirman","station_id":"SUD","i_long":106.822649,"distance":3186},{"i_lat":-6.201433,"i_long":106.819881,"time":1,"station_name":"Sudirman Baru","distance":280,"station_id":"SUDB","is_transit":false,"transit":false,"line":1},{"distance":471,"is_transit":false,"i_lat":-6.20132,"station_id":"KAT","transit":false,"i_long":106.816351,"station_name":"Karet","time":1,"line":1},{"transit":false,"i_long":106.811091,"is_transit":false,"station_id":"THB","time":5,"station_name":"Tanah Abang","distance":2029,"i_lat":-6.185545,"line":1},{"station_name":"Duri","station_id":"DU","i_long":106.800832,"line":1,"is_transit":false,"i_lat":-6.155215,"time":8,"transit":false,"distance":3632},{"line":1,"i_lat":-6.144674,"i_long":106.79867,"transit":false,"is_transit":false,"station_name":"Angke","distance":1230,"station_id":"AK","time":4},{"i_long":106.826365,"transit":true,"is_transit":true,"station_name":"Kampung Bandan","distance":4102,"i_lat":-6.132549,"station_id":"KPB","time":9,"line":4},{"distance":1364,"is_transit":true,"i_lat":-6.137569,"station_name":"Jakarta Kota","station_id":"JAKK","transit":true,"i_long":106.812439,"time":3,"line":2},{"station_id":"JAY","line":2,"is_transit":false,"station_name":"Jayakarta","distance":1264,"time":4,"transit":false,"i_lat":-6.141205,"i_long":106.820901},{"line":2,"i_lat":-6.149769,"time":2,"i_long":106.82482,"transit":false,"station_id":"MGB","is_transit":false,"station_name":"Manggabesar","distance":1080},{"line":2,"i_long":106.827103,"station_id":"SW","transit":false,"is_transit":false,"distance":906,"i_lat":-6.160725,"time":2,"station_name":"Sawah Besar"},{"line":2,"transit":false,"i_lat":-6.166716,"i_long":106.828284,"time":2,"is_transit":false,"station_name":"Juanda","station_id":"JUA","distance":1149},{"transit":false,"i_lat":-6.186295,"line":2,"i_long":106.832183,"distance":2015,"is_transit":false,"station_id":"GDD","station_name":"Gondangdia","time":4}],[{"line":2,"transit":false,"i_long":106.831114,"time":0,"station_name":"Pondok Cina","distance":0,"station_id":"POC","is_transit":false,"i_lat":-6.369073},{"time":2,"transit":false,"i_long":106.831474,"line":2,"i_lat":-6.360749,"station_name":"Univ. Indonesia","is_transit":false,"distance":1109,"station_id":"UI"},{"distance":2264,"station_name":"Univ. Pancasila","station_id":"UP","transit":false,"time":3,"is_transit":false,"line":2,"i_long":106.834175,"i_lat":-6.339291},{"station_id":"LNA","distance":1029,"i_lat":-6.330363,"transit":false,"line":2,"is_transit":false,"i_long":106.832616,"time":2,"station_name":"Lenteng Agung"},{"i_lat":-6.3080680000000005,"i_long":106.838896,"station_name":"Tanjung Barat","distance":2671,"station_id":"TNT","line":2,"transit":false,"is_transit":false,"time":3},{"station_id":"PSM","i_lat":-6.2842400000000005,"line":2,"transit":false,"station_name":"Pasar Minggu","i_long":106.843999,"time":4,"distance":2820,"is_transit":false},{"transit":false,"i_long":106.851577,"i_lat":-6.263214,"line":2,"distance":2380,"station_name":"Pasar Minggu Baru","is_transit":false,"time":2,"station_id":"PSMB"},{"distance":824,"is_transit":false,"station_id":"DRN","i_long":106.85449,"line":2,"station_name":"Duren Kalibata","time":2,"transit":false,"i_lat":-6.255332},{"is_transit":false,"i_lat":-6.242512,"station_name":"Cawang","station_id":"CW","distance":1546,"transit":false,"i_long":106.856607,"line":2,"time":3},{"station_id":"TEB","station_name":"Tebet","i_long":106.857948,"time":2,"transit":false,"is_transit":false,"i_lat":-6.226659,"line":2,"distance":1230},{"transit":true,"is_transit":true,"i_lat":-6.209883,"i_long":106.84912,"station_id":"MRI","time":4,"line":2,"station_name":"Manggarai","distance":2610},{"is_transit":false,"line":1,"i_long":106.858896,"distance":1275,"station_name":"Matraman","transit":false,"time":2,"station_id":"MTR","i_lat":-6.212485},{"distance":1377,"station_id":"JNG","station_name":"Jatinegara","i_lat":-6.215091,"transit":true,"line":1,"i_long":106.86807400000001,"is_transit":true,"time":8},{"transit":false,"station_name":"Pondok Jati","time":2,"is_transit":false,"distance":1236,"i_lat":-6.209188,"i_long":106.861737,"line":11,"station_id":"POK"},{"distance":1829,"line":11,"station_id":"KMT","transit":false,"i_lat":-6.193792,"is_transit":false,"station_name":"Kramat","i_long":106.855437,"time":2},{"transit":false,"time":1,"station_name":"Gang Sentiong","i_long":106.850107,"station_id":"GST","is_transit":false,"distance":973,"i_lat":-6.185975,"line":11},{"time":8,"is_transit":false,"i_long":106.84368,"line":11,"i_lat":-6.174784,"station_name":"Pasar Senen","distance":1567,"transit":false,"station_id":"PSE"},{"is_transit":false,"line":11,"i_long":106.839204,"distance":1436,"station_id":"KMO","time":4,"i_lat":-6.161728,"station_name":"Kemayoran","transit":false},{"distance":1901,"i_lat":-6.14505,"time":5,"station_id":"RJW","is_transit":false,"line":11,"station_name":"Rajawali","transit":false,"i_long":106.836569},{"station_name":"Kampung Bandan","i_lat":-6.132549,"transit":true,"distance":1444,"time":3,"i_long":106.826365,"is_transit":true,"line":4,"station_id":"KPB"},{"station_name":"Jakarta Kota","station_id":"JAKK","is_transit":true,"distance":1364,"transit":true,"i_lat":-6.137569,"line":2,"time":3,"i_long":106.812439},{"time":4,"line":2,"station_id":"JAY","i_lat":-6.141205,"i_long":106.820901,"transit":false,"is_transit":false,"station_name":"Jayakarta","distance":1264},{"is_transit":false,"line":2,"station_id":"MGB","i_long":106.82482,"station_name":"Manggabesar","time":2,"distance":1080,"transit":false,"i_lat":-6.149769},{"is_transit":false,"i_long":106.827103,"station_id":"SW","transit":false,"line":2,"station_name":"Sawah Besar","distance":906,"time":2,"i_lat":-6.160725},{"transit":false,"i_long":106.828284,"i_lat":-6.166716,"station_name":"Juanda","is_transit":false,"distance":1149,"line":2,"time":2,"station_id":"JUA"},{"distance":2015,"time":4,"station_id":"GDD","is_transit":false,"station_name":"Gondangdia","transit":false,"i_lat":-6.186295,"i_long":106.832183,"line":2}]]}