{"data":[[{"time":0,"distance":0,"i_lat":-6.369073,"station_name":"Pondok Cina","station_id":"POC","line":2,"i_long":106.831114,"is_transit":false,"transit":false},{"transit":false,"time":2,"distance":1109,"i_long":106.831474,"line":2,"station_name":"Univ. Indonesia","i_lat":-6.360749,"station_id":"UI","is_transit":false},{"station_name":"Univ. Pancasila","transit":false,"distance":2264,"i_lat":-6.339291,"line":2,"i_long":106.834175,"is_transit":false,"station_id":"UP","time":3},{"i_lat":-6.330363,"transit":false,"station_name":"Lenteng Agung","i_long":106.832616,"line":2,"station_id":"LNA","is_transit":false,"distance":1029,"time":2},{"i_lat":-6.3080680000000005,"station_id":"TNT","line":2,"station_name":"Tanjung Barat","distance":2671,"is_transit":false,"transit":false,"time":3,"i_long":106.838896},{"is_transit":false,"station_name":"Pasar Minggu","station_id":"PSM","time":4,"distance":2820,"i_lat":-6.2842400000000005,"transit":false,"i_long":106.843999,"line":2},{"line":2,"station_id":"PSMB","is_transit":false,"time":2,"distance":2380,"i_lat":-6.263214,"station_name":"Pasar Minggu Baru","i_long":106.851577,"transit":false},{"station_name":"Duren Kalibata","time":2,"station_id":"DRN","transit":false,"i_long":106.85449,"is_transit":false,"line":2,"distance":824,"i_lat":-6.255332}]]}