{"data":[[{"station_id":"POC","is_transit":false,"i_long":106.831114,"time":0,"i_lat":-6.369073,"transit":false,"distance":0,"line":2,"station_name":"Pondok Cina"},{"line":2,"i_lat":-6.360749,"is_transit":false,"time":2,"i_long":106.831474,"distance":1109,"station_name":"Univ. Indonesia","station_id":"UI","transit":false},{"i_long":106.834175,"i_lat":-6.339291,"line":2,"station_name":"Univ. Pancasila","transit":false,"distance":2264,"station_id":"UP","time":3,"is_transit":false},{"i_long":106.832616,"transit":false,"time":2,"station_id":"LNA","station_name":"Lenteng Agung","line":2,"is_transit":false,"distance":1029,"i_lat":-6.330363},{"i_long":106.838896,"line":2,"station_name":"Tanjung Barat","station_id":"TNT","time":3,"is_transit":false,"i_lat":-6.3080680000000005,"transit":false,"distance":2671},{"distance":2820,"time":4,"i_long":106.843999,"i_lat":-6.2842400000000005,"line":2,"is_transit":false,"transit":false,"station_name":"Pasar Minggu","station_id":"PSM"},{"i_lat":-6.263214,"distance":2380,"line":2,"transit":false,"is_transit":false,"i_long":106.851577,"station_id":"PSMB","station_name":"Pasar Minggu Baru","time":2},{"i_lat":-6.255332,"i_long":106.85449,"transit":false,"station_id":"DRN","line":2,"time":2,"station_name":"Duren Kalibata","is_transit":false,"distance":824},{"station_id":"CW","distance":1546,"transit":false,"line":2,"i_long":106.856607,"i_lat":-6.242512,"time":3,"station_name":"Cawang","is_transit":false},{"distance":1230,"is_transit":false,"transit":false,"line":2,"i_long":106.857948,"time":2,"i_lat":-6.226659,"station_name":"Tebet","station_id":"TEB"},{"station_name":"Manggarai","station_id":"MRI","time":4,"distance":2610,"i_long":106.84912,"transit":true,"is_transit":true,"i_lat":-6.209883,"line":2},{"transit":false,"i_lat":-6.202263,"station_name":"Sudirman","distance":3186,"i_long":106.822649,"line":1,"is_transit":false,"station_id":"SUD","time":4},{"is_transit":false,"transit":false,"i_lat":-6.201433,"time":1,"station_id":"SUDB","station_name":"Sudirman Baru","distance":280,"i_long":106.819881,"line":1},{"station_id":"KAT","time":1,"is_transit":false,"distance":471,"i_long":106.816351,"line":1,"transit":false,"station_name":"Karet","i_lat":-6.20132},{"line":1,"is_transit":false,"i_lat":-6.185545,"distance":2029,"transit":false,"time":5,"i_long":106.811091,"station_name":"Tanah Abang","station_id":"THB"},{"station_name":"Duri","i_lat":-6.155215,"line":1,"time":8,"distance":3632,"i_long":106.800832,"is_transit":true,"transit":true,"station_id":"DU"},{"transit":false,"distance":1700,"i_long":106.788277,"time":3,"i_lat":-6.162021,"line":5,"is_transit":false,"station_id":"GRG","station_name":"Grogol"},{"time":2,"is_transit":false,"i_long":106.771379,"station_id":"PSG","station_name":"Pesing","line":5,"i_lat":-6.161433,"distance":2036,"transit":false},{"station_name":"Taman Kota","station_id":"TKO","is_transit":false,"i_lat":-6.1587309999999995,"distance":1614,"i_long":106.756522,"line":5,"time":2,"transit":false},{"transit":false,"line":5,"is_transit":false,"i_long":106.737035,"station_id":"BOI","time":2,"station_name":"Bojongindah","i_lat":-6.159876,"distance":2334},{"transit":false,"distance":1152,"station_name":"Rawa Buaya","line":5,"time":4,"station_id":"RW","is_transit":false,"i_long":106.723064,"i_lat":-6.162758}],[{"line":2,"time":0,"i_long":106.831114,"station_name":"Pondok Cina","transit":false,"is_transit":false,"station_id":"POC","distance":0,"i_lat":-6.369073},{"station_name":"Univ. Indonesia","i_lat":-6.360749,"i_long":106.831474,"time":2,"transit":false,"distance":1109,"line":2,"station_id":"UI","is_transit":false},{"is_transit":false,"i_long":106.834175,"station_id":"UP","distance":2264,"line":2,"time":3,"station_name":"Univ. Pancasila","i_lat":-6.339291,"transit":false},{"station_id":"LNA","distance":1029,"i_long":106.832616,"transit":false,"time":2,"i_lat":-6.330363,"line":2,"station_name":"Lenteng Agung","is_transit":false},{"transit":false,"is_transit":false,"station_id":"TNT","i_lat":-6.3080680000000005,"station_name":"Tanjung Barat","line":2,"distance":2671,"time":3,"i_long":106.838896},{"time":4,"i_long":106.843999,"i_lat":-6.2842400000000005,"line":2,"transit":false,"station_id":"PSM","is_transit":false,"distance":2820,"station_name":"Pasar Minggu"},{"station_id":"PSMB","i_lat":-6.263214,"station_name":"Pasar Minggu Baru","i_long":106.851577,"is_transit":false,"distance":2380,"line":2,"transit":false,"time":2},{"transit":false,"station_id":"DRN","i_long":106.85449,"distance":824,"line":2,"time":2,"i_lat":-6.255332,"station_name":"Duren Kalibata","is_transit":false},{"line":2,"transit":false,"station_name":"Cawang","i_lat":-6.242512,"i_long":106.856607,"is_transit":false,"station_id":"CW","time":3,"distance":1546},{"is_transit":false,"distance":1230,"station_name":"Tebet","time":2,"station_id":"TEB","transit":false,"i_long":106.857948,"line":2,"i_lat":-6.226659},{"is_transit":false,"station_id":"MRI","time":4,"transit":false,"distance":2610,"i_lat":-6.209883,"line":2,"station_name":"Manggarai","i_long":106.84912},{"line":2,"is_transit":false,"time":4,"distance":1590,"i_lat":-6.198556,"station_id":"CKI","transit":false,"i_long":106.840169,"station_name":"Cikini"},{"station_name":"Gondangdia","distance":1750,"line":2,"is_transit":false,"i_lat":-6.186295,"time":3,"i_long":106.832183,"transit":false,"station_id":"GDD"},{"is_transit":false,"station_name":"Juanda","i_lat":-6.166716,"station_id":"JUA","time":4,"transit":false,"line":2,"i_long":106.828284,"distance":2015},{"station_name":"Sawah Besar","distance":1149,"i_long":106.827103,"line":2,"is_transit":false,"time":2,"transit":false,"station_id":"SW","i_lat":-6.160725},{"time":2,"i_lat":-6.149769,"station_id":"MGB","i_long":106.82482,"transit":false,"is_transit":false,"station_name":"Manggabesar","distance":906,"line":2},{"i_long":106.820901,"station_name":"Jayakarta","distance":1080,"station_id":"JAY","is_transit":false,"line":2,"transit":false,"i_lat":-6.141205,"time":2},{"is_transit":true,"transit":true,"i_long":106.812439,"station_id":"JAKK","i_lat":-6.137569,"station_name":"Jakarta Kota","distance":1264,"time":4,"line":2},{"station_id":"KPB","i_long":106.826365,"time":3,"transit":true,"is_transit":true,"distance":1364,"station_name":"Kampung Bandan","i_lat":-6.132549,"line":4},{"distance":4102,"transit":false,"station_name":"Angke","is_transit":false,"i_long":106.79867,"time":9,"station_id":"AK","i_lat":-6.144674,"line":1},{"line":1,"time":4,"transit":true,"station_id":"DU","is_transit":true,"distance":1230,"station_name":"Duri","i_lat":-6.155215,"i_long":106.800832},{"transit":false,"distance":1700,"i_lat":-6.162021,"i_long":106.788277,"line":5,"time":3,"station_name":"Grogol","station_id":"GRG","is_transit":false},{"time":2,"station_name":"Pesing","is_transit":false,"station_id":"PSG","distance":2036,"i_lat":-6.161433,"transit":false,"i_long":106.771379,"line":5},{"transit":false,"distance":1614,"i_lat":-6.1587309999999995,"line":5,"station_name":"Taman Kota","time":2,"station_id":"TKO","is_transit":false,"i_long":106.756522},{"transit":false,"is_transit":false,"time":2,"station_name":"Bojongindah","station_id":"BOI","distance":2334,"i_lat":-6.159876,"line":5,"i_long":106.737035},{"station_name":"Rawa Buaya","transit":false,"time":4,"is_transit":false,"distance":1152,"i_lat":-6.162758,"station_id":"RW","i_long":106.723064,"line":5}],[{"distance":0,"is_transit":false,"transit":false,"i_lat":-6.369073,"time":0,"station_name":"Pondok Cina","station_id":"POC","line":2,"i_long":106.831114},{"is_transit":false,"time":2,"transit":false,"i_lat":-6.360749,"i_long":106.831474,"station_id":"UI","station_name":"Univ. Indonesia","distance":1109,"line":2},{"station_id":"UP","line":2,"transit":false,"is_transit":false,"i_long":106.834175,"i_lat":-6.339291,"station_name":"Univ. Pancasila","time":3,"distance":2264},{"station_id":"LNA","distance":1029,"i_long":106.832616,"station_name":"Lenteng Agung","is_transit":false,"transit":false,"line":2,"time":2,"i_lat":-6.330363},{"is_transit":false,"station_name":"Tanjung Barat","distance":2671,"transit":false,"station_id":"TNT","i_lat":-6.3080680000000005,"time":3,"i_long":106.838896,"line":2},{"i_lat":-6.2842400000000005,"line":2,"station_id":"PSM","i_long":106.843999,"is_transit":false,"distance":2820,"transit":false,"station_name":"Pasar Minggu","time":4},{"i_long":106.851577,"station_id":"PSMB","line":2,"is_transit":false,"transit":false,"station_name":"Pasar Minggu Baru","i_lat":-6.263214,"distance":2380,"time":2},{"i_lat":-6.255332,"time":2,"is_transit":false,"transit":false,"station_name":"Duren Kalibata","line":2,"station_id":"DRN","distance":824,"i_long":106.85449},{"transit":false,"i_lat":-6.242512,"distance":1546,"i_long":106.856607,"line":2,"station_id":"CW","is_transit":false,"time":3,"station_name":"Cawang"},{"line":2,"transit":false,"distance":1230,"station_id":"TEB","station_name":"Tebet","time":2,"is_transit":false,"i_long":106.857948,"i_lat":-6.226659},{"station_name":"Manggarai","is_transit":true,"line":2,"i_lat":-6.209883,"station_id":"MRI","time":4,"i_long":106.84912,"distance":2610,"transit":true},{"i_long":106.858896,"station_name":"Matraman","time":2,"distance":1275,"is_transit":false,"transit":false,"station_id":"MTR","line":1,"i_lat":-6.212485},{"station_id":"JNG","i_lat":-6.215091,"is_transit":true,"line":1,"station_name":"Jatinegara","time":8,"distance":1377,"i_long":106.86807400000001,"transit":true},{"station_name":"Pondok Jati","is_transit":false,"station_id":"POK","distance":1236,"line":11,"time":2,"i_lat":-6.209188,"i_long":106.861737,"transit":false},{"station_id":"KMT","line":11,"distance":1829,"i_long":106.855437,"time":2,"is_transit":false,"i_lat":-6.193792,"transit":false,"station_name":"Kramat"},{"line":11,"i_long":106.850107,"is_transit":false,"distance":973,"station_name":"Gang Sentiong","i_lat":-6.185975,"time":1,"station_id":"GST","transit":false},{"line":11,"distance":1567,"time":8,"transit":false,"is_transit":false,"station_name":"Pasar Senen","i_lat":-6.174784,"station_id":"PSE","i_long":106.84368},{"i_lat":-6.161728,"time":4,"distance":1436,"transit":false,"station_id":"KMO","is_transit":false,"i_long":106.839204,"line":11,"station_name":"Kemayoran"},{"station_name":"Rajawali","station_id":"RJW","distance":1901,"i_long":106.836569,"i_lat":-6.14505,"line":11,"is_transit":false,"transit":false,"time":5},{"station_id":"KPB","station_name":"Kampung Bandan","distance":1444,"i_long":106.826365,"time":3,"is_transit":true,"i_lat":-6.132549,"transit":true,"line":4},{"transit":false,"time":9,"i_long":106.79867,"station_id":"AK","station_name":"Angke","i_lat":-6.144674,"line":1,"is_transit":false,"distance":4102},{"i_long":106.800832,"time":4,"station_name":"Duri","station_id":"DU","transit":true,"i_lat":-6.155215,"line":1,"is_transit":true,"distance":1230},{"i_lat":-6.162021,"time":3,"station_name":"Grogol","is_transit":false,"station_id":"GRG","distance":1700,"i_long":106.788277,"line":5,"transit":false},{"i_long":106.771379,"station_name":"Pesing","time":2,"station_id":"PSG","is_transit":false,"line":5,"distance":2036,"i_lat":-6.161433,"transit":false},{"i_lat":-6.1587309999999995,"transit":false,"station_name":"Taman Kota","station_id":"TKO","i_long":106.756522,"time":2,"line":5,"distance":1614,"is_transit":false},{"station_id":"BOI","is_transit":false,"time":2,"line":5,"i_long":106.737035,"station_name":"Bojongindah","i_lat":-6.159876,"transit":false,"distance":2334},{"transit":false,"station_id":"RW","is_transit":false,"i_long":106.723064,"station_name":"Rawa Buaya","distance":1152,"line":5,"time":4,"i_lat":-6.162758}]]}