{"data":[[{"time":0,"i_lat":-6.369073,"line":2,"transit":false,"distance":0,"is_transit":false,"station_name":"Pondok Cina","i_long":106.831114,"station_id":"POC"},{"time":2,"distance":1109,"station_name":"Univ. Indonesia","station_id":"UI","i_long":106.831474,"transit":false,"i_lat":-6.360749,"is_transit":false,"line":2},{"time":3,"station_id":"UP","distance":2264,"i_long":106.834175,"line":2,"transit":false,"station_name":"Univ. Pancasila","is_transit":false,"i_lat":-6.339291},{"i_lat":-6.330363,"line":2,"transit":false,"i_long":106.832616,"time":2,"station_id":"LNA","is_transit":false,"station_name":"Lenteng Agung","distance":1029},{"time":3,"transit":false,"station_id":"TNT","distance":2671,"station_name":"Tanjung Barat","i_lat":-6.3080680000000005,"is_transit":false,"i_long":106.838896,"line":2},{"line":2,"is_transit":false,"transit":false,"distance":2820,"time":4,"station_name":"Pasar Minggu","i_lat":-6.2842400000000005,"i_long":106.843999,"station_id":"PSM"},{"station_id":"PSMB","station_name":"Pasar Minggu Baru","time":2,"distance":2380,"line":2,"i_lat":-6.263214,"is_transit":false,"transit":false,"i_long":106.851577},{"station_name":"Duren Kalibata","line":2,"time":2,"transit":false,"distance":824,"i_long":106.85449,"is_transit":false,"station_id":"DRN","i_lat":-6.255332},{"transit":false,"station_id":"CW","i_lat":-6.242512,"i_long":106.856607,"line":2,"time":3,"station_name":"Cawang","distance":1546,"is_transit":false},{"is_transit":false,"i_lat":-6.226659,"station_name":"Tebet","station_id":"TEB","distance":1230,"transit":false,"i_long":106.857948,"line":2,"time":2},{"line":2,"is_transit":true,"station_name":"Manggarai","time":4,"i_long":106.84912,"station_id":"MRI","distance":2610,"transit":true,"i_lat":-6.209883},{"station_name":"Matraman","i_long":106.858896,"line":1,"transit":false,"i_lat":-6.212485,"distance":1275,"is_transit":false,"station_id":"MTR","time":2},{"station_name":"Jatinegara","transit":false,"station_id":"JNG","i_lat":-6.215091,"is_transit":false,"line":1,"time":8,"distance":1377,"i_long":106.86807400000001},{"transit":false,"i_lat":-6.2135,"station_id":"KLD","distance":3395,"i_long":106.899548,"is_transit":false,"time":3,"station_name":"Klender","line":1},{"distance":3100,"transit":false,"i_long":106.922662,"station_name":"Buaran","time":2,"is_transit":false,"line":1,"i_lat":-6.215568,"station_id":"BUA"},{"i_long":106.939679,"line":1,"distance":1305,"station_id":"KLDB","station_name":"Klenderbaru","i_lat":-6.217455,"transit":false,"is_transit":false,"time":1},{"line":1,"time":8,"i_lat":-6.219053,"i_long":106.951283,"station_id":"CUK","station_name":"Cakung","is_transit":false,"transit":false,"distance":1385},{"is_transit":false,"station_name":"Kranji","i_long":106.977657,"distance":3097,"time":3,"station_id":"KRI","i_lat":-6.224515,"transit":false,"line":1},{"station_name":"Bekasi","transit":false,"station_id":"BKS","i_long":106.997013,"i_lat":-6.236616,"distance":2520,"time":4,"line":1,"is_transit":false},{"i_lat":-6.248029,"is_transit":false,"time":2,"line":1,"distance":2368,"transit":false,"station_name":"Bekasi Timur","station_id":"BKST","i_long":107.016735},{"station_id":"TB","time":7,"i_lat":-6.258864,"is_transit":false,"station_name":"Tambun","i_long":107.055722,"line":1,"distance":4460,"transit":false},{"time":3,"is_transit":false,"line":1,"station_id":"CIT","distance":3420,"i_long":107.083084,"i_lat":-6.261877,"transit":false,"station_name":"Cibitung"},{"distance":2800,"transit":false,"i_lat":-6.262938,"line":1,"station_name":"Metland Telaga Murni","time":2,"i_long":107.093313,"station_id":"TLM","is_transit":false},{"time":4,"i_long":107.144613,"station_name":"Cikarang","is_transit":false,"station_id":"CKR","distance":3689,"transit":false,"line":1,"i_lat":-6.2553149999999995}],[{"time":0,"station_id":"POC","station_name":"Pondok Cina","i_lat":-6.369073,"line":2,"transit":false,"i_long":106.831114,"is_transit":false,"distance":0},{"i_long":106.831474,"station_name":"Univ. Indonesia","time":2,"i_lat":-6.360749,"line":2,"transit":false,"station_id":"UI","is_transit":false,"distance":1109},{"station_id":"UP","time":3,"is_transit":false,"line":2,"station_name":"Univ. Pancasila","distance":2264,"transit":false,"i_long":106.834175,"i_lat":-6.339291},{"distance":1029,"line":2,"time":2,"station_id":"LNA","i_long":106.832616,"station_name":"Lenteng Agung","is_transit":false,"i_lat":-6.330363,"transit":false},{"line":2,"transit":false,"is_transit":false,"distance":2671,"i_lat":-6.3080680000000005,"station_id":"TNT","time":3,"station_name":"Tanjung Barat","i_long":106.838896},{"transit":false,"i_long":106.843999,"is_transit":false,"line":2,"time":4,"station_name":"Pasar Minggu","i_lat":-6.2842400000000005,"distance":2820,"station_id":"PSM"},{"i_lat":-6.263214,"i_long":106.851577,"station_name":"Pasar Minggu Baru","distance":2380,"time":2,"station_id":"PSMB","line":2,"is_transit":false,"transit":false},{"time":2,"distance":824,"station_id":"DRN","i_lat":-6.255332,"i_long":106.85449,"line":2,"transit":false,"station_name":"Duren Kalibata","is_transit":false},{"transit":false,"i_long":106.856607,"line":2,"time":3,"station_name":"Cawang","station_id":"CW","i_lat":-6.242512,"is_transit":false,"distance":1546},{"station_name":"Tebet","is_transit":false,"line":2,"time":2,"station_id":"TEB","distance":1230,"transit":false,"i_lat":-6.226659,"i_long":106.857948},{"station_id":"MRI","station_name":"Manggarai","distance":2610,"time":4,"transit":true,"is_transit":true,"i_long":106.84912,"line":2,"i_lat":-6.209883},{"distance":3186,"i_long":106.822649,"transit":false,"station_id":"SUD","time":4,"is_transit":false,"line":1,"station_name":"Sudirman","i_lat":-6.202263},{"time":1,"distance":280,"i_lat":-6.201433,"i_long":106.819881,"line":1,"station_name":"Sudirman Baru","is_transit":false,"transit":false,"station_id":"SUDB"},{"time":1,"distance":471,"transit":false,"i_long":106.816351,"is_transit":false,"line":1,"station_id":"KAT","station_name":"Karet","i_lat":-6.20132},{"time":5,"station_name":"Tanah Abang","i_long":106.811091,"station_id":"THB","is_transit":false,"line":1,"distance":2029,"i_lat":-6.185545,"transit":false},{"i_long":106.800832,"transit":false,"i_lat":-6.155215,"distance":3632,"is_transit":false,"time":8,"station_id":"DU","station_name":"Duri","line":1},{"time":4,"station_name":"Angke","distance":1230,"is_transit":false,"transit":false,"i_lat":-6.144674,"station_id":"AK","i_long":106.79867,"line":1},{"time":9,"i_lat":-6.132549,"is_transit":true,"line":4,"distance":4102,"transit":true,"station_id":"KPB","station_name":"Kampung Bandan","i_long":106.826365},{"i_lat":-6.14505,"is_transit":false,"i_long":106.836569,"line":11,"time":3,"distance":1444,"transit":false,"station_name":"Rajawali","station_id":"RJW"},{"line":11,"distance":1901,"station_id":"KMO","time":5,"is_transit":false,"i_lat":-6.161728,"i_long":106.839204,"transit":false,"station_name":"Kemayoran"},{"i_long":106.84368,"i_lat":-6.174784,"line":11,"transit":false,"distance":1436,"station_id":"PSE","station_name":"Pasar Senen","is_transit":false,"time":4},{"distance":1567,"line":11,"station_id":"GST","i_lat":-6.185975,"transit":false,"time":8,"station_name":"Gang Sentiong","is_transit":false,"i_long":106.850107},{"station_name":"Kramat","is_transit":false,"i_long":106.855437,"transit":false,"distance":973,"line":11,"time":1,"i_lat":-6.193792,"station_id":"KMT"},{"station_name":"Pondok Jati","i_lat":-6.209188,"i_long":106.861737,"line":11,"transit":false,"is_transit":false,"distance":1829,"time":2,"station_id":"POK"},{"distance":1236,"time":9,"line":1,"transit":true,"station_name":"Jatinegara","station_id":"JNG","i_lat":-6.215091,"i_long":106.86807400000001,"is_transit":true},{"is_transit":false,"time":3,"station_name":"Klender","distance":3395,"station_id":"KLD","i_long":106.899548,"line":1,"transit":false,"i_lat":-6.2135},{"station_name":"Buaran","distance":3100,"line":1,"is_transit":false,"i_lat":-6.215568,"time":2,"transit":false,"station_id":"BUA","i_long":106.922662},{"station_name":"Klenderbaru","i_lat":-6.217455,"time":1,"i_long":106.939679,"is_transit":false,"line":1,"distance":1305,"transit":false,"station_id":"KLDB"},{"station_name":"Cakung","distance":1385,"station_id":"CUK","i_long":106.951283,"is_transit":false,"line":1,"time":8,"transit":false,"i_lat":-6.219053},{"i_lat":-6.224515,"time":3,"line":1,"station_name":"Kranji","is_transit":false,"distance":3097,"station_id":"KRI","i_long":106.977657,"transit":false},{"time":4,"station_name":"Bekasi","i_long":106.997013,"line":1,"distance":2520,"transit":false,"is_transit":false,"station_id":"BKS","i_lat":-6.236616},{"i_long":107.016735,"time":2,"i_lat":-6.248029,"is_transit":false,"line":1,"distance":2368,"station_id":"BKST","transit":false,"station_name":"Bekasi Timur"},{"station_id":"TB","distance":4460,"line":1,"is_transit":false,"i_long":107.055722,"transit":false,"i_lat":-6.258864,"time":7,"station_name":"Tambun"},{"distance":3420,"station_id":"CIT","time":3,"station_name":"Cibitung","transit":false,"i_lat":-6.261877,"i_long":107.083084,"line":1,"is_transit":false},{"i_long":107.093313,"line":1,"transit":false,"is_transit":false,"i_lat":-6.262938,"time":2,"station_id":"TLM","station_name":"Metland Telaga Murni","distance":2800},{"time":4,"distance":3689,"line":1,"transit":false,"is_transit":false,"station_id":"CKR","station_name":"Cikarang","i_lat":-6.2553149999999995,"i_long":107.144613}],[{"distance":0,"is_transit":false,"i_long":106.831114,"i_lat":-6.369073,"station_name":"Pondok Cina","station_id":"POC","transit":false,"line":2,"time":0},{"distance":1109,"time":2,"transit":false,"station_id":"UI","is_transit":false,"line":2,"i_long":106.831474,"station_name":"Univ. Indonesia","i_lat":-6.360749},{"is_transit":false,"transit":false,"time":3,"station_id":"UP","distance":2264,"i_lat":-6.339291,"station_name":"Univ. Pancasila","i_long":106.834175,"line":2},{"transit":false,"line":2,"i_lat":-6.330363,"i_long":106.832616,"time":2,"station_name":"Lenteng Agung","station_id":"LNA","distance":1029,"is_transit":false},{"distance":2671,"station_name":"Tanjung Barat","i_lat":-6.3080680000000005,"line":2,"transit":false,"station_id":"TNT","is_transit":false,"time":3,"i_long":106.838896},{"station_name":"Pasar Minggu","station_id":"PSM","transit":false,"time":4,"is_transit":false,"i_long":106.843999,"distance":2820,"i_lat":-6.2842400000000005,"line":2},{"station_id":"PSMB","i_lat":-6.263214,"transit":false,"is_transit":false,"line":2,"i_long":106.851577,"station_name":"Pasar Minggu Baru","time":2,"distance":2380},{"time":2,"station_id":"DRN","i_lat":-6.255332,"transit":false,"station_name":"Duren Kalibata","i_long":106.85449,"distance":824,"is_transit":false,"line":2},{"station_name":"Cawang","line":2,"station_id":"CW","time":3,"i_lat":-6.242512,"transit":false,"is_transit":false,"distance":1546,"i_long":106.856607},{"transit":false,"is_transit":false,"i_lat":-6.226659,"station_id":"TEB","station_name":"Tebet","line":2,"distance":1230,"time":2,"i_long":106.857948},{"i_long":106.84912,"station_id":"MRI","line":2,"is_transit":false,"time":4,"transit":false,"i_lat":-6.209883,"distance":2610,"station_name":"Manggarai"},{"distance":1590,"i_long":106.840169,"time":4,"transit":false,"line":2,"station_name":"Cikini","is_transit":false,"i_lat":-6.198556,"station_id":"CKI"},{"i_lat":-6.186295,"distance":1750,"transit":false,"station_id":"GDD","is_transit":false,"time":3,"i_long":106.832183,"station_name":"Gondangdia","line":2},{"line":2,"transit":false,"i_lat":-6.166716,"station_id":"JUA","is_transit":false,"i_long":106.828284,"time":4,"distance":2015,"station_name":"Juanda"},{"line":2,"time":2,"distance":1149,"station_id":"SW","transit":false,"station_name":"Sawah Besar","is_transit":false,"i_lat":-6.160725,"i_long":106.827103},{"i_lat":-6.149769,"is_transit":false,"time":2,"line":2,"distance":906,"transit":false,"station_id":"MGB","i_long":106.82482,"station_name":"Manggabesar"},{"station_id":"JAY","line":2,"distance":1080,"transit":false,"station_name":"Jayakarta","i_lat":-6.141205,"i_long":106.820901,"time":2,"is_transit":false},{"i_long":106.812439,"transit":true,"distance":1264,"i_lat":-6.137569,"line":2,"station_name":"Jakarta Kota","time":4,"is_transit":true,"station_id":"JAKK"},{"transit":true,"station_name":"Kampung Bandan","line":4,"i_long":106.826365,"i_lat":-6.132549,"is_transit":true,"time":3,"distance":1364,"station_id":"KPB"},{"is_transit":false,"distance":1444,"station_name":"Rajawali","i_lat":-6.14505,"i_long":106.836569,"line":11,"time":3,"transit":false,"station_id":"RJW"},{"is_transit":false,"line":11,"station_id":"KMO","i_long":106.839204,"i_lat":-6.161728,"time":5,"distance":1901,"station_name":"Kemayoran","transit":false},{"transit":false,"line":11,"station_id":"PSE","is_transit":false,"station_name":"Pasar Senen","time":4,"distance":1436,"i_lat":-6.174784,"i_long":106.84368},{"transit":false,"line":11,"i_long":106.850107,"distance":1567,"station_id":"GST","station_name":"Gang Sentiong","is_transit":false,"time":8,"i_lat":-6.185975},{"is_transit":false,"i_lat":-6.193792,"station_name":"Kramat","distance":973,"station_id":"KMT","i_long":106.855437,"time":1,"transit":false,"line":11},{"distance":1829,"i_lat":-6.209188,"station_id":"POK","station_name":"Pondok Jati","i_long":106.861737,"is_transit":false,"time":2,"transit":false,"line":11},{"line":1,"station_name":"Jatinegara","i_lat":-6.215091,"time":9,"i_long":106.86807400000001,"is_transit":true,"distance":1236,"station_id":"JNG","transit":true},{"time":3,"station_name":"Klender","i_lat":-6.2135,"line":1,"i_long":106.899548,"is_transit":false,"station_id":"KLD","transit":false,"distance":3395},{"time":2,"i_lat":-6.215568,"line":1,"i_long":106.922662,"station_name":"Buaran","is_transit":false,"station_id":"BUA","transit":false,"distance":3100},{"is_transit":false,"i_lat":-6.217455,"transit":false,"time":1,"line":1,"station_name":"Klenderbaru","i_long":106.939679,"station_id":"KLDB","distance":1305},{"is_transit":false,"station_name":"Cakung","transit":false,"i_lat":-6.219053,"station_id":"CUK","distance":1385,"i_long":106.951283,"line":1,"time":8},{"i_lat":-6.224515,"station_id":"KRI","time":3,"i_long":106.977657,"station_name":"Kranji","is_transit":false,"transit":false,"line":1,"distance":3097},{"i_lat":-6.236616,"is_transit":false,"station_id":"BKS","station_name":"Bekasi","distance":2520,"time":4,"i_long":106.997013,"transit":false,"line":1},{"time":2,"transit":false,"station_id":"BKST","i_lat":-6.248029,"line":1,"i_long":107.016735,"distance":2368,"station_name":"Bekasi Timur","is_transit":false},{"distance":4460,"transit":false,"station_id":"TB","i_long":107.055722,"line":1,"station_name":"Tambun","is_transit":false,"i_lat":-6.258864,"time":7},{"line":1,"station_name":"Cibitung","transit":false,"station_id":"CIT","distance":3420,"is_transit":false,"i_lat":-6.261877,"i_long":107.083084,"time":3},{"time":2,"i_long":107.093313,"line":1,"is_transit":false,"station_name":"Metland Telaga Murni","station_id":"TLM","i_lat":-6.262938,"transit":false,"distance":2800},{"i_long":107.144613,"station_id":"CKR","i_lat":-6.2553149999999995,"distance":3689,"time":4,"station_name":"Cikarang","line":1,"transit":false,"is_transit":false}]]}