{"data":[[{"station_name":"Pondok Cina","transit":false,"distance":0,"i_long":106.831114,"is_transit":false,"station_id":"POC","line":2,"time":0,"i_lat":-6.369073},{"is_transit":false,"station_id":"UI","time":2,"i_lat":-6.360749,"i_long":106.831474,"line":2,"transit":false,"station_name":"Univ. Indonesia","distance":1109},{"distance":2264,"line":2,"station_id":"UP","time":3,"station_name":"Univ. Pancasila","i_lat":-6.339291,"is_transit":false,"transit":false,"i_long":106.834175},{"i_long":106.832616,"station_name":"Lenteng Agung","station_id":"LNA","is_transit":false,"time":2,"i_lat":-6.330363,"line":2,"transit":false,"distance":1029},{"time":3,"station_name":"Tanjung Barat","is_transit":false,"transit":false,"distance":2671,"i_long":106.838896,"line":2,"station_id":"TNT","i_lat":-6.3080680000000005},{"time":4,"line":2,"transit":false,"station_name":"Pasar Minggu","is_transit":false,"i_long":106.843999,"station_id":"PSM","distance":2820,"i_lat":-6.2842400000000005},{"i_lat":-6.263214,"i_long":106.851577,"time":2,"transit":false,"distance":2380,"line":2,"station_name":"Pasar Minggu Baru","is_transit":false,"station_id":"PSMB"},{"time":2,"i_long":106.85449,"station_id":"DRN","transit":false,"i_lat":-6.255332,"distance":824,"station_name":"Duren Kalibata","line":2,"is_transit":false},{"line":2,"transit":false,"i_lat":-6.242512,"is_transit":false,"station_id":"CW","time":3,"i_long":106.856607,"distance":1546,"station_name":"Cawang"},{"is_transit":false,"station_id":"TEB","i_long":106.857948,"line":2,"distance":1230,"station_name":"Tebet","time":2,"transit":false,"i_lat":-6.226659},{"i_lat":-6.209883,"distance":2610,"station_name":"Manggarai","is_transit":true,"transit":true,"line":2,"station_id":"MRI","time":4,"i_long":106.84912},{"is_transit":false,"time":4,"distance":3186,"line":1,"transit":false,"i_long":106.822649,"station_name":"Sudirman","i_lat":-6.202263,"station_id":"SUD"},{"i_lat":-6.201433,"station_id":"SUDB","transit":false,"station_name":"Sudirman Baru","distance":280,"i_long":106.819881,"time":1,"line":1,"is_transit":false},{"i_lat":-6.20132,"i_long":106.816351,"distance":471,"line":1,"is_transit":false,"station_name":"Karet","station_id":"KAT","transit":false,"time":1},{"distance":2029,"i_long":106.811091,"line":1,"station_name":"Tanah Abang","transit":true,"i_lat":-6.185545,"station_id":"THB","time":5,"is_transit":true},{"i_lat":-6.207404,"station_name":"Palmerah","transit":false,"i_long":106.79689,"time":6,"is_transit":false,"line":6,"station_id":"PLM","distance":3191},{"time":7,"is_transit":false,"station_name":"Kebayoran","transit":false,"line":6,"station_id":"KBY","distance":3737,"i_long":106.780334,"i_lat":-6.237242},{"is_transit":false,"i_long":106.74273,"time":8,"station_name":"Pondokranji","distance":6218,"line":6,"i_lat":-6.276362,"station_id":"PDJ","transit":false},{"distance":2179,"line":6,"is_transit":false,"station_name":"Jurangmangu","transit":false,"station_id":"JMU","i_lat":-6.288927,"i_long":106.728916,"time":3},{"station_name":"Sudimara","time":4,"is_transit":false,"i_long":106.712277,"i_lat":-6.296963,"transit":false,"line":6,"station_id":"SDM","distance":1994},{"distance":4566,"station_id":"RU","i_long":106.675475,"transit":false,"i_lat":-6.314823,"time":6,"is_transit":false,"station_name":"Rawa Buntu","line":6},{"i_lat":-6.319871,"time":4,"line":6,"is_transit":false,"i_long":106.66566,"distance":2413,"station_id":"SRP","transit":false,"station_name":"Serpong"},{"time":4,"line":3,"station_name":"Cisauk","i_long":106.640411,"is_transit":false,"distance":1784,"transit":false,"i_lat":-6.32484,"station_id":"CSK"},{"station_name":"Cicayur","time":4,"is_transit":false,"i_lat":-6.329547,"distance":2519,"line":3,"station_id":"CC","transit":false,"i_long":106.617853},{"distance":5968,"station_name":"Parung Panjang","time":8,"i_lat":-6.3441410000000005,"i_long":106.568863,"line":6,"station_id":"PRP","transit":false,"is_transit":false},{"i_long":106.508482,"line":3,"station_name":"Cilejit","time":9,"distance":7025,"i_lat":-6.354349,"station_id":"CJT","is_transit":false,"transit":false},{"transit":false,"i_lat":-6.338021,"station_id":"DAR","station_name":"Daru","time":6,"distance":2675,"i_long":106.491338,"line":0,"is_transit":false},{"line":6,"station_id":"TEJ","time":5,"station_name":"Tenjo","i_lat":-6.327251,"distance":3902,"is_transit":false,"transit":false,"i_long":106.460812},{"is_transit":false,"transit":false,"line":6,"station_id":"TGS","i_long":106.425991,"i_lat":-6.328533,"time":5,"distance":2974,"station_name":"Tigaraksa"},{"distance":2651,"transit":false,"time":3,"line":3,"station_name":"Cikoya","i_long":106.411216,"station_id":"CKY","is_transit":false,"i_lat":-6.33561},{"i_long":106.394373,"line":6,"station_id":"MJ","distance":1853,"i_lat":-6.332307,"station_name":"Maja","transit":false,"time":4,"is_transit":false}],[{"distance":0,"station_name":"Pondok Cina","is_transit":false,"line":2,"time":0,"i_long":106.831114,"transit":false,"station_id":"POC","i_lat":-6.369073},{"line":2,"station_name":"Univ. Indonesia","transit":false,"is_transit":false,"i_long":106.831474,"time":2,"distance":1109,"station_id":"UI","i_lat":-6.360749},{"station_id":"UP","transit":false,"line":2,"i_long":106.834175,"is_transit":false,"time":3,"station_name":"Univ. Pancasila","i_lat":-6.339291,"distance":2264},{"is_transit":false,"station_name":"Lenteng Agung","distance":1029,"i_lat":-6.330363,"time":2,"transit":false,"i_long":106.832616,"line":2,"station_id":"LNA"},{"i_lat":-6.3080680000000005,"time":3,"i_long":106.838896,"station_id":"TNT","distance":2671,"is_transit":false,"line":2,"transit":false,"station_name":"Tanjung Barat"},{"is_transit":false,"distance":2820,"i_long":106.843999,"station_id":"PSM","line":2,"station_name":"Pasar Minggu","transit":false,"time":4,"i_lat":-6.2842400000000005},{"time":2,"is_transit":false,"i_long":106.851577,"i_lat":-6.263214,"station_name":"Pasar Minggu Baru","line":2,"transit":false,"distance":2380,"station_id":"PSMB"},{"distance":824,"line":2,"station_id":"DRN","time":2,"i_long":106.85449,"station_name":"Duren Kalibata","is_transit":false,"transit":false,"i_lat":-6.255332},{"is_transit":false,"transit":false,"i_lat":-6.242512,"station_id":"CW","distance":1546,"line":2,"time":3,"station_name":"Cawang","i_long":106.856607},{"i_lat":-6.226659,"station_name":"Tebet","line":2,"transit":false,"is_transit":false,"i_long":106.857948,"station_id":"TEB","time":2,"distance":1230},{"station_name":"Manggarai","is_transit":false,"i_lat":-6.209883,"i_long":106.84912,"transit":false,"station_id":"MRI","time":4,"distance":2610,"line":2},{"line":2,"time":4,"i_long":106.840169,"i_lat":-6.198556,"distance":1590,"station_id":"CKI","station_name":"Cikini","is_transit":false,"transit":false},{"is_transit":false,"station_name":"Gondangdia","i_lat":-6.186295,"time":3,"distance":1750,"i_long":106.832183,"transit":false,"line":2,"station_id":"GDD"},{"time":4,"transit":false,"station_id":"JUA","is_transit":false,"i_long":106.828284,"line":2,"distance":2015,"i_lat":-6.166716,"station_name":"Juanda"},{"station_id":"SW","i_lat":-6.160725,"transit":false,"station_name":"Sawah Besar","is_transit":false,"i_long":106.827103,"line":2,"distance":1149,"time":2},{"transit":false,"station_id":"MGB","i_long":106.82482,"distance":906,"time":2,"i_lat":-6.149769,"station_name":"Manggabesar","is_transit":false,"line":2},{"transit":false,"i_lat":-6.141205,"station_name":"Jayakarta","station_id":"JAY","i_long":106.820901,"is_transit":false,"time":2,"distance":1080,"line":2},{"distance":1264,"is_transit":true,"time":4,"line":2,"i_long":106.812439,"transit":true,"station_name":"Jakarta Kota","station_id":"JAKK","i_lat":-6.137569},{"distance":1364,"is_transit":true,"line":4,"i_long":106.826365,"station_id":"KPB","transit":true,"time":3,"i_lat":-6.132549,"station_name":"Kampung Bandan"},{"distance":4102,"station_name":"Angke","transit":false,"time":9,"is_transit":false,"i_lat":-6.144674,"station_id":"AK","i_long":106.79867,"line":1},{"is_transit":false,"station_id":"DU","i_lat":-6.155215,"station_name":"Duri","distance":1230,"i_long":106.800832,"line":1,"transit":false,"time":4},{"station_name":"Tanah Abang","is_transit":true,"time":8,"i_long":106.811091,"distance":3632,"line":1,"i_lat":-6.185545,"transit":true,"station_id":"THB"},{"station_name":"Palmerah","time":6,"i_lat":-6.207404,"station_id":"PLM","transit":false,"line":6,"distance":3191,"i_long":106.79689,"is_transit":false},{"station_id":"KBY","i_long":106.780334,"station_name":"Kebayoran","is_transit":false,"transit":false,"i_lat":-6.237242,"line":6,"distance":3737,"time":7},{"distance":6218,"is_transit":false,"i_long":106.74273,"line":6,"time":8,"station_name":"Pondokranji","i_lat":-6.276362,"transit":false,"station_id":"PDJ"},{"station_id":"JMU","distance":2179,"transit":false,"time":3,"station_name":"Jurangmangu","i_long":106.728916,"is_transit":false,"i_lat":-6.288927,"line":6},{"i_lat":-6.296963,"station_name":"Sudimara","time":4,"is_transit":false,"transit":false,"i_long":106.712277,"distance":1994,"line":6,"station_id":"SDM"},{"station_id":"RU","distance":4566,"time":6,"i_lat":-6.314823,"line":6,"station_name":"Rawa Buntu","is_transit":false,"i_long":106.675475,"transit":false},{"i_long":106.66566,"transit":false,"station_name":"Serpong","is_transit":false,"line":6,"time":4,"station_id":"SRP","i_lat":-6.319871,"distance":2413},{"i_long":106.640411,"transit":false,"distance":1784,"is_transit":false,"line":3,"time":4,"station_id":"CSK","station_name":"Cisauk","i_lat":-6.32484},{"time":4,"station_name":"Cicayur","station_id":"CC","i_lat":-6.329547,"transit":false,"i_long":106.617853,"line":3,"is_transit":false,"distance":2519},{"distance":5968,"station_name":"Parung Panjang","station_id":"PRP","is_transit":false,"transit":false,"i_lat":-6.3441410000000005,"i_long":106.568863,"line":6,"time":8},{"i_long":106.508482,"i_lat":-6.354349,"is_transit":false,"station_name":"Cilejit","station_id":"CJT","transit":false,"time":9,"distance":7025,"line":3},{"distance":2675,"line":0,"transit":false,"station_name":"Daru","station_id":"DAR","is_transit":false,"time":6,"i_lat":-6.338021,"i_long":106.491338},{"station_id":"TEJ","station_name":"Tenjo","is_transit":false,"i_long":106.460812,"i_lat":-6.327251,"line":6,"transit":false,"time":5,"distance":3902},{"i_lat":-6.328533,"station_name":"Tigaraksa","is_transit":false,"time":5,"distance":2974,"transit":false,"i_long":106.425991,"station_id":"TGS","line":6},{"station_name":"Cikoya","is_transit":false,"time":3,"distance":2651,"transit":false,"i_long":106.411216,"station_id":"CKY","line":3,"i_lat":-6.33561},{"station_name":"Maja","line":6,"station_id":"MJ","i_lat":-6.332307,"time":4,"i_long":106.394373,"transit":false,"distance":1853,"is_transit":false}],[{"station_id":"POC","transit":false,"i_lat":-6.369073,"is_transit":false,"line":2,"i_long":106.831114,"station_name":"Pondok Cina","distance":0,"time":0},{"transit":false,"distance":1109,"line":2,"i_lat":-6.360749,"is_transit":false,"station_name":"Univ. Indonesia","i_long":106.831474,"time":2,"station_id":"UI"},{"station_id":"UP","time":3,"station_name":"Univ. Pancasila","is_transit":false,"distance":2264,"i_long":106.834175,"transit":false,"line":2,"i_lat":-6.339291},{"station_id":"LNA","time":2,"i_lat":-6.330363,"line":2,"is_transit":false,"i_long":106.832616,"station_name":"Lenteng Agung","distance":1029,"transit":false},{"i_long":106.838896,"station_id":"TNT","line":2,"time":3,"transit":false,"station_name":"Tanjung Barat","i_lat":-6.3080680000000005,"is_transit":false,"distance":2671},{"time":4,"i_lat":-6.2842400000000005,"i_long":106.843999,"is_transit":false,"station_id":"PSM","line":2,"station_name":"Pasar Minggu","transit":false,"distance":2820},{"is_transit":false,"station_id":"PSMB","i_long":106.851577,"time":2,"distance":2380,"transit":false,"station_name":"Pasar Minggu Baru","i_lat":-6.263214,"line":2},{"i_lat":-6.255332,"station_name":"Duren Kalibata","i_long":106.85449,"line":2,"is_transit":false,"station_id":"DRN","transit":false,"distance":824,"time":2},{"is_transit":false,"distance":1546,"i_lat":-6.242512,"i_long":106.856607,"line":2,"time":3,"station_name":"Cawang","station_id":"CW","transit":false},{"i_long":106.857948,"i_lat":-6.226659,"is_transit":false,"time":2,"distance":1230,"transit":false,"line":2,"station_name":"Tebet","station_id":"TEB"},{"transit":true,"is_transit":true,"time":4,"i_long":106.84912,"station_id":"MRI","station_name":"Manggarai","i_lat":-6.209883,"line":2,"distance":2610},{"distance":1275,"is_transit":false,"station_name":"Matraman","transit":false,"time":2,"station_id":"MTR","i_long":106.858896,"i_lat":-6.212485,"line":1},{"i_lat":-6.215091,"station_name":"Jatinegara","time":8,"distance":1377,"is_transit":true,"station_id":"JNG","line":1,"i_long":106.86807400000001,"transit":true},{"distance":1236,"station_id":"POK","i_long":106.861737,"transit":false,"station_name":"Pondok Jati","i_lat":-6.209188,"is_transit":false,"line":11,"time":2},{"is_transit":false,"time":2,"i_long":106.855437,"transit":false,"distance":1829,"station_name":"Kramat","line":11,"i_lat":-6.193792,"station_id":"KMT"},{"line":11,"i_long":106.850107,"transit":false,"station_name":"Gang Sentiong","station_id":"GST","distance":973,"time":1,"i_lat":-6.185975,"is_transit":false},{"is_transit":false,"time":8,"transit":false,"line":11,"distance":1567,"i_lat":-6.174784,"station_name":"Pasar Senen","station_id":"PSE","i_long":106.84368},{"i_long":106.839204,"transit":false,"is_transit":false,"distance":1436,"time":4,"station_id":"KMO","i_lat":-6.161728,"line":11,"station_name":"Kemayoran"},{"time":5,"is_transit":false,"station_id":"RJW","i_lat":-6.14505,"distance":1901,"line":11,"station_name":"Rajawali","i_long":106.836569,"transit":false},{"is_transit":true,"transit":true,"station_name":"Kampung Bandan","i_long":106.826365,"i_lat":-6.132549,"line":4,"time":3,"distance":1444,"station_id":"KPB"},{"time":9,"transit":false,"i_lat":-6.144674,"station_id":"AK","distance":4102,"is_transit":false,"station_name":"Angke","i_long":106.79867,"line":1},{"i_long":106.800832,"station_id":"DU","i_lat":-6.155215,"time":4,"transit":false,"distance":1230,"line":1,"station_name":"Duri","is_transit":false},{"line":1,"time":8,"station_name":"Tanah Abang","station_id":"THB","distance":3632,"is_transit":true,"transit":true,"i_lat":-6.185545,"i_long":106.811091},{"transit":false,"is_transit":false,"station_id":"PLM","distance":3191,"i_long":106.79689,"line":6,"time":6,"station_name":"Palmerah","i_lat":-6.207404},{"station_id":"KBY","station_name":"Kebayoran","time":7,"line":6,"i_lat":-6.237242,"is_transit":false,"i_long":106.780334,"transit":false,"distance":3737},{"station_id":"PDJ","time":8,"i_long":106.74273,"line":6,"distance":6218,"i_lat":-6.276362,"station_name":"Pondokranji","is_transit":false,"transit":false},{"distance":2179,"transit":false,"line":6,"i_lat":-6.288927,"station_name":"Jurangmangu","is_transit":false,"station_id":"JMU","time":3,"i_long":106.728916},{"station_name":"Sudimara","i_long":106.712277,"time":4,"distance":1994,"station_id":"SDM","line":6,"is_transit":false,"i_lat":-6.296963,"transit":false},{"i_long":106.675475,"is_transit":false,"station_name":"Rawa Buntu","i_lat":-6.314823,"line":6,"station_id":"RU","transit":false,"distance":4566,"time":6},{"is_transit":false,"station_id":"SRP","i_lat":-6.319871,"transit":false,"time":4,"line":6,"i_long":106.66566,"station_name":"Serpong","distance":2413},{"station_name":"Cisauk","time":4,"transit":false,"is_transit":false,"line":3,"station_id":"CSK","distance":1784,"i_long":106.640411,"i_lat":-6.32484},{"transit":false,"i_lat":-6.329547,"i_long":106.617853,"station_name":"Cicayur","is_transit":false,"station_id":"CC","time":4,"distance":2519,"line":3},{"transit":false,"is_transit":false,"i_lat":-6.3441410000000005,"distance":5968,"i_long":106.568863,"line":6,"station_id":"PRP","station_name":"Parung Panjang","time":8},{"distance":7025,"time":9,"i_lat":-6.354349,"i_long":106.508482,"is_transit":false,"station_name":"Cilejit","line":3,"station_id":"CJT","transit":false},{"station_id":"DAR","i_lat":-6.338021,"station_name":"Daru","transit":false,"is_transit":false,"line":0,"distance":2675,"time":6,"i_long":106.491338},{"station_id":"TEJ","line":6,"station_name":"Tenjo","is_transit":false,"distance":3902,"i_lat":-6.327251,"i_long":106.460812,"time":5,"transit":false},{"time":5,"i_long":106.425991,"transit":false,"distance":2974,"line":6,"station_name":"Tigaraksa","is_transit":false,"station_id":"TGS","i_lat":-6.328533},{"station_name":"Cikoya","distance":2651,"line":3,"is_transit":false,"transit":false,"i_long":106.411216,"i_lat":-6.33561,"time":3,"station_id":"CKY"},{"station_id":"MJ","transit":false,"is_transit":false,"line":6,"time":4,"station_name":"Maja","distance":1853,"i_long":106.394373,"i_lat":-6.332307}]]}