{"data":[[{"transit":false,"time":0,"distance":0,"is_transit":false,"i_long":106.831114,"station_name":"Pondok Cina","i_lat":-6.369073,"line":2,"station_id":"POC"},{"i_lat":-6.360749,"i_long":106.831474,"station_id":"UI","distance":1109,"station_name":"Univ. Indonesia","line":2,"is_transit":false,"transit":false,"time":2},{"distance":2264,"transit":false,"line":2,"station_name":"Univ. Pancasila","station_id":"UP","is_transit":false,"time":3,"i_lat":-6.339291,"i_long":106.834175},{"transit":false,"i_lat":-6.330363,"is_transit":false,"line":2,"station_id":"LNA","station_name":"Lenteng Agung","time":2,"i_long":106.832616,"distance":1029},{"i_long":106.838896,"transit":false,"is_transit":false,"station_name":"Tanjung Barat","time":3,"distance":2671,"line":2,"station_id":"TNT","i_lat":-6.3080680000000005},{"distance":2820,"is_transit":false,"line":2,"i_long":106.843999,"transit":false,"station_name":"Pasar Minggu","time":4,"i_lat":-6.2842400000000005,"station_id":"PSM"},{"i_long":106.851577,"is_transit":false,"i_lat":-6.263214,"transit":false,"distance":2380,"time":2,"line":2,"station_id":"PSMB","station_name":"Pasar Minggu Baru"},{"line":2,"i_long":106.85449,"transit":false,"station_name":"Duren Kalibata","station_id":"DRN","is_transit":false,"time":2,"i_lat":-6.255332,"distance":824},{"line":2,"station_id":"CW","is_transit":false,"time":3,"i_long":106.856607,"transit":false,"i_lat":-6.242512,"distance":1546,"station_name":"Cawang"},{"station_id":"TEB","is_transit":false,"distance":1230,"station_name":"Tebet","transit":false,"time":2,"i_lat":-6.226659,"i_long":106.857948,"line":2},{"transit":true,"station_name":"Manggarai","line":2,"i_lat":-6.209883,"station_id":"MRI","i_long":106.84912,"is_transit":true,"time":4,"distance":2610},{"distance":3186,"time":4,"station_id":"SUD","i_lat":-6.202263,"line":1,"station_name":"Sudirman","i_long":106.822649,"is_transit":false,"transit":false},{"line":1,"station_name":"Sudirman Baru","i_long":106.819881,"i_lat":-6.201433,"is_transit":false,"transit":false,"time":1,"distance":280,"station_id":"SUDB"},{"line":1,"station_name":"Karet","is_transit":false,"distance":471,"time":1,"station_id":"KAT","i_lat":-6.20132,"transit":false,"i_long":106.816351},{"is_transit":true,"station_id":"THB","time":5,"i_lat":-6.185545,"i_long":106.811091,"distance":2029,"station_name":"Tanah Abang","transit":true,"line":1},{"line":6,"station_name":"Palmerah","station_id":"PLM","transit":false,"i_lat":-6.207404,"i_long":106.79689,"time":6,"is_transit":false,"distance":3191},{"time":7,"is_transit":false,"transit":false,"i_long":106.780334,"line":6,"station_name":"Kebayoran","distance":3737,"i_lat":-6.237242,"station_id":"KBY"},{"i_lat":-6.276362,"time":8,"station_name":"Pondokranji","distance":6218,"line":6,"station_id":"PDJ","is_transit":false,"i_long":106.74273,"transit":false},{"is_transit":false,"distance":2179,"transit":false,"line":6,"time":3,"i_long":106.728916,"station_name":"Jurangmangu","i_lat":-6.288927,"station_id":"JMU"},{"station_id":"SDM","i_lat":-6.296963,"transit":false,"time":4,"line":6,"is_transit":false,"i_long":106.712277,"distance":1994,"station_name":"Sudimara"},{"transit":false,"i_long":106.675475,"station_name":"Rawa Buntu","station_id":"RU","time":6,"distance":4566,"i_lat":-6.314823,"line":6,"is_transit":false},{"station_id":"SRP","i_long":106.66566,"i_lat":-6.319871,"distance":2413,"line":6,"station_name":"Serpong","transit":false,"is_transit":false,"time":4},{"line":3,"transit":false,"station_name":"Cisauk","station_id":"CSK","time":4,"i_long":106.640411,"distance":1784,"is_transit":false,"i_lat":-6.32484},{"station_id":"CC","i_lat":-6.329547,"is_transit":false,"line":3,"i_long":106.617853,"time":4,"distance":2519,"transit":false,"station_name":"Cicayur"},{"station_name":"Parung Panjang","station_id":"PRP","transit":false,"time":8,"i_lat":-6.3441410000000005,"i_long":106.568863,"distance":5968,"is_transit":false,"line":6},{"transit":false,"station_id":"CJT","station_name":"Cilejit","is_transit":false,"distance":7025,"i_lat":-6.354349,"i_long":106.508482,"time":9,"line":3},{"distance":2675,"transit":false,"is_transit":false,"i_long":106.491338,"time":6,"station_name":"Daru","line":0,"station_id":"DAR","i_lat":-6.338021},{"i_long":106.460812,"is_transit":false,"transit":false,"line":6,"station_id":"TEJ","station_name":"Tenjo","time":5,"i_lat":-6.327251,"distance":3902},{"is_transit":false,"transit":false,"distance":2974,"time":5,"station_name":"Tigaraksa","i_lat":-6.328533,"i_long":106.425991,"station_id":"TGS","line":6},{"transit":false,"is_transit":false,"station_name":"Cikoya","line":3,"time":3,"distance":2651,"i_lat":-6.33561,"i_long":106.411216,"station_id":"CKY"},{"station_id":"MJ","distance":1853,"station_name":"Maja","time":4,"line":6,"transit":false,"is_transit":false,"i_long":106.394373,"i_lat":-6.332307}],[{"line":2,"station_id":"POC","is_transit":false,"station_name":"Pondok Cina","i_lat":-6.369073,"time":0,"distance":0,"transit":false,"i_long":106.831114},{"distance":1109,"transit":false,"time":2,"line":2,"i_lat":-6.360749,"station_id":"UI","is_transit":false,"i_long":106.831474,"station_name":"Univ. Indonesia"},{"time":3,"distance":2264,"station_name":"Univ. Pancasila","station_id":"UP","transit":false,"is_transit":false,"i_lat":-6.339291,"i_long":106.834175,"line":2},{"i_lat":-6.330363,"station_id":"LNA","time":2,"i_long":106.832616,"station_name":"Lenteng Agung","distance":1029,"line":2,"transit":false,"is_transit":false},{"line":2,"station_name":"Tanjung Barat","is_transit":false,"transit":false,"station_id":"TNT","distance":2671,"time":3,"i_long":106.838896,"i_lat":-6.3080680000000005},{"i_lat":-6.2842400000000005,"distance":2820,"transit":false,"time":4,"station_id":"PSM","is_transit":false,"line":2,"station_name":"Pasar Minggu","i_long":106.843999},{"transit":false,"distance":2380,"station_id":"PSMB","time":2,"i_long":106.851577,"line":2,"station_name":"Pasar Minggu Baru","i_lat":-6.263214,"is_transit":false},{"line":2,"is_transit":false,"time":2,"distance":824,"i_lat":-6.255332,"station_id":"DRN","transit":false,"i_long":106.85449,"station_name":"Duren Kalibata"},{"time":3,"transit":false,"distance":1546,"i_lat":-6.242512,"is_transit":false,"line":2,"station_id":"CW","station_name":"Cawang","i_long":106.856607},{"i_long":106.857948,"line":2,"i_lat":-6.226659,"station_id":"TEB","time":2,"is_transit":false,"transit":false,"distance":1230,"station_name":"Tebet"},{"transit":false,"is_transit":false,"time":4,"i_lat":-6.209883,"station_id":"MRI","i_long":106.84912,"distance":2610,"station_name":"Manggarai","line":2},{"line":2,"station_id":"CKI","time":4,"is_transit":false,"i_long":106.840169,"distance":1590,"i_lat":-6.198556,"transit":false,"station_name":"Cikini"},{"time":3,"distance":1750,"i_long":106.832183,"is_transit":false,"line":2,"transit":false,"i_lat":-6.186295,"station_name":"Gondangdia","station_id":"GDD"},{"station_id":"JUA","station_name":"Juanda","time":4,"i_lat":-6.166716,"i_long":106.828284,"transit":false,"distance":2015,"is_transit":false,"line":2},{"station_id":"SW","is_transit":false,"time":2,"distance":1149,"i_long":106.827103,"transit":false,"line":2,"i_lat":-6.160725,"station_name":"Sawah Besar"},{"i_long":106.82482,"transit":false,"station_id":"MGB","distance":906,"i_lat":-6.149769,"line":2,"is_transit":false,"station_name":"Manggabesar","time":2},{"station_id":"JAY","i_long":106.820901,"station_name":"Jayakarta","line":2,"transit":false,"is_transit":false,"time":2,"distance":1080,"i_lat":-6.141205},{"i_long":106.812439,"transit":true,"distance":1264,"station_name":"Jakarta Kota","station_id":"JAKK","i_lat":-6.137569,"time":4,"is_transit":true,"line":2},{"transit":true,"station_name":"Kampung Bandan","is_transit":true,"line":4,"i_long":106.826365,"station_id":"KPB","distance":1364,"time":3,"i_lat":-6.132549},{"transit":false,"station_id":"AK","distance":4102,"is_transit":false,"time":9,"station_name":"Angke","i_lat":-6.144674,"i_long":106.79867,"line":1},{"distance":1230,"station_id":"DU","i_lat":-6.155215,"time":4,"is_transit":false,"line":1,"transit":false,"station_name":"Duri","i_long":106.800832},{"station_name":"Tanah Abang","line":1,"i_long":106.811091,"station_id":"THB","distance":3632,"is_transit":true,"transit":true,"time":8,"i_lat":-6.185545},{"time":6,"station_name":"Palmerah","distance":3191,"i_long":106.79689,"line":6,"transit":false,"is_transit":false,"station_id":"PLM","i_lat":-6.207404},{"is_transit":false,"time":7,"i_lat":-6.237242,"line":6,"distance":3737,"i_long":106.780334,"station_name":"Kebayoran","station_id":"KBY","transit":false},{"station_id":"PDJ","time":8,"transit":false,"is_transit":false,"station_name":"Pondokranji","distance":6218,"i_lat":-6.276362,"line":6,"i_long":106.74273},{"transit":false,"station_name":"Jurangmangu","distance":2179,"i_long":106.728916,"station_id":"JMU","time":3,"is_transit":false,"i_lat":-6.288927,"line":6},{"transit":false,"time":4,"distance":1994,"station_name":"Sudimara","station_id":"SDM","i_long":106.712277,"is_transit":false,"line":6,"i_lat":-6.296963},{"is_transit":false,"i_long":106.675475,"station_id":"RU","distance":4566,"i_lat":-6.314823,"transit":false,"time":6,"station_name":"Rawa Buntu","line":6},{"station_name":"Serpong","time":4,"is_transit":false,"i_long":106.66566,"line":6,"transit":false,"station_id":"SRP","distance":2413,"i_lat":-6.319871},{"i_lat":-6.32484,"station_name":"Cisauk","distance":1784,"is_transit":false,"time":4,"station_id":"CSK","line":3,"i_long":106.640411,"transit":false},{"station_name":"Cicayur","is_transit":false,"station_id":"CC","line":3,"distance":2519,"transit":false,"i_long":106.617853,"time":4,"i_lat":-6.329547},{"station_id":"PRP","is_transit":false,"i_lat":-6.3441410000000005,"transit":false,"i_long":106.568863,"line":6,"station_name":"Parung Panjang","time":8,"distance":5968},{"station_id":"CJT","time":9,"station_name":"Cilejit","i_lat":-6.354349,"line":3,"transit":false,"distance":7025,"is_transit":false,"i_long":106.508482},{"time":6,"i_lat":-6.338021,"station_id":"DAR","i_long":106.491338,"line":0,"transit":false,"distance":2675,"station_name":"Daru","is_transit":false},{"line":6,"station_name":"Tenjo","is_transit":false,"transit":false,"distance":3902,"station_id":"TEJ","time":5,"i_lat":-6.327251,"i_long":106.460812},{"is_transit":false,"station_id":"TGS","i_long":106.425991,"distance":2974,"station_name":"Tigaraksa","transit":false,"time":5,"i_lat":-6.328533,"line":6},{"time":3,"distance":2651,"i_lat":-6.33561,"i_long":106.411216,"station_id":"CKY","line":3,"is_transit":false,"transit":false,"station_name":"Cikoya"},{"station_name":"Maja","time":4,"station_id":"MJ","i_long":106.394373,"i_lat":-6.332307,"line":6,"distance":1853,"transit":false,"is_transit":false}],[{"time":0,"is_transit":false,"i_long":106.831114,"station_id":"POC","distance":0,"station_name":"Pondok Cina","transit":false,"i_lat":-6.369073,"line":2},{"is_transit":false,"transit":false,"time":2,"i_long":106.831474,"station_name":"Univ. Indonesia","line":2,"distance":1109,"station_id":"UI","i_lat":-6.360749},{"is_transit":false,"i_long":106.834175,"line":2,"station_id":"UP","distance":2264,"time":3,"station_name":"Univ. Pancasila","i_lat":-6.339291,"transit":false},{"station_id":"LNA","transit":false,"i_long":106.832616,"is_transit":false,"time":2,"i_lat":-6.330363,"distance":1029,"line":2,"station_name":"Lenteng Agung"},{"station_id":"TNT","is_transit":false,"line":2,"station_name":"Tanjung Barat","i_lat":-6.3080680000000005,"transit":false,"time":3,"distance":2671,"i_long":106.838896},{"i_long":106.843999,"station_id":"PSM","i_lat":-6.2842400000000005,"distance":2820,"is_transit":false,"line":2,"transit":false,"station_name":"Pasar Minggu","time":4},{"i_lat":-6.263214,"distance":2380,"is_transit":false,"line":2,"i_long":106.851577,"time":2,"transit":false,"station_id":"PSMB","station_name":"Pasar Minggu Baru"},{"distance":824,"is_transit":false,"station_id":"DRN","time":2,"i_lat":-6.255332,"i_long":106.85449,"transit":false,"station_name":"Duren Kalibata","line":2},{"distance":1546,"is_transit":false,"transit":false,"station_name":"Cawang","i_lat":-6.242512,"i_long":106.856607,"line":2,"station_id":"CW","time":3},{"line":2,"i_lat":-6.226659,"time":2,"i_long":106.857948,"station_id":"TEB","station_name":"Tebet","distance":1230,"transit":false,"is_transit":false},{"time":4,"i_lat":-6.209883,"is_transit":true,"i_long":106.84912,"station_name":"Manggarai","distance":2610,"line":2,"transit":true,"station_id":"MRI"},{"time":2,"station_id":"MTR","is_transit":false,"distance":1275,"line":1,"station_name":"Matraman","i_long":106.858896,"i_lat":-6.212485,"transit":false},{"line":1,"i_long":106.86807400000001,"is_transit":true,"time":8,"i_lat":-6.215091,"station_id":"JNG","transit":true,"station_name":"Jatinegara","distance":1377},{"time":2,"i_lat":-6.209188,"distance":1236,"station_name":"Pondok Jati","transit":false,"is_transit":false,"i_long":106.861737,"station_id":"POK","line":11},{"i_lat":-6.193792,"time":2,"station_name":"Kramat","line":11,"station_id":"KMT","i_long":106.855437,"is_transit":false,"transit":false,"distance":1829},{"time":1,"is_transit":false,"station_name":"Gang Sentiong","distance":973,"line":11,"transit":false,"i_lat":-6.185975,"station_id":"GST","i_long":106.850107},{"i_lat":-6.174784,"transit":false,"i_long":106.84368,"distance":1567,"station_id":"PSE","time":8,"line":11,"station_name":"Pasar Senen","is_transit":false},{"transit":false,"station_name":"Kemayoran","station_id":"KMO","distance":1436,"i_long":106.839204,"i_lat":-6.161728,"is_transit":false,"time":4,"line":11},{"transit":false,"distance":1901,"time":5,"line":11,"station_name":"Rajawali","station_id":"RJW","i_lat":-6.14505,"i_long":106.836569,"is_transit":false},{"i_lat":-6.132549,"distance":1444,"i_long":106.826365,"station_name":"Kampung Bandan","transit":true,"is_transit":true,"line":4,"station_id":"KPB","time":3},{"distance":4102,"i_lat":-6.144674,"station_name":"Angke","time":9,"station_id":"AK","is_transit":false,"i_long":106.79867,"line":1,"transit":false},{"distance":1230,"i_long":106.800832,"time":4,"line":1,"station_name":"Duri","is_transit":false,"transit":false,"station_id":"DU","i_lat":-6.155215},{"transit":true,"station_name":"Tanah Abang","is_transit":true,"time":8,"i_lat":-6.185545,"i_long":106.811091,"line":1,"distance":3632,"station_id":"THB"},{"transit":false,"station_id":"PLM","i_lat":-6.207404,"i_long":106.79689,"station_name":"Palmerah","is_transit":false,"distance":3191,"line":6,"time":6},{"time":7,"is_transit":false,"line":6,"transit":false,"station_id":"KBY","i_lat":-6.237242,"i_long":106.780334,"distance":3737,"station_name":"Kebayoran"},{"i_lat":-6.276362,"line":6,"is_transit":false,"i_long":106.74273,"time":8,"station_id":"PDJ","distance":6218,"transit":false,"station_name":"Pondokranji"},{"line":6,"is_transit":false,"distance":2179,"station_name":"Jurangmangu","i_lat":-6.288927,"time":3,"i_long":106.728916,"station_id":"JMU","transit":false},{"distance":1994,"i_lat":-6.296963,"is_transit":false,"station_id":"SDM","station_name":"Sudimara","time":4,"i_long":106.712277,"line":6,"transit":false},{"transit":false,"distance":4566,"i_lat":-6.314823,"station_name":"Rawa Buntu","is_transit":false,"station_id":"RU","time":6,"i_long":106.675475,"line":6},{"i_long":106.66566,"transit":false,"i_lat":-6.319871,"time":4,"station_name":"Serpong","station_id":"SRP","line":6,"is_transit":false,"distance":2413},{"station_id":"CSK","is_transit":false,"distance":1784,"i_lat":-6.32484,"line":3,"transit":false,"i_long":106.640411,"station_name":"Cisauk","time":4},{"transit":false,"i_lat":-6.329547,"i_long":106.617853,"station_id":"CC","time":4,"station_name":"Cicayur","line":3,"distance":2519,"is_transit":false},{"line":6,"i_lat":-6.3441410000000005,"station_id":"PRP","distance":5968,"station_name":"Parung Panjang","i_long":106.568863,"transit":false,"is_transit":false,"time":8},{"is_transit":false,"line":3,"time":9,"transit":false,"station_name":"Cilejit","i_long":106.508482,"distance":7025,"station_id":"CJT","i_lat":-6.354349},{"station_id":"DAR","time":6,"distance":2675,"i_lat":-6.338021,"i_long":106.491338,"station_name":"Daru","transit":false,"is_transit":false,"line":0},{"is_transit":false,"line":6,"station_id":"TEJ","time":5,"distance":3902,"i_lat":-6.327251,"transit":false,"i_long":106.460812,"station_name":"Tenjo"},{"transit":false,"station_id":"TGS","time":5,"distance":2974,"line":6,"is_transit":false,"i_long":106.425991,"station_name":"Tigaraksa","i_lat":-6.328533},{"is_transit":false,"station_name":"Cikoya","distance":2651,"i_lat":-6.33561,"line":3,"station_id":"CKY","time":3,"transit":false,"i_long":106.411216},{"time":4,"distance":1853,"station_id":"MJ","transit":false,"station_name":"Maja","line":6,"i_lat":-6.332307,"i_long":106.394373,"is_transit":false}]]}