{"data":[[{"transit":false,"line":2,"time":0,"i_lat":-6.369073,"station_name":"Pondok Cina","distance":0,"is_transit":false,"i_long":106.831114,"station_id":"POC"},{"distance":1109,"time":2,"transit":false,"i_long":106.831474,"station_name":"Univ. Indonesia","i_lat":-6.360749,"is_transit":false,"station_id":"UI","line":2},{"station_name":"Univ. Pancasila","transit":false,"time":3,"distance":2264,"is_transit":false,"i_lat":-6.339291,"station_id":"UP","i_long":106.834175,"line":2},{"transit":false,"station_name":"Lenteng Agung","i_lat":-6.330363,"line":2,"station_id":"LNA","is_transit":false,"i_long":106.832616,"distance":1029,"time":2},{"line":2,"transit":false,"i_lat":-6.3080680000000005,"distance":2671,"i_long":106.838896,"time":3,"is_transit":false,"station_name":"Tanjung Barat","station_id":"TNT"},{"time":4,"line":2,"distance":2820,"transit":false,"i_lat":-6.2842400000000005,"station_name":"Pasar Minggu","i_long":106.843999,"is_transit":false,"station_id":"PSM"},{"station_name":"Pasar Minggu Baru","time":2,"i_lat":-6.263214,"transit":false,"distance":2380,"line":2,"is_transit":false,"i_long":106.851577,"station_id":"PSMB"},{"distance":824,"station_id":"DRN","is_transit":false,"transit":false,"i_lat":-6.255332,"station_name":"Duren Kalibata","line":0,"time":2,"i_long":106.85449},{"station_name":"Cawang","transit":false,"i_lat":-6.242512,"line":0,"time":3,"is_transit":false,"station_id":"CW","i_long":106.856607,"distance":1546},{"time":2,"station_name":"Tebet","station_id":"TEB","distance":1230,"line":2,"transit":false,"is_transit":false,"i_long":106.857948,"i_lat":-6.226659},{"transit":true,"i_long":106.84912,"distance":2610,"line":0,"station_name":"Manggarai","is_transit":true,"i_lat":-6.209883,"station_id":"MRI","time":4},{"is_transit":false,"station_name":"Sudirman","i_long":106.822649,"transit":false,"time":4,"station_id":"SUD","line":1,"distance":3186,"i_lat":-6.202263},{"station_name":"Sudirman Baru","is_transit":false,"i_long":106.819881,"time":1,"station_id":"SUDB","distance":280,"transit":false,"i_lat":-6.201433,"line":1},{"station_id":"KAT","i_lat":-6.20132,"i_long":106.816351,"distance":471,"station_name":"Karet","transit":false,"line":1,"time":1,"is_transit":false},{"i_lat":-6.185545,"station_id":"THB","station_name":"Tanah Abang","time":5,"i_long":106.811091,"line":1,"transit":true,"distance":2029,"is_transit":true},{"line":6,"i_lat":-6.207404,"transit":false,"station_name":"Palmerah","i_long":106.79689,"time":6,"station_id":"PLM","distance":3191,"is_transit":false},{"i_long":106.780334,"station_id":"KBY","transit":false,"distance":3737,"station_name":"Kebayoran","time":7,"is_transit":false,"i_lat":-6.237242,"line":6}],[{"station_id":"POC","is_transit":false,"time":0,"transit":false,"line":2,"station_name":"Pondok Cina","i_long":106.831114,"distance":0,"i_lat":-6.369073},{"line":2,"is_transit":false,"distance":1109,"station_name":"Univ. Indonesia","i_long":106.831474,"time":2,"i_lat":-6.360749,"station_id":"UI","transit":false},{"time":3,"station_id":"UP","distance":2264,"i_lat":-6.339291,"is_transit":false,"transit":false,"line":2,"station_name":"Univ. Pancasila","i_long":106.834175},{"time":2,"i_lat":-6.330363,"station_id":"LNA","i_long":106.832616,"distance":1029,"station_name":"Lenteng Agung","transit":false,"line":2,"is_transit":false},{"station_id":"TNT","transit":false,"i_long":106.838896,"line":2,"time":3,"i_lat":-6.3080680000000005,"station_name":"Tanjung Barat","is_transit":false,"distance":2671},{"is_transit":false,"station_name":"Pasar Minggu","distance":2820,"transit":false,"i_long":106.843999,"time":4,"i_lat":-6.2842400000000005,"line":2,"station_id":"PSM"},{"i_lat":-6.263214,"distance":2380,"i_long":106.851577,"is_transit":false,"line":2,"station_id":"PSMB","time":2,"transit":false,"station_name":"Pasar Minggu Baru"},{"time":2,"station_id":"DRN","i_lat":-6.255332,"i_long":106.85449,"transit":false,"station_name":"Duren Kalibata","distance":824,"is_transit":false,"line":0},{"time":3,"i_long":106.856607,"distance":1546,"i_lat":-6.242512,"transit":false,"station_name":"Cawang","is_transit":false,"line":0,"station_id":"CW"},{"i_lat":-6.226659,"line":2,"station_name":"Tebet","station_id":"TEB","is_transit":false,"distance":1230,"i_long":106.857948,"time":2,"transit":false},{"i_lat":-6.209883,"is_transit":true,"station_name":"Manggarai","distance":2610,"i_long":106.84912,"station_id":"MRI","line":0,"time":4,"transit":true},{"line":0,"time":4,"station_name":"Cikini","station_id":"CKI","is_transit":false,"i_long":106.840169,"transit":false,"i_lat":-6.198556,"distance":1590},{"i_long":106.832183,"distance":1750,"is_transit":false,"station_name":"Gondangdia","transit":false,"i_lat":-6.186295,"station_id":"GDD","time":3,"line":2},{"i_lat":-6.166716,"distance":2015,"time":4,"station_id":"JUA","is_transit":false,"station_name":"Juanda","transit":false,"line":2,"i_long":106.828284},{"station_name":"Sawah Besar","i_lat":-6.160725,"line":2,"time":2,"transit":false,"station_id":"SW","i_long":106.827103,"is_transit":false,"distance":1149},{"i_lat":-6.149769,"i_long":106.82482,"time":2,"station_id":"MGB","line":2,"station_name":"Manggabesar","is_transit":false,"distance":906,"transit":false},{"is_transit":false,"time":2,"station_id":"JAY","line":7,"i_long":106.820901,"distance":1080,"station_name":"Jayakarta","transit":false,"i_lat":-6.141205},{"station_name":"Jakarta Kota","i_long":106.812439,"line":0,"distance":1264,"transit":true,"station_id":"JAKK","is_transit":true,"i_lat":-6.137569,"time":4},{"station_name":"Kampung Bandan","i_lat":-6.132549,"line":0,"transit":false,"time":3,"is_transit":true,"distance":1364,"station_id":"KPB","i_long":106.826365},{"station_id":"AK","line":0,"is_transit":false,"i_lat":-6.144674,"distance":4102,"time":9,"station_name":"Angke","transit":false,"i_long":106.79867},{"transit":true,"station_name":"Duri","station_id":"DU","time":4,"is_transit":true,"i_long":106.800832,"i_lat":-6.155215,"line":1,"distance":1230},{"time":8,"station_name":"Tanah Abang","line":1,"station_id":"THB","i_long":106.811091,"transit":true,"i_lat":-6.185545,"distance":3632,"is_transit":true},{"time":6,"station_name":"Palmerah","is_transit":false,"transit":false,"i_long":106.79689,"station_id":"PLM","distance":3191,"line":6,"i_lat":-6.207404},{"time":7,"transit":false,"station_id":"KBY","is_transit":false,"distance":3737,"i_lat":-6.237242,"i_long":106.780334,"station_name":"Kebayoran","line":6}],[{"distance":0,"time":0,"station_id":"POC","transit":false,"is_transit":false,"i_lat":-6.369073,"i_long":106.831114,"line":2,"station_name":"Pondok Cina"},{"station_name":"Univ. Indonesia","i_lat":-6.360749,"time":2,"i_long":106.831474,"is_transit":false,"station_id":"UI","distance":1109,"transit":false,"line":2},{"is_transit":false,"transit":false,"time":3,"station_name":"Univ. Pancasila","i_long":106.834175,"distance":2264,"station_id":"UP","line":2,"i_lat":-6.339291},{"is_transit":false,"time":2,"station_name":"Lenteng Agung","transit":false,"i_lat":-6.330363,"i_long":106.832616,"distance":1029,"line":2,"station_id":"LNA"},{"time":3,"is_transit":false,"transit":false,"station_name":"Tanjung Barat","line":2,"station_id":"TNT","i_lat":-6.3080680000000005,"distance":2671,"i_long":106.838896},{"line":2,"station_id":"PSM","is_transit":false,"time":4,"i_long":106.843999,"transit":false,"distance":2820,"i_lat":-6.2842400000000005,"station_name":"Pasar Minggu"},{"transit":false,"distance":2380,"station_name":"Pasar Minggu Baru","is_transit":false,"station_id":"PSMB","line":2,"i_long":106.851577,"i_lat":-6.263214,"time":2},{"distance":824,"transit":false,"time":2,"line":0,"i_lat":-6.255332,"is_transit":false,"i_long":106.85449,"station_id":"DRN","station_name":"Duren Kalibata"},{"time":3,"is_transit":false,"transit":false,"i_long":106.856607,"distance":1546,"line":0,"station_name":"Cawang","station_id":"CW","i_lat":-6.242512},{"transit":false,"is_transit":false,"distance":1230,"i_long":106.857948,"line":2,"i_lat":-6.226659,"station_id":"TEB","time":2,"station_name":"Tebet"},{"is_transit":true,"distance":2610,"station_id":"MRI","i_long":106.84912,"transit":true,"i_lat":-6.209883,"line":0,"station_name":"Manggarai","time":4},{"distance":1275,"station_id":"MTR","i_lat":-6.212485,"is_transit":false,"transit":false,"station_name":"Matraman","i_long":106.858896,"time":2,"line":1},{"i_long":106.86807400000001,"station_id":"JNG","transit":true,"distance":1377,"i_lat":-6.215091,"line":0,"station_name":"Jatinegara","is_transit":true,"time":8},{"station_name":"Pondok Jati","i_lat":-6.209188,"transit":false,"station_id":"POK","is_transit":false,"line":11,"time":2,"distance":1236,"i_long":106.861737},{"i_long":106.855437,"line":11,"station_id":"KMT","is_transit":false,"i_lat":-6.193792,"distance":1829,"station_name":"Kramat","transit":false,"time":2},{"station_id":"GST","line":11,"distance":973,"transit":false,"station_name":"Gang Sentiong","i_lat":-6.185975,"is_transit":false,"time":1,"i_long":106.850107},{"transit":false,"distance":1567,"i_long":106.84368,"station_id":"PSE","i_lat":-6.174784,"line":11,"is_transit":false,"station_name":"Pasar Senen","time":8},{"is_transit":false,"i_lat":-6.161728,"i_long":106.839204,"transit":false,"station_name":"Kemayoran","distance":1436,"time":4,"station_id":"KMO","line":11},{"line":11,"station_name":"Rajawali","distance":1901,"is_transit":false,"i_long":106.836569,"station_id":"RJW","time":5,"i_lat":-6.14505,"transit":false},{"transit":true,"time":3,"i_lat":-6.132549,"station_id":"KPB","station_name":"Kampung Bandan","is_transit":true,"i_long":106.826365,"distance":1444,"line":0},{"line":0,"is_transit":false,"station_id":"AK","distance":4102,"station_name":"Angke","transit":false,"i_lat":-6.144674,"i_long":106.79867,"time":9},{"station_id":"DU","i_long":106.800832,"i_lat":-6.155215,"time":4,"line":1,"station_name":"Duri","distance":1230,"is_transit":true,"transit":true},{"line":1,"station_name":"Tanah Abang","distance":3632,"is_transit":true,"i_lat":-6.185545,"station_id":"THB","transit":true,"i_long":106.811091,"time":8},{"station_name":"Palmerah","is_transit":false,"transit":false,"time":6,"i_lat":-6.207404,"i_long":106.79689,"line":6,"station_id":"PLM","distance":3191},{"transit":false,"i_long":106.780334,"station_id":"KBY","time":7,"distance":3737,"is_transit":false,"i_lat":-6.237242,"station_name":"Kebayoran","line":6}]]}