{"data":[[{"is_transit":false,"station_id":"POC","station_name":"Pondok Cina","distance":0,"transit":false,"i_long":106.831114,"i_lat":-6.369073,"line":2,"time":0},{"station_id":"UI","is_transit":false,"time":2,"line":2,"station_name":"Univ. Indonesia","distance":1109,"i_lat":-6.360749,"transit":false,"i_long":106.831474},{"transit":false,"station_id":"UP","distance":2264,"i_lat":-6.339291,"line":2,"is_transit":false,"station_name":"Univ. Pancasila","time":3,"i_long":106.834175},{"distance":1029,"station_name":"Lenteng Agung","time":2,"is_transit":false,"i_lat":-6.330363,"i_long":106.832616,"transit":false,"line":2,"station_id":"LNA"},{"transit":false,"station_name":"Tanjung Barat","i_lat":-6.3080680000000005,"line":2,"station_id":"TNT","is_transit":false,"time":3,"distance":2671,"i_long":106.838896},{"station_name":"Pasar Minggu","time":4,"station_id":"PSM","distance":2820,"i_long":106.843999,"is_transit":false,"line":2,"transit":false,"i_lat":-6.2842400000000005},{"distance":2380,"i_lat":-6.263214,"line":2,"station_id":"PSMB","is_transit":false,"transit":false,"station_name":"Pasar Minggu Baru","time":2,"i_long":106.851577},{"station_id":"DRN","station_name":"Duren Kalibata","i_lat":-6.255332,"distance":824,"i_long":106.85449,"line":2,"transit":false,"is_transit":false,"time":2},{"transit":false,"station_id":"CW","is_transit":false,"station_name":"Cawang","i_long":106.856607,"line":2,"time":3,"i_lat":-6.242512,"distance":1546},{"transit":false,"i_lat":-6.226659,"i_long":106.857948,"station_name":"Tebet","time":2,"distance":1230,"line":2,"station_id":"TEB","is_transit":false},{"station_name":"Manggarai","line":2,"distance":2610,"transit":true,"station_id":"MRI","i_long":106.84912,"time":4,"i_lat":-6.209883,"is_transit":true},{"is_transit":false,"time":4,"i_long":106.822649,"station_id":"SUD","station_name":"Sudirman","transit":false,"distance":3186,"line":1,"i_lat":-6.202263},{"station_name":"Sudirman Baru","is_transit":false,"time":1,"distance":280,"i_long":106.819881,"transit":false,"i_lat":-6.201433,"station_id":"SUDB","line":1},{"station_id":"KAT","station_name":"Karet","is_transit":false,"time":1,"line":1,"i_lat":-6.20132,"i_long":106.816351,"transit":false,"distance":471},{"time":5,"station_id":"THB","is_transit":false,"line":1,"distance":2029,"station_name":"Tanah Abang","i_lat":-6.185545,"i_long":106.811091,"transit":false},{"transit":true,"time":8,"i_long":106.800832,"is_transit":true,"distance":3632,"i_lat":-6.155215,"station_id":"DU","station_name":"Duri","line":1},{"station_name":"Grogol","station_id":"GGL","transit":false,"is_transit":false,"time":3,"i_lat":-6.162021,"distance":1700,"i_long":106.788277,"line":5},{"station_id":"PSG","station_name":"Pesing","transit":false,"is_transit":false,"time":2,"distance":2036,"i_long":106.771379,"line":5,"i_lat":-6.161433},{"time":2,"station_name":"Taman Kota","station_id":"TKO","distance":1614,"transit":false,"is_transit":false,"i_lat":-6.1587309999999995,"line":5,"i_long":106.756522},{"line":5,"is_transit":false,"distance":2334,"time":2,"transit":false,"i_long":106.737035,"station_name":"Bojongindah","station_id":"BOI","i_lat":-6.159876},{"line":5,"station_id":"RW","distance":1152,"is_transit":false,"time":4,"station_name":"Rawa Buaya","i_lat":-6.162758,"transit":false,"i_long":106.723064}],[{"time":0,"is_transit":false,"distance":0,"station_name":"Pondok Cina","transit":false,"line":2,"i_lat":-6.369073,"station_id":"POC","i_long":106.831114},{"distance":1109,"is_transit":false,"station_name":"Univ. Indonesia","line":2,"time":2,"transit":false,"station_id":"UI","i_long":106.831474,"i_lat":-6.360749},{"distance":2264,"i_lat":-6.339291,"i_long":106.834175,"line":2,"transit":false,"station_name":"Univ. Pancasila","time":3,"is_transit":false,"station_id":"UP"},{"time":2,"transit":false,"line":2,"i_lat":-6.330363,"is_transit":false,"i_long":106.832616,"distance":1029,"station_id":"LNA","station_name":"Lenteng Agung"},{"station_id":"TNT","station_name":"Tanjung Barat","distance":2671,"transit":false,"i_lat":-6.3080680000000005,"i_long":106.838896,"is_transit":false,"time":3,"line":2},{"station_name":"Pasar Minggu","distance":2820,"line":2,"i_long":106.843999,"transit":false,"i_lat":-6.2842400000000005,"time":4,"is_transit":false,"station_id":"PSM"},{"transit":false,"time":2,"i_lat":-6.263214,"i_long":106.851577,"line":2,"station_id":"PSMB","distance":2380,"station_name":"Pasar Minggu Baru","is_transit":false},{"time":2,"line":2,"station_name":"Duren Kalibata","i_lat":-6.255332,"distance":824,"i_long":106.85449,"transit":false,"is_transit":false,"station_id":"DRN"},{"is_transit":false,"station_name":"Cawang","line":2,"distance":1546,"transit":false,"time":3,"i_long":106.856607,"i_lat":-6.242512,"station_id":"CW"},{"station_name":"Tebet","i_long":106.857948,"time":2,"distance":1230,"i_lat":-6.226659,"station_id":"TEB","is_transit":false,"line":2,"transit":false},{"transit":false,"is_transit":false,"time":4,"i_lat":-6.209883,"station_id":"MRI","distance":2610,"station_name":"Manggarai","line":2,"i_long":106.84912},{"station_id":"CKI","transit":false,"is_transit":false,"distance":1590,"i_long":106.840169,"line":2,"time":4,"station_name":"Cikini","i_lat":-6.198556},{"transit":false,"distance":1750,"time":3,"line":2,"station_id":"GDD","station_name":"Gondangdia","i_lat":-6.186295,"is_transit":false,"i_long":106.832183},{"station_id":"JUA","station_name":"Juanda","time":4,"transit":false,"is_transit":false,"distance":2015,"line":2,"i_long":106.828284,"i_lat":-6.166716},{"line":2,"time":2,"station_name":"Sawah Besar","station_id":"SW","is_transit":false,"transit":false,"distance":1149,"i_lat":-6.160725,"i_long":106.827103},{"i_long":106.82482,"is_transit":false,"line":2,"i_lat":-6.149769,"station_id":"MGB","time":2,"transit":false,"station_name":"Manggabesar","distance":906},{"station_name":"Jayakarta","time":2,"i_lat":-6.141205,"station_id":"JAY","line":2,"is_transit":false,"distance":1080,"transit":false,"i_long":106.820901},{"is_transit":true,"station_id":"JAKK","station_name":"Jakarta Kota","time":4,"distance":1264,"i_lat":-6.137569,"line":2,"i_long":106.812439,"transit":true},{"i_lat":-6.132549,"distance":1364,"station_name":"Kampung Bandan","line":4,"transit":true,"i_long":106.826365,"is_transit":true,"station_id":"KPB","time":3},{"time":9,"distance":4102,"i_lat":-6.144674,"i_long":106.79867,"transit":false,"station_name":"Angke","is_transit":false,"line":1,"station_id":"AK"},{"time":4,"station_id":"DU","is_transit":true,"i_long":106.800832,"i_lat":-6.155215,"line":1,"transit":true,"station_name":"Duri","distance":1230},{"is_transit":false,"station_name":"Grogol","time":3,"i_long":106.788277,"transit":false,"station_id":"GGL","i_lat":-6.162021,"distance":1700,"line":5},{"time":2,"transit":false,"i_lat":-6.161433,"distance":2036,"line":5,"station_id":"PSG","i_long":106.771379,"is_transit":false,"station_name":"Pesing"},{"line":5,"station_name":"Taman Kota","station_id":"TKO","is_transit":false,"time":2,"i_lat":-6.1587309999999995,"distance":1614,"i_long":106.756522,"transit":false},{"station_name":"Bojongindah","time":2,"distance":2334,"line":5,"i_lat":-6.159876,"i_long":106.737035,"transit":false,"is_transit":false,"station_id":"BOI"},{"i_long":106.723064,"transit":false,"time":4,"line":5,"station_name":"Rawa Buaya","is_transit":false,"i_lat":-6.162758,"station_id":"RW","distance":1152}],[{"line":2,"i_lat":-6.369073,"is_transit":false,"i_long":106.831114,"distance":0,"transit":false,"station_name":"Pondok Cina","station_id":"POC","time":0},{"transit":false,"is_transit":false,"station_name":"Univ. Indonesia","station_id":"UI","distance":1109,"i_long":106.831474,"line":2,"time":2,"i_lat":-6.360749},{"transit":false,"station_name":"Univ. Pancasila","time":3,"station_id":"UP","i_lat":-6.339291,"i_long":106.834175,"line":2,"distance":2264,"is_transit":false},{"station_id":"LNA","time":2,"station_name":"Lenteng Agung","i_lat":-6.330363,"is_transit":false,"transit":false,"distance":1029,"line":2,"i_long":106.832616},{"station_id":"TNT","time":3,"is_transit":false,"i_lat":-6.3080680000000005,"line":2,"distance":2671,"station_name":"Tanjung Barat","i_long":106.838896,"transit":false},{"line":2,"transit":false,"time":4,"station_name":"Pasar Minggu","distance":2820,"is_transit":false,"i_long":106.843999,"station_id":"PSM","i_lat":-6.2842400000000005},{"station_name":"Pasar Minggu Baru","distance":2380,"is_transit":false,"transit":false,"i_long":106.851577,"time":2,"station_id":"PSMB","i_lat":-6.263214,"line":2},{"time":2,"distance":824,"i_long":106.85449,"is_transit":false,"line":2,"transit":false,"station_name":"Duren Kalibata","i_lat":-6.255332,"station_id":"DRN"},{"station_id":"CW","transit":false,"time":3,"station_name":"Cawang","is_transit":false,"i_lat":-6.242512,"i_long":106.856607,"line":2,"distance":1546},{"station_name":"Tebet","is_transit":false,"distance":1230,"transit":false,"station_id":"TEB","time":2,"i_lat":-6.226659,"line":2,"i_long":106.857948},{"is_transit":true,"time":4,"distance":2610,"i_long":106.84912,"station_name":"Manggarai","i_lat":-6.209883,"line":2,"transit":true,"station_id":"MRI"},{"time":2,"i_long":106.858896,"station_name":"Matraman","transit":false,"is_transit":false,"distance":1275,"i_lat":-6.212485,"line":1,"station_id":"MTR"},{"line":1,"i_lat":-6.215091,"transit":true,"is_transit":true,"station_id":"JNG","station_name":"Jatinegara","distance":1377,"time":8,"i_long":106.86807400000001},{"i_long":106.861737,"transit":false,"station_name":"Pondok Jati","i_lat":-6.209188,"is_transit":false,"station_id":"POK","distance":1236,"time":2,"line":11},{"is_transit":false,"i_lat":-6.193792,"transit":false,"station_name":"Kramat","station_id":"KMT","i_long":106.855437,"line":11,"distance":1829,"time":2},{"station_id":"GST","is_transit":false,"transit":false,"line":11,"i_lat":-6.185975,"time":1,"distance":973,"station_name":"Gang Sentiong","i_long":106.850107},{"station_id":"PSE","station_name":"Pasar Senen","i_long":106.84368,"line":11,"is_transit":false,"distance":1567,"i_lat":-6.174784,"time":8,"transit":false},{"is_transit":false,"i_long":106.839204,"distance":1436,"i_lat":-6.161728,"line":11,"station_id":"KMO","transit":false,"time":4,"station_name":"Kemayoran"},{"i_lat":-6.14505,"station_name":"Rajawali","line":11,"i_long":106.836569,"transit":false,"time":5,"station_id":"RJW","distance":1901,"is_transit":false},{"line":4,"station_id":"KPB","transit":true,"station_name":"Kampung Bandan","i_lat":-6.132549,"i_long":106.826365,"time":3,"distance":1444,"is_transit":true},{"transit":false,"station_id":"AK","time":9,"line":1,"i_lat":-6.144674,"i_long":106.79867,"is_transit":false,"station_name":"Angke","distance":4102},{"is_transit":true,"distance":1230,"line":1,"station_id":"DU","i_lat":-6.155215,"time":4,"i_long":106.800832,"transit":true,"station_name":"Duri"},{"i_lat":-6.162021,"line":5,"transit":false,"station_id":"GGL","is_transit":false,"i_long":106.788277,"time":3,"station_name":"Grogol","distance":1700},{"station_id":"PSG","line":5,"transit":false,"is_transit":false,"time":2,"station_name":"Pesing","distance":2036,"i_long":106.771379,"i_lat":-6.161433},{"transit":false,"is_transit":false,"i_lat":-6.1587309999999995,"line":5,"time":2,"i_long":106.756522,"distance":1614,"station_name":"Taman Kota","station_id":"TKO"},{"i_long":106.737035,"is_transit":false,"distance":2334,"station_name":"Bojongindah","transit":false,"time":2,"line":5,"i_lat":-6.159876,"station_id":"BOI"},{"is_transit":false,"station_name":"Rawa Buaya","station_id":"RW","time":4,"distance":1152,"i_lat":-6.162758,"i_long":106.723064,"line":5,"transit":false}]]}