{"data":[[{"i_lat":-6.369073,"station_id":"POC","is_transit":false,"i_long":106.831114,"transit":false,"time":0,"line":2,"station_name":"Pondok Cina","distance":0},{"is_transit":false,"transit":false,"station_name":"Univ. Indonesia","time":2,"i_lat":-6.360749,"distance":1109,"station_id":"UI","line":2,"i_long":106.831474},{"station_id":"UP","time":3,"is_transit":false,"i_long":106.834175,"line":2,"i_lat":-6.339291,"transit":false,"distance":2264,"station_name":"Univ. Pancasila"},{"distance":1029,"line":2,"transit":false,"station_name":"Lenteng Agung","station_id":"LNA","time":2,"i_lat":-6.330363,"i_long":106.832616,"is_transit":false},{"line":2,"i_lat":-6.3080680000000005,"station_id":"TNT","time":3,"station_name":"Tanjung Barat","is_transit":false,"transit":false,"i_long":106.838896,"distance":2671},{"station_id":"PSM","station_name":"Pasar Minggu","distance":2820,"i_lat":-6.2842400000000005,"line":2,"time":4,"i_long":106.843999,"transit":false,"is_transit":false},{"line":2,"distance":2380,"station_name":"Pasar Minggu Baru","i_lat":-6.263214,"is_transit":false,"i_long":106.851577,"station_id":"PSMB","transit":false,"time":2},{"is_transit":false,"i_long":106.85449,"station_id":"DRN","station_name":"Duren Kalibata","distance":824,"time":2,"transit":false,"line":2,"i_lat":-6.255332},{"i_long":106.856607,"distance":1546,"is_transit":false,"line":2,"transit":false,"station_id":"CW","i_lat":-6.242512,"time":3,"station_name":"Cawang"},{"station_name":"Tebet","i_lat":-6.226659,"i_long":106.857948,"station_id":"TEB","distance":1230,"transit":false,"line":2,"is_transit":false,"time":2},{"station_name":"Manggarai","line":2,"i_long":106.84912,"time":4,"distance":2610,"i_lat":-6.209883,"is_transit":true,"station_id":"MRI","transit":true},{"time":4,"station_name":"Sudirman","station_id":"SUD","i_long":106.822649,"i_lat":-6.202263,"transit":false,"is_transit":false,"line":1,"distance":3186},{"station_id":"SUDB","time":1,"line":1,"station_name":"Sudirman Baru","distance":280,"i_lat":-6.201433,"transit":false,"i_long":106.819881,"is_transit":false},{"i_lat":-6.20132,"i_long":106.816351,"line":1,"transit":false,"station_name":"Karet","time":1,"is_transit":false,"station_id":"KAT","distance":471},{"time":5,"is_transit":true,"station_name":"Tanah Abang","i_long":106.811091,"station_id":"THB","transit":true,"i_lat":-6.185545,"distance":2029,"line":1},{"station_name":"Palmerah","line":6,"i_lat":-6.207404,"is_transit":false,"time":6,"distance":3191,"i_long":106.79689,"transit":false,"station_id":"PLM"},{"station_id":"KBY","is_transit":false,"distance":3737,"time":7,"station_name":"Kebayoran","i_long":106.780334,"transit":false,"line":6,"i_lat":-6.237242},{"i_long":106.74273,"line":6,"i_lat":-6.276362,"distance":6218,"station_name":"Pondokranji","is_transit":false,"time":8,"station_id":"PDJ","transit":false},{"time":3,"i_long":106.728916,"distance":2179,"transit":false,"station_name":"Jurangmangu","line":6,"i_lat":-6.288927,"station_id":"JMU","is_transit":false},{"line":6,"time":4,"distance":1994,"transit":false,"i_lat":-6.296963,"station_name":"Sudimara","i_long":106.712277,"is_transit":false,"station_id":"SDM"},{"line":6,"i_lat":-6.314823,"time":6,"is_transit":false,"distance":4566,"station_name":"Rawa Buntu","transit":false,"station_id":"RU","i_long":106.675475},{"station_id":"SRP","time":4,"i_lat":-6.319871,"is_transit":false,"station_name":"Serpong","transit":false,"i_long":106.66566,"distance":2413,"line":6},{"transit":false,"station_name":"Cisauk","i_long":106.640411,"time":4,"line":3,"station_id":"CSK","i_lat":-6.32484,"distance":1784,"is_transit":false},{"line":3,"distance":2519,"i_lat":-6.329547,"station_name":"Cicayur","is_transit":false,"transit":false,"i_long":106.617853,"time":4,"station_id":"CC"},{"station_name":"Parung Panjang","is_transit":false,"station_id":"PRP","time":8,"line":6,"i_long":106.568863,"i_lat":-6.3441410000000005,"transit":false,"distance":5968},{"i_lat":-6.354349,"transit":false,"station_id":"CJT","distance":7025,"station_name":"Cilejit","is_transit":false,"time":9,"i_long":106.508482,"line":3}],[{"transit":false,"distance":0,"i_lat":-6.369073,"i_long":106.831114,"line":2,"station_id":"POC","time":0,"is_transit":false,"station_name":"Pondok Cina"},{"transit":false,"i_lat":-6.360749,"line":2,"distance":1109,"station_name":"Univ. Indonesia","is_transit":false,"i_long":106.831474,"station_id":"UI","time":2},{"line":2,"transit":false,"i_lat":-6.339291,"i_long":106.834175,"distance":2264,"station_name":"Univ. Pancasila","is_transit":false,"station_id":"UP","time":3},{"station_name":"Lenteng Agung","is_transit":false,"time":2,"distance":1029,"i_long":106.832616,"station_id":"LNA","transit":false,"i_lat":-6.330363,"line":2},{"i_long":106.838896,"is_transit":false,"distance":2671,"station_id":"TNT","time":3,"transit":false,"i_lat":-6.3080680000000005,"line":2,"station_name":"Tanjung Barat"},{"station_id":"PSM","time":4,"distance":2820,"transit":false,"is_transit":false,"i_long":106.843999,"line":2,"station_name":"Pasar Minggu","i_lat":-6.2842400000000005},{"line":2,"station_name":"Pasar Minggu Baru","is_transit":false,"station_id":"PSMB","distance":2380,"i_long":106.851577,"time":2,"i_lat":-6.263214,"transit":false},{"station_id":"DRN","time":2,"transit":false,"i_lat":-6.255332,"line":2,"is_transit":false,"i_long":106.85449,"station_name":"Duren Kalibata","distance":824},{"station_id":"CW","line":2,"distance":1546,"time":3,"i_long":106.856607,"transit":false,"station_name":"Cawang","i_lat":-6.242512,"is_transit":false},{"i_lat":-6.226659,"station_name":"Tebet","station_id":"TEB","transit":false,"time":2,"distance":1230,"line":2,"i_long":106.857948,"is_transit":false},{"transit":false,"is_transit":false,"distance":2610,"line":2,"i_long":106.84912,"station_name":"Manggarai","i_lat":-6.209883,"station_id":"MRI","time":4},{"station_name":"Cikini","station_id":"CKI","i_long":106.840169,"distance":1590,"transit":false,"line":2,"time":4,"i_lat":-6.198556,"is_transit":false},{"station_id":"GDD","station_name":"Gondangdia","i_long":106.832183,"line":2,"time":3,"is_transit":false,"distance":1750,"transit":false,"i_lat":-6.186295},{"time":4,"station_id":"JUA","is_transit":false,"i_long":106.828284,"transit":false,"i_lat":-6.166716,"line":2,"distance":2015,"station_name":"Juanda"},{"i_lat":-6.160725,"i_long":106.827103,"distance":1149,"line":2,"station_name":"Sawah Besar","station_id":"SW","time":2,"is_transit":false,"transit":false},{"transit":false,"time":2,"station_id":"MGB","distance":906,"is_transit":false,"station_name":"Manggabesar","i_lat":-6.149769,"i_long":106.82482,"line":2},{"i_long":106.820901,"station_id":"JAY","i_lat":-6.141205,"station_name":"Jayakarta","time":2,"distance":1080,"transit":false,"line":2,"is_transit":false},{"transit":true,"is_transit":true,"i_long":106.812439,"station_name":"Jakarta Kota","station_id":"JAKK","i_lat":-6.137569,"distance":1264,"line":2,"time":4},{"distance":1364,"transit":true,"station_name":"Kampung Bandan","station_id":"KPB","is_transit":true,"i_lat":-6.132549,"i_long":106.826365,"time":3,"line":4},{"distance":4102,"i_long":106.79867,"is_transit":false,"line":1,"station_id":"AK","i_lat":-6.144674,"station_name":"Angke","transit":false,"time":9},{"station_name":"Duri","station_id":"DU","is_transit":false,"time":4,"distance":1230,"transit":false,"i_lat":-6.155215,"i_long":106.800832,"line":1},{"time":8,"transit":true,"line":1,"i_lat":-6.185545,"is_transit":true,"station_id":"THB","station_name":"Tanah Abang","i_long":106.811091,"distance":3632},{"is_transit":false,"time":6,"transit":false,"station_id":"PLM","i_long":106.79689,"station_name":"Palmerah","distance":3191,"i_lat":-6.207404,"line":6},{"station_id":"KBY","station_name":"Kebayoran","is_transit":false,"i_long":106.780334,"line":6,"distance":3737,"transit":false,"time":7,"i_lat":-6.237242},{"line":6,"station_name":"Pondokranji","transit":false,"time":8,"i_long":106.74273,"station_id":"PDJ","is_transit":false,"i_lat":-6.276362,"distance":6218},{"i_lat":-6.288927,"station_id":"JMU","i_long":106.728916,"is_transit":false,"distance":2179,"station_name":"Jurangmangu","transit":false,"time":3,"line":6},{"is_transit":false,"transit":false,"station_name":"Sudimara","time":4,"distance":1994,"i_long":106.712277,"station_id":"SDM","i_lat":-6.296963,"line":6},{"i_lat":-6.314823,"is_transit":false,"line":6,"station_id":"RU","transit":false,"i_long":106.675475,"distance":4566,"time":6,"station_name":"Rawa Buntu"},{"transit":false,"i_lat":-6.319871,"i_long":106.66566,"line":6,"distance":2413,"station_id":"SRP","time":4,"station_name":"Serpong","is_transit":false},{"transit":false,"station_name":"Cisauk","i_lat":-6.32484,"is_transit":false,"distance":1784,"station_id":"CSK","i_long":106.640411,"line":3,"time":4},{"station_name":"Cicayur","i_long":106.617853,"time":4,"transit":false,"i_lat":-6.329547,"station_id":"CC","line":3,"is_transit":false,"distance":2519},{"is_transit":false,"time":8,"station_id":"PRP","distance":5968,"i_lat":-6.3441410000000005,"transit":false,"i_long":106.568863,"line":6,"station_name":"Parung Panjang"},{"station_name":"Cilejit","station_id":"CJT","line":3,"time":9,"i_long":106.508482,"distance":7025,"i_lat":-6.354349,"transit":false,"is_transit":false}],[{"station_id":"POC","time":0,"i_lat":-6.369073,"station_name":"Pondok Cina","is_transit":false,"distance":0,"transit":false,"i_long":106.831114,"line":2},{"transit":false,"is_transit":false,"i_lat":-6.360749,"station_name":"Univ. Indonesia","time":2,"line":2,"distance":1109,"i_long":106.831474,"station_id":"UI"},{"station_name":"Univ. Pancasila","i_long":106.834175,"line":2,"distance":2264,"is_transit":false,"transit":false,"i_lat":-6.339291,"station_id":"UP","time":3},{"i_lat":-6.330363,"i_long":106.832616,"line":2,"is_transit":false,"station_name":"Lenteng Agung","transit":false,"time":2,"station_id":"LNA","distance":1029},{"is_transit":false,"distance":2671,"transit":false,"i_lat":-6.3080680000000005,"time":3,"station_name":"Tanjung Barat","line":2,"i_long":106.838896,"station_id":"TNT"},{"line":2,"station_name":"Pasar Minggu","distance":2820,"time":4,"transit":false,"station_id":"PSM","i_lat":-6.2842400000000005,"i_long":106.843999,"is_transit":false},{"distance":2380,"is_transit":false,"i_lat":-6.263214,"station_name":"Pasar Minggu Baru","station_id":"PSMB","time":2,"transit":false,"i_long":106.851577,"line":2},{"station_name":"Duren Kalibata","i_long":106.85449,"line":2,"distance":824,"time":2,"i_lat":-6.255332,"station_id":"DRN","is_transit":false,"transit":false},{"is_transit":false,"time":3,"station_id":"CW","distance":1546,"line":2,"station_name":"Cawang","i_long":106.856607,"transit":false,"i_lat":-6.242512},{"time":2,"distance":1230,"station_id":"TEB","transit":false,"line":2,"is_transit":false,"i_lat":-6.226659,"i_long":106.857948,"station_name":"Tebet"},{"i_lat":-6.209883,"station_name":"Manggarai","transit":true,"i_long":106.84912,"line":2,"distance":2610,"station_id":"MRI","is_transit":true,"time":4},{"i_lat":-6.212485,"is_transit":false,"distance":1275,"transit":false,"station_id":"MTR","i_long":106.858896,"line":1,"time":2,"station_name":"Matraman"},{"is_transit":true,"station_name":"Jatinegara","i_lat":-6.215091,"line":1,"time":8,"transit":true,"i_long":106.86807400000001,"distance":1377,"station_id":"JNG"},{"station_id":"POK","i_long":106.861737,"line":11,"transit":false,"is_transit":false,"i_lat":-6.209188,"time":2,"distance":1236,"station_name":"Pondok Jati"},{"transit":false,"i_lat":-6.193792,"line":11,"station_name":"Kramat","i_long":106.855437,"station_id":"KMT","distance":1829,"is_transit":false,"time":2},{"i_lat":-6.185975,"station_name":"Gang Sentiong","i_long":106.850107,"time":1,"distance":973,"line":11,"is_transit":false,"station_id":"GST","transit":false},{"distance":1567,"station_id":"PSE","station_name":"Pasar Senen","i_lat":-6.174784,"i_long":106.84368,"line":11,"transit":false,"is_transit":false,"time":8},{"transit":false,"i_lat":-6.161728,"station_name":"Kemayoran","distance":1436,"time":4,"line":11,"is_transit":false,"station_id":"KMO","i_long":106.839204},{"i_lat":-6.14505,"station_id":"RJW","is_transit":false,"station_name":"Rajawali","line":11,"distance":1901,"i_long":106.836569,"time":5,"transit":false},{"i_long":106.826365,"line":4,"time":3,"station_name":"Kampung Bandan","distance":1444,"is_transit":true,"station_id":"KPB","i_lat":-6.132549,"transit":true},{"is_transit":false,"distance":4102,"i_lat":-6.144674,"transit":false,"station_id":"AK","time":9,"line":1,"station_name":"Angke","i_long":106.79867},{"time":4,"distance":1230,"station_name":"Duri","is_transit":false,"line":1,"transit":false,"i_long":106.800832,"station_id":"DU","i_lat":-6.155215},{"i_long":106.811091,"distance":3632,"transit":true,"is_transit":true,"line":1,"station_name":"Tanah Abang","time":8,"station_id":"THB","i_lat":-6.185545},{"station_id":"PLM","distance":3191,"transit":false,"station_name":"Palmerah","is_transit":false,"time":6,"i_long":106.79689,"i_lat":-6.207404,"line":6},{"transit":false,"is_transit":false,"i_long":106.780334,"station_name":"Kebayoran","line":6,"station_id":"KBY","i_lat":-6.237242,"time":7,"distance":3737},{"i_lat":-6.276362,"distance":6218,"i_long":106.74273,"line":6,"transit":false,"station_id":"PDJ","is_transit":false,"time":8,"station_name":"Pondokranji"},{"i_lat":-6.288927,"time":3,"i_long":106.728916,"station_id":"JMU","is_transit":false,"distance":2179,"line":6,"station_name":"Jurangmangu","transit":false},{"distance":1994,"i_long":106.712277,"line":6,"is_transit":false,"station_id":"SDM","time":4,"transit":false,"station_name":"Sudimara","i_lat":-6.296963},{"station_id":"RU","is_transit":false,"i_long":106.675475,"time":6,"i_lat":-6.314823,"station_name":"Rawa Buntu","line":6,"distance":4566,"transit":false},{"i_long":106.66566,"station_name":"Serpong","station_id":"SRP","time":4,"transit":false,"i_lat":-6.319871,"distance":2413,"is_transit":false,"line":6},{"i_long":106.640411,"time":4,"distance":1784,"station_id":"CSK","transit":false,"i_lat":-6.32484,"station_name":"Cisauk","is_transit":false,"line":3},{"line":3,"is_transit":false,"i_lat":-6.329547,"i_long":106.617853,"distance":2519,"time":4,"station_name":"Cicayur","transit":false,"station_id":"CC"},{"station_name":"Parung Panjang","i_long":106.568863,"is_transit":false,"distance":5968,"transit":false,"i_lat":-6.3441410000000005,"time":8,"line":6,"station_id":"PRP"},{"station_name":"Cilejit","is_transit":false,"time":9,"station_id":"CJT","line":3,"distance":7025,"transit":false,"i_lat":-6.354349,"i_long":106.508482}]]}