{"data":[[{"i_lat":-6.369073,"transit":false,"i_long":106.831114,"time":0,"line":2,"distance":0,"station_id":"POC","station_name":"Pondok Cina","is_transit":false},{"distance":1109,"station_id":"UI","i_lat":-6.360749,"i_long":106.831474,"transit":false,"line":2,"station_name":"Univ. Indonesia","time":2,"is_transit":false},{"station_id":"UP","i_lat":-6.339291,"i_long":106.834175,"line":2,"station_name":"Univ. Pancasila","distance":2264,"transit":false,"time":3,"is_transit":false},{"is_transit":false,"i_long":106.832616,"time":2,"line":2,"station_id":"LNA","i_lat":-6.330363,"transit":false,"distance":1029,"station_name":"Lenteng Agung"},{"time":3,"distance":2671,"line":2,"transit":false,"i_long":106.838896,"is_transit":false,"station_name":"Tanjung Barat","i_lat":-6.3080680000000005,"station_id":"TNT"},{"station_name":"Pasar Minggu","is_transit":false,"station_id":"PSM","i_lat":-6.2842400000000005,"distance":2820,"time":4,"transit":false,"i_long":106.843999,"line":2},{"distance":2380,"is_transit":false,"time":2,"station_id":"PSMB","i_lat":-6.263214,"station_name":"Pasar Minggu Baru","i_long":106.851577,"transit":false,"line":2},{"i_long":106.85449,"is_transit":false,"distance":824,"line":2,"time":2,"transit":false,"station_name":"Duren Kalibata","i_lat":-6.255332,"station_id":"DRN"},{"i_lat":-6.242512,"transit":false,"i_long":106.856607,"line":2,"time":3,"station_name":"Cawang","distance":1546,"station_id":"CW","is_transit":false},{"line":2,"station_name":"Tebet","distance":1230,"station_id":"TEB","is_transit":false,"i_lat":-6.226659,"i_long":106.857948,"transit":false,"time":2},{"i_long":106.84912,"transit":true,"time":4,"distance":2610,"station_id":"MRI","is_transit":true,"line":2,"station_name":"Manggarai","i_lat":-6.209883},{"station_id":"SUD","is_transit":false,"i_lat":-6.202263,"distance":3186,"transit":false,"time":4,"line":1,"station_name":"Sudirman","i_long":106.822649},{"is_transit":false,"transit":false,"time":1,"line":1,"i_long":106.819881,"station_name":"Sudirman Baru","i_lat":-6.201433,"station_id":"SUDB","distance":280},{"i_long":106.816351,"transit":false,"i_lat":-6.20132,"line":1,"is_transit":false,"distance":471,"station_name":"Karet","station_id":"KAT","time":1},{"distance":2029,"transit":false,"i_lat":-6.185545,"line":1,"station_name":"Tanah Abang","time":5,"is_transit":false,"i_long":106.811091,"station_id":"THB"},{"i_lat":-6.155215,"i_long":106.800832,"line":1,"transit":true,"time":8,"station_name":"Duri","distance":3632,"station_id":"DU","is_transit":true},{"station_name":"Grogol","is_transit":false,"transit":false,"time":3,"distance":1700,"station_id":"GGL","i_lat":-6.162021,"i_long":106.788277,"line":5},{"transit":false,"line":5,"time":2,"i_lat":-6.161433,"distance":2036,"station_name":"Pesing","i_long":106.771379,"is_transit":false,"station_id":"PSG"},{"station_name":"Taman Kota","i_long":106.756522,"station_id":"TKO","distance":1614,"line":5,"transit":false,"is_transit":false,"time":2,"i_lat":-6.1587309999999995},{"i_long":106.737035,"i_lat":-6.159876,"distance":2334,"station_name":"Bojongindah","station_id":"BOI","transit":false,"time":2,"is_transit":false,"line":5},{"time":4,"transit":false,"line":5,"is_transit":false,"distance":1152,"i_long":106.723064,"station_name":"Rawa Buaya","station_id":"RW","i_lat":-6.162758},{"station_id":"KDS","time":3,"station_name":"Kalideres","is_transit":false,"distance":2504,"transit":false,"i_lat":-6.166068,"line":5,"i_long":106.701612}],[{"time":0,"station_name":"Pondok Cina","is_transit":false,"i_lat":-6.369073,"i_long":106.831114,"station_id":"POC","transit":false,"distance":0,"line":2},{"station_name":"Univ. Indonesia","distance":1109,"i_long":106.831474,"is_transit":false,"i_lat":-6.360749,"transit":false,"station_id":"UI","time":2,"line":2},{"distance":2264,"i_long":106.834175,"time":3,"station_id":"UP","transit":false,"i_lat":-6.339291,"is_transit":false,"line":2,"station_name":"Univ. Pancasila"},{"transit":false,"station_id":"LNA","i_lat":-6.330363,"station_name":"Lenteng Agung","distance":1029,"line":2,"is_transit":false,"i_long":106.832616,"time":2},{"station_name":"Tanjung Barat","line":2,"transit":false,"distance":2671,"i_lat":-6.3080680000000005,"time":3,"i_long":106.838896,"station_id":"TNT","is_transit":false},{"station_id":"PSM","time":4,"distance":2820,"station_name":"Pasar Minggu","i_long":106.843999,"line":2,"is_transit":false,"transit":false,"i_lat":-6.2842400000000005},{"is_transit":false,"line":2,"transit":false,"station_name":"Pasar Minggu Baru","station_id":"PSMB","distance":2380,"i_lat":-6.263214,"time":2,"i_long":106.851577},{"i_long":106.85449,"transit":false,"time":2,"distance":824,"i_lat":-6.255332,"station_name":"Duren Kalibata","station_id":"DRN","is_transit":false,"line":2},{"distance":1546,"is_transit":false,"station_name":"Cawang","i_lat":-6.242512,"line":2,"transit":false,"station_id":"CW","i_long":106.856607,"time":3},{"i_lat":-6.226659,"time":2,"line":2,"station_id":"TEB","is_transit":false,"station_name":"Tebet","transit":false,"distance":1230,"i_long":106.857948},{"i_lat":-6.209883,"distance":2610,"time":4,"station_name":"Manggarai","line":2,"transit":false,"is_transit":false,"i_long":106.84912,"station_id":"MRI"},{"i_long":106.840169,"distance":1590,"i_lat":-6.198556,"line":2,"transit":false,"station_name":"Cikini","station_id":"CKI","is_transit":false,"time":4},{"time":3,"distance":1750,"i_lat":-6.186295,"station_id":"GDD","line":2,"station_name":"Gondangdia","transit":false,"i_long":106.832183,"is_transit":false},{"distance":2015,"is_transit":false,"i_lat":-6.166716,"transit":false,"station_name":"Juanda","time":4,"station_id":"JUA","i_long":106.828284,"line":2},{"time":2,"station_name":"Sawah Besar","distance":1149,"line":2,"i_long":106.827103,"station_id":"SW","i_lat":-6.160725,"transit":false,"is_transit":false},{"is_transit":false,"line":2,"station_id":"MGB","transit":false,"station_name":"Manggabesar","time":2,"distance":906,"i_long":106.82482,"i_lat":-6.149769},{"line":2,"transit":false,"distance":1080,"station_id":"JAY","station_name":"Jayakarta","time":2,"i_lat":-6.141205,"is_transit":false,"i_long":106.820901},{"transit":true,"i_long":106.812439,"time":4,"is_transit":true,"station_id":"JAKK","line":2,"distance":1264,"station_name":"Jakarta Kota","i_lat":-6.137569},{"i_lat":-6.132549,"time":3,"transit":true,"station_name":"Kampung Bandan","line":4,"station_id":"KPB","is_transit":true,"distance":1364,"i_long":106.826365},{"transit":false,"i_long":106.79867,"distance":4102,"line":1,"i_lat":-6.144674,"time":9,"station_id":"AK","station_name":"Angke","is_transit":false},{"is_transit":true,"i_lat":-6.155215,"i_long":106.800832,"transit":true,"line":1,"distance":1230,"station_name":"Duri","time":4,"station_id":"DU"},{"line":5,"i_long":106.788277,"station_name":"Grogol","time":3,"station_id":"GGL","is_transit":false,"distance":1700,"transit":false,"i_lat":-6.162021},{"i_long":106.771379,"station_id":"PSG","transit":false,"line":5,"distance":2036,"is_transit":false,"time":2,"i_lat":-6.161433,"station_name":"Pesing"},{"transit":false,"distance":1614,"station_name":"Taman Kota","time":2,"i_lat":-6.1587309999999995,"i_long":106.756522,"station_id":"TKO","is_transit":false,"line":5},{"line":5,"station_id":"BOI","i_long":106.737035,"time":2,"transit":false,"station_name":"Bojongindah","i_lat":-6.159876,"is_transit":false,"distance":2334},{"is_transit":false,"line":5,"station_id":"RW","transit":false,"distance":1152,"i_lat":-6.162758,"station_name":"Rawa Buaya","i_long":106.723064,"time":4},{"i_lat":-6.166068,"i_long":106.701612,"transit":false,"line":5,"station_id":"KDS","time":3,"station_name":"Kalideres","is_transit":false,"distance":2504}],[{"is_transit":false,"i_lat":-6.369073,"distance":0,"transit":false,"station_name":"Pondok Cina","line":2,"time":0,"station_id":"POC","i_long":106.831114},{"is_transit":false,"station_id":"UI","i_lat":-6.360749,"station_name":"Univ. Indonesia","transit":false,"i_long":106.831474,"distance":1109,"time":2,"line":2},{"i_lat":-6.339291,"station_name":"Univ. Pancasila","distance":2264,"i_long":106.834175,"line":2,"transit":false,"station_id":"UP","time":3,"is_transit":false},{"i_lat":-6.330363,"time":2,"station_name":"Lenteng Agung","station_id":"LNA","is_transit":false,"i_long":106.832616,"line":2,"distance":1029,"transit":false},{"station_name":"Tanjung Barat","station_id":"TNT","i_lat":-6.3080680000000005,"line":2,"transit":false,"time":3,"distance":2671,"i_long":106.838896,"is_transit":false},{"i_lat":-6.2842400000000005,"i_long":106.843999,"station_id":"PSM","line":2,"is_transit":false,"transit":false,"station_name":"Pasar Minggu","distance":2820,"time":4},{"i_long":106.851577,"station_id":"PSMB","distance":2380,"transit":false,"station_name":"Pasar Minggu Baru","time":2,"i_lat":-6.263214,"line":2,"is_transit":false},{"station_id":"DRN","i_lat":-6.255332,"line":2,"is_transit":false,"i_long":106.85449,"transit":false,"distance":824,"station_name":"Duren Kalibata","time":2},{"i_long":106.856607,"line":2,"transit":false,"time":3,"station_name":"Cawang","distance":1546,"station_id":"CW","i_lat":-6.242512,"is_transit":false},{"station_id":"TEB","i_lat":-6.226659,"transit":false,"distance":1230,"is_transit":false,"i_long":106.857948,"line":2,"station_name":"Tebet","time":2},{"station_name":"Manggarai","distance":2610,"i_long":106.84912,"time":4,"transit":true,"i_lat":-6.209883,"line":2,"is_transit":true,"station_id":"MRI"},{"transit":false,"station_name":"Matraman","time":2,"is_transit":false,"i_lat":-6.212485,"i_long":106.858896,"line":1,"station_id":"MTR","distance":1275},{"station_id":"JNG","station_name":"Jatinegara","i_lat":-6.215091,"transit":true,"time":8,"i_long":106.86807400000001,"line":1,"distance":1377,"is_transit":true},{"is_transit":false,"line":11,"i_lat":-6.209188,"transit":false,"station_id":"POK","distance":1236,"i_long":106.861737,"station_name":"Pondok Jati","time":2},{"time":2,"is_transit":false,"i_long":106.855437,"line":11,"station_name":"Kramat","transit":false,"station_id":"KMT","i_lat":-6.193792,"distance":1829},{"transit":false,"distance":973,"i_lat":-6.185975,"station_id":"GST","is_transit":false,"i_long":106.850107,"line":11,"time":1,"station_name":"Gang Sentiong"},{"i_long":106.84368,"line":11,"i_lat":-6.174784,"transit":false,"station_name":"Pasar Senen","distance":1567,"station_id":"PSE","is_transit":false,"time":8},{"distance":1436,"time":4,"station_id":"KMO","is_transit":false,"station_name":"Kemayoran","i_lat":-6.161728,"i_long":106.839204,"transit":false,"line":11},{"station_id":"RJW","station_name":"Rajawali","is_transit":false,"i_long":106.836569,"line":11,"time":5,"transit":false,"distance":1901,"i_lat":-6.14505},{"time":3,"station_id":"KPB","distance":1444,"station_name":"Kampung Bandan","transit":true,"is_transit":true,"i_lat":-6.132549,"i_long":106.826365,"line":4},{"transit":false,"time":9,"line":1,"is_transit":false,"distance":4102,"station_id":"AK","i_lat":-6.144674,"station_name":"Angke","i_long":106.79867},{"station_id":"DU","time":4,"i_lat":-6.155215,"i_long":106.800832,"distance":1230,"line":1,"is_transit":true,"station_name":"Duri","transit":true},{"distance":1700,"line":5,"station_name":"Grogol","transit":false,"station_id":"GGL","is_transit":false,"i_lat":-6.162021,"i_long":106.788277,"time":3},{"i_long":106.771379,"line":5,"station_id":"PSG","time":2,"is_transit":false,"station_name":"Pesing","i_lat":-6.161433,"distance":2036,"transit":false},{"station_name":"Taman Kota","time":2,"distance":1614,"i_long":106.756522,"transit":false,"line":5,"i_lat":-6.1587309999999995,"station_id":"TKO","is_transit":false},{"distance":2334,"station_name":"Bojongindah","is_transit":false,"i_lat":-6.159876,"i_long":106.737035,"line":5,"station_id":"BOI","transit":false,"time":2},{"i_long":106.723064,"is_transit":false,"line":5,"time":4,"station_name":"Rawa Buaya","i_lat":-6.162758,"station_id":"RW","distance":1152,"transit":false},{"i_lat":-6.166068,"line":5,"i_long":106.701612,"transit":false,"station_name":"Kalideres","station_id":"KDS","time":3,"distance":2504,"is_transit":false}]]}