{"data":[[{"station_name":"Pondok Cina","i_long":106.831114,"line":2,"i_lat":-6.369073,"time":0,"station_id":"POC","transit":false,"is_transit":false,"distance":0},{"distance":1109,"station_name":"Univ. Indonesia","i_lat":-6.360749,"transit":false,"i_long":106.831474,"line":2,"station_id":"UI","time":2,"is_transit":false},{"i_long":106.834175,"is_transit":false,"station_name":"Univ. Pancasila","i_lat":-6.339291,"station_id":"UP","transit":false,"distance":2264,"time":3,"line":2},{"i_long":106.832616,"time":2,"transit":false,"station_id":"LNA","i_lat":-6.330363,"is_transit":false,"line":2,"distance":1029,"station_name":"Lenteng Agung"},{"i_lat":-6.3080680000000005,"i_long":106.838896,"time":3,"line":2,"distance":2671,"station_id":"TNT","station_name":"Tanjung Barat","transit":false,"is_transit":false},{"distance":2820,"station_id":"PSM","station_name":"Pasar Minggu","transit":false,"time":4,"i_lat":-6.2842400000000005,"is_transit":false,"i_long":106.843999,"line":2},{"line":2,"time":2,"is_transit":false,"station_id":"PSMB","station_name":"Pasar Minggu Baru","i_long":106.851577,"distance":2380,"i_lat":-6.263214,"transit":false},{"is_transit":false,"distance":824,"transit":false,"time":2,"station_id":"DRN","i_lat":-6.255332,"i_long":106.85449,"line":0,"station_name":"Duren Kalibata"},{"i_long":106.856607,"is_transit":false,"line":0,"i_lat":-6.242512,"time":3,"station_id":"CW","distance":1546,"station_name":"Cawang","transit":false},{"station_name":"Tebet","time":2,"line":2,"i_lat":-6.226659,"station_id":"TEB","transit":false,"i_long":106.857948,"is_transit":false,"distance":1230},{"distance":2610,"time":4,"station_id":"MRI","i_long":106.84912,"is_transit":true,"transit":true,"station_name":"Manggarai","line":0,"i_lat":-6.209883},{"distance":1275,"is_transit":false,"station_id":"MTR","transit":false,"time":2,"i_lat":-6.212485,"line":1,"i_long":106.858896,"station_name":"Matraman"},{"i_lat":-6.215091,"station_name":"Jatinegara","distance":1377,"time":8,"transit":false,"i_long":106.86807400000001,"station_id":"JNG","is_transit":true,"line":0}],[{"transit":false,"i_long":106.831114,"station_name":"Pondok Cina","station_id":"POC","i_lat":-6.369073,"time":0,"is_transit":false,"line":2,"distance":0},{"time":2,"station_id":"UI","transit":false,"station_name":"Univ. Indonesia","is_transit":false,"distance":1109,"i_lat":-6.360749,"i_long":106.831474,"line":2},{"time":3,"is_transit":false,"distance":2264,"transit":false,"line":2,"i_long":106.834175,"station_id":"UP","i_lat":-6.339291,"station_name":"Univ. Pancasila"},{"is_transit":false,"i_long":106.832616,"line":2,"i_lat":-6.330363,"station_name":"Lenteng Agung","distance":1029,"station_id":"LNA","transit":false,"time":2},{"station_name":"Tanjung Barat","time":3,"is_transit":false,"distance":2671,"transit":false,"station_id":"TNT","i_lat":-6.3080680000000005,"i_long":106.838896,"line":2},{"time":4,"i_lat":-6.2842400000000005,"distance":2820,"station_id":"PSM","line":2,"station_name":"Pasar Minggu","i_long":106.843999,"transit":false,"is_transit":false},{"station_name":"Pasar Minggu Baru","i_lat":-6.263214,"i_long":106.851577,"station_id":"PSMB","distance":2380,"transit":false,"time":2,"is_transit":false,"line":2},{"time":2,"is_transit":false,"i_lat":-6.255332,"station_name":"Duren Kalibata","station_id":"DRN","i_long":106.85449,"transit":false,"distance":824,"line":0},{"i_lat":-6.242512,"i_long":106.856607,"line":0,"station_id":"CW","station_name":"Cawang","transit":false,"is_transit":false,"time":3,"distance":1546},{"transit":false,"station_id":"TEB","distance":1230,"time":2,"i_long":106.857948,"line":2,"station_name":"Tebet","i_lat":-6.226659,"is_transit":false},{"is_transit":true,"distance":2610,"time":4,"station_id":"MRI","i_long":106.84912,"line":0,"station_name":"Manggarai","i_lat":-6.209883,"transit":true},{"time":4,"distance":3186,"is_transit":false,"i_lat":-6.202263,"station_id":"SUD","i_long":106.822649,"transit":false,"line":1,"station_name":"Sudirman"},{"distance":280,"time":1,"i_lat":-6.201433,"transit":false,"is_transit":false,"station_id":"SUDB","line":1,"i_long":106.819881,"station_name":"Sudirman Baru"},{"is_transit":false,"line":1,"i_long":106.816351,"i_lat":-6.20132,"station_id":"KAT","station_name":"Karet","distance":471,"transit":false,"time":1},{"is_transit":true,"station_name":"Tanah Abang","i_long":106.811091,"line":1,"i_lat":-6.185545,"time":5,"station_id":"THB","distance":2029,"transit":false},{"distance":3632,"transit":true,"station_name":"Duri","station_id":"DU","i_lat":-6.155215,"line":1,"time":8,"is_transit":true,"i_long":106.800832},{"i_long":106.79867,"station_name":"Angke","transit":false,"time":4,"i_lat":-6.144674,"distance":1230,"station_id":"AK","is_transit":false,"line":0},{"is_transit":true,"distance":4102,"line":0,"i_lat":-6.132549,"transit":true,"station_id":"KPB","time":9,"i_long":106.826365,"station_name":"Kampung Bandan"},{"i_lat":-6.14505,"is_transit":false,"i_long":106.836569,"line":11,"time":3,"station_name":"Rajawali","transit":false,"distance":1444,"station_id":"RJW"},{"station_id":"KMO","i_lat":-6.161728,"distance":1901,"is_transit":false,"i_long":106.839204,"line":11,"station_name":"Kemayoran","time":5,"transit":false},{"i_long":106.84368,"line":11,"time":4,"transit":false,"station_name":"Pasar Senen","is_transit":false,"distance":1436,"i_lat":-6.174784,"station_id":"PSE"},{"distance":1567,"line":11,"transit":false,"i_long":106.850107,"is_transit":false,"station_id":"GST","station_name":"Gang Sentiong","time":8,"i_lat":-6.185975},{"i_lat":-6.193792,"station_name":"Kramat","transit":false,"is_transit":false,"time":1,"line":11,"distance":973,"station_id":"KMT","i_long":106.855437},{"i_long":106.861737,"transit":false,"distance":1829,"is_transit":false,"station_name":"Pondok Jati","i_lat":-6.209188,"line":11,"time":2,"station_id":"POK"},{"station_id":"JNG","is_transit":true,"transit":false,"i_lat":-6.215091,"distance":1236,"time":9,"line":0,"i_long":106.86807400000001,"station_name":"Jatinegara"}],[{"is_transit":false,"station_name":"Pondok Cina","station_id":"POC","i_long":106.831114,"line":2,"distance":0,"transit":false,"i_lat":-6.369073,"time":0},{"time":2,"line":2,"i_long":106.831474,"is_transit":false,"station_name":"Univ. Indonesia","transit":false,"station_id":"UI","i_lat":-6.360749,"distance":1109},{"distance":2264,"i_lat":-6.339291,"time":3,"i_long":106.834175,"is_transit":false,"station_name":"Univ. Pancasila","station_id":"UP","line":2,"transit":false},{"transit":false,"station_id":"LNA","time":2,"is_transit":false,"i_lat":-6.330363,"distance":1029,"station_name":"Lenteng Agung","i_long":106.832616,"line":2},{"distance":2671,"transit":false,"station_id":"TNT","is_transit":false,"i_long":106.838896,"line":2,"station_name":"Tanjung Barat","time":3,"i_lat":-6.3080680000000005},{"i_long":106.843999,"line":2,"station_id":"PSM","distance":2820,"time":4,"is_transit":false,"transit":false,"i_lat":-6.2842400000000005,"station_name":"Pasar Minggu"},{"i_long":106.851577,"line":2,"is_transit":false,"station_name":"Pasar Minggu Baru","i_lat":-6.263214,"transit":false,"station_id":"PSMB","distance":2380,"time":2},{"i_long":106.85449,"station_id":"DRN","i_lat":-6.255332,"distance":824,"line":0,"transit":false,"station_name":"Duren Kalibata","time":2,"is_transit":false},{"transit":false,"i_lat":-6.242512,"is_transit":false,"time":3,"station_name":"Cawang","station_id":"CW","distance":1546,"i_long":106.856607,"line":0},{"distance":1230,"station_name":"Tebet","transit":false,"i_long":106.857948,"is_transit":false,"line":2,"station_id":"TEB","time":2,"i_lat":-6.226659},{"station_id":"MRI","distance":2610,"station_name":"Manggarai","transit":true,"i_lat":-6.209883,"i_long":106.84912,"time":4,"line":0,"is_transit":true},{"is_transit":false,"distance":1590,"time":4,"station_id":"CKI","i_lat":-6.198556,"transit":false,"i_long":106.840169,"line":0,"station_name":"Cikini"},{"distance":1750,"transit":false,"i_long":106.832183,"station_id":"GDD","i_lat":-6.186295,"station_name":"Gondangdia","is_transit":false,"line":2,"time":3},{"station_name":"Juanda","is_transit":false,"time":4,"i_long":106.828284,"transit":false,"line":2,"distance":2015,"station_id":"JUA","i_lat":-6.166716},{"distance":1149,"time":2,"i_lat":-6.160725,"i_long":106.827103,"line":2,"station_id":"SW","station_name":"Sawah Besar","transit":false,"is_transit":false},{"distance":906,"time":2,"i_lat":-6.149769,"station_name":"Manggabesar","is_transit":false,"i_long":106.82482,"line":2,"transit":false,"station_id":"MGB"},{"station_id":"JAY","time":2,"i_long":106.820901,"station_name":"Jayakarta","line":7,"distance":1080,"transit":false,"is_transit":false,"i_lat":-6.141205},{"station_name":"Jakarta Kota","line":0,"station_id":"JAKK","transit":true,"i_lat":-6.137569,"time":4,"is_transit":true,"i_long":106.812439,"distance":1264},{"transit":true,"distance":1364,"station_name":"Kampung Bandan","is_transit":true,"time":3,"i_lat":-6.132549,"line":0,"station_id":"KPB","i_long":106.826365},{"transit":false,"time":3,"is_transit":false,"i_lat":-6.14505,"line":11,"distance":1444,"i_long":106.836569,"station_name":"Rajawali","station_id":"RJW"},{"transit":false,"line":11,"station_name":"Kemayoran","time":5,"is_transit":false,"station_id":"KMO","i_long":106.839204,"distance":1901,"i_lat":-6.161728},{"line":11,"station_id":"PSE","distance":1436,"i_long":106.84368,"time":4,"station_name":"Pasar Senen","is_transit":false,"transit":false,"i_lat":-6.174784},{"i_long":106.850107,"is_transit":false,"station_name":"Gang Sentiong","time":8,"transit":false,"line":11,"station_id":"GST","i_lat":-6.185975,"distance":1567},{"station_name":"Kramat","i_lat":-6.193792,"distance":973,"i_long":106.855437,"line":11,"time":1,"station_id":"KMT","is_transit":false,"transit":false},{"i_long":106.861737,"line":11,"station_id":"POK","time":2,"is_transit":false,"i_lat":-6.209188,"station_name":"Pondok Jati","distance":1829,"transit":false},{"distance":1236,"i_lat":-6.215091,"time":9,"line":0,"station_name":"Jatinegara","is_transit":true,"transit":false,"i_long":106.86807400000001,"station_id":"JNG"}]]}