{"data":[[{"i_lat":-6.369073,"is_transit":false,"time":0,"distance":0,"station_name":"Pondok Cina","i_long":106.831114,"line":2,"station_id":"POC","transit":false},{"transit":false,"i_long":106.831474,"distance":1109,"station_name":"Univ. Indonesia","line":2,"is_transit":false,"i_lat":-6.360749,"station_id":"UI","time":2},{"transit":false,"distance":2264,"line":2,"station_name":"Univ. Pancasila","i_lat":-6.339291,"time":3,"station_id":"UP","is_transit":false,"i_long":106.834175},{"station_name":"Lenteng Agung","time":2,"station_id":"LNA","is_transit":false,"i_lat":-6.330363,"distance":1029,"i_long":106.832616,"line":2,"transit":false},{"i_long":106.838896,"time":3,"station_name":"Tanjung Barat","station_id":"TNT","distance":2671,"is_transit":false,"transit":false,"i_lat":-6.3080680000000005,"line":2},{"distance":2820,"transit":false,"station_id":"PSM","time":4,"station_name":"Pasar Minggu","i_long":106.843999,"line":2,"is_transit":false,"i_lat":-6.2842400000000005},{"station_id":"PSMB","is_transit":false,"i_long":106.851577,"distance":2380,"transit":false,"time":2,"station_name":"Pasar Minggu Baru","i_lat":-6.263214,"line":2},{"transit":false,"line":2,"distance":824,"is_transit":false,"station_id":"DRN","station_name":"Duren Kalibata","i_long":106.85449,"time":2,"i_lat":-6.255332},{"station_name":"Cawang","i_lat":-6.242512,"line":2,"station_id":"CW","is_transit":false,"distance":1546,"transit":false,"i_long":106.856607,"time":3},{"i_lat":-6.226659,"transit":false,"time":2,"station_id":"TEB","line":2,"station_name":"Tebet","distance":1230,"i_long":106.857948,"is_transit":false},{"station_name":"Manggarai","station_id":"MRI","line":2,"i_lat":-6.209883,"time":4,"is_transit":true,"transit":true,"distance":2610,"i_long":106.84912},{"time":4,"line":1,"transit":false,"i_lat":-6.202263,"is_transit":false,"i_long":106.822649,"distance":3186,"station_id":"SUD","station_name":"Sudirman"},{"station_id":"SUDB","distance":280,"time":1,"station_name":"Sudirman Baru","transit":false,"i_long":106.819881,"i_lat":-6.201433,"is_transit":false,"line":1},{"station_id":"KAT","distance":471,"i_lat":-6.20132,"line":1,"transit":false,"i_long":106.816351,"station_name":"Karet","time":1,"is_transit":false},{"transit":true,"i_long":106.811091,"i_lat":-6.185545,"line":1,"is_transit":true,"station_id":"THB","station_name":"Tanah Abang","distance":2029,"time":5},{"station_name":"Palmerah","distance":3191,"is_transit":false,"i_long":106.79689,"station_id":"PLM","i_lat":-6.207404,"line":6,"transit":false,"time":6},{"line":6,"i_long":106.780334,"i_lat":-6.237242,"distance":3737,"time":7,"station_name":"Kebayoran","station_id":"KBY","is_transit":false,"transit":false}],[{"time":0,"transit":false,"i_lat":-6.369073,"i_long":106.831114,"is_transit":false,"station_id":"POC","line":2,"station_name":"Pondok Cina","distance":0},{"station_name":"Univ. Indonesia","distance":1109,"i_lat":-6.360749,"line":2,"time":2,"transit":false,"is_transit":false,"station_id":"UI","i_long":106.831474},{"i_lat":-6.339291,"i_long":106.834175,"transit":false,"time":3,"station_name":"Univ. Pancasila","distance":2264,"is_transit":false,"station_id":"UP","line":2},{"station_id":"LNA","i_long":106.832616,"time":2,"distance":1029,"transit":false,"is_transit":false,"station_name":"Lenteng Agung","i_lat":-6.330363,"line":2},{"station_id":"TNT","distance":2671,"i_long":106.838896,"transit":false,"time":3,"i_lat":-6.3080680000000005,"line":2,"is_transit":false,"station_name":"Tanjung Barat"},{"station_name":"Pasar Minggu","line":2,"distance":2820,"transit":false,"station_id":"PSM","time":4,"is_transit":false,"i_lat":-6.2842400000000005,"i_long":106.843999},{"station_name":"Pasar Minggu Baru","time":2,"i_long":106.851577,"distance":2380,"station_id":"PSMB","line":2,"i_lat":-6.263214,"transit":false,"is_transit":false},{"time":2,"distance":824,"is_transit":false,"station_id":"DRN","line":2,"i_long":106.85449,"transit":false,"station_name":"Duren Kalibata","i_lat":-6.255332},{"station_id":"CW","station_name":"Cawang","i_lat":-6.242512,"is_transit":false,"distance":1546,"i_long":106.856607,"line":2,"transit":false,"time":3},{"station_name":"Tebet","line":2,"time":2,"i_lat":-6.226659,"station_id":"TEB","i_long":106.857948,"distance":1230,"is_transit":false,"transit":false},{"station_id":"MRI","i_long":106.84912,"time":4,"distance":2610,"transit":false,"is_transit":false,"station_name":"Manggarai","line":2,"i_lat":-6.209883},{"time":4,"station_id":"CKI","i_lat":-6.198556,"transit":false,"is_transit":false,"station_name":"Cikini","i_long":106.840169,"distance":1590,"line":2},{"transit":false,"line":2,"is_transit":false,"i_long":106.832183,"time":3,"i_lat":-6.186295,"station_name":"Gondangdia","station_id":"GDD","distance":1750},{"is_transit":false,"distance":2015,"station_name":"Juanda","station_id":"JUA","i_lat":-6.166716,"line":2,"time":4,"transit":false,"i_long":106.828284},{"is_transit":false,"distance":1149,"station_id":"SW","transit":false,"station_name":"Sawah Besar","i_lat":-6.160725,"line":2,"i_long":106.827103,"time":2},{"time":2,"transit":false,"station_name":"Manggabesar","line":2,"distance":906,"is_transit":false,"station_id":"MGB","i_lat":-6.149769,"i_long":106.82482},{"time":2,"transit":false,"station_id":"JAY","i_lat":-6.141205,"is_transit":false,"station_name":"Jayakarta","i_long":106.820901,"distance":1080,"line":2},{"time":4,"i_lat":-6.137569,"station_name":"Jakarta Kota","line":2,"distance":1264,"i_long":106.812439,"is_transit":true,"station_id":"JAKK","transit":true},{"distance":1364,"i_long":106.826365,"is_transit":true,"line":4,"time":3,"transit":true,"station_id":"KPB","i_lat":-6.132549,"station_name":"Kampung Bandan"},{"i_long":106.79867,"line":1,"is_transit":false,"station_id":"AK","time":9,"i_lat":-6.144674,"distance":4102,"transit":false,"station_name":"Angke"},{"time":4,"station_id":"DU","station_name":"Duri","i_lat":-6.155215,"line":1,"distance":1230,"is_transit":false,"i_long":106.800832,"transit":false},{"distance":3632,"station_name":"Tanah Abang","time":8,"is_transit":true,"line":1,"transit":true,"station_id":"THB","i_lat":-6.185545,"i_long":106.811091},{"line":6,"i_lat":-6.207404,"distance":3191,"time":6,"i_long":106.79689,"station_id":"PLM","is_transit":false,"station_name":"Palmerah","transit":false},{"distance":3737,"station_name":"Kebayoran","station_id":"KBY","is_transit":false,"time":7,"line":6,"transit":false,"i_long":106.780334,"i_lat":-6.237242}],[{"station_id":"POC","distance":0,"line":2,"transit":false,"station_name":"Pondok Cina","is_transit":false,"time":0,"i_lat":-6.369073,"i_long":106.831114},{"is_transit":false,"station_name":"Univ. Indonesia","line":2,"transit":false,"time":2,"i_long":106.831474,"distance":1109,"station_id":"UI","i_lat":-6.360749},{"line":2,"station_name":"Univ. Pancasila","i_long":106.834175,"is_transit":false,"transit":false,"distance":2264,"i_lat":-6.339291,"station_id":"UP","time":3},{"time":2,"distance":1029,"station_id":"LNA","i_lat":-6.330363,"is_transit":false,"i_long":106.832616,"line":2,"station_name":"Lenteng Agung","transit":false},{"station_id":"TNT","transit":false,"i_lat":-6.3080680000000005,"distance":2671,"time":3,"line":2,"station_name":"Tanjung Barat","is_transit":false,"i_long":106.838896},{"transit":false,"time":4,"station_id":"PSM","distance":2820,"station_name":"Pasar Minggu","is_transit":false,"i_lat":-6.2842400000000005,"i_long":106.843999,"line":2},{"i_long":106.851577,"station_name":"Pasar Minggu Baru","is_transit":false,"distance":2380,"transit":false,"i_lat":-6.263214,"line":2,"station_id":"PSMB","time":2},{"time":2,"i_lat":-6.255332,"distance":824,"line":2,"is_transit":false,"transit":false,"station_name":"Duren Kalibata","station_id":"DRN","i_long":106.85449},{"station_name":"Cawang","is_transit":false,"transit":false,"station_id":"CW","distance":1546,"time":3,"i_lat":-6.242512,"i_long":106.856607,"line":2},{"i_long":106.857948,"station_name":"Tebet","transit":false,"time":2,"station_id":"TEB","distance":1230,"is_transit":false,"i_lat":-6.226659,"line":2},{"i_long":106.84912,"is_transit":true,"station_name":"Manggarai","line":2,"transit":true,"distance":2610,"station_id":"MRI","time":4,"i_lat":-6.209883},{"distance":1275,"line":1,"transit":false,"station_id":"MTR","time":2,"is_transit":false,"station_name":"Matraman","i_lat":-6.212485,"i_long":106.858896},{"i_long":106.86807400000001,"transit":true,"line":1,"station_name":"Jatinegara","distance":1377,"i_lat":-6.215091,"time":8,"is_transit":true,"station_id":"JNG"},{"i_lat":-6.209188,"station_name":"Pondok Jati","distance":1236,"transit":false,"i_long":106.861737,"station_id":"POK","is_transit":false,"line":11,"time":2},{"time":2,"is_transit":false,"distance":1829,"line":11,"station_id":"KMT","station_name":"Kramat","transit":false,"i_lat":-6.193792,"i_long":106.855437},{"is_transit":false,"transit":false,"line":11,"i_lat":-6.185975,"time":1,"i_long":106.850107,"distance":973,"station_id":"GST","station_name":"Gang Sentiong"},{"is_transit":false,"line":11,"distance":1567,"time":8,"i_lat":-6.174784,"station_id":"PSE","station_name":"Pasar Senen","transit":false,"i_long":106.84368},{"station_id":"KMO","i_long":106.839204,"line":11,"station_name":"Kemayoran","is_transit":false,"transit":false,"distance":1436,"time":4,"i_lat":-6.161728},{"i_lat":-6.14505,"is_transit":false,"station_name":"Rajawali","time":5,"i_long":106.836569,"transit":false,"line":11,"station_id":"RJW","distance":1901},{"distance":1444,"line":4,"station_name":"Kampung Bandan","station_id":"KPB","time":3,"is_transit":true,"i_lat":-6.132549,"i_long":106.826365,"transit":true},{"line":1,"time":9,"is_transit":false,"station_id":"AK","distance":4102,"i_lat":-6.144674,"station_name":"Angke","i_long":106.79867,"transit":false},{"line":1,"station_id":"DU","i_long":106.800832,"distance":1230,"station_name":"Duri","time":4,"is_transit":false,"i_lat":-6.155215,"transit":false},{"distance":3632,"i_lat":-6.185545,"is_transit":true,"time":8,"station_name":"Tanah Abang","transit":true,"station_id":"THB","i_long":106.811091,"line":1},{"line":6,"station_name":"Palmerah","i_lat":-6.207404,"i_long":106.79689,"time":6,"station_id":"PLM","distance":3191,"transit":false,"is_transit":false},{"line":6,"station_id":"KBY","time":7,"station_name":"Kebayoran","is_transit":false,"distance":3737,"i_lat":-6.237242,"transit":false,"i_long":106.780334}]]}