{"data":[[{"distance":0,"station_name":"Pondok Cina","time":0,"station_id":"POC","i_long":106.831114,"transit":false,"is_transit":false,"i_lat":-6.369073,"line":2},{"time":2,"distance":1109,"station_id":"UI","i_lat":-6.360749,"i_long":106.831474,"line":2,"station_name":"Univ. Indonesia","is_transit":false,"transit":false},{"station_name":"Univ. Pancasila","is_transit":false,"distance":2264,"i_long":106.834175,"line":2,"transit":false,"time":3,"station_id":"UP","i_lat":-6.339291},{"i_long":106.832616,"line":2,"distance":1029,"transit":false,"is_transit":false,"i_lat":-6.330363,"time":2,"station_id":"LNA","station_name":"Lenteng Agung"},{"is_transit":false,"station_name":"Tanjung Barat","transit":false,"time":3,"line":2,"distance":2671,"i_lat":-6.3080680000000005,"station_id":"TNT","i_long":106.838896},{"is_transit":false,"station_name":"Pasar Minggu","station_id":"PSM","time":4,"transit":false,"distance":2820,"i_lat":-6.2842400000000005,"line":2,"i_long":106.843999},{"transit":false,"i_long":106.851577,"line":2,"time":2,"distance":2380,"is_transit":false,"station_id":"PSMB","i_lat":-6.263214,"station_name":"Pasar Minggu Baru"},{"line":2,"i_long":106.85449,"transit":false,"station_id":"DRN","station_name":"Duren Kalibata","time":2,"i_lat":-6.255332,"distance":824,"is_transit":false},{"station_id":"CW","i_long":106.856607,"transit":false,"station_name":"Cawang","i_lat":-6.242512,"is_transit":false,"distance":1546,"line":2,"time":3},{"station_id":"TEB","station_name":"Tebet","i_lat":-6.226659,"distance":1230,"i_long":106.857948,"time":2,"is_transit":false,"line":2,"transit":false},{"i_lat":-6.209883,"distance":2610,"time":4,"line":2,"i_long":106.84912,"station_name":"Manggarai","transit":true,"station_id":"MRI","is_transit":true},{"distance":1275,"time":2,"line":1,"transit":false,"station_id":"MTR","station_name":"Matraman","i_lat":-6.212485,"is_transit":false,"i_long":106.858896},{"i_long":106.86807400000001,"transit":false,"station_name":"Jatinegara","distance":1377,"i_lat":-6.215091,"time":8,"line":1,"station_id":"JNG","is_transit":false},{"transit":false,"distance":3395,"i_long":106.899548,"i_lat":-6.2135,"is_transit":false,"time":3,"station_id":"KLD","line":1,"station_name":"Klender"},{"is_transit":false,"i_long":106.922662,"distance":3100,"time":2,"i_lat":-6.215568,"line":1,"transit":false,"station_id":"BUA","station_name":"Buaran"},{"i_long":106.939679,"is_transit":false,"time":1,"i_lat":-6.217455,"distance":1305,"station_id":"KLDB","line":1,"transit":false,"station_name":"Klenderbaru"},{"is_transit":false,"station_name":"Cakung","i_long":106.951283,"line":1,"transit":false,"i_lat":-6.219053,"distance":1385,"station_id":"CUK","time":8},{"transit":false,"i_lat":-6.224515,"station_id":"KRI","line":1,"time":3,"distance":3097,"is_transit":false,"station_name":"Kranji","i_long":106.977657},{"is_transit":false,"i_lat":-6.236616,"i_long":106.997013,"line":1,"distance":2520,"station_name":"Bekasi","station_id":"BKS","time":4,"transit":false},{"transit":false,"time":2,"is_transit":false,"i_long":107.016735,"distance":2368,"i_lat":-6.248029,"station_id":"BKST","line":1,"station_name":"Bekasi Timur"},{"station_name":"Tambun","time":7,"transit":false,"station_id":"TB","i_lat":-6.258864,"line":1,"i_long":107.055722,"distance":4460,"is_transit":false},{"station_id":"CIT","i_long":107.083084,"transit":false,"i_lat":-6.261877,"time":3,"station_name":"Cibitung","distance":3420,"is_transit":false,"line":1},{"i_lat":-6.262938,"transit":false,"line":1,"time":2,"station_name":"Metland Telaga Murni","distance":2800,"is_transit":false,"station_id":"TLM","i_long":107.093313}],[{"station_name":"Pondok Cina","i_lat":-6.369073,"distance":0,"time":0,"station_id":"POC","is_transit":false,"transit":false,"i_long":106.831114,"line":2},{"time":2,"is_transit":false,"transit":false,"line":2,"station_id":"UI","distance":1109,"i_lat":-6.360749,"station_name":"Univ. Indonesia","i_long":106.831474},{"time":3,"station_name":"Univ. Pancasila","is_transit":false,"station_id":"UP","i_long":106.834175,"line":2,"i_lat":-6.339291,"distance":2264,"transit":false},{"time":2,"transit":false,"station_name":"Lenteng Agung","is_transit":false,"station_id":"LNA","i_long":106.832616,"distance":1029,"i_lat":-6.330363,"line":2},{"distance":2671,"line":2,"station_name":"Tanjung Barat","is_transit":false,"station_id":"TNT","time":3,"transit":false,"i_long":106.838896,"i_lat":-6.3080680000000005},{"line":2,"time":4,"distance":2820,"station_name":"Pasar Minggu","i_lat":-6.2842400000000005,"transit":false,"station_id":"PSM","is_transit":false,"i_long":106.843999},{"station_name":"Pasar Minggu Baru","i_lat":-6.263214,"distance":2380,"station_id":"PSMB","line":2,"transit":false,"time":2,"is_transit":false,"i_long":106.851577},{"time":2,"station_name":"Duren Kalibata","i_lat":-6.255332,"transit":false,"is_transit":false,"i_long":106.85449,"distance":824,"line":2,"station_id":"DRN"},{"distance":1546,"is_transit":false,"station_name":"Cawang","i_long":106.856607,"station_id":"CW","i_lat":-6.242512,"line":2,"transit":false,"time":3},{"time":2,"is_transit":false,"transit":false,"i_lat":-6.226659,"station_name":"Tebet","line":2,"station_id":"TEB","i_long":106.857948,"distance":1230},{"time":4,"i_lat":-6.209883,"i_long":106.84912,"distance":2610,"station_id":"MRI","transit":true,"is_transit":true,"station_name":"Manggarai","line":2},{"line":1,"station_id":"SUD","transit":false,"time":4,"station_name":"Sudirman","i_long":106.822649,"distance":3186,"is_transit":false,"i_lat":-6.202263},{"time":1,"station_name":"Sudirman Baru","line":1,"i_lat":-6.201433,"station_id":"SUDB","distance":280,"is_transit":false,"i_long":106.819881,"transit":false},{"station_id":"KAT","is_transit":false,"station_name":"Karet","time":1,"i_lat":-6.20132,"i_long":106.816351,"line":1,"transit":false,"distance":471},{"time":5,"is_transit":false,"transit":false,"i_long":106.811091,"line":1,"station_id":"THB","distance":2029,"station_name":"Tanah Abang","i_lat":-6.185545},{"time":8,"line":1,"distance":3632,"station_id":"DU","i_lat":-6.155215,"station_name":"Duri","transit":false,"is_transit":false,"i_long":106.800832},{"i_lat":-6.144674,"time":4,"is_transit":false,"transit":false,"distance":1230,"line":1,"i_long":106.79867,"station_id":"AK","station_name":"Angke"},{"i_lat":-6.132549,"i_long":106.826365,"distance":4102,"transit":true,"time":9,"station_id":"KPB","station_name":"Kampung Bandan","line":4,"is_transit":true},{"time":3,"i_long":106.836569,"line":11,"i_lat":-6.14505,"distance":1444,"station_name":"Rajawali","is_transit":false,"station_id":"RJW","transit":false},{"is_transit":false,"station_id":"KMO","transit":false,"time":5,"distance":1901,"line":11,"station_name":"Kemayoran","i_lat":-6.161728,"i_long":106.839204},{"distance":1436,"i_lat":-6.174784,"is_transit":false,"station_name":"Pasar Senen","transit":false,"station_id":"PSE","i_long":106.84368,"time":4,"line":11},{"i_long":106.850107,"line":11,"transit":false,"distance":1567,"station_id":"GST","station_name":"Gang Sentiong","time":8,"is_transit":false,"i_lat":-6.185975},{"distance":973,"transit":false,"i_long":106.855437,"i_lat":-6.193792,"is_transit":false,"station_id":"KMT","station_name":"Kramat","line":11,"time":1},{"is_transit":false,"station_name":"Pondok Jati","i_lat":-6.209188,"distance":1829,"transit":false,"i_long":106.861737,"time":2,"station_id":"POK","line":11},{"is_transit":true,"distance":1236,"i_lat":-6.215091,"time":9,"line":1,"station_name":"Jatinegara","transit":true,"i_long":106.86807400000001,"station_id":"JNG"},{"is_transit":false,"i_long":106.899548,"line":1,"transit":false,"distance":3395,"time":3,"i_lat":-6.2135,"station_name":"Klender","station_id":"KLD"},{"station_id":"BUA","station_name":"Buaran","transit":false,"line":1,"time":2,"is_transit":false,"i_long":106.922662,"distance":3100,"i_lat":-6.215568},{"distance":1305,"station_id":"KLDB","transit":false,"station_name":"Klenderbaru","i_long":106.939679,"time":1,"line":1,"is_transit":false,"i_lat":-6.217455},{"i_lat":-6.219053,"station_id":"CUK","i_long":106.951283,"transit":false,"distance":1385,"line":1,"time":8,"is_transit":false,"station_name":"Cakung"},{"line":1,"time":3,"station_name":"Kranji","transit":false,"is_transit":false,"i_long":106.977657,"distance":3097,"i_lat":-6.224515,"station_id":"KRI"},{"station_id":"BKS","is_transit":false,"transit":false,"distance":2520,"i_lat":-6.236616,"station_name":"Bekasi","time":4,"i_long":106.997013,"line":1},{"i_long":107.016735,"station_name":"Bekasi Timur","is_transit":false,"distance":2368,"transit":false,"line":1,"station_id":"BKST","time":2,"i_lat":-6.248029},{"time":7,"i_lat":-6.258864,"station_id":"TB","is_transit":false,"i_long":107.055722,"transit":false,"station_name":"Tambun","line":1,"distance":4460},{"station_id":"CIT","time":3,"i_lat":-6.261877,"i_long":107.083084,"distance":3420,"line":1,"is_transit":false,"station_name":"Cibitung","transit":false},{"distance":2800,"line":1,"station_name":"Metland Telaga Murni","transit":false,"station_id":"TLM","is_transit":false,"i_lat":-6.262938,"i_long":107.093313,"time":2}],[{"i_long":106.831114,"line":2,"station_id":"POC","time":0,"is_transit":false,"station_name":"Pondok Cina","i_lat":-6.369073,"distance":0,"transit":false},{"time":2,"distance":1109,"station_name":"Univ. Indonesia","i_long":106.831474,"transit":false,"line":2,"i_lat":-6.360749,"station_id":"UI","is_transit":false},{"distance":2264,"is_transit":false,"station_name":"Univ. Pancasila","i_lat":-6.339291,"i_long":106.834175,"line":2,"station_id":"UP","transit":false,"time":3},{"i_long":106.832616,"is_transit":false,"line":2,"time":2,"station_name":"Lenteng Agung","i_lat":-6.330363,"station_id":"LNA","distance":1029,"transit":false},{"i_lat":-6.3080680000000005,"line":2,"i_long":106.838896,"transit":false,"station_id":"TNT","station_name":"Tanjung Barat","time":3,"distance":2671,"is_transit":false},{"line":2,"i_lat":-6.2842400000000005,"time":4,"distance":2820,"is_transit":false,"station_name":"Pasar Minggu","i_long":106.843999,"transit":false,"station_id":"PSM"},{"distance":2380,"is_transit":false,"transit":false,"i_long":106.851577,"i_lat":-6.263214,"station_id":"PSMB","station_name":"Pasar Minggu Baru","line":2,"time":2},{"transit":false,"station_id":"DRN","time":2,"distance":824,"i_lat":-6.255332,"i_long":106.85449,"line":2,"is_transit":false,"station_name":"Duren Kalibata"},{"transit":false,"distance":1546,"is_transit":false,"station_id":"CW","station_name":"Cawang","time":3,"i_lat":-6.242512,"i_long":106.856607,"line":2},{"i_long":106.857948,"i_lat":-6.226659,"transit":false,"is_transit":false,"time":2,"station_name":"Tebet","line":2,"station_id":"TEB","distance":1230},{"transit":false,"is_transit":false,"station_name":"Manggarai","i_lat":-6.209883,"time":4,"line":2,"station_id":"MRI","i_long":106.84912,"distance":2610},{"station_id":"CKI","distance":1590,"is_transit":false,"transit":false,"line":2,"time":4,"station_name":"Cikini","i_lat":-6.198556,"i_long":106.840169},{"distance":1750,"station_id":"GDD","transit":false,"is_transit":false,"i_lat":-6.186295,"line":2,"i_long":106.832183,"time":3,"station_name":"Gondangdia"},{"transit":false,"i_long":106.828284,"distance":2015,"station_id":"JUA","time":4,"is_transit":false,"station_name":"Juanda","line":2,"i_lat":-6.166716},{"transit":false,"station_name":"Sawah Besar","i_long":106.827103,"time":2,"distance":1149,"i_lat":-6.160725,"station_id":"SW","line":2,"is_transit":false},{"is_transit":false,"transit":false,"station_id":"MGB","i_long":106.82482,"distance":906,"i_lat":-6.149769,"time":2,"station_name":"Manggabesar","line":2},{"station_name":"Jayakarta","distance":1080,"station_id":"JAY","is_transit":false,"time":2,"i_lat":-6.141205,"i_long":106.820901,"line":2,"transit":false},{"station_id":"JAKK","line":2,"i_lat":-6.137569,"distance":1264,"transit":true,"time":4,"station_name":"Jakarta Kota","i_long":106.812439,"is_transit":true},{"station_id":"KPB","time":3,"is_transit":true,"station_name":"Kampung Bandan","line":4,"i_lat":-6.132549,"distance":1364,"transit":true,"i_long":106.826365},{"distance":1444,"is_transit":false,"transit":false,"time":3,"station_name":"Rajawali","i_lat":-6.14505,"line":11,"station_id":"RJW","i_long":106.836569},{"station_id":"KMO","station_name":"Kemayoran","time":5,"transit":false,"i_lat":-6.161728,"i_long":106.839204,"line":11,"is_transit":false,"distance":1901},{"distance":1436,"i_lat":-6.174784,"time":4,"station_id":"PSE","is_transit":false,"line":11,"station_name":"Pasar Senen","transit":false,"i_long":106.84368},{"line":11,"time":8,"station_id":"GST","transit":false,"i_long":106.850107,"station_name":"Gang Sentiong","is_transit":false,"distance":1567,"i_lat":-6.185975},{"distance":973,"i_lat":-6.193792,"transit":false,"line":11,"station_id":"KMT","i_long":106.855437,"is_transit":false,"time":1,"station_name":"Kramat"},{"is_transit":false,"station_name":"Pondok Jati","time":2,"station_id":"POK","transit":false,"i_long":106.861737,"i_lat":-6.209188,"distance":1829,"line":11},{"station_name":"Jatinegara","station_id":"JNG","distance":1236,"is_transit":true,"i_lat":-6.215091,"time":9,"i_long":106.86807400000001,"line":1,"transit":true},{"is_transit":false,"distance":3395,"i_long":106.899548,"line":1,"transit":false,"time":3,"station_id":"KLD","station_name":"Klender","i_lat":-6.2135},{"transit":false,"distance":3100,"i_lat":-6.215568,"line":1,"is_transit":false,"time":2,"i_long":106.922662,"station_id":"BUA","station_name":"Buaran"},{"i_long":106.939679,"transit":false,"time":1,"station_id":"KLDB","is_transit":false,"line":1,"station_name":"Klenderbaru","i_lat":-6.217455,"distance":1305},{"distance":1385,"i_long":106.951283,"i_lat":-6.219053,"transit":false,"station_name":"Cakung","is_transit":false,"line":1,"station_id":"CUK","time":8},{"line":1,"transit":false,"distance":3097,"i_lat":-6.224515,"time":3,"i_long":106.977657,"station_id":"KRI","is_transit":false,"station_name":"Kranji"},{"is_transit":false,"time":4,"i_lat":-6.236616,"transit":false,"line":1,"i_long":106.997013,"distance":2520,"station_name":"Bekasi","station_id":"BKS"},{"line":1,"transit":false,"is_transit":false,"time":2,"distance":2368,"i_lat":-6.248029,"station_name":"Bekasi Timur","i_long":107.016735,"station_id":"BKST"},{"time":7,"transit":false,"distance":4460,"station_id":"TB","station_name":"Tambun","is_transit":false,"i_lat":-6.258864,"i_long":107.055722,"line":1},{"distance":3420,"station_name":"Cibitung","i_lat":-6.261877,"i_long":107.083084,"time":3,"is_transit":false,"line":1,"station_id":"CIT","transit":false},{"transit":false,"station_id":"TLM","i_long":107.093313,"line":1,"station_name":"Metland Telaga Murni","time":2,"is_transit":false,"distance":2800,"i_lat":-6.262938}]]}