{"data":[[{"transit":false,"i_long":106.831114,"station_name":"Pondok Cina","line":2,"station_id":"POC","is_transit":false,"time":0,"distance":0,"i_lat":-6.369073},{"station_id":"DPB","time":4,"distance":2727,"i_long":106.819451,"line":2,"transit":false,"is_transit":false,"i_lat":-6.391065,"station_name":"Depokbaru"},{"station_id":"DP","distance":1584,"transit":false,"i_lat":-6.405256,"i_long":106.816926,"is_transit":false,"station_name":"Depok","time":3,"line":2},{"is_transit":true,"distance":5084,"line":2,"time":6,"station_name":"Citayam","station_id":"CTA","i_lat":-6.448811,"transit":true,"i_long":106.800298},{"station_name":"Pondok Rajeg","line":21,"time":0,"station_id":"PDRG","is_transit":false,"transit":false,"i_long":106.824374,"i_lat":-6.460735,"distance":0}]]}