{"data":[[{"time":0,"i_lat":-6.369073,"station_name":"Pondok Cina","distance":0,"line":2,"station_id":"POC","is_transit":false,"transit":false,"i_long":106.831114},{"station_id":"UI","time":2,"transit":false,"distance":1109,"station_name":"Univ. Indonesia","line":2,"is_transit":false,"i_lat":-6.360749,"i_long":106.831474},{"line":2,"distance":2264,"transit":false,"time":3,"is_transit":false,"station_id":"UP","i_lat":-6.339291,"station_name":"Univ. Pancasila","i_long":106.834175},{"distance":1029,"i_long":106.832616,"station_id":"LNA","i_lat":-6.330363,"line":2,"station_name":"Lenteng Agung","time":2,"is_transit":false,"transit":false},{"i_lat":-6.3080680000000005,"i_long":106.838896,"distance":2671,"station_id":"TNT","station_name":"Tanjung Barat","line":2,"is_transit":false,"time":3,"transit":false},{"transit":false,"is_transit":false,"station_id":"PSM","station_name":"Pasar Minggu","i_long":106.843999,"distance":2820,"line":2,"time":4,"i_lat":-6.2842400000000005},{"station_name":"Pasar Minggu Baru","time":2,"i_lat":-6.263214,"i_long":106.851577,"line":2,"transit":false,"station_id":"PSMB","is_transit":false,"distance":2380},{"station_name":"Duren Kalibata","distance":824,"station_id":"DRN","time":2,"i_lat":-6.255332,"line":2,"is_transit":false,"i_long":106.85449,"transit":false},{"transit":false,"is_transit":false,"line":2,"i_long":106.856607,"distance":1546,"station_name":"Cawang","station_id":"CW","time":3,"i_lat":-6.242512},{"station_id":"TEB","line":2,"transit":false,"i_long":106.857948,"time":2,"i_lat":-6.226659,"is_transit":false,"distance":1230,"station_name":"Tebet"},{"station_id":"MRI","i_long":106.84912,"line":2,"station_name":"Manggarai","transit":true,"is_transit":true,"time":4,"i_lat":-6.209883,"distance":2610},{"distance":1275,"transit":false,"station_name":"Matraman","i_long":106.858896,"line":1,"station_id":"MTR","time":2,"is_transit":false,"i_lat":-6.212485},{"transit":false,"station_name":"Jatinegara","distance":1377,"i_long":106.86807400000001,"is_transit":false,"time":8,"i_lat":-6.215091,"station_id":"JNG","line":1},{"i_lat":-6.2135,"line":1,"i_long":106.899548,"distance":3395,"transit":false,"station_id":"KLD","is_transit":false,"station_name":"Klender","time":3},{"station_name":"Buaran","station_id":"BUA","is_transit":false,"time":2,"i_lat":-6.215568,"i_long":106.922662,"transit":false,"distance":3100,"line":1},{"transit":false,"distance":1305,"station_id":"KLDB","i_long":106.939679,"time":1,"is_transit":false,"station_name":"Klenderbaru","line":1,"i_lat":-6.217455},{"station_name":"Cakung","is_transit":false,"distance":1385,"i_long":106.951283,"time":8,"line":1,"transit":false,"station_id":"CUK","i_lat":-6.219053},{"station_name":"Kranji","station_id":"KRI","transit":false,"is_transit":false,"i_lat":-6.224515,"distance":3097,"i_long":106.977657,"time":3,"line":1},{"transit":false,"line":1,"i_lat":-6.236616,"distance":2520,"station_name":"Bekasi","station_id":"BKS","time":4,"is_transit":false,"i_long":106.997013},{"station_name":"Bekasi Timur","distance":2368,"station_id":"BKST","i_lat":-6.248029,"i_long":107.016735,"transit":false,"is_transit":false,"time":2,"line":1},{"transit":false,"station_name":"Tambun","is_transit":false,"i_lat":-6.258864,"line":1,"station_id":"TB","i_long":107.055722,"time":7,"distance":4460},{"line":1,"station_id":"CIT","i_long":107.083084,"time":3,"transit":false,"station_name":"Cibitung","i_lat":-6.261877,"is_transit":false,"distance":3420},{"line":1,"time":2,"i_long":107.093313,"station_name":"Metland Telaga Murni","distance":2800,"transit":false,"station_id":"TLM","i_lat":-6.262938,"is_transit":false},{"time":4,"transit":false,"station_id":"CKR","is_transit":false,"distance":3689,"line":1,"i_long":107.144613,"station_name":"Cikarang","i_lat":-6.2553149999999995}],[{"transit":false,"distance":0,"station_name":"Pondok Cina","i_lat":-6.369073,"line":2,"station_id":"POC","is_transit":false,"time":0,"i_long":106.831114},{"transit":false,"station_name":"Univ. Indonesia","i_lat":-6.360749,"station_id":"UI","time":2,"is_transit":false,"line":2,"i_long":106.831474,"distance":1109},{"transit":false,"station_name":"Univ. Pancasila","is_transit":false,"time":3,"distance":2264,"i_lat":-6.339291,"line":2,"i_long":106.834175,"station_id":"UP"},{"line":2,"transit":false,"distance":1029,"is_transit":false,"time":2,"station_name":"Lenteng Agung","i_lat":-6.330363,"i_long":106.832616,"station_id":"LNA"},{"time":3,"i_lat":-6.3080680000000005,"transit":false,"distance":2671,"i_long":106.838896,"station_id":"TNT","line":2,"station_name":"Tanjung Barat","is_transit":false},{"station_id":"PSM","time":4,"station_name":"Pasar Minggu","distance":2820,"i_lat":-6.2842400000000005,"is_transit":false,"i_long":106.843999,"transit":false,"line":2},{"is_transit":false,"i_long":106.851577,"time":2,"distance":2380,"station_id":"PSMB","i_lat":-6.263214,"station_name":"Pasar Minggu Baru","line":2,"transit":false},{"transit":false,"i_long":106.85449,"line":2,"is_transit":false,"time":2,"station_id":"DRN","distance":824,"i_lat":-6.255332,"station_name":"Duren Kalibata"},{"time":3,"line":2,"transit":false,"i_long":106.856607,"distance":1546,"i_lat":-6.242512,"station_id":"CW","is_transit":false,"station_name":"Cawang"},{"i_long":106.857948,"station_name":"Tebet","is_transit":false,"time":2,"transit":false,"station_id":"TEB","distance":1230,"i_lat":-6.226659,"line":2},{"i_lat":-6.209883,"transit":true,"station_id":"MRI","distance":2610,"line":2,"time":4,"i_long":106.84912,"is_transit":true,"station_name":"Manggarai"},{"i_long":106.822649,"transit":false,"station_name":"Sudirman","time":4,"i_lat":-6.202263,"station_id":"SUD","distance":3186,"is_transit":false,"line":1},{"station_id":"SUDB","line":1,"is_transit":false,"i_long":106.819881,"station_name":"Sudirman Baru","time":1,"transit":false,"i_lat":-6.201433,"distance":280},{"station_name":"Karet","line":1,"i_long":106.816351,"transit":false,"i_lat":-6.20132,"is_transit":false,"time":1,"station_id":"KAT","distance":471},{"station_name":"Tanah Abang","i_long":106.811091,"is_transit":false,"line":1,"distance":2029,"station_id":"THB","i_lat":-6.185545,"time":5,"transit":false},{"station_id":"DU","i_long":106.800832,"distance":3632,"is_transit":false,"station_name":"Duri","line":1,"time":8,"transit":false,"i_lat":-6.155215},{"time":4,"i_lat":-6.144674,"transit":false,"i_long":106.79867,"distance":1230,"station_id":"AK","line":1,"station_name":"Angke","is_transit":false},{"i_lat":-6.132549,"line":4,"transit":true,"time":9,"station_name":"Kampung Bandan","is_transit":true,"distance":4102,"i_long":106.826365,"station_id":"KPB"},{"is_transit":false,"distance":1444,"i_long":106.836569,"transit":false,"station_name":"Rajawali","station_id":"RJW","time":3,"i_lat":-6.14505,"line":11},{"transit":false,"is_transit":false,"time":5,"i_lat":-6.161728,"i_long":106.839204,"line":11,"station_name":"Kemayoran","station_id":"KMO","distance":1901},{"i_lat":-6.174784,"station_id":"PSE","distance":1436,"is_transit":false,"time":4,"i_long":106.84368,"station_name":"Pasar Senen","line":11,"transit":false},{"transit":false,"is_transit":false,"i_long":106.850107,"line":11,"station_name":"Gang Sentiong","station_id":"GST","time":8,"distance":1567,"i_lat":-6.185975},{"line":11,"station_id":"KMT","is_transit":false,"i_long":106.855437,"distance":973,"transit":false,"station_name":"Kramat","time":1,"i_lat":-6.193792},{"transit":false,"station_name":"Pondok Jati","line":11,"is_transit":false,"station_id":"POK","i_lat":-6.209188,"i_long":106.861737,"time":2,"distance":1829},{"i_long":106.86807400000001,"line":1,"time":9,"distance":1236,"transit":true,"station_name":"Jatinegara","i_lat":-6.215091,"station_id":"JNG","is_transit":true},{"is_transit":false,"time":3,"station_id":"KLD","distance":3395,"i_lat":-6.2135,"i_long":106.899548,"transit":false,"station_name":"Klender","line":1},{"i_lat":-6.215568,"station_name":"Buaran","distance":3100,"line":1,"station_id":"BUA","transit":false,"i_long":106.922662,"is_transit":false,"time":2},{"distance":1305,"i_lat":-6.217455,"i_long":106.939679,"station_id":"KLDB","transit":false,"station_name":"Klenderbaru","line":1,"time":1,"is_transit":false},{"i_long":106.951283,"station_name":"Cakung","is_transit":false,"distance":1385,"station_id":"CUK","line":1,"transit":false,"i_lat":-6.219053,"time":8},{"time":3,"distance":3097,"transit":false,"i_lat":-6.224515,"line":1,"station_id":"KRI","station_name":"Kranji","is_transit":false,"i_long":106.977657},{"station_id":"BKS","distance":2520,"i_lat":-6.236616,"transit":false,"station_name":"Bekasi","is_transit":false,"time":4,"i_long":106.997013,"line":1},{"time":2,"station_id":"BKST","i_lat":-6.248029,"i_long":107.016735,"is_transit":false,"line":1,"station_name":"Bekasi Timur","distance":2368,"transit":false},{"station_id":"TB","is_transit":false,"i_long":107.055722,"distance":4460,"time":7,"station_name":"Tambun","line":1,"i_lat":-6.258864,"transit":false},{"i_lat":-6.261877,"line":1,"station_name":"Cibitung","station_id":"CIT","transit":false,"distance":3420,"i_long":107.083084,"is_transit":false,"time":3},{"station_name":"Metland Telaga Murni","time":2,"i_lat":-6.262938,"line":1,"distance":2800,"station_id":"TLM","is_transit":false,"i_long":107.093313,"transit":false},{"i_long":107.144613,"transit":false,"is_transit":false,"time":4,"i_lat":-6.2553149999999995,"station_id":"CKR","line":1,"station_name":"Cikarang","distance":3689}],[{"station_name":"Pondok Cina","distance":0,"is_transit":false,"time":0,"transit":false,"station_id":"POC","i_lat":-6.369073,"line":2,"i_long":106.831114},{"station_id":"UI","line":2,"is_transit":false,"distance":1109,"station_name":"Univ. Indonesia","i_long":106.831474,"transit":false,"time":2,"i_lat":-6.360749},{"distance":2264,"station_id":"UP","transit":false,"i_long":106.834175,"line":2,"time":3,"is_transit":false,"station_name":"Univ. Pancasila","i_lat":-6.339291},{"time":2,"i_lat":-6.330363,"is_transit":false,"distance":1029,"i_long":106.832616,"line":2,"transit":false,"station_name":"Lenteng Agung","station_id":"LNA"},{"i_lat":-6.3080680000000005,"time":3,"distance":2671,"line":2,"station_name":"Tanjung Barat","is_transit":false,"i_long":106.838896,"transit":false,"station_id":"TNT"},{"i_long":106.843999,"station_name":"Pasar Minggu","distance":2820,"time":4,"line":2,"i_lat":-6.2842400000000005,"transit":false,"station_id":"PSM","is_transit":false},{"distance":2380,"transit":false,"i_long":106.851577,"is_transit":false,"station_id":"PSMB","i_lat":-6.263214,"line":2,"station_name":"Pasar Minggu Baru","time":2},{"i_lat":-6.255332,"station_name":"Duren Kalibata","time":2,"is_transit":false,"station_id":"DRN","i_long":106.85449,"line":2,"transit":false,"distance":824},{"time":3,"distance":1546,"i_lat":-6.242512,"transit":false,"i_long":106.856607,"station_name":"Cawang","line":2,"station_id":"CW","is_transit":false},{"i_long":106.857948,"transit":false,"station_id":"TEB","is_transit":false,"station_name":"Tebet","line":2,"distance":1230,"time":2,"i_lat":-6.226659},{"station_id":"MRI","transit":false,"line":2,"time":4,"station_name":"Manggarai","distance":2610,"i_lat":-6.209883,"i_long":106.84912,"is_transit":false},{"station_name":"Cikini","i_long":106.840169,"transit":false,"i_lat":-6.198556,"is_transit":false,"station_id":"CKI","distance":1590,"line":2,"time":4},{"is_transit":false,"station_id":"GDD","line":2,"station_name":"Gondangdia","i_lat":-6.186295,"distance":1750,"i_long":106.832183,"time":3,"transit":false},{"line":2,"time":4,"distance":2015,"i_long":106.828284,"transit":false,"i_lat":-6.166716,"station_name":"Juanda","station_id":"JUA","is_transit":false},{"i_lat":-6.160725,"transit":false,"i_long":106.827103,"is_transit":false,"station_id":"SW","time":2,"line":2,"distance":1149,"station_name":"Sawah Besar"},{"station_name":"Manggabesar","time":2,"i_long":106.82482,"station_id":"MGB","is_transit":false,"line":2,"transit":false,"distance":906,"i_lat":-6.149769},{"transit":false,"time":2,"is_transit":false,"station_id":"JAY","distance":1080,"i_long":106.820901,"line":2,"i_lat":-6.141205,"station_name":"Jayakarta"},{"station_id":"JAKK","i_lat":-6.137569,"time":4,"i_long":106.812439,"distance":1264,"is_transit":true,"line":2,"transit":true,"station_name":"Jakarta Kota"},{"i_lat":-6.132549,"transit":true,"i_long":106.826365,"station_name":"Kampung Bandan","is_transit":true,"distance":1364,"time":3,"line":4,"station_id":"KPB"},{"time":3,"distance":1444,"i_lat":-6.14505,"line":11,"station_name":"Rajawali","is_transit":false,"i_long":106.836569,"transit":false,"station_id":"RJW"},{"i_lat":-6.161728,"i_long":106.839204,"line":11,"station_name":"Kemayoran","time":5,"station_id":"KMO","distance":1901,"transit":false,"is_transit":false},{"line":11,"station_id":"PSE","transit":false,"i_lat":-6.174784,"is_transit":false,"distance":1436,"station_name":"Pasar Senen","i_long":106.84368,"time":4},{"station_name":"Gang Sentiong","distance":1567,"time":8,"station_id":"GST","i_lat":-6.185975,"line":11,"is_transit":false,"i_long":106.850107,"transit":false},{"distance":973,"i_long":106.855437,"station_id":"KMT","station_name":"Kramat","transit":false,"i_lat":-6.193792,"time":1,"line":11,"is_transit":false},{"i_long":106.861737,"i_lat":-6.209188,"line":11,"time":2,"station_name":"Pondok Jati","station_id":"POK","distance":1829,"is_transit":false,"transit":false},{"distance":1236,"is_transit":true,"transit":true,"time":9,"station_name":"Jatinegara","i_long":106.86807400000001,"station_id":"JNG","line":1,"i_lat":-6.215091},{"i_long":106.899548,"is_transit":false,"line":1,"station_name":"Klender","time":3,"transit":false,"i_lat":-6.2135,"distance":3395,"station_id":"KLD"},{"station_id":"BUA","is_transit":false,"station_name":"Buaran","distance":3100,"i_lat":-6.215568,"line":1,"i_long":106.922662,"transit":false,"time":2},{"station_id":"KLDB","time":1,"transit":false,"i_long":106.939679,"distance":1305,"i_lat":-6.217455,"is_transit":false,"line":1,"station_name":"Klenderbaru"},{"station_name":"Cakung","distance":1385,"transit":false,"i_lat":-6.219053,"line":1,"is_transit":false,"i_long":106.951283,"station_id":"CUK","time":8},{"line":1,"is_transit":false,"time":3,"transit":false,"i_long":106.977657,"i_lat":-6.224515,"station_id":"KRI","station_name":"Kranji","distance":3097},{"station_id":"BKS","i_lat":-6.236616,"time":4,"transit":false,"is_transit":false,"distance":2520,"i_long":106.997013,"line":1,"station_name":"Bekasi"},{"transit":false,"is_transit":false,"i_lat":-6.248029,"i_long":107.016735,"time":2,"distance":2368,"station_id":"BKST","station_name":"Bekasi Timur","line":1},{"time":7,"distance":4460,"station_name":"Tambun","i_long":107.055722,"i_lat":-6.258864,"transit":false,"station_id":"TB","is_transit":false,"line":1},{"is_transit":false,"line":1,"time":3,"transit":false,"distance":3420,"i_lat":-6.261877,"station_id":"CIT","station_name":"Cibitung","i_long":107.083084},{"i_lat":-6.262938,"line":1,"transit":false,"time":2,"distance":2800,"i_long":107.093313,"station_name":"Metland Telaga Murni","is_transit":false,"station_id":"TLM"},{"station_id":"CKR","i_long":107.144613,"transit":false,"station_name":"Cikarang","time":4,"distance":3689,"is_transit":false,"i_lat":-6.2553149999999995,"line":1}]]}