{"data":[[{"station_name":"Pondok Cina","time":0,"i_lat":-6.369073,"is_transit":false,"distance":0,"station_id":"POC","i_long":106.831114,"line":2,"transit":false},{"station_id":"UI","station_name":"Univ. Indonesia","time":2,"distance":1109,"i_long":106.831474,"line":2,"transit":false,"is_transit":false,"i_lat":-6.360749},{"time":3,"station_id":"UP","distance":2264,"line":2,"transit":false,"i_lat":-6.339291,"station_name":"Univ. Pancasila","i_long":106.834175,"is_transit":false},{"i_lat":-6.330363,"transit":false,"line":2,"is_transit":false,"station_name":"Lenteng Agung","time":2,"distance":1029,"station_id":"LNA","i_long":106.832616},{"i_lat":-6.3080680000000005,"line":2,"is_transit":false,"distance":2671,"station_id":"TNT","time":3,"station_name":"Tanjung Barat","i_long":106.838896,"transit":false},{"is_transit":false,"station_id":"PSM","i_long":106.843999,"transit":false,"line":2,"distance":2820,"time":4,"i_lat":-6.2842400000000005,"station_name":"Pasar Minggu"},{"is_transit":false,"distance":2380,"time":2,"i_long":106.851577,"station_name":"Pasar Minggu Baru","line":2,"station_id":"PSMB","transit":false,"i_lat":-6.263214},{"distance":824,"station_name":"Duren Kalibata","i_lat":-6.255332,"line":0,"i_long":106.85449,"time":2,"is_transit":false,"station_id":"DRN","transit":false},{"transit":false,"station_id":"CW","line":0,"station_name":"Cawang","time":3,"i_lat":-6.242512,"is_transit":false,"i_long":106.856607,"distance":1546},{"station_id":"TEB","is_transit":false,"station_name":"Tebet","i_lat":-6.226659,"distance":1230,"transit":false,"i_long":106.857948,"time":2,"line":2},{"station_id":"MRI","i_long":106.84912,"line":0,"is_transit":true,"i_lat":-6.209883,"time":4,"station_name":"Manggarai","distance":2610,"transit":true},{"station_name":"Sudirman","distance":3186,"line":1,"is_transit":false,"station_id":"SUD","time":4,"transit":false,"i_long":106.822649,"i_lat":-6.202263}],[{"station_name":"Pondok Cina","transit":false,"i_long":106.831114,"is_transit":false,"station_id":"POC","distance":0,"i_lat":-6.369073,"time":0,"line":2},{"i_lat":-6.360749,"distance":1109,"time":2,"i_long":106.831474,"line":2,"station_name":"Univ. Indonesia","is_transit":false,"station_id":"UI","transit":false},{"is_transit":false,"line":2,"station_name":"Univ. Pancasila","i_lat":-6.339291,"transit":false,"time":3,"i_long":106.834175,"distance":2264,"station_id":"UP"},{"line":2,"transit":false,"i_long":106.832616,"distance":1029,"is_transit":false,"station_id":"LNA","station_name":"Lenteng Agung","i_lat":-6.330363,"time":2},{"i_long":106.838896,"transit":false,"station_id":"TNT","time":3,"i_lat":-6.3080680000000005,"line":2,"is_transit":false,"station_name":"Tanjung Barat","distance":2671},{"station_id":"PSM","station_name":"Pasar Minggu","time":4,"i_lat":-6.2842400000000005,"distance":2820,"is_transit":false,"transit":false,"i_long":106.843999,"line":2},{"i_long":106.851577,"station_name":"Pasar Minggu Baru","line":2,"i_lat":-6.263214,"is_transit":false,"station_id":"PSMB","distance":2380,"transit":false,"time":2},{"time":2,"station_name":"Duren Kalibata","distance":824,"transit":false,"i_long":106.85449,"line":0,"i_lat":-6.255332,"is_transit":false,"station_id":"DRN"},{"i_long":106.856607,"station_id":"CW","i_lat":-6.242512,"station_name":"Cawang","is_transit":false,"transit":false,"distance":1546,"time":3,"line":0},{"transit":false,"distance":1230,"station_id":"TEB","time":2,"is_transit":false,"i_long":106.857948,"line":2,"station_name":"Tebet","i_lat":-6.226659},{"transit":true,"time":4,"station_id":"MRI","i_lat":-6.209883,"i_long":106.84912,"line":0,"is_transit":true,"station_name":"Manggarai","distance":2610},{"time":4,"i_lat":-6.198556,"station_name":"Cikini","is_transit":false,"distance":1590,"station_id":"CKI","transit":false,"i_long":106.840169,"line":0},{"transit":false,"station_name":"Gondangdia","station_id":"GDD","i_long":106.832183,"is_transit":false,"distance":1750,"i_lat":-6.186295,"time":3,"line":2},{"distance":2015,"time":4,"station_id":"JUA","is_transit":false,"i_lat":-6.166716,"station_name":"Juanda","line":2,"i_long":106.828284,"transit":false},{"time":2,"is_transit":false,"transit":false,"i_long":106.827103,"station_name":"Sawah Besar","station_id":"SW","i_lat":-6.160725,"distance":1149,"line":2},{"line":2,"i_long":106.82482,"station_id":"MGB","i_lat":-6.149769,"station_name":"Manggabesar","is_transit":false,"distance":906,"transit":false,"time":2},{"i_lat":-6.141205,"distance":1080,"i_long":106.820901,"station_name":"Jayakarta","transit":false,"time":2,"line":7,"is_transit":false,"station_id":"JAY"},{"is_transit":true,"line":0,"distance":1264,"i_long":106.812439,"station_name":"Jakarta Kota","transit":true,"station_id":"JAKK","time":4,"i_lat":-6.137569},{"is_transit":true,"i_lat":-6.132549,"line":0,"distance":1364,"station_id":"KPB","transit":false,"station_name":"Kampung Bandan","time":3,"i_long":106.826365},{"i_long":106.79867,"station_name":"Angke","is_transit":false,"distance":4102,"transit":false,"i_lat":-6.144674,"line":0,"time":9,"station_id":"AK"},{"station_name":"Duri","station_id":"DU","transit":true,"time":4,"i_long":106.800832,"i_lat":-6.155215,"line":1,"distance":1230,"is_transit":true},{"line":1,"is_transit":true,"station_id":"THB","time":8,"distance":3632,"i_lat":-6.185545,"station_name":"Tanah Abang","transit":false,"i_long":106.811091},{"station_name":"Karet","distance":2029,"is_transit":false,"station_id":"KAT","transit":false,"line":1,"i_long":106.816351,"time":5,"i_lat":-6.20132},{"distance":471,"transit":false,"line":1,"station_name":"Sudirman Baru","is_transit":false,"i_lat":-6.201433,"i_long":106.819881,"station_id":"SUDB","time":1},{"line":1,"station_name":"Sudirman","is_transit":false,"distance":280,"transit":false,"time":1,"station_id":"SUD","i_lat":-6.202263,"i_long":106.822649}],[{"line":2,"is_transit":false,"transit":false,"distance":0,"station_id":"POC","i_lat":-6.369073,"time":0,"station_name":"Pondok Cina","i_long":106.831114},{"is_transit":false,"station_id":"UI","i_long":106.831474,"distance":1109,"time":2,"line":2,"transit":false,"i_lat":-6.360749,"station_name":"Univ. Indonesia"},{"station_name":"Univ. Pancasila","transit":false,"time":3,"i_lat":-6.339291,"i_long":106.834175,"line":2,"distance":2264,"station_id":"UP","is_transit":false},{"i_long":106.832616,"station_id":"LNA","station_name":"Lenteng Agung","distance":1029,"is_transit":false,"transit":false,"time":2,"i_lat":-6.330363,"line":2},{"distance":2671,"station_name":"Tanjung Barat","i_long":106.838896,"transit":false,"is_transit":false,"i_lat":-6.3080680000000005,"line":2,"station_id":"TNT","time":3},{"i_lat":-6.2842400000000005,"transit":false,"station_name":"Pasar Minggu","line":2,"is_transit":false,"station_id":"PSM","i_long":106.843999,"distance":2820,"time":4},{"line":2,"time":2,"i_lat":-6.263214,"station_name":"Pasar Minggu Baru","transit":false,"is_transit":false,"i_long":106.851577,"distance":2380,"station_id":"PSMB"},{"distance":824,"station_id":"DRN","station_name":"Duren Kalibata","time":2,"line":0,"i_long":106.85449,"transit":false,"i_lat":-6.255332,"is_transit":false},{"distance":1546,"time":3,"is_transit":false,"i_lat":-6.242512,"i_long":106.856607,"station_name":"Cawang","transit":false,"station_id":"CW","line":0},{"transit":false,"i_lat":-6.226659,"line":2,"is_transit":false,"distance":1230,"station_id":"TEB","i_long":106.857948,"station_name":"Tebet","time":2},{"i_lat":-6.209883,"line":0,"is_transit":true,"i_long":106.84912,"distance":2610,"time":4,"station_id":"MRI","transit":true,"station_name":"Manggarai"},{"station_name":"Matraman","is_transit":false,"distance":1275,"station_id":"MTR","i_long":106.858896,"line":1,"transit":false,"time":2,"i_lat":-6.212485},{"station_id":"JNG","transit":true,"i_long":106.86807400000001,"line":0,"time":8,"i_lat":-6.215091,"station_name":"Jatinegara","is_transit":true,"distance":1377},{"time":2,"line":11,"transit":false,"i_lat":-6.209188,"station_name":"Pondok Jati","i_long":106.861737,"is_transit":false,"station_id":"POK","distance":1236},{"i_lat":-6.193792,"station_id":"KMT","distance":1829,"station_name":"Kramat","time":2,"i_long":106.855437,"transit":false,"is_transit":false,"line":11},{"distance":973,"time":1,"i_long":106.850107,"line":11,"i_lat":-6.185975,"station_id":"GST","is_transit":false,"transit":false,"station_name":"Gang Sentiong"},{"time":8,"i_long":106.84368,"station_id":"PSE","line":11,"station_name":"Pasar Senen","is_transit":false,"transit":false,"i_lat":-6.174784,"distance":1567},{"distance":1436,"station_id":"KMO","i_lat":-6.161728,"transit":false,"station_name":"Kemayoran","i_long":106.839204,"line":11,"is_transit":false,"time":4},{"line":11,"distance":1901,"time":5,"is_transit":false,"i_lat":-6.14505,"i_long":106.836569,"station_name":"Rajawali","station_id":"RJW","transit":false},{"is_transit":true,"i_lat":-6.132549,"station_name":"Kampung Bandan","station_id":"KPB","transit":true,"line":0,"distance":1444,"i_long":106.826365,"time":3},{"transit":false,"distance":4102,"time":9,"i_lat":-6.144674,"station_id":"AK","line":0,"i_long":106.79867,"station_name":"Angke","is_transit":false},{"transit":true,"station_id":"DU","i_long":106.800832,"is_transit":true,"distance":1230,"station_name":"Duri","line":1,"time":4,"i_lat":-6.155215},{"distance":3632,"transit":false,"i_lat":-6.185545,"station_id":"THB","line":1,"time":8,"is_transit":true,"station_name":"Tanah Abang","i_long":106.811091},{"station_id":"KAT","distance":2029,"i_long":106.816351,"is_transit":false,"time":5,"i_lat":-6.20132,"line":1,"station_name":"Karet","transit":false},{"line":1,"distance":471,"station_name":"Sudirman Baru","transit":false,"i_lat":-6.201433,"station_id":"SUDB","time":1,"i_long":106.819881,"is_transit":false},{"line":1,"transit":false,"is_transit":false,"station_name":"Sudirman","i_lat":-6.202263,"station_id":"SUD","time":1,"i_long":106.822649,"distance":280}]]}