{"data":[[{"distance":0,"station_name":"Pondok Cina","is_transit":false,"station_id":"POC","time":0,"i_lat":-6.369073,"i_long":106.831114,"transit":false,"line":2},{"station_id":"UI","transit":false,"i_long":106.831474,"time":2,"distance":1109,"line":2,"station_name":"Univ. Indonesia","i_lat":-6.360749,"is_transit":false},{"transit":false,"station_name":"Univ. Pancasila","is_transit":false,"line":2,"station_id":"UP","time":3,"i_lat":-6.339291,"distance":2264,"i_long":106.834175},{"line":2,"i_long":106.832616,"station_name":"Lenteng Agung","is_transit":false,"time":2,"i_lat":-6.330363,"transit":false,"station_id":"LNA","distance":1029},{"station_name":"Tanjung Barat","station_id":"TNT","is_transit":false,"distance":2671,"time":3,"transit":false,"i_lat":-6.3080680000000005,"i_long":106.838896,"line":2},{"is_transit":false,"line":2,"transit":false,"station_id":"PSM","distance":2820,"time":4,"station_name":"Pasar Minggu","i_lat":-6.2842400000000005,"i_long":106.843999},{"i_lat":-6.263214,"time":2,"transit":false,"station_name":"Pasar Minggu Baru","i_long":106.851577,"line":2,"is_transit":false,"distance":2380,"station_id":"PSMB"},{"station_id":"DRN","station_name":"Duren Kalibata","i_lat":-6.255332,"is_transit":false,"distance":824,"time":2,"i_long":106.85449,"transit":false,"line":0},{"station_id":"CW","time":3,"transit":false,"line":0,"distance":1546,"i_long":106.856607,"is_transit":false,"station_name":"Cawang","i_lat":-6.242512},{"line":2,"i_lat":-6.226659,"station_id":"TEB","is_transit":false,"transit":false,"i_long":106.857948,"station_name":"Tebet","time":2,"distance":1230},{"i_lat":-6.209883,"distance":2610,"line":0,"is_transit":true,"station_id":"MRI","time":4,"transit":true,"i_long":106.84912,"station_name":"Manggarai"},{"distance":1275,"station_name":"Matraman","i_long":106.858896,"transit":false,"line":1,"i_lat":-6.212485,"time":2,"station_id":"MTR","is_transit":false},{"is_transit":true,"time":8,"i_lat":-6.215091,"distance":1377,"i_long":106.86807400000001,"station_id":"JNG","transit":false,"line":0,"station_name":"Jatinegara"},{"i_long":106.899548,"station_name":"Klender","time":3,"line":1,"i_lat":-6.2135,"transit":false,"is_transit":false,"station_id":"KLD","distance":3395},{"transit":false,"time":2,"line":0,"i_lat":-6.215568,"station_id":"BUA","i_long":106.922662,"is_transit":false,"station_name":"Buaran","distance":3100},{"i_long":106.939679,"is_transit":false,"station_name":"Klenderbaru","distance":1305,"time":1,"line":1,"station_id":"KLDB","transit":false,"i_lat":-6.217455},{"time":8,"station_name":"Cakung","i_lat":-6.219053,"distance":1385,"i_long":106.951283,"line":0,"is_transit":false,"transit":false,"station_id":"CUK"},{"station_name":"Kranji","transit":false,"is_transit":false,"i_lat":-6.224515,"line":1,"distance":3097,"time":3,"station_id":"KRI","i_long":106.977657},{"is_transit":false,"time":4,"distance":2520,"station_name":"Bekasi","i_long":106.997013,"transit":false,"i_lat":-6.236616,"station_id":"BKS","line":0},{"station_name":"Bekasi Timur","station_id":"BKST","is_transit":false,"distance":2368,"transit":false,"i_lat":-6.248029,"i_long":107.016735,"line":0,"time":2},{"is_transit":false,"transit":false,"distance":4460,"i_long":107.055722,"line":1,"station_name":"Tambun","station_id":"TB","time":7,"i_lat":-6.258864},{"time":3,"transit":false,"distance":3420,"i_lat":-6.261877,"is_transit":false,"line":0,"i_long":107.083084,"station_name":"Cibitung","station_id":"CIT"},{"time":2,"station_name":"Metland Telaga Murni","i_long":107.093313,"distance":2800,"station_id":"TLM","transit":false,"i_lat":-6.262938,"line":1,"is_transit":false}],[{"transit":false,"i_lat":-6.369073,"time":0,"station_name":"Pondok Cina","is_transit":false,"i_long":106.831114,"line":2,"distance":0,"station_id":"POC"},{"time":2,"i_lat":-6.360749,"i_long":106.831474,"distance":1109,"station_id":"UI","transit":false,"line":2,"station_name":"Univ. Indonesia","is_transit":false},{"station_id":"UP","distance":2264,"line":2,"time":3,"i_long":106.834175,"station_name":"Univ. Pancasila","transit":false,"i_lat":-6.339291,"is_transit":false},{"station_name":"Lenteng Agung","i_lat":-6.330363,"i_long":106.832616,"distance":1029,"station_id":"LNA","line":2,"is_transit":false,"time":2,"transit":false},{"time":3,"is_transit":false,"transit":false,"station_name":"Tanjung Barat","station_id":"TNT","i_lat":-6.3080680000000005,"line":2,"distance":2671,"i_long":106.838896},{"station_id":"PSM","i_lat":-6.2842400000000005,"line":2,"is_transit":false,"time":4,"station_name":"Pasar Minggu","distance":2820,"i_long":106.843999,"transit":false},{"station_id":"PSMB","transit":false,"station_name":"Pasar Minggu Baru","time":2,"distance":2380,"is_transit":false,"i_long":106.851577,"line":2,"i_lat":-6.263214},{"distance":824,"station_name":"Duren Kalibata","station_id":"DRN","time":2,"transit":false,"i_lat":-6.255332,"line":0,"is_transit":false,"i_long":106.85449},{"distance":1546,"i_lat":-6.242512,"i_long":106.856607,"line":0,"is_transit":false,"station_name":"Cawang","station_id":"CW","time":3,"transit":false},{"i_long":106.857948,"line":2,"distance":1230,"station_id":"TEB","station_name":"Tebet","time":2,"is_transit":false,"transit":false,"i_lat":-6.226659},{"transit":true,"i_long":106.84912,"i_lat":-6.209883,"line":0,"time":4,"is_transit":true,"station_id":"MRI","station_name":"Manggarai","distance":2610},{"station_id":"SUD","transit":false,"distance":3186,"station_name":"Sudirman","is_transit":false,"time":4,"line":1,"i_long":106.822649,"i_lat":-6.202263},{"i_lat":-6.201433,"i_long":106.819881,"time":1,"transit":false,"is_transit":false,"line":1,"station_id":"SUDB","station_name":"Sudirman Baru","distance":280},{"line":1,"station_name":"Karet","time":1,"station_id":"KAT","transit":false,"i_long":106.816351,"i_lat":-6.20132,"is_transit":false,"distance":471},{"is_transit":true,"distance":2029,"transit":false,"i_lat":-6.185545,"line":1,"station_id":"THB","station_name":"Tanah Abang","i_long":106.811091,"time":5},{"is_transit":true,"time":8,"station_id":"DU","i_lat":-6.155215,"station_name":"Duri","distance":3632,"transit":true,"i_long":106.800832,"line":1},{"station_name":"Angke","is_transit":false,"transit":false,"time":4,"line":0,"station_id":"AK","i_lat":-6.144674,"distance":1230,"i_long":106.79867},{"i_long":106.826365,"station_id":"KPB","transit":true,"station_name":"Kampung Bandan","i_lat":-6.132549,"time":9,"line":0,"is_transit":true,"distance":4102},{"transit":false,"station_name":"Rajawali","time":3,"distance":1444,"i_lat":-6.14505,"is_transit":false,"line":11,"station_id":"RJW","i_long":106.836569},{"line":11,"distance":1901,"station_id":"KMO","transit":false,"i_long":106.839204,"i_lat":-6.161728,"is_transit":false,"time":5,"station_name":"Kemayoran"},{"station_id":"PSE","i_lat":-6.174784,"line":11,"i_long":106.84368,"station_name":"Pasar Senen","is_transit":false,"time":4,"distance":1436,"transit":false},{"station_name":"Gang Sentiong","is_transit":false,"time":8,"distance":1567,"i_lat":-6.185975,"i_long":106.850107,"transit":false,"line":11,"station_id":"GST"},{"station_id":"KMT","is_transit":false,"time":1,"transit":false,"station_name":"Kramat","distance":973,"i_lat":-6.193792,"i_long":106.855437,"line":11},{"is_transit":false,"transit":false,"i_lat":-6.209188,"i_long":106.861737,"station_id":"POK","station_name":"Pondok Jati","line":11,"time":2,"distance":1829},{"transit":true,"i_long":106.86807400000001,"station_name":"Jatinegara","station_id":"JNG","is_transit":true,"distance":1236,"line":0,"time":9,"i_lat":-6.215091},{"transit":false,"is_transit":false,"station_id":"KLD","time":3,"i_lat":-6.2135,"distance":3395,"station_name":"Klender","i_long":106.899548,"line":1},{"i_lat":-6.215568,"is_transit":false,"i_long":106.922662,"station_id":"BUA","distance":3100,"time":2,"transit":false,"station_name":"Buaran","line":0},{"distance":1305,"line":1,"time":1,"station_name":"Klenderbaru","i_lat":-6.217455,"station_id":"KLDB","is_transit":false,"transit":false,"i_long":106.939679},{"station_name":"Cakung","time":8,"is_transit":false,"station_id":"CUK","distance":1385,"i_long":106.951283,"line":0,"i_lat":-6.219053,"transit":false},{"line":1,"i_lat":-6.224515,"distance":3097,"station_id":"KRI","station_name":"Kranji","is_transit":false,"i_long":106.977657,"time":3,"transit":false},{"distance":2520,"station_id":"BKS","time":4,"is_transit":false,"transit":false,"i_long":106.997013,"i_lat":-6.236616,"line":0,"station_name":"Bekasi"},{"distance":2368,"i_lat":-6.248029,"line":0,"is_transit":false,"station_id":"BKST","i_long":107.016735,"time":2,"transit":false,"station_name":"Bekasi Timur"},{"time":7,"distance":4460,"is_transit":false,"i_lat":-6.258864,"line":1,"i_long":107.055722,"station_id":"TB","station_name":"Tambun","transit":false},{"transit":false,"distance":3420,"i_lat":-6.261877,"time":3,"station_name":"Cibitung","line":0,"station_id":"CIT","i_long":107.083084,"is_transit":false},{"transit":false,"line":1,"is_transit":false,"time":2,"station_name":"Metland Telaga Murni","i_long":107.093313,"distance":2800,"i_lat":-6.262938,"station_id":"TLM"}],[{"i_long":106.831114,"is_transit":false,"transit":false,"station_id":"POC","distance":0,"i_lat":-6.369073,"time":0,"station_name":"Pondok Cina","line":2},{"transit":false,"station_id":"UI","station_name":"Univ. Indonesia","time":2,"distance":1109,"line":2,"i_lat":-6.360749,"is_transit":false,"i_long":106.831474},{"line":2,"i_lat":-6.339291,"is_transit":false,"i_long":106.834175,"station_name":"Univ. Pancasila","time":3,"distance":2264,"station_id":"UP","transit":false},{"station_id":"LNA","time":2,"is_transit":false,"distance":1029,"station_name":"Lenteng Agung","i_long":106.832616,"transit":false,"i_lat":-6.330363,"line":2},{"line":2,"i_long":106.838896,"is_transit":false,"distance":2671,"time":3,"transit":false,"station_id":"TNT","station_name":"Tanjung Barat","i_lat":-6.3080680000000005},{"time":4,"is_transit":false,"station_id":"PSM","station_name":"Pasar Minggu","transit":false,"i_lat":-6.2842400000000005,"distance":2820,"line":2,"i_long":106.843999},{"transit":false,"line":2,"i_long":106.851577,"station_name":"Pasar Minggu Baru","time":2,"distance":2380,"i_lat":-6.263214,"station_id":"PSMB","is_transit":false},{"i_long":106.85449,"line":0,"station_name":"Duren Kalibata","distance":824,"i_lat":-6.255332,"transit":false,"station_id":"DRN","is_transit":false,"time":2},{"transit":false,"distance":1546,"station_name":"Cawang","i_long":106.856607,"line":0,"time":3,"is_transit":false,"i_lat":-6.242512,"station_id":"CW"},{"station_name":"Tebet","transit":false,"station_id":"TEB","distance":1230,"i_long":106.857948,"time":2,"i_lat":-6.226659,"line":2,"is_transit":false},{"line":0,"transit":true,"i_long":106.84912,"is_transit":true,"distance":2610,"station_name":"Manggarai","i_lat":-6.209883,"station_id":"MRI","time":4},{"distance":1590,"i_long":106.840169,"is_transit":false,"time":4,"transit":false,"line":0,"station_name":"Cikini","i_lat":-6.198556,"station_id":"CKI"},{"station_id":"GDD","distance":1750,"station_name":"Gondangdia","transit":false,"i_long":106.832183,"i_lat":-6.186295,"line":2,"time":3,"is_transit":false},{"is_transit":false,"station_name":"Juanda","i_long":106.828284,"i_lat":-6.166716,"transit":false,"line":2,"time":4,"distance":2015,"station_id":"JUA"},{"station_name":"Sawah Besar","i_long":106.827103,"time":2,"distance":1149,"line":2,"is_transit":false,"i_lat":-6.160725,"station_id":"SW","transit":false},{"distance":906,"i_lat":-6.149769,"time":2,"station_name":"Manggabesar","i_long":106.82482,"station_id":"MGB","line":2,"is_transit":false,"transit":false},{"i_lat":-6.141205,"is_transit":false,"time":2,"transit":false,"line":7,"station_name":"Jayakarta","distance":1080,"station_id":"JAY","i_long":106.820901},{"transit":true,"time":4,"line":0,"distance":1264,"station_id":"JAKK","station_name":"Jakarta Kota","is_transit":true,"i_lat":-6.137569,"i_long":106.812439},{"station_name":"Kampung Bandan","transit":true,"station_id":"KPB","time":3,"distance":1364,"i_lat":-6.132549,"i_long":106.826365,"line":0,"is_transit":true},{"distance":1444,"i_lat":-6.14505,"line":11,"transit":false,"time":3,"i_long":106.836569,"station_name":"Rajawali","station_id":"RJW","is_transit":false},{"time":5,"distance":1901,"i_lat":-6.161728,"is_transit":false,"i_long":106.839204,"station_id":"KMO","transit":false,"line":11,"station_name":"Kemayoran"},{"i_lat":-6.174784,"i_long":106.84368,"station_id":"PSE","station_name":"Pasar Senen","line":11,"is_transit":false,"time":4,"distance":1436,"transit":false},{"station_name":"Gang Sentiong","distance":1567,"transit":false,"i_lat":-6.185975,"i_long":106.850107,"line":11,"time":8,"station_id":"GST","is_transit":false},{"transit":false,"distance":973,"i_long":106.855437,"is_transit":false,"i_lat":-6.193792,"station_name":"Kramat","station_id":"KMT","time":1,"line":11},{"time":2,"station_name":"Pondok Jati","transit":false,"line":11,"i_long":106.861737,"i_lat":-6.209188,"station_id":"POK","is_transit":false,"distance":1829},{"line":0,"i_lat":-6.215091,"station_id":"JNG","time":9,"is_transit":true,"i_long":106.86807400000001,"station_name":"Jatinegara","distance":1236,"transit":true},{"i_lat":-6.2135,"station_name":"Klender","line":1,"station_id":"KLD","transit":false,"i_long":106.899548,"is_transit":false,"distance":3395,"time":3},{"line":0,"transit":false,"i_lat":-6.215568,"station_id":"BUA","is_transit":false,"station_name":"Buaran","time":2,"i_long":106.922662,"distance":3100},{"i_long":106.939679,"transit":false,"time":1,"station_id":"KLDB","station_name":"Klenderbaru","i_lat":-6.217455,"is_transit":false,"line":1,"distance":1305},{"station_name":"Cakung","transit":false,"i_long":106.951283,"time":8,"is_transit":false,"line":0,"i_lat":-6.219053,"station_id":"CUK","distance":1385},{"is_transit":false,"station_id":"KRI","station_name":"Kranji","line":1,"i_lat":-6.224515,"i_long":106.977657,"distance":3097,"transit":false,"time":3},{"station_id":"BKS","station_name":"Bekasi","i_lat":-6.236616,"is_transit":false,"transit":false,"line":0,"distance":2520,"time":4,"i_long":106.997013},{"transit":false,"i_long":107.016735,"station_id":"BKST","distance":2368,"i_lat":-6.248029,"line":0,"is_transit":false,"time":2,"station_name":"Bekasi Timur"},{"distance":4460,"transit":false,"time":7,"is_transit":false,"i_lat":-6.258864,"i_long":107.055722,"line":1,"station_name":"Tambun","station_id":"TB"},{"transit":false,"is_transit":false,"station_id":"CIT","i_long":107.083084,"i_lat":-6.261877,"station_name":"Cibitung","line":0,"time":3,"distance":3420},{"time":2,"i_lat":-6.262938,"transit":false,"i_long":107.093313,"is_transit":false,"distance":2800,"station_id":"TLM","station_name":"Metland Telaga Murni","line":1}]]}