{"data":[[{"i_lat":-6.369073,"i_long":106.831114,"transit":false,"station_name":"Pondok Cina","time":0,"distance":0,"line":2,"is_transit":false,"station_id":"POC"},{"station_name":"Univ. Indonesia","i_long":106.831474,"is_transit":false,"i_lat":-6.360749,"time":2,"transit":false,"distance":1109,"line":2,"station_id":"UI"},{"i_long":106.834175,"is_transit":false,"distance":2264,"i_lat":-6.339291,"station_name":"Univ. Pancasila","time":3,"transit":false,"station_id":"UP","line":2},{"transit":false,"time":2,"i_lat":-6.330363,"line":2,"is_transit":false,"i_long":106.832616,"station_name":"Lenteng Agung","station_id":"LNA","distance":1029},{"line":2,"time":3,"is_transit":false,"distance":2671,"transit":false,"i_long":106.838896,"station_name":"Tanjung Barat","station_id":"TNT","i_lat":-6.3080680000000005},{"transit":false,"time":4,"i_lat":-6.2842400000000005,"i_long":106.843999,"distance":2820,"station_id":"PSM","is_transit":false,"line":2,"station_name":"Pasar Minggu"},{"is_transit":false,"i_lat":-6.263214,"station_name":"Pasar Minggu Baru","i_long":106.851577,"station_id":"PSMB","transit":false,"line":2,"distance":2380,"time":2},{"station_name":"Duren Kalibata","transit":false,"station_id":"DRN","line":2,"distance":824,"i_long":106.85449,"is_transit":false,"time":2,"i_lat":-6.255332},{"station_name":"Cawang","time":3,"i_lat":-6.242512,"i_long":106.856607,"transit":false,"station_id":"CW","line":2,"distance":1546,"is_transit":false},{"i_lat":-6.226659,"transit":false,"distance":1230,"i_long":106.857948,"line":2,"time":2,"station_name":"Tebet","station_id":"TEB","is_transit":false},{"transit":true,"station_id":"MRI","is_transit":true,"i_lat":-6.209883,"time":4,"distance":2610,"i_long":106.84912,"station_name":"Manggarai","line":2},{"i_lat":-6.212485,"station_name":"Matraman","distance":1275,"i_long":106.858896,"line":1,"time":2,"is_transit":false,"transit":false,"station_id":"MTR"},{"time":8,"station_id":"JNG","distance":1377,"station_name":"Jatinegara","i_long":106.86807400000001,"transit":true,"is_transit":true,"line":1,"i_lat":-6.215091},{"station_name":"Pondok Jati","line":11,"is_transit":false,"distance":1236,"transit":false,"station_id":"POK","i_lat":-6.209188,"time":2,"i_long":106.861737},{"station_name":"Kramat","time":2,"distance":1829,"i_lat":-6.193792,"is_transit":false,"line":11,"station_id":"KMT","i_long":106.855437,"transit":false},{"station_name":"Gang Sentiong","i_long":106.850107,"line":11,"station_id":"GST","is_transit":false,"i_lat":-6.185975,"time":1,"transit":false,"distance":973},{"line":11,"transit":false,"distance":1567,"i_lat":-6.174784,"station_name":"Pasar Senen","is_transit":false,"time":8,"station_id":"PSE","i_long":106.84368},{"distance":1436,"i_long":106.839204,"line":11,"i_lat":-6.161728,"station_name":"Kemayoran","transit":false,"station_id":"KMO","is_transit":false,"time":4},{"station_name":"Rajawali","i_lat":-6.14505,"time":5,"line":11,"transit":false,"i_long":106.836569,"station_id":"RJW","is_transit":false,"distance":1901}],[{"station_id":"POC","i_lat":-6.369073,"transit":false,"i_long":106.831114,"time":0,"distance":0,"station_name":"Pondok Cina","is_transit":false,"line":2},{"transit":false,"station_name":"Univ. Indonesia","line":2,"time":2,"is_transit":false,"i_long":106.831474,"distance":1109,"station_id":"UI","i_lat":-6.360749},{"line":2,"transit":false,"station_id":"UP","distance":2264,"i_long":106.834175,"station_name":"Univ. Pancasila","is_transit":false,"time":3,"i_lat":-6.339291},{"is_transit":false,"station_id":"LNA","i_lat":-6.330363,"line":2,"station_name":"Lenteng Agung","transit":false,"time":2,"distance":1029,"i_long":106.832616},{"i_long":106.838896,"transit":false,"distance":2671,"line":2,"station_name":"Tanjung Barat","is_transit":false,"i_lat":-6.3080680000000005,"time":3,"station_id":"TNT"},{"time":4,"distance":2820,"i_lat":-6.2842400000000005,"is_transit":false,"transit":false,"i_long":106.843999,"station_name":"Pasar Minggu","station_id":"PSM","line":2},{"station_id":"PSMB","i_lat":-6.263214,"i_long":106.851577,"station_name":"Pasar Minggu Baru","time":2,"transit":false,"distance":2380,"line":2,"is_transit":false},{"is_transit":false,"i_lat":-6.255332,"time":2,"station_name":"Duren Kalibata","station_id":"DRN","transit":false,"line":2,"distance":824,"i_long":106.85449},{"transit":false,"station_id":"CW","distance":1546,"i_long":106.856607,"is_transit":false,"time":3,"line":2,"station_name":"Cawang","i_lat":-6.242512},{"station_name":"Tebet","line":2,"transit":false,"is_transit":false,"distance":1230,"i_lat":-6.226659,"station_id":"TEB","i_long":106.857948,"time":2},{"distance":2610,"station_id":"MRI","i_lat":-6.209883,"station_name":"Manggarai","transit":true,"time":4,"i_long":106.84912,"line":2,"is_transit":true},{"is_transit":false,"distance":3186,"i_long":106.822649,"station_name":"Sudirman","station_id":"SUD","time":4,"i_lat":-6.202263,"line":1,"transit":false},{"transit":false,"is_transit":false,"distance":280,"line":1,"station_id":"SUDB","i_lat":-6.201433,"i_long":106.819881,"time":1,"station_name":"Sudirman Baru"},{"time":1,"line":1,"distance":471,"i_long":106.816351,"is_transit":false,"i_lat":-6.20132,"station_id":"KAT","station_name":"Karet","transit":false},{"station_name":"Tanah Abang","station_id":"THB","time":5,"i_long":106.811091,"distance":2029,"is_transit":false,"i_lat":-6.185545,"transit":false,"line":1},{"distance":3632,"transit":false,"i_lat":-6.155215,"line":1,"i_long":106.800832,"is_transit":false,"time":8,"station_id":"DU","station_name":"Duri"},{"i_lat":-6.144674,"is_transit":false,"time":4,"distance":1230,"station_id":"AK","i_long":106.79867,"line":1,"station_name":"Angke","transit":false},{"line":4,"station_id":"KPB","is_transit":true,"transit":true,"time":9,"station_name":"Kampung Bandan","distance":4102,"i_lat":-6.132549,"i_long":106.826365},{"station_id":"RJW","transit":false,"i_long":106.836569,"line":11,"distance":1444,"station_name":"Rajawali","is_transit":false,"i_lat":-6.14505,"time":3}],[{"i_long":106.831114,"station_id":"POC","station_name":"Pondok Cina","is_transit":false,"line":2,"distance":0,"i_lat":-6.369073,"transit":false,"time":0},{"distance":1109,"i_long":106.831474,"line":2,"i_lat":-6.360749,"station_name":"Univ. Indonesia","transit":false,"station_id":"UI","is_transit":false,"time":2},{"station_id":"UP","i_long":106.834175,"distance":2264,"transit":false,"is_transit":false,"i_lat":-6.339291,"line":2,"station_name":"Univ. Pancasila","time":3},{"station_id":"LNA","station_name":"Lenteng Agung","i_lat":-6.330363,"transit":false,"line":2,"i_long":106.832616,"is_transit":false,"time":2,"distance":1029},{"i_lat":-6.3080680000000005,"time":3,"i_long":106.838896,"line":2,"transit":false,"station_id":"TNT","distance":2671,"station_name":"Tanjung Barat","is_transit":false},{"is_transit":false,"transit":false,"distance":2820,"i_lat":-6.2842400000000005,"station_name":"Pasar Minggu","time":4,"station_id":"PSM","i_long":106.843999,"line":2},{"distance":2380,"station_id":"PSMB","transit":false,"i_lat":-6.263214,"station_name":"Pasar Minggu Baru","is_transit":false,"i_long":106.851577,"time":2,"line":2},{"time":2,"is_transit":false,"station_id":"DRN","line":2,"transit":false,"distance":824,"i_lat":-6.255332,"station_name":"Duren Kalibata","i_long":106.85449},{"transit":false,"time":3,"station_name":"Cawang","is_transit":false,"distance":1546,"i_lat":-6.242512,"station_id":"CW","i_long":106.856607,"line":2},{"i_lat":-6.226659,"is_transit":false,"station_name":"Tebet","station_id":"TEB","time":2,"distance":1230,"i_long":106.857948,"transit":false,"line":2},{"station_name":"Manggarai","transit":false,"distance":2610,"i_lat":-6.209883,"station_id":"MRI","i_long":106.84912,"time":4,"is_transit":false,"line":2},{"is_transit":false,"transit":false,"distance":1590,"i_long":106.840169,"station_name":"Cikini","line":2,"time":4,"station_id":"CKI","i_lat":-6.198556},{"time":3,"is_transit":false,"distance":1750,"i_lat":-6.186295,"i_long":106.832183,"transit":false,"line":2,"station_id":"GDD","station_name":"Gondangdia"},{"distance":2015,"transit":false,"station_name":"Juanda","station_id":"JUA","is_transit":false,"i_long":106.828284,"i_lat":-6.166716,"line":2,"time":4},{"i_long":106.827103,"time":2,"line":2,"station_id":"SW","transit":false,"distance":1149,"station_name":"Sawah Besar","i_lat":-6.160725,"is_transit":false},{"line":2,"station_id":"MGB","is_transit":false,"transit":false,"distance":906,"station_name":"Manggabesar","i_long":106.82482,"i_lat":-6.149769,"time":2},{"i_lat":-6.141205,"time":2,"station_name":"Jayakarta","station_id":"JAY","distance":1080,"line":2,"transit":false,"is_transit":false,"i_long":106.820901},{"i_lat":-6.137569,"time":4,"station_name":"Jakarta Kota","station_id":"JAKK","is_transit":true,"transit":true,"i_long":106.812439,"line":2,"distance":1264},{"station_name":"Kampung Bandan","i_long":106.826365,"distance":1364,"station_id":"KPB","time":3,"i_lat":-6.132549,"line":4,"is_transit":true,"transit":true},{"station_id":"RJW","i_lat":-6.14505,"is_transit":false,"line":11,"station_name":"Rajawali","i_long":106.836569,"transit":false,"time":3,"distance":1444}]]}