{"data":[[{"is_transit":false,"line":2,"transit":false,"time":0,"distance":0,"i_lat":-6.369073,"station_name":"Pondok Cina","station_id":"POC","i_long":106.831114},{"is_transit":false,"time":2,"station_id":"UI","distance":1109,"line":2,"transit":false,"i_lat":-6.360749,"station_name":"Univ. Indonesia","i_long":106.831474},{"station_name":"Univ. Pancasila","i_lat":-6.339291,"i_long":106.834175,"station_id":"UP","line":2,"is_transit":false,"transit":false,"time":3,"distance":2264},{"transit":false,"i_lat":-6.330363,"station_id":"LNA","line":2,"distance":1029,"station_name":"Lenteng Agung","time":2,"is_transit":false,"i_long":106.832616},{"distance":2671,"i_long":106.838896,"line":2,"station_name":"Tanjung Barat","transit":false,"time":3,"station_id":"TNT","i_lat":-6.3080680000000005,"is_transit":false},{"station_name":"Pasar Minggu","line":2,"i_long":106.843999,"is_transit":false,"station_id":"PSM","time":4,"i_lat":-6.2842400000000005,"distance":2820,"transit":false},{"i_long":106.851577,"station_name":"Pasar Minggu Baru","is_transit":false,"time":2,"station_id":"PSMB","i_lat":-6.263214,"line":2,"transit":false,"distance":2380},{"i_long":106.85449,"station_id":"DRN","i_lat":-6.255332,"is_transit":false,"transit":false,"station_name":"Duren Kalibata","distance":824,"time":2,"line":2},{"is_transit":false,"station_id":"CW","i_long":106.856607,"transit":false,"distance":1546,"time":3,"i_lat":-6.242512,"line":2,"station_name":"Cawang"},{"time":2,"is_transit":false,"station_id":"TEB","distance":1230,"transit":false,"i_lat":-6.226659,"i_long":106.857948,"line":2,"station_name":"Tebet"},{"station_name":"Manggarai","time":4,"transit":true,"station_id":"MRI","is_transit":true,"i_lat":-6.209883,"i_long":106.84912,"distance":2610,"line":2},{"line":1,"distance":1275,"station_id":"MTR","station_name":"Matraman","i_long":106.858896,"i_lat":-6.212485,"is_transit":false,"transit":false,"time":2},{"transit":false,"station_id":"JNG","time":8,"station_name":"Jatinegara","is_transit":false,"distance":1377,"i_lat":-6.215091,"i_long":106.86807400000001,"line":1},{"transit":false,"distance":3395,"i_lat":-6.2135,"is_transit":false,"station_id":"KLD","i_long":106.899548,"line":1,"time":3,"station_name":"Klender"},{"station_name":"Buaran","i_lat":-6.215568,"distance":3100,"transit":false,"is_transit":false,"time":2,"station_id":"BUA","i_long":106.922662,"line":1},{"i_lat":-6.217455,"station_id":"KLDB","transit":false,"line":1,"time":1,"distance":1305,"station_name":"Klenderbaru","i_long":106.939679,"is_transit":false},{"i_lat":-6.219053,"is_transit":false,"station_id":"CUK","distance":1385,"i_long":106.951283,"station_name":"Cakung","line":1,"time":8,"transit":false},{"transit":false,"is_transit":false,"i_lat":-6.224515,"i_long":106.977657,"distance":3097,"station_id":"KRI","time":3,"station_name":"Kranji","line":1},{"i_long":106.997013,"station_id":"BKS","transit":false,"i_lat":-6.236616,"time":4,"distance":2520,"line":1,"is_transit":false,"station_name":"Bekasi"},{"is_transit":false,"station_name":"Bekasi Timur","transit":false,"time":2,"i_long":107.016735,"distance":2368,"line":1,"station_id":"BKST","i_lat":-6.248029},{"time":7,"distance":4460,"station_name":"Tambun","station_id":"TB","i_long":107.055722,"is_transit":false,"transit":false,"line":1,"i_lat":-6.258864},{"transit":false,"station_id":"CIT","is_transit":false,"station_name":"Cibitung","time":3,"i_long":107.083084,"i_lat":-6.261877,"line":1,"distance":3420},{"transit":false,"station_id":"TLM","distance":2800,"i_long":107.093313,"line":1,"time":2,"i_lat":-6.262938,"station_name":"Metland Telaga Murni","is_transit":false}],[{"distance":0,"i_lat":-6.369073,"time":0,"transit":false,"station_name":"Pondok Cina","line":2,"is_transit":false,"station_id":"POC","i_long":106.831114},{"i_lat":-6.360749,"station_name":"Univ. Indonesia","is_transit":false,"station_id":"UI","line":2,"i_long":106.831474,"time":2,"transit":false,"distance":1109},{"station_name":"Univ. Pancasila","distance":2264,"transit":false,"is_transit":false,"time":3,"station_id":"UP","i_long":106.834175,"i_lat":-6.339291,"line":2},{"time":2,"transit":false,"distance":1029,"i_long":106.832616,"line":2,"station_id":"LNA","is_transit":false,"i_lat":-6.330363,"station_name":"Lenteng Agung"},{"station_id":"TNT","station_name":"Tanjung Barat","time":3,"distance":2671,"transit":false,"i_lat":-6.3080680000000005,"i_long":106.838896,"line":2,"is_transit":false},{"i_long":106.843999,"line":2,"time":4,"distance":2820,"station_name":"Pasar Minggu","transit":false,"is_transit":false,"station_id":"PSM","i_lat":-6.2842400000000005},{"distance":2380,"i_long":106.851577,"i_lat":-6.263214,"station_name":"Pasar Minggu Baru","is_transit":false,"time":2,"station_id":"PSMB","transit":false,"line":2},{"time":2,"line":2,"station_id":"DRN","transit":false,"distance":824,"is_transit":false,"i_lat":-6.255332,"i_long":106.85449,"station_name":"Duren Kalibata"},{"distance":1546,"line":2,"time":3,"i_lat":-6.242512,"i_long":106.856607,"station_id":"CW","station_name":"Cawang","transit":false,"is_transit":false},{"time":2,"transit":false,"i_lat":-6.226659,"is_transit":false,"i_long":106.857948,"distance":1230,"station_id":"TEB","line":2,"station_name":"Tebet"},{"distance":2610,"is_transit":true,"line":2,"time":4,"i_long":106.84912,"station_name":"Manggarai","transit":true,"station_id":"MRI","i_lat":-6.209883},{"distance":3186,"is_transit":false,"station_id":"SUD","transit":false,"i_long":106.822649,"time":4,"station_name":"Sudirman","i_lat":-6.202263,"line":1},{"time":1,"station_id":"SUDB","line":1,"distance":280,"station_name":"Sudirman Baru","is_transit":false,"transit":false,"i_long":106.819881,"i_lat":-6.201433},{"time":1,"transit":false,"is_transit":false,"distance":471,"station_id":"KAT","line":1,"i_long":106.816351,"station_name":"Karet","i_lat":-6.20132},{"station_id":"THB","station_name":"Tanah Abang","i_long":106.811091,"line":1,"transit":false,"is_transit":false,"time":5,"i_lat":-6.185545,"distance":2029},{"time":8,"station_id":"DU","i_long":106.800832,"i_lat":-6.155215,"is_transit":false,"station_name":"Duri","line":1,"distance":3632,"transit":false},{"distance":1230,"station_id":"AK","transit":false,"station_name":"Angke","i_lat":-6.144674,"i_long":106.79867,"line":1,"time":4,"is_transit":false},{"distance":4102,"station_name":"Kampung Bandan","station_id":"KPB","transit":true,"line":4,"is_transit":true,"time":9,"i_long":106.826365,"i_lat":-6.132549},{"line":11,"time":3,"distance":1444,"i_lat":-6.14505,"transit":false,"i_long":106.836569,"station_id":"RJW","is_transit":false,"station_name":"Rajawali"},{"i_long":106.839204,"time":5,"distance":1901,"is_transit":false,"station_name":"Kemayoran","transit":false,"station_id":"KMO","i_lat":-6.161728,"line":11},{"transit":false,"is_transit":false,"i_lat":-6.174784,"line":11,"time":4,"station_name":"Pasar Senen","i_long":106.84368,"distance":1436,"station_id":"PSE"},{"station_id":"GST","line":11,"is_transit":false,"time":8,"i_long":106.850107,"station_name":"Gang Sentiong","distance":1567,"transit":false,"i_lat":-6.185975},{"line":11,"i_lat":-6.193792,"distance":973,"i_long":106.855437,"transit":false,"station_name":"Kramat","station_id":"KMT","is_transit":false,"time":1},{"line":11,"time":2,"distance":1829,"i_lat":-6.209188,"i_long":106.861737,"station_id":"POK","station_name":"Pondok Jati","is_transit":false,"transit":false},{"time":9,"i_long":106.86807400000001,"line":1,"transit":true,"station_id":"JNG","station_name":"Jatinegara","is_transit":true,"distance":1236,"i_lat":-6.215091},{"i_long":106.899548,"line":1,"distance":3395,"station_name":"Klender","is_transit":false,"time":3,"transit":false,"station_id":"KLD","i_lat":-6.2135},{"is_transit":false,"station_id":"BUA","time":2,"station_name":"Buaran","distance":3100,"i_lat":-6.215568,"i_long":106.922662,"transit":false,"line":1},{"i_lat":-6.217455,"time":1,"station_name":"Klenderbaru","transit":false,"i_long":106.939679,"line":1,"distance":1305,"is_transit":false,"station_id":"KLDB"},{"time":8,"station_id":"CUK","station_name":"Cakung","i_lat":-6.219053,"transit":false,"i_long":106.951283,"distance":1385,"line":1,"is_transit":false},{"i_long":106.977657,"station_name":"Kranji","distance":3097,"time":3,"station_id":"KRI","line":1,"is_transit":false,"i_lat":-6.224515,"transit":false},{"is_transit":false,"i_lat":-6.236616,"transit":false,"i_long":106.997013,"station_name":"Bekasi","time":4,"station_id":"BKS","line":1,"distance":2520},{"station_name":"Bekasi Timur","transit":false,"i_lat":-6.248029,"station_id":"BKST","distance":2368,"line":1,"is_transit":false,"time":2,"i_long":107.016735},{"i_long":107.055722,"station_id":"TB","i_lat":-6.258864,"station_name":"Tambun","time":7,"transit":false,"line":1,"distance":4460,"is_transit":false},{"i_lat":-6.261877,"i_long":107.083084,"line":1,"station_id":"CIT","is_transit":false,"station_name":"Cibitung","time":3,"distance":3420,"transit":false},{"distance":2800,"transit":false,"station_id":"TLM","i_lat":-6.262938,"station_name":"Metland Telaga Murni","i_long":107.093313,"time":2,"is_transit":false,"line":1}],[{"station_id":"POC","line":2,"distance":0,"is_transit":false,"i_lat":-6.369073,"transit":false,"i_long":106.831114,"time":0,"station_name":"Pondok Cina"},{"line":2,"i_lat":-6.360749,"distance":1109,"station_id":"UI","i_long":106.831474,"transit":false,"is_transit":false,"time":2,"station_name":"Univ. Indonesia"},{"is_transit":false,"distance":2264,"time":3,"line":2,"i_lat":-6.339291,"i_long":106.834175,"station_name":"Univ. Pancasila","transit":false,"station_id":"UP"},{"transit":false,"distance":1029,"time":2,"i_lat":-6.330363,"i_long":106.832616,"is_transit":false,"station_id":"LNA","station_name":"Lenteng Agung","line":2},{"distance":2671,"i_long":106.838896,"line":2,"station_id":"TNT","time":3,"station_name":"Tanjung Barat","i_lat":-6.3080680000000005,"is_transit":false,"transit":false},{"distance":2820,"station_id":"PSM","i_long":106.843999,"line":2,"is_transit":false,"station_name":"Pasar Minggu","i_lat":-6.2842400000000005,"time":4,"transit":false},{"station_name":"Pasar Minggu Baru","transit":false,"station_id":"PSMB","i_long":106.851577,"line":2,"is_transit":false,"distance":2380,"i_lat":-6.263214,"time":2},{"transit":false,"distance":824,"i_lat":-6.255332,"i_long":106.85449,"is_transit":false,"line":2,"time":2,"station_id":"DRN","station_name":"Duren Kalibata"},{"distance":1546,"station_name":"Cawang","i_long":106.856607,"line":2,"time":3,"i_lat":-6.242512,"transit":false,"is_transit":false,"station_id":"CW"},{"i_long":106.857948,"station_name":"Tebet","transit":false,"distance":1230,"line":2,"i_lat":-6.226659,"time":2,"is_transit":false,"station_id":"TEB"},{"distance":2610,"transit":false,"i_long":106.84912,"line":2,"i_lat":-6.209883,"time":4,"is_transit":false,"station_id":"MRI","station_name":"Manggarai"},{"i_long":106.840169,"station_name":"Cikini","time":4,"station_id":"CKI","i_lat":-6.198556,"line":2,"distance":1590,"is_transit":false,"transit":false},{"is_transit":false,"i_lat":-6.186295,"line":2,"time":3,"station_name":"Gondangdia","station_id":"GDD","i_long":106.832183,"distance":1750,"transit":false},{"i_lat":-6.166716,"i_long":106.828284,"time":4,"station_name":"Juanda","line":2,"is_transit":false,"distance":2015,"transit":false,"station_id":"JUA"},{"time":2,"transit":false,"is_transit":false,"station_id":"SW","line":2,"i_lat":-6.160725,"distance":1149,"station_name":"Sawah Besar","i_long":106.827103},{"transit":false,"station_name":"Manggabesar","distance":906,"i_lat":-6.149769,"i_long":106.82482,"time":2,"station_id":"MGB","line":2,"is_transit":false},{"distance":1080,"line":2,"time":2,"is_transit":false,"i_long":106.820901,"station_id":"JAY","i_lat":-6.141205,"station_name":"Jayakarta","transit":false},{"i_lat":-6.137569,"time":4,"station_name":"Jakarta Kota","transit":true,"line":2,"distance":1264,"i_long":106.812439,"is_transit":true,"station_id":"JAKK"},{"i_lat":-6.132549,"i_long":106.826365,"line":4,"station_id":"KPB","time":3,"is_transit":true,"transit":true,"distance":1364,"station_name":"Kampung Bandan"},{"i_long":106.836569,"transit":false,"station_id":"RJW","i_lat":-6.14505,"time":3,"line":11,"is_transit":false,"distance":1444,"station_name":"Rajawali"},{"line":11,"station_name":"Kemayoran","transit":false,"i_lat":-6.161728,"i_long":106.839204,"station_id":"KMO","distance":1901,"time":5,"is_transit":false},{"time":4,"distance":1436,"station_id":"PSE","line":11,"i_lat":-6.174784,"is_transit":false,"station_name":"Pasar Senen","i_long":106.84368,"transit":false},{"transit":false,"line":11,"time":8,"i_lat":-6.185975,"i_long":106.850107,"station_id":"GST","is_transit":false,"station_name":"Gang Sentiong","distance":1567},{"is_transit":false,"station_id":"KMT","time":1,"i_long":106.855437,"station_name":"Kramat","distance":973,"i_lat":-6.193792,"transit":false,"line":11},{"is_transit":false,"station_name":"Pondok Jati","i_lat":-6.209188,"station_id":"POK","transit":false,"i_long":106.861737,"distance":1829,"line":11,"time":2},{"is_transit":true,"transit":true,"time":9,"station_id":"JNG","i_lat":-6.215091,"i_long":106.86807400000001,"line":1,"distance":1236,"station_name":"Jatinegara"},{"distance":3395,"i_lat":-6.2135,"station_id":"KLD","i_long":106.899548,"transit":false,"time":3,"station_name":"Klender","line":1,"is_transit":false},{"is_transit":false,"line":1,"station_id":"BUA","transit":false,"station_name":"Buaran","time":2,"i_lat":-6.215568,"i_long":106.922662,"distance":3100},{"station_name":"Klenderbaru","transit":false,"i_lat":-6.217455,"i_long":106.939679,"is_transit":false,"station_id":"KLDB","line":1,"distance":1305,"time":1},{"time":8,"i_long":106.951283,"distance":1385,"is_transit":false,"station_name":"Cakung","transit":false,"station_id":"CUK","i_lat":-6.219053,"line":1},{"station_name":"Kranji","station_id":"KRI","i_lat":-6.224515,"time":3,"distance":3097,"i_long":106.977657,"line":1,"is_transit":false,"transit":false},{"is_transit":false,"station_id":"BKS","time":4,"i_long":106.997013,"line":1,"transit":false,"i_lat":-6.236616,"distance":2520,"station_name":"Bekasi"},{"is_transit":false,"line":1,"time":2,"station_id":"BKST","distance":2368,"i_long":107.016735,"transit":false,"station_name":"Bekasi Timur","i_lat":-6.248029},{"station_name":"Tambun","time":7,"distance":4460,"i_lat":-6.258864,"i_long":107.055722,"station_id":"TB","is_transit":false,"transit":false,"line":1},{"station_name":"Cibitung","is_transit":false,"i_long":107.083084,"transit":false,"distance":3420,"station_id":"CIT","line":1,"i_lat":-6.261877,"time":3},{"is_transit":false,"i_long":107.093313,"station_name":"Metland Telaga Murni","station_id":"TLM","time":2,"line":1,"i_lat":-6.262938,"distance":2800,"transit":false}]]}