{"data":[[{"distance":0,"i_lat":-6.369073,"station_id":"POC","is_transit":false,"time":0,"station_name":"Pondok Cina","i_long":106.831114,"line":2,"transit":false},{"transit":false,"i_lat":-6.360749,"station_name":"Univ. Indonesia","station_id":"UI","i_long":106.831474,"line":2,"is_transit":false,"distance":1109,"time":2},{"time":3,"distance":2264,"station_name":"Univ. Pancasila","transit":false,"station_id":"UP","i_lat":-6.339291,"line":2,"i_long":106.834175,"is_transit":false},{"station_name":"Lenteng Agung","i_long":106.832616,"i_lat":-6.330363,"station_id":"LNA","transit":false,"time":2,"is_transit":false,"line":2,"distance":1029},{"i_lat":-6.3080680000000005,"station_name":"Tanjung Barat","station_id":"TNT","distance":2671,"i_long":106.838896,"time":3,"line":2,"transit":false,"is_transit":false},{"time":4,"line":2,"station_id":"PSM","transit":false,"distance":2820,"i_long":106.843999,"station_name":"Pasar Minggu","i_lat":-6.2842400000000005,"is_transit":false},{"station_id":"PSMB","transit":false,"line":2,"i_lat":-6.263214,"is_transit":false,"station_name":"Pasar Minggu Baru","i_long":106.851577,"time":2,"distance":2380},{"station_name":"Duren Kalibata","distance":824,"i_lat":-6.255332,"time":2,"i_long":106.85449,"station_id":"DRN","line":2,"is_transit":false,"transit":false},{"transit":false,"i_lat":-6.242512,"i_long":106.856607,"time":3,"distance":1546,"line":2,"station_id":"CW","station_name":"Cawang","is_transit":false},{"i_lat":-6.226659,"station_id":"TEB","distance":1230,"i_long":106.857948,"transit":false,"is_transit":false,"station_name":"Tebet","time":2,"line":2},{"is_transit":true,"i_long":106.84912,"time":4,"transit":true,"distance":2610,"i_lat":-6.209883,"station_name":"Manggarai","station_id":"MRI","line":2},{"transit":false,"station_id":"SUD","i_long":106.822649,"line":1,"distance":3186,"is_transit":false,"time":4,"i_lat":-6.202263,"station_name":"Sudirman"},{"station_id":"SUDB","transit":false,"station_name":"Sudirman Baru","is_transit":false,"distance":280,"i_lat":-6.201433,"i_long":106.819881,"line":1,"time":1},{"station_id":"KAT","station_name":"Karet","i_lat":-6.20132,"line":1,"is_transit":false,"i_long":106.816351,"distance":471,"time":1,"transit":false},{"time":5,"distance":2029,"transit":true,"station_id":"THB","line":1,"is_transit":true,"i_long":106.811091,"i_lat":-6.185545,"station_name":"Tanah Abang"},{"i_long":106.79689,"is_transit":false,"station_id":"PLM","station_name":"Palmerah","transit":false,"distance":3191,"i_lat":-6.207404,"line":6,"time":6},{"i_long":106.780334,"transit":false,"line":6,"station_id":"KBY","distance":3737,"station_name":"Kebayoran","is_transit":false,"i_lat":-6.237242,"time":7},{"station_name":"Pondokranji","station_id":"PDJ","is_transit":false,"time":8,"i_lat":-6.276362,"distance":6218,"transit":false,"line":6,"i_long":106.74273},{"is_transit":false,"distance":2179,"i_long":106.728916,"station_id":"JMU","line":6,"time":3,"transit":false,"i_lat":-6.288927,"station_name":"Jurangmangu"},{"is_transit":false,"time":4,"distance":1994,"transit":false,"line":6,"station_name":"Sudimara","i_long":106.712277,"station_id":"SDM","i_lat":-6.296963},{"i_lat":-6.314823,"line":6,"i_long":106.675475,"distance":4566,"station_name":"Rawa Buntu","station_id":"RU","is_transit":false,"transit":false,"time":6}],[{"transit":false,"i_lat":-6.369073,"time":0,"station_name":"Pondok Cina","i_long":106.831114,"is_transit":false,"station_id":"POC","distance":0,"line":2},{"transit":false,"i_lat":-6.360749,"time":2,"is_transit":false,"line":2,"station_id":"UI","i_long":106.831474,"station_name":"Univ. Indonesia","distance":1109},{"line":2,"transit":false,"i_long":106.834175,"i_lat":-6.339291,"station_id":"UP","is_transit":false,"station_name":"Univ. Pancasila","time":3,"distance":2264},{"i_lat":-6.330363,"station_name":"Lenteng Agung","station_id":"LNA","i_long":106.832616,"time":2,"transit":false,"line":2,"is_transit":false,"distance":1029},{"distance":2671,"i_lat":-6.3080680000000005,"station_name":"Tanjung Barat","station_id":"TNT","is_transit":false,"time":3,"line":2,"transit":false,"i_long":106.838896},{"station_id":"PSM","is_transit":false,"i_lat":-6.2842400000000005,"transit":false,"distance":2820,"line":2,"i_long":106.843999,"time":4,"station_name":"Pasar Minggu"},{"transit":false,"station_name":"Pasar Minggu Baru","time":2,"station_id":"PSMB","is_transit":false,"distance":2380,"i_lat":-6.263214,"i_long":106.851577,"line":2},{"station_id":"DRN","distance":824,"is_transit":false,"i_long":106.85449,"time":2,"station_name":"Duren Kalibata","transit":false,"i_lat":-6.255332,"line":2},{"station_id":"CW","distance":1546,"transit":false,"i_long":106.856607,"station_name":"Cawang","line":2,"is_transit":false,"time":3,"i_lat":-6.242512},{"station_id":"TEB","transit":false,"time":2,"distance":1230,"line":2,"i_long":106.857948,"is_transit":false,"i_lat":-6.226659,"station_name":"Tebet"},{"line":2,"i_lat":-6.209883,"is_transit":false,"transit":false,"station_id":"MRI","time":4,"station_name":"Manggarai","distance":2610,"i_long":106.84912},{"is_transit":false,"distance":1590,"station_id":"CKI","i_lat":-6.198556,"transit":false,"i_long":106.840169,"line":2,"station_name":"Cikini","time":4},{"time":3,"is_transit":false,"i_lat":-6.186295,"distance":1750,"station_id":"GDD","i_long":106.832183,"station_name":"Gondangdia","line":2,"transit":false},{"station_name":"Juanda","time":4,"distance":2015,"i_long":106.828284,"i_lat":-6.166716,"is_transit":false,"line":2,"transit":false,"station_id":"JUA"},{"time":2,"station_name":"Sawah Besar","i_long":106.827103,"transit":false,"station_id":"SW","distance":1149,"i_lat":-6.160725,"line":2,"is_transit":false},{"station_id":"MGB","i_lat":-6.149769,"i_long":106.82482,"distance":906,"is_transit":false,"transit":false,"time":2,"line":2,"station_name":"Manggabesar"},{"transit":false,"is_transit":false,"i_lat":-6.141205,"distance":1080,"line":2,"time":2,"station_name":"Jayakarta","i_long":106.820901,"station_id":"JAY"},{"i_long":106.812439,"station_name":"Jakarta Kota","i_lat":-6.137569,"distance":1264,"station_id":"JAKK","transit":true,"is_transit":true,"time":4,"line":2},{"station_name":"Kampung Bandan","line":4,"station_id":"KPB","time":3,"i_lat":-6.132549,"transit":true,"i_long":106.826365,"distance":1364,"is_transit":true},{"station_id":"AK","station_name":"Angke","is_transit":false,"time":9,"distance":4102,"i_lat":-6.144674,"i_long":106.79867,"line":1,"transit":false},{"line":1,"station_id":"DU","i_long":106.800832,"time":4,"i_lat":-6.155215,"station_name":"Duri","transit":false,"is_transit":false,"distance":1230},{"time":8,"i_lat":-6.185545,"station_id":"THB","station_name":"Tanah Abang","distance":3632,"i_long":106.811091,"line":1,"transit":true,"is_transit":true},{"transit":false,"distance":3191,"line":6,"time":6,"station_id":"PLM","is_transit":false,"i_lat":-6.207404,"i_long":106.79689,"station_name":"Palmerah"},{"line":6,"distance":3737,"is_transit":false,"transit":false,"station_name":"Kebayoran","i_lat":-6.237242,"time":7,"station_id":"KBY","i_long":106.780334},{"i_lat":-6.276362,"line":6,"station_name":"Pondokranji","station_id":"PDJ","transit":false,"time":8,"i_long":106.74273,"is_transit":false,"distance":6218},{"is_transit":false,"transit":false,"station_name":"Jurangmangu","line":6,"distance":2179,"i_lat":-6.288927,"i_long":106.728916,"station_id":"JMU","time":3},{"is_transit":false,"distance":1994,"i_lat":-6.296963,"i_long":106.712277,"transit":false,"line":6,"station_name":"Sudimara","station_id":"SDM","time":4},{"time":6,"line":6,"transit":false,"is_transit":false,"i_long":106.675475,"station_id":"RU","station_name":"Rawa Buntu","distance":4566,"i_lat":-6.314823}],[{"i_long":106.831114,"station_id":"POC","transit":false,"line":2,"distance":0,"is_transit":false,"station_name":"Pondok Cina","i_lat":-6.369073,"time":0},{"station_id":"UI","transit":false,"i_lat":-6.360749,"line":2,"i_long":106.831474,"is_transit":false,"time":2,"station_name":"Univ. Indonesia","distance":1109},{"station_id":"UP","i_long":106.834175,"is_transit":false,"transit":false,"distance":2264,"i_lat":-6.339291,"time":3,"line":2,"station_name":"Univ. Pancasila"},{"station_name":"Lenteng Agung","distance":1029,"transit":false,"line":2,"time":2,"station_id":"LNA","i_lat":-6.330363,"i_long":106.832616,"is_transit":false},{"distance":2671,"line":2,"station_name":"Tanjung Barat","time":3,"i_lat":-6.3080680000000005,"is_transit":false,"transit":false,"station_id":"TNT","i_long":106.838896},{"station_name":"Pasar Minggu","line":2,"station_id":"PSM","transit":false,"is_transit":false,"time":4,"distance":2820,"i_lat":-6.2842400000000005,"i_long":106.843999},{"station_id":"PSMB","line":2,"is_transit":false,"time":2,"station_name":"Pasar Minggu Baru","distance":2380,"transit":false,"i_long":106.851577,"i_lat":-6.263214},{"time":2,"station_id":"DRN","i_long":106.85449,"transit":false,"distance":824,"i_lat":-6.255332,"line":2,"is_transit":false,"station_name":"Duren Kalibata"},{"station_name":"Cawang","time":3,"i_lat":-6.242512,"is_transit":false,"line":2,"station_id":"CW","distance":1546,"i_long":106.856607,"transit":false},{"station_name":"Tebet","distance":1230,"is_transit":false,"transit":false,"station_id":"TEB","time":2,"i_lat":-6.226659,"i_long":106.857948,"line":2},{"transit":true,"station_id":"MRI","distance":2610,"i_lat":-6.209883,"line":2,"is_transit":true,"station_name":"Manggarai","i_long":106.84912,"time":4},{"station_id":"MTR","time":2,"is_transit":false,"transit":false,"station_name":"Matraman","distance":1275,"line":1,"i_long":106.858896,"i_lat":-6.212485},{"station_id":"JNG","time":8,"station_name":"Jatinegara","i_long":106.86807400000001,"distance":1377,"is_transit":true,"line":1,"transit":true,"i_lat":-6.215091},{"distance":1236,"station_id":"POK","is_transit":false,"station_name":"Pondok Jati","transit":false,"time":2,"i_lat":-6.209188,"i_long":106.861737,"line":11},{"transit":false,"i_lat":-6.193792,"i_long":106.855437,"is_transit":false,"station_id":"KMT","station_name":"Kramat","line":11,"distance":1829,"time":2},{"station_id":"GST","i_long":106.850107,"distance":973,"is_transit":false,"i_lat":-6.185975,"station_name":"Gang Sentiong","transit":false,"time":1,"line":11},{"time":8,"i_long":106.84368,"station_name":"Pasar Senen","transit":false,"is_transit":false,"station_id":"PSE","distance":1567,"i_lat":-6.174784,"line":11},{"time":4,"distance":1436,"line":11,"i_long":106.839204,"is_transit":false,"transit":false,"station_id":"KMO","station_name":"Kemayoran","i_lat":-6.161728},{"is_transit":false,"i_long":106.836569,"transit":false,"station_name":"Rajawali","distance":1901,"i_lat":-6.14505,"line":11,"station_id":"RJW","time":5},{"station_id":"KPB","is_transit":true,"distance":1444,"i_lat":-6.132549,"transit":true,"i_long":106.826365,"time":3,"station_name":"Kampung Bandan","line":4},{"is_transit":false,"station_name":"Angke","time":9,"distance":4102,"i_long":106.79867,"line":1,"i_lat":-6.144674,"transit":false,"station_id":"AK"},{"time":4,"i_lat":-6.155215,"transit":false,"station_id":"DU","i_long":106.800832,"distance":1230,"is_transit":false,"line":1,"station_name":"Duri"},{"time":8,"distance":3632,"i_lat":-6.185545,"i_long":106.811091,"line":1,"station_name":"Tanah Abang","is_transit":true,"transit":true,"station_id":"THB"},{"time":6,"line":6,"i_lat":-6.207404,"station_id":"PLM","station_name":"Palmerah","distance":3191,"transit":false,"is_transit":false,"i_long":106.79689},{"i_lat":-6.237242,"time":7,"station_name":"Kebayoran","i_long":106.780334,"station_id":"KBY","transit":false,"line":6,"is_transit":false,"distance":3737},{"transit":false,"station_id":"PDJ","line":6,"i_lat":-6.276362,"is_transit":false,"i_long":106.74273,"time":8,"station_name":"Pondokranji","distance":6218},{"distance":2179,"time":3,"station_id":"JMU","station_name":"Jurangmangu","is_transit":false,"transit":false,"line":6,"i_lat":-6.288927,"i_long":106.728916},{"is_transit":false,"transit":false,"station_name":"Sudimara","distance":1994,"line":6,"i_lat":-6.296963,"station_id":"SDM","i_long":106.712277,"time":4},{"transit":false,"time":6,"line":6,"i_lat":-6.314823,"i_long":106.675475,"station_name":"Rawa Buntu","is_transit":false,"station_id":"RU","distance":4566}]]}