{"data":[[{"station_id":"POK","distance":0,"station_name":"Pondok Jati","line":11,"i_long":106.861737,"transit":false,"time":0,"i_lat":-6.209188,"is_transit":false},{"i_lat":-6.215091,"station_name":"Jatinegara","transit":true,"time":9,"distance":1236,"i_long":106.86807400000001,"is_transit":true,"line":1,"station_id":"JNG"},{"transit":false,"distance":3395,"i_long":106.899548,"time":3,"station_id":"KLD","station_name":"Klender","is_transit":false,"i_lat":-6.2135,"line":1},{"transit":false,"line":1,"i_lat":-6.215568,"time":2,"i_long":106.922662,"station_id":"BUA","station_name":"Buaran","is_transit":false,"distance":3100},{"transit":false,"distance":1305,"station_name":"Klenderbaru","time":1,"is_transit":false,"i_lat":-6.217455,"i_long":106.939679,"line":1,"station_id":"KLDB"},{"time":8,"transit":false,"i_lat":-6.219053,"line":1,"station_id":"CUK","is_transit":false,"distance":1385,"i_long":106.951283,"station_name":"Cakung"}],[{"distance":0,"is_transit":false,"station_id":"POK","time":0,"station_name":"Pondok Jati","i_lat":-6.209188,"i_long":106.861737,"transit":false,"line":11},{"station_id":"KMT","station_name":"Kramat","is_transit":false,"i_long":106.855437,"line":11,"time":2,"transit":false,"distance":1829,"i_lat":-6.193792},{"station_id":"GST","time":1,"distance":973,"station_name":"Gang Sentiong","transit":false,"is_transit":false,"i_lat":-6.185975,"i_long":106.850107,"line":11},{"transit":false,"time":8,"line":11,"is_transit":false,"station_id":"PSE","distance":1567,"i_lat":-6.174784,"station_name":"Pasar Senen","i_long":106.84368},{"station_id":"KMO","time":4,"i_lat":-6.161728,"i_long":106.839204,"distance":1436,"line":11,"is_transit":false,"station_name":"Kemayoran","transit":false},{"distance":1901,"line":11,"station_name":"Rajawali","transit":false,"station_id":"RJW","is_transit":false,"i_lat":-6.14505,"i_long":106.836569,"time":5},{"i_long":106.826365,"line":4,"station_id":"KPB","is_transit":true,"time":3,"station_name":"Kampung Bandan","i_lat":-6.132549,"distance":1444,"transit":true},{"station_name":"Angke","time":9,"distance":4102,"i_long":106.79867,"transit":false,"line":1,"i_lat":-6.144674,"station_id":"AK","is_transit":false},{"time":4,"station_name":"Duri","distance":1230,"i_lat":-6.155215,"i_long":106.800832,"line":1,"station_id":"DU","transit":false,"is_transit":false},{"i_long":106.811091,"is_transit":false,"line":1,"time":8,"station_name":"Tanah Abang","i_lat":-6.185545,"station_id":"THB","distance":3632,"transit":false},{"i_lat":-6.20132,"line":1,"i_long":106.816351,"station_id":"KAT","transit":false,"station_name":"Karet","time":5,"distance":2029,"is_transit":false},{"line":1,"i_lat":-6.201433,"time":1,"is_transit":false,"station_name":"Sudirman Baru","distance":471,"i_long":106.819881,"transit":false,"station_id":"SUDB"},{"is_transit":false,"distance":280,"transit":false,"i_long":106.822649,"i_lat":-6.202263,"station_id":"SUD","station_name":"Sudirman","line":1,"time":1},{"station_id":"MRI","transit":false,"time":4,"distance":3186,"i_lat":-6.209883,"i_long":106.84912,"line":2,"is_transit":false,"station_name":"Manggarai"},{"transit":false,"station_name":"Matraman","is_transit":false,"station_id":"MTR","distance":1275,"time":2,"i_lat":-6.212485,"i_long":106.858896,"line":1},{"i_long":106.86807400000001,"i_lat":-6.215091,"transit":false,"is_transit":false,"station_name":"Jatinegara","time":8,"line":1,"station_id":"JNG","distance":1377},{"transit":false,"station_name":"Klender","distance":3395,"i_lat":-6.2135,"time":3,"line":1,"station_id":"KLD","i_long":106.899548,"is_transit":false},{"distance":3100,"i_lat":-6.215568,"line":1,"time":2,"station_name":"Buaran","i_long":106.922662,"station_id":"BUA","transit":false,"is_transit":false},{"transit":false,"is_transit":false,"time":1,"distance":1305,"i_long":106.939679,"line":1,"i_lat":-6.217455,"station_id":"KLDB","station_name":"Klenderbaru"},{"is_transit":false,"i_lat":-6.219053,"station_id":"CUK","line":1,"distance":1385,"i_long":106.951283,"transit":false,"station_name":"Cakung","time":8}],[{"station_id":"POK","i_lat":-6.209188,"distance":0,"transit":false,"station_name":"Pondok Jati","is_transit":false,"line":11,"i_long":106.861737,"time":0},{"i_lat":-6.193792,"station_name":"Kramat","transit":false,"station_id":"KMT","time":2,"i_long":106.855437,"line":11,"distance":1829,"is_transit":false},{"is_transit":false,"time":1,"station_name":"Gang Sentiong","distance":973,"transit":false,"i_lat":-6.185975,"line":11,"station_id":"GST","i_long":106.850107},{"transit":false,"is_transit":false,"i_lat":-6.174784,"line":11,"station_id":"PSE","station_name":"Pasar Senen","distance":1567,"i_long":106.84368,"time":8},{"is_transit":false,"time":4,"station_id":"KMO","distance":1436,"station_name":"Kemayoran","i_lat":-6.161728,"transit":false,"i_long":106.839204,"line":11},{"transit":false,"station_name":"Rajawali","distance":1901,"i_long":106.836569,"is_transit":false,"i_lat":-6.14505,"line":11,"time":5,"station_id":"RJW"},{"i_lat":-6.132549,"station_id":"KPB","i_long":106.826365,"line":4,"time":3,"distance":1444,"transit":true,"is_transit":true,"station_name":"Kampung Bandan"},{"i_long":106.812439,"station_name":"Jakarta Kota","i_lat":-6.137569,"line":2,"transit":true,"distance":1364,"station_id":"JAKK","time":3,"is_transit":true},{"transit":false,"is_transit":false,"distance":1264,"line":2,"i_lat":-6.141205,"time":4,"station_id":"JAY","i_long":106.820901,"station_name":"Jayakarta"},{"station_id":"MGB","transit":false,"time":2,"i_lat":-6.149769,"is_transit":false,"line":2,"i_long":106.82482,"distance":1080,"station_name":"Manggabesar"},{"transit":false,"station_name":"Sawah Besar","time":2,"station_id":"SW","is_transit":false,"i_lat":-6.160725,"i_long":106.827103,"distance":906,"line":2},{"transit":false,"station_id":"JUA","is_transit":false,"time":2,"i_long":106.828284,"i_lat":-6.166716,"line":2,"station_name":"Juanda","distance":1149},{"distance":2015,"transit":false,"line":2,"station_name":"Gondangdia","time":4,"i_lat":-6.186295,"is_transit":false,"i_long":106.832183,"station_id":"GDD"},{"line":2,"i_lat":-6.198556,"i_long":106.840169,"transit":false,"station_name":"Cikini","station_id":"CKI","time":3,"is_transit":false,"distance":1750},{"distance":1590,"time":4,"transit":true,"station_name":"Manggarai","line":2,"is_transit":true,"i_lat":-6.209883,"i_long":106.84912,"station_id":"MRI"},{"time":2,"is_transit":false,"i_lat":-6.212485,"line":1,"i_long":106.858896,"transit":false,"station_id":"MTR","station_name":"Matraman","distance":1275},{"station_id":"JNG","i_lat":-6.215091,"station_name":"Jatinegara","is_transit":false,"transit":false,"i_long":106.86807400000001,"distance":1377,"line":1,"time":8},{"transit":false,"station_name":"Klender","distance":3395,"is_transit":false,"i_long":106.899548,"station_id":"KLD","i_lat":-6.2135,"line":1,"time":3},{"transit":false,"station_name":"Buaran","is_transit":false,"distance":3100,"i_long":106.922662,"station_id":"BUA","line":1,"i_lat":-6.215568,"time":2},{"line":1,"i_lat":-6.217455,"i_long":106.939679,"time":1,"is_transit":false,"distance":1305,"station_id":"KLDB","station_name":"Klenderbaru","transit":false},{"transit":false,"distance":1385,"i_long":106.951283,"time":8,"station_id":"CUK","i_lat":-6.219053,"line":1,"is_transit":false,"station_name":"Cakung"}]]}