{"data":[[{"i_long":106.861737,"station_id":"POK","is_transit":false,"distance":0,"time":0,"transit":false,"i_lat":-6.209188,"line":11,"station_name":"Pondok Jati"},{"station_name":"Jatinegara","time":9,"transit":true,"is_transit":true,"i_long":106.86807400000001,"line":1,"i_lat":-6.215091,"distance":1236,"station_id":"JNG"},{"time":3,"i_lat":-6.2135,"station_name":"Klender","line":1,"distance":3395,"i_long":106.899548,"is_transit":false,"station_id":"KLD","transit":false},{"distance":3100,"i_long":106.922662,"is_transit":false,"line":1,"time":2,"transit":false,"station_id":"BUA","i_lat":-6.215568,"station_name":"Buaran"},{"i_long":106.939679,"line":1,"is_transit":false,"time":1,"station_id":"KLDB","i_lat":-6.217455,"distance":1305,"transit":false,"station_name":"Klenderbaru"},{"transit":false,"station_id":"CUK","station_name":"Cakung","i_lat":-6.219053,"line":1,"distance":1385,"is_transit":false,"i_long":106.951283,"time":8},{"distance":3097,"station_name":"Kranji","time":3,"is_transit":false,"line":1,"transit":false,"station_id":"KRI","i_lat":-6.224515,"i_long":106.977657},{"line":1,"i_lat":-6.236616,"distance":2520,"time":4,"i_long":106.997013,"station_id":"BKS","is_transit":false,"station_name":"Bekasi","transit":false},{"distance":2368,"station_name":"Bekasi Timur","station_id":"BKST","is_transit":false,"time":2,"line":1,"transit":false,"i_long":107.016735,"i_lat":-6.248029},{"station_id":"TB","distance":4460,"line":1,"transit":false,"time":7,"station_name":"Tambun","is_transit":false,"i_lat":-6.258864,"i_long":107.055722},{"station_name":"Cibitung","is_transit":false,"line":1,"time":3,"transit":false,"i_long":107.083084,"distance":3420,"station_id":"CIT","i_lat":-6.261877}],[{"line":11,"station_name":"Pondok Jati","i_long":106.861737,"is_transit":false,"transit":false,"distance":0,"i_lat":-6.209188,"station_id":"POK","time":0},{"time":2,"distance":1829,"station_id":"KMT","i_lat":-6.193792,"is_transit":false,"i_long":106.855437,"line":11,"station_name":"Kramat","transit":false},{"station_id":"GST","transit":false,"i_lat":-6.185975,"distance":973,"time":1,"line":11,"station_name":"Gang Sentiong","is_transit":false,"i_long":106.850107},{"transit":false,"time":8,"station_id":"PSE","distance":1567,"station_name":"Pasar Senen","is_transit":false,"i_lat":-6.174784,"i_long":106.84368,"line":11},{"i_long":106.839204,"station_name":"Kemayoran","distance":1436,"is_transit":false,"transit":false,"i_lat":-6.161728,"line":11,"time":4,"station_id":"KMO"},{"time":5,"i_lat":-6.14505,"distance":1901,"line":11,"is_transit":false,"station_id":"RJW","station_name":"Rajawali","transit":false,"i_long":106.836569},{"time":3,"station_id":"KPB","station_name":"Kampung Bandan","is_transit":true,"distance":1444,"transit":true,"i_lat":-6.132549,"i_long":106.826365,"line":4},{"i_long":106.79867,"station_name":"Angke","time":9,"transit":false,"station_id":"AK","distance":4102,"is_transit":false,"i_lat":-6.144674,"line":1},{"i_long":106.800832,"is_transit":false,"station_name":"Duri","line":1,"transit":false,"distance":1230,"time":4,"station_id":"DU","i_lat":-6.155215},{"distance":3632,"line":1,"transit":false,"time":8,"station_id":"THB","is_transit":false,"station_name":"Tanah Abang","i_lat":-6.185545,"i_long":106.811091},{"i_long":106.816351,"transit":false,"line":1,"station_name":"Karet","distance":2029,"i_lat":-6.20132,"time":5,"is_transit":false,"station_id":"KAT"},{"i_lat":-6.201433,"station_name":"Sudirman Baru","distance":471,"transit":false,"i_long":106.819881,"station_id":"SUDB","is_transit":false,"line":1,"time":1},{"time":1,"is_transit":false,"distance":280,"line":1,"station_id":"SUD","station_name":"Sudirman","transit":false,"i_lat":-6.202263,"i_long":106.822649},{"is_transit":false,"transit":false,"line":2,"i_lat":-6.209883,"time":4,"i_long":106.84912,"distance":3186,"station_id":"MRI","station_name":"Manggarai"},{"is_transit":false,"line":1,"time":2,"distance":1275,"i_lat":-6.212485,"station_id":"MTR","station_name":"Matraman","transit":false,"i_long":106.858896},{"line":1,"i_long":106.86807400000001,"station_id":"JNG","transit":false,"time":8,"i_lat":-6.215091,"station_name":"Jatinegara","distance":1377,"is_transit":false},{"time":3,"station_name":"Klender","transit":false,"line":1,"distance":3395,"station_id":"KLD","is_transit":false,"i_lat":-6.2135,"i_long":106.899548},{"transit":false,"i_lat":-6.215568,"time":2,"i_long":106.922662,"station_name":"Buaran","station_id":"BUA","distance":3100,"is_transit":false,"line":1},{"is_transit":false,"station_id":"KLDB","station_name":"Klenderbaru","i_lat":-6.217455,"transit":false,"i_long":106.939679,"time":1,"line":1,"distance":1305},{"i_long":106.951283,"i_lat":-6.219053,"distance":1385,"transit":false,"station_name":"Cakung","line":1,"station_id":"CUK","time":8,"is_transit":false},{"station_id":"KRI","time":3,"i_long":106.977657,"i_lat":-6.224515,"station_name":"Kranji","line":1,"is_transit":false,"distance":3097,"transit":false},{"is_transit":false,"station_id":"BKS","distance":2520,"station_name":"Bekasi","transit":false,"i_lat":-6.236616,"i_long":106.997013,"time":4,"line":1},{"station_name":"Bekasi Timur","time":2,"i_long":107.016735,"distance":2368,"is_transit":false,"station_id":"BKST","i_lat":-6.248029,"line":1,"transit":false},{"time":7,"transit":false,"station_id":"TB","line":1,"station_name":"Tambun","is_transit":false,"i_lat":-6.258864,"distance":4460,"i_long":107.055722},{"is_transit":false,"transit":false,"station_name":"Cibitung","station_id":"CIT","distance":3420,"line":1,"time":3,"i_lat":-6.261877,"i_long":107.083084}],[{"is_transit":false,"station_id":"POK","line":11,"i_lat":-6.209188,"transit":false,"station_name":"Pondok Jati","distance":0,"i_long":106.861737,"time":0},{"station_id":"KMT","i_long":106.855437,"transit":false,"station_name":"Kramat","time":2,"line":11,"distance":1829,"is_transit":false,"i_lat":-6.193792},{"station_name":"Gang Sentiong","station_id":"GST","transit":false,"i_long":106.850107,"line":11,"distance":973,"is_transit":false,"i_lat":-6.185975,"time":1},{"i_lat":-6.174784,"time":8,"line":11,"transit":false,"is_transit":false,"station_name":"Pasar Senen","distance":1567,"i_long":106.84368,"station_id":"PSE"},{"station_name":"Kemayoran","time":4,"station_id":"KMO","transit":false,"line":11,"distance":1436,"i_lat":-6.161728,"i_long":106.839204,"is_transit":false},{"station_name":"Rajawali","station_id":"RJW","i_lat":-6.14505,"transit":false,"time":5,"distance":1901,"is_transit":false,"i_long":106.836569,"line":11},{"distance":1444,"is_transit":true,"station_id":"KPB","i_lat":-6.132549,"i_long":106.826365,"time":3,"transit":true,"station_name":"Kampung Bandan","line":4},{"station_id":"JAKK","station_name":"Jakarta Kota","line":2,"time":3,"is_transit":true,"transit":true,"i_long":106.812439,"i_lat":-6.137569,"distance":1364},{"line":2,"time":4,"transit":false,"i_lat":-6.141205,"distance":1264,"i_long":106.820901,"is_transit":false,"station_name":"Jayakarta","station_id":"JAY"},{"is_transit":false,"time":2,"station_id":"MGB","i_lat":-6.149769,"line":2,"station_name":"Manggabesar","distance":1080,"transit":false,"i_long":106.82482},{"station_name":"Sawah Besar","is_transit":false,"station_id":"SW","i_long":106.827103,"i_lat":-6.160725,"distance":906,"transit":false,"line":2,"time":2},{"station_name":"Juanda","transit":false,"station_id":"JUA","i_lat":-6.166716,"distance":1149,"is_transit":false,"line":2,"i_long":106.828284,"time":2},{"is_transit":false,"station_name":"Gondangdia","i_lat":-6.186295,"line":2,"distance":2015,"transit":false,"time":4,"station_id":"GDD","i_long":106.832183},{"transit":false,"is_transit":false,"station_id":"CKI","distance":1750,"i_lat":-6.198556,"line":2,"i_long":106.840169,"station_name":"Cikini","time":3},{"distance":1590,"is_transit":true,"station_id":"MRI","i_long":106.84912,"time":4,"transit":true,"station_name":"Manggarai","i_lat":-6.209883,"line":2},{"i_long":106.858896,"i_lat":-6.212485,"station_id":"MTR","line":1,"station_name":"Matraman","distance":1275,"transit":false,"time":2,"is_transit":false},{"station_name":"Jatinegara","distance":1377,"line":1,"is_transit":false,"station_id":"JNG","i_lat":-6.215091,"transit":false,"time":8,"i_long":106.86807400000001},{"station_name":"Klender","distance":3395,"transit":false,"station_id":"KLD","line":1,"is_transit":false,"i_lat":-6.2135,"i_long":106.899548,"time":3},{"station_id":"BUA","station_name":"Buaran","i_long":106.922662,"transit":false,"line":1,"is_transit":false,"distance":3100,"i_lat":-6.215568,"time":2},{"i_lat":-6.217455,"line":1,"i_long":106.939679,"transit":false,"distance":1305,"is_transit":false,"time":1,"station_id":"KLDB","station_name":"Klenderbaru"},{"transit":false,"station_name":"Cakung","line":1,"i_lat":-6.219053,"time":8,"distance":1385,"is_transit":false,"station_id":"CUK","i_long":106.951283},{"distance":3097,"i_long":106.977657,"time":3,"i_lat":-6.224515,"station_name":"Kranji","transit":false,"station_id":"KRI","line":1,"is_transit":false},{"time":4,"is_transit":false,"station_name":"Bekasi","station_id":"BKS","i_lat":-6.236616,"i_long":106.997013,"distance":2520,"transit":false,"line":1},{"i_lat":-6.248029,"station_name":"Bekasi Timur","distance":2368,"transit":false,"line":1,"is_transit":false,"station_id":"BKST","time":2,"i_long":107.016735},{"time":7,"station_name":"Tambun","i_long":107.055722,"line":1,"is_transit":false,"station_id":"TB","distance":4460,"i_lat":-6.258864,"transit":false},{"time":3,"transit":false,"is_transit":false,"station_id":"CIT","i_long":107.083084,"station_name":"Cibitung","distance":3420,"i_lat":-6.261877,"line":1}]]}