{"data":[[{"distance":0,"is_transit":false,"transit":false,"time":0,"station_id":"POK","station_name":"Pondok Jati","i_lat":-6.209188,"i_long":106.861737,"line":11},{"distance":1236,"is_transit":true,"station_name":"Jatinegara","time":9,"station_id":"JNG","i_lat":-6.215091,"i_long":106.86807400000001,"line":0,"transit":true},{"time":2,"transit":false,"distance":1377,"station_id":"MTR","station_name":"Matraman","i_long":106.858896,"is_transit":false,"line":1,"i_lat":-6.212485},{"station_name":"Manggarai","line":0,"is_transit":true,"time":2,"transit":true,"distance":1275,"station_id":"MRI","i_lat":-6.209883,"i_long":106.84912},{"line":2,"is_transit":false,"time":4,"distance":2610,"station_id":"TEB","station_name":"Tebet","transit":false,"i_lat":-6.226659,"i_long":106.857948},{"distance":1230,"i_long":106.856607,"line":0,"transit":false,"is_transit":false,"i_lat":-6.242512,"station_id":"CW","station_name":"Cawang","time":2},{"transit":false,"i_long":106.85449,"line":0,"station_id":"DRN","distance":1546,"i_lat":-6.255332,"is_transit":false,"station_name":"Duren Kalibata","time":3},{"is_transit":false,"time":2,"i_long":106.851577,"station_name":"Pasar Minggu Baru","distance":824,"line":2,"station_id":"PSMB","transit":false,"i_lat":-6.263214},{"line":2,"time":2,"station_name":"Pasar Minggu","distance":2380,"is_transit":false,"station_id":"PSM","transit":false,"i_lat":-6.2842400000000005,"i_long":106.843999},{"is_transit":false,"station_id":"TNT","station_name":"Tanjung Barat","transit":false,"time":4,"i_lat":-6.3080680000000005,"distance":2820,"i_long":106.838896,"line":2},{"distance":2671,"station_id":"LNA","line":2,"transit":false,"time":3,"i_long":106.832616,"is_transit":false,"i_lat":-6.330363,"station_name":"Lenteng Agung"},{"line":2,"i_lat":-6.339291,"station_name":"Univ. Pancasila","distance":1029,"is_transit":false,"station_id":"UP","transit":false,"i_long":106.834175,"time":2},{"transit":false,"is_transit":false,"line":2,"time":3,"station_id":"UI","i_long":106.831474,"distance":2264,"station_name":"Univ. Indonesia","i_lat":-6.360749},{"line":2,"time":2,"i_long":106.831114,"distance":1109,"is_transit":false,"station_id":"POC","transit":false,"i_lat":-6.369073,"station_name":"Pondok Cina"},{"station_id":"DPB","i_lat":-6.391065,"is_transit":false,"time":4,"i_long":106.819451,"station_name":"Depokbaru","line":0,"transit":false,"distance":2727},{"i_lat":-6.405256,"line":0,"time":3,"i_long":106.816926,"distance":1584,"station_id":"DP","station_name":"Depok","is_transit":false,"transit":false},{"i_long":106.800298,"station_name":"Citayam","transit":false,"i_lat":-6.448811,"is_transit":true,"station_id":"CTA","time":6,"distance":5084,"line":1},{"i_lat":-6.46424,"line":0,"distance":6740,"is_transit":false,"transit":false,"i_long":106.851978,"station_id":"CBN","station_name":"Cibinong","time":10},{"line":21,"station_id":"NMO","time":10,"i_long":106.905196,"is_transit":false,"transit":false,"i_lat":-6.466285,"station_name":"Nambo","distance":6527}],[{"station_name":"Pondok Jati","i_lat":-6.209188,"line":11,"transit":false,"is_transit":false,"time":0,"station_id":"POK","i_long":106.861737,"distance":0},{"station_name":"Kramat","is_transit":false,"transit":false,"distance":1829,"i_lat":-6.193792,"line":11,"time":2,"i_long":106.855437,"station_id":"KMT"},{"is_transit":false,"i_long":106.850107,"distance":973,"i_lat":-6.185975,"station_id":"GST","transit":false,"line":11,"station_name":"Gang Sentiong","time":1},{"time":8,"i_lat":-6.174784,"is_transit":false,"i_long":106.84368,"station_id":"PSE","transit":false,"distance":1567,"line":11,"station_name":"Pasar Senen"},{"station_id":"KMO","is_transit":false,"distance":1436,"i_long":106.839204,"line":11,"time":4,"station_name":"Kemayoran","transit":false,"i_lat":-6.161728},{"distance":1901,"is_transit":false,"transit":false,"i_long":106.836569,"i_lat":-6.14505,"line":11,"station_name":"Rajawali","time":5,"station_id":"RJW"},{"station_name":"Kampung Bandan","station_id":"KPB","transit":true,"time":3,"is_transit":true,"i_lat":-6.132549,"distance":1444,"i_long":106.826365,"line":0},{"time":9,"is_transit":false,"station_name":"Angke","line":0,"i_lat":-6.144674,"distance":4102,"i_long":106.79867,"station_id":"AK","transit":false},{"i_long":106.800832,"line":1,"station_name":"Duri","transit":true,"time":4,"is_transit":true,"station_id":"DU","distance":1230,"i_lat":-6.155215},{"distance":3632,"transit":false,"i_long":106.811091,"line":1,"time":8,"i_lat":-6.185545,"station_id":"THB","station_name":"Tanah Abang","is_transit":true},{"station_name":"Karet","distance":2029,"station_id":"KAT","i_lat":-6.20132,"i_long":106.816351,"is_transit":false,"time":5,"line":1,"transit":false},{"is_transit":false,"transit":false,"i_lat":-6.201433,"station_id":"SUDB","line":1,"time":1,"i_long":106.819881,"distance":471,"station_name":"Sudirman Baru"},{"station_id":"SUD","i_long":106.822649,"i_lat":-6.202263,"station_name":"Sudirman","line":1,"distance":280,"is_transit":false,"time":1,"transit":false},{"line":0,"i_lat":-6.209883,"i_long":106.84912,"station_id":"MRI","transit":true,"distance":3186,"is_transit":true,"station_name":"Manggarai","time":4},{"i_long":106.857948,"station_id":"TEB","station_name":"Tebet","transit":false,"time":4,"is_transit":false,"distance":2610,"i_lat":-6.226659,"line":2},{"is_transit":false,"i_lat":-6.242512,"line":0,"i_long":106.856607,"station_name":"Cawang","time":2,"transit":false,"station_id":"CW","distance":1230},{"i_long":106.85449,"distance":1546,"station_id":"DRN","is_transit":false,"station_name":"Duren Kalibata","time":3,"transit":false,"i_lat":-6.255332,"line":0},{"distance":824,"is_transit":false,"time":2,"line":2,"station_id":"PSMB","station_name":"Pasar Minggu Baru","i_long":106.851577,"i_lat":-6.263214,"transit":false},{"station_id":"PSM","transit":false,"distance":2380,"is_transit":false,"i_lat":-6.2842400000000005,"i_long":106.843999,"time":2,"station_name":"Pasar Minggu","line":2},{"is_transit":false,"line":2,"distance":2820,"station_name":"Tanjung Barat","transit":false,"station_id":"TNT","time":4,"i_lat":-6.3080680000000005,"i_long":106.838896},{"station_id":"LNA","station_name":"Lenteng Agung","time":3,"is_transit":false,"transit":false,"i_lat":-6.330363,"distance":2671,"line":2,"i_long":106.832616},{"station_id":"UP","distance":1029,"transit":false,"time":2,"i_lat":-6.339291,"station_name":"Univ. Pancasila","is_transit":false,"i_long":106.834175,"line":2},{"station_name":"Univ. Indonesia","line":2,"distance":2264,"i_long":106.831474,"time":3,"station_id":"UI","i_lat":-6.360749,"is_transit":false,"transit":false},{"transit":false,"i_long":106.831114,"is_transit":false,"station_id":"POC","i_lat":-6.369073,"time":2,"distance":1109,"station_name":"Pondok Cina","line":2},{"line":0,"distance":2727,"transit":false,"time":4,"i_long":106.819451,"station_id":"DPB","station_name":"Depokbaru","is_transit":false,"i_lat":-6.391065},{"i_long":106.816926,"is_transit":false,"i_lat":-6.405256,"distance":1584,"station_id":"DP","station_name":"Depok","line":0,"transit":false,"time":3},{"transit":false,"distance":5084,"is_transit":true,"station_name":"Citayam","time":6,"i_lat":-6.448811,"line":1,"i_long":106.800298,"station_id":"CTA"},{"transit":false,"i_long":106.851978,"station_name":"Cibinong","is_transit":false,"station_id":"CBN","time":10,"distance":6740,"line":0,"i_lat":-6.46424},{"transit":false,"time":10,"i_lat":-6.466285,"station_id":"NMO","i_long":106.905196,"station_name":"Nambo","is_transit":false,"line":21,"distance":6527}],[{"time":0,"i_long":106.861737,"distance":0,"is_transit":false,"station_id":"POK","station_name":"Pondok Jati","line":11,"transit":false,"i_lat":-6.209188},{"is_transit":false,"time":2,"line":11,"station_name":"Kramat","transit":false,"distance":1829,"i_lat":-6.193792,"i_long":106.855437,"station_id":"KMT"},{"station_id":"GST","is_transit":false,"transit":false,"line":11,"distance":973,"station_name":"Gang Sentiong","i_lat":-6.185975,"time":1,"i_long":106.850107},{"distance":1567,"i_long":106.84368,"transit":false,"time":8,"line":11,"station_name":"Pasar Senen","is_transit":false,"i_lat":-6.174784,"station_id":"PSE"},{"time":4,"is_transit":false,"distance":1436,"station_name":"Kemayoran","i_long":106.839204,"station_id":"KMO","i_lat":-6.161728,"line":11,"transit":false},{"i_long":106.836569,"station_name":"Rajawali","time":5,"is_transit":false,"transit":false,"distance":1901,"i_lat":-6.14505,"station_id":"RJW","line":11},{"station_id":"KPB","time":3,"is_transit":true,"transit":true,"i_lat":-6.132549,"distance":1444,"line":0,"station_name":"Kampung Bandan","i_long":106.826365},{"station_id":"JAKK","line":0,"distance":1364,"station_name":"Jakarta Kota","is_transit":true,"i_lat":-6.137569,"i_long":106.812439,"transit":true,"time":3},{"transit":false,"is_transit":false,"i_long":106.820901,"line":7,"i_lat":-6.141205,"station_id":"JAY","station_name":"Jayakarta","distance":1264,"time":4},{"station_name":"Manggabesar","station_id":"MGB","distance":1080,"i_lat":-6.149769,"time":2,"i_long":106.82482,"line":2,"transit":false,"is_transit":false},{"line":2,"station_id":"SW","i_lat":-6.160725,"station_name":"Sawah Besar","distance":906,"i_long":106.827103,"is_transit":false,"time":2,"transit":false},{"station_name":"Juanda","transit":false,"i_lat":-6.166716,"distance":1149,"station_id":"JUA","line":2,"time":2,"i_long":106.828284,"is_transit":false},{"transit":false,"station_id":"GDD","time":4,"i_lat":-6.186295,"i_long":106.832183,"line":2,"station_name":"Gondangdia","is_transit":false,"distance":2015},{"station_name":"Cikini","i_long":106.840169,"is_transit":false,"line":0,"transit":false,"i_lat":-6.198556,"distance":1750,"time":3,"station_id":"CKI"},{"i_lat":-6.209883,"i_long":106.84912,"station_id":"MRI","transit":true,"station_name":"Manggarai","time":4,"line":0,"is_transit":true,"distance":1590},{"line":2,"i_lat":-6.226659,"is_transit":false,"transit":false,"i_long":106.857948,"time":4,"distance":2610,"station_name":"Tebet","station_id":"TEB"},{"is_transit":false,"transit":false,"time":2,"i_long":106.856607,"distance":1230,"station_name":"Cawang","station_id":"CW","i_lat":-6.242512,"line":0},{"station_name":"Duren Kalibata","time":3,"i_lat":-6.255332,"transit":false,"line":0,"i_long":106.85449,"distance":1546,"station_id":"DRN","is_transit":false},{"i_long":106.851577,"distance":824,"station_id":"PSMB","transit":false,"station_name":"Pasar Minggu Baru","line":2,"is_transit":false,"i_lat":-6.263214,"time":2},{"i_long":106.843999,"line":2,"distance":2380,"station_name":"Pasar Minggu","time":2,"is_transit":false,"transit":false,"station_id":"PSM","i_lat":-6.2842400000000005},{"i_long":106.838896,"time":4,"station_name":"Tanjung Barat","is_transit":false,"line":2,"i_lat":-6.3080680000000005,"distance":2820,"station_id":"TNT","transit":false},{"i_long":106.832616,"station_name":"Lenteng Agung","transit":false,"line":2,"is_transit":false,"i_lat":-6.330363,"station_id":"LNA","distance":2671,"time":3},{"transit":false,"time":2,"station_name":"Univ. Pancasila","i_lat":-6.339291,"i_long":106.834175,"line":2,"distance":1029,"station_id":"UP","is_transit":false},{"line":2,"time":3,"distance":2264,"is_transit":false,"station_name":"Univ. Indonesia","station_id":"UI","transit":false,"i_lat":-6.360749,"i_long":106.831474},{"line":2,"is_transit":false,"transit":false,"station_id":"POC","station_name":"Pondok Cina","distance":1109,"time":2,"i_lat":-6.369073,"i_long":106.831114},{"is_transit":false,"i_lat":-6.391065,"distance":2727,"station_name":"Depokbaru","time":4,"transit":false,"i_long":106.819451,"station_id":"DPB","line":0},{"station_id":"DP","i_long":106.816926,"station_name":"Depok","transit":false,"line":0,"time":3,"is_transit":false,"distance":1584,"i_lat":-6.405256},{"is_transit":true,"station_name":"Citayam","distance":5084,"station_id":"CTA","transit":false,"line":1,"time":6,"i_lat":-6.448811,"i_long":106.800298},{"transit":false,"line":0,"time":10,"station_name":"Cibinong","i_lat":-6.46424,"distance":6740,"is_transit":false,"i_long":106.851978,"station_id":"CBN"},{"station_name":"Nambo","i_lat":-6.466285,"station_id":"NMO","time":10,"distance":6527,"i_long":106.905196,"line":21,"is_transit":false,"transit":false}]]}