{"data":[[{"is_transit":false,"station_name":"Pondok Jati","distance":0,"station_id":"POK","line":11,"transit":false,"time":0,"i_long":106.861737,"i_lat":-6.209188},{"station_id":"JNG","station_name":"Jatinegara","distance":1236,"line":0,"is_transit":true,"time":9,"i_long":106.86807400000001,"i_lat":-6.215091,"transit":true},{"station_name":"Matraman","i_long":106.858896,"line":1,"transit":false,"is_transit":false,"time":2,"distance":1377,"station_id":"MTR","i_lat":-6.212485},{"time":2,"line":0,"station_name":"Manggarai","is_transit":true,"i_lat":-6.209883,"station_id":"MRI","distance":1275,"transit":false,"i_long":106.84912},{"distance":3186,"is_transit":false,"station_id":"SUD","i_long":106.822649,"line":1,"station_name":"Sudirman","time":4,"transit":false,"i_lat":-6.202263},{"station_id":"SUDB","time":1,"i_lat":-6.201433,"i_long":106.819881,"line":1,"station_name":"Sudirman Baru","is_transit":false,"distance":280,"transit":false}],[{"distance":0,"line":11,"time":0,"i_long":106.861737,"i_lat":-6.209188,"station_name":"Pondok Jati","is_transit":false,"transit":false,"station_id":"POK"},{"transit":false,"time":2,"i_long":106.855437,"distance":1829,"i_lat":-6.193792,"line":11,"is_transit":false,"station_name":"Kramat","station_id":"KMT"},{"distance":973,"time":1,"i_lat":-6.185975,"station_id":"GST","transit":false,"station_name":"Gang Sentiong","i_long":106.850107,"line":11,"is_transit":false},{"line":11,"is_transit":false,"station_id":"PSE","station_name":"Pasar Senen","transit":false,"distance":1567,"i_lat":-6.174784,"time":8,"i_long":106.84368},{"line":11,"distance":1436,"time":4,"transit":false,"is_transit":false,"station_id":"KMO","i_long":106.839204,"station_name":"Kemayoran","i_lat":-6.161728},{"i_lat":-6.14505,"is_transit":false,"time":5,"distance":1901,"station_id":"RJW","i_long":106.836569,"transit":false,"line":11,"station_name":"Rajawali"},{"line":0,"time":3,"i_lat":-6.132549,"transit":true,"is_transit":true,"i_long":106.826365,"distance":1444,"station_name":"Kampung Bandan","station_id":"KPB"},{"i_lat":-6.144674,"is_transit":false,"station_id":"AK","distance":4102,"time":9,"station_name":"Angke","i_long":106.79867,"line":0,"transit":false},{"is_transit":true,"line":1,"transit":true,"station_id":"DU","distance":1230,"time":4,"i_lat":-6.155215,"station_name":"Duri","i_long":106.800832},{"time":8,"is_transit":true,"i_long":106.811091,"distance":3632,"station_name":"Tanah Abang","line":1,"transit":false,"station_id":"THB","i_lat":-6.185545},{"time":5,"transit":false,"station_name":"Karet","is_transit":false,"line":1,"station_id":"KAT","distance":2029,"i_lat":-6.20132,"i_long":106.816351},{"distance":471,"station_id":"SUDB","line":1,"is_transit":false,"time":1,"station_name":"Sudirman Baru","i_long":106.819881,"transit":false,"i_lat":-6.201433}],[{"line":11,"distance":0,"station_id":"POK","station_name":"Pondok Jati","i_lat":-6.209188,"time":0,"is_transit":false,"transit":false,"i_long":106.861737},{"is_transit":true,"transit":true,"time":9,"line":0,"station_id":"JNG","distance":1236,"i_lat":-6.215091,"i_long":106.86807400000001,"station_name":"Jatinegara"},{"distance":1377,"station_id":"MTR","i_lat":-6.212485,"i_long":106.858896,"time":2,"line":1,"is_transit":false,"transit":false,"station_name":"Matraman"},{"station_name":"Manggarai","time":2,"is_transit":true,"i_long":106.84912,"i_lat":-6.209883,"line":0,"transit":true,"station_id":"MRI","distance":1275},{"station_id":"CKI","station_name":"Cikini","i_lat":-6.198556,"distance":1590,"i_long":106.840169,"line":0,"is_transit":false,"transit":false,"time":4},{"i_lat":-6.186295,"transit":false,"station_name":"Gondangdia","is_transit":false,"line":2,"i_long":106.832183,"station_id":"GDD","distance":1750,"time":3},{"station_id":"JUA","station_name":"Juanda","i_long":106.828284,"i_lat":-6.166716,"distance":2015,"is_transit":false,"transit":false,"line":2,"time":4},{"is_transit":false,"distance":1149,"station_name":"Sawah Besar","time":2,"i_lat":-6.160725,"station_id":"SW","line":2,"transit":false,"i_long":106.827103},{"time":2,"distance":906,"station_id":"MGB","is_transit":false,"station_name":"Manggabesar","transit":false,"i_lat":-6.149769,"line":2,"i_long":106.82482},{"i_long":106.820901,"line":7,"distance":1080,"time":2,"transit":false,"station_id":"JAY","is_transit":false,"station_name":"Jayakarta","i_lat":-6.141205},{"distance":1264,"is_transit":true,"time":4,"i_lat":-6.137569,"i_long":106.812439,"line":0,"transit":true,"station_id":"JAKK","station_name":"Jakarta Kota"},{"line":0,"distance":1364,"station_id":"KPB","time":3,"i_lat":-6.132549,"station_name":"Kampung Bandan","is_transit":true,"transit":false,"i_long":106.826365},{"distance":4102,"is_transit":false,"station_id":"AK","station_name":"Angke","time":9,"i_lat":-6.144674,"transit":false,"i_long":106.79867,"line":0},{"station_name":"Duri","time":4,"distance":1230,"transit":true,"i_lat":-6.155215,"is_transit":true,"station_id":"DU","line":1,"i_long":106.800832},{"is_transit":true,"station_name":"Tanah Abang","time":8,"i_lat":-6.185545,"distance":3632,"i_long":106.811091,"line":1,"transit":false,"station_id":"THB"},{"line":1,"is_transit":false,"transit":false,"station_name":"Karet","i_long":106.816351,"distance":2029,"station_id":"KAT","i_lat":-6.20132,"time":5},{"line":1,"station_name":"Sudirman Baru","is_transit":false,"transit":false,"station_id":"SUDB","i_long":106.819881,"distance":471,"i_lat":-6.201433,"time":1}],[{"i_lat":-6.209188,"i_long":106.861737,"line":11,"is_transit":false,"distance":0,"time":0,"station_id":"POK","transit":false,"station_name":"Pondok Jati"},{"line":11,"is_transit":false,"station_id":"KMT","station_name":"Kramat","transit":false,"distance":1829,"i_long":106.855437,"time":2,"i_lat":-6.193792},{"is_transit":false,"transit":false,"distance":973,"station_name":"Gang Sentiong","i_long":106.850107,"line":11,"station_id":"GST","time":1,"i_lat":-6.185975},{"station_name":"Pasar Senen","station_id":"PSE","transit":false,"time":8,"i_long":106.84368,"distance":1567,"is_transit":false,"line":11,"i_lat":-6.174784},{"transit":false,"station_id":"KMO","time":4,"i_lat":-6.161728,"distance":1436,"is_transit":false,"station_name":"Kemayoran","line":11,"i_long":106.839204},{"station_id":"RJW","time":5,"is_transit":false,"i_long":106.836569,"distance":1901,"i_lat":-6.14505,"line":11,"station_name":"Rajawali","transit":false},{"station_name":"Kampung Bandan","transit":true,"i_long":106.826365,"time":3,"station_id":"KPB","distance":1444,"line":0,"i_lat":-6.132549,"is_transit":true},{"is_transit":true,"i_lat":-6.137569,"transit":true,"i_long":106.812439,"distance":1364,"station_name":"Jakarta Kota","line":0,"station_id":"JAKK","time":3},{"line":7,"station_name":"Jayakarta","time":4,"transit":false,"i_lat":-6.141205,"i_long":106.820901,"station_id":"JAY","distance":1264,"is_transit":false},{"station_id":"MGB","line":2,"time":2,"distance":1080,"is_transit":false,"transit":false,"i_long":106.82482,"i_lat":-6.149769,"station_name":"Manggabesar"},{"i_lat":-6.160725,"i_long":106.827103,"line":2,"station_name":"Sawah Besar","distance":906,"station_id":"SW","is_transit":false,"transit":false,"time":2},{"is_transit":false,"line":2,"distance":1149,"i_lat":-6.166716,"i_long":106.828284,"time":2,"station_name":"Juanda","station_id":"JUA","transit":false},{"is_transit":false,"i_lat":-6.186295,"transit":false,"i_long":106.832183,"station_name":"Gondangdia","time":4,"line":2,"distance":2015,"station_id":"GDD"},{"i_long":106.840169,"is_transit":false,"station_id":"CKI","transit":false,"time":3,"distance":1750,"station_name":"Cikini","line":0,"i_lat":-6.198556},{"i_long":106.84912,"time":4,"is_transit":true,"station_id":"MRI","distance":1590,"i_lat":-6.209883,"transit":true,"line":0,"station_name":"Manggarai"},{"distance":3186,"station_id":"SUD","i_long":106.822649,"line":1,"is_transit":false,"i_lat":-6.202263,"station_name":"Sudirman","transit":false,"time":4},{"line":1,"i_long":106.819881,"is_transit":false,"transit":false,"distance":280,"station_id":"SUDB","time":1,"station_name":"Sudirman Baru","i_lat":-6.201433}]]}