{"data":[[{"distance":0,"is_transit":false,"transit":false,"time":0,"line":11,"station_id":"POK","i_lat":-6.209188,"i_long":106.861737,"station_name":"Pondok Jati"},{"station_id":"JNG","is_transit":true,"time":9,"i_lat":-6.215091,"transit":true,"i_long":106.86807400000001,"station_name":"Jatinegara","distance":1236,"line":1},{"i_long":106.858896,"station_name":"Matraman","time":2,"station_id":"MTR","transit":false,"i_lat":-6.212485,"distance":1377,"line":1,"is_transit":false},{"i_long":106.84912,"is_transit":false,"time":2,"distance":1275,"station_id":"MRI","transit":false,"i_lat":-6.209883,"line":2,"station_name":"Manggarai"},{"line":1,"distance":3186,"station_id":"SUD","time":4,"transit":false,"is_transit":false,"i_long":106.822649,"station_name":"Sudirman","i_lat":-6.202263},{"station_id":"SUDB","i_lat":-6.201433,"is_transit":false,"distance":280,"time":1,"transit":false,"i_long":106.819881,"line":1,"station_name":"Sudirman Baru"},{"i_lat":-6.20132,"distance":471,"time":1,"i_long":106.816351,"station_name":"Karet","station_id":"KAT","transit":false,"line":1,"is_transit":false},{"i_long":106.811091,"line":1,"time":5,"station_id":"THB","transit":false,"distance":2029,"is_transit":false,"i_lat":-6.185545,"station_name":"Tanah Abang"},{"transit":true,"i_lat":-6.155215,"i_long":106.800832,"line":1,"station_name":"Duri","distance":3632,"station_id":"DU","time":8,"is_transit":true},{"i_lat":-6.162021,"transit":false,"time":3,"station_name":"Grogol","distance":1700,"is_transit":false,"station_id":"GGL","i_long":106.788277,"line":5},{"transit":false,"i_long":106.771379,"i_lat":-6.161433,"station_name":"Pesing","line":5,"distance":2036,"is_transit":false,"time":2,"station_id":"PSG"},{"distance":1614,"station_name":"Taman Kota","is_transit":false,"transit":false,"time":2,"i_lat":-6.1587309999999995,"i_long":106.756522,"station_id":"TKO","line":5},{"i_long":106.737035,"i_lat":-6.159876,"distance":2334,"transit":false,"time":2,"station_id":"BOI","is_transit":false,"line":5,"station_name":"Bojongindah"},{"line":5,"i_lat":-6.162758,"i_long":106.723064,"station_id":"RW","time":4,"transit":false,"is_transit":false,"station_name":"Rawa Buaya","distance":1152},{"distance":2504,"station_id":"KDS","i_lat":-6.166068,"i_long":106.701612,"transit":false,"station_name":"Kalideres","time":3,"is_transit":false,"line":5},{"transit":false,"line":5,"i_lat":-6.169933,"distance":2548,"station_id":"PI","is_transit":false,"i_long":106.679458,"station_name":"Poris","time":3}],[{"is_transit":false,"station_name":"Pondok Jati","station_id":"POK","transit":false,"distance":0,"time":0,"i_lat":-6.209188,"i_long":106.861737,"line":11},{"line":11,"transit":false,"is_transit":false,"distance":1829,"i_lat":-6.193792,"station_name":"Kramat","time":2,"i_long":106.855437,"station_id":"KMT"},{"station_name":"Gang Sentiong","station_id":"GST","line":11,"distance":973,"time":1,"is_transit":false,"transit":false,"i_lat":-6.185975,"i_long":106.850107},{"line":11,"station_name":"Pasar Senen","time":8,"i_long":106.84368,"station_id":"PSE","is_transit":false,"distance":1567,"transit":false,"i_lat":-6.174784},{"station_id":"KMO","distance":1436,"line":11,"is_transit":false,"i_long":106.839204,"transit":false,"i_lat":-6.161728,"time":4,"station_name":"Kemayoran"},{"distance":1901,"station_name":"Rajawali","station_id":"RJW","time":5,"is_transit":false,"line":11,"i_long":106.836569,"i_lat":-6.14505,"transit":false},{"i_long":106.826365,"distance":1444,"station_id":"KPB","is_transit":true,"station_name":"Kampung Bandan","transit":true,"i_lat":-6.132549,"time":3,"line":4},{"line":1,"station_name":"Angke","i_lat":-6.144674,"transit":false,"distance":4102,"is_transit":false,"time":9,"station_id":"AK","i_long":106.79867},{"is_transit":true,"distance":1230,"station_name":"Duri","time":4,"station_id":"DU","i_lat":-6.155215,"transit":true,"i_long":106.800832,"line":1},{"is_transit":false,"transit":false,"i_long":106.788277,"distance":1700,"station_name":"Grogol","station_id":"GGL","i_lat":-6.162021,"line":5,"time":3},{"distance":2036,"station_name":"Pesing","i_lat":-6.161433,"is_transit":false,"time":2,"i_long":106.771379,"line":5,"transit":false,"station_id":"PSG"},{"distance":1614,"line":5,"i_long":106.756522,"is_transit":false,"transit":false,"time":2,"station_id":"TKO","i_lat":-6.1587309999999995,"station_name":"Taman Kota"},{"time":2,"station_name":"Bojongindah","is_transit":false,"transit":false,"station_id":"BOI","i_lat":-6.159876,"i_long":106.737035,"line":5,"distance":2334},{"station_name":"Rawa Buaya","line":5,"i_long":106.723064,"is_transit":false,"time":4,"i_lat":-6.162758,"station_id":"RW","transit":false,"distance":1152},{"station_id":"KDS","i_lat":-6.166068,"station_name":"Kalideres","line":5,"time":3,"transit":false,"i_long":106.701612,"distance":2504,"is_transit":false},{"transit":false,"station_name":"Poris","time":3,"station_id":"PI","i_lat":-6.169933,"i_long":106.679458,"distance":2548,"is_transit":false,"line":5}],[{"line":11,"transit":false,"time":0,"is_transit":false,"i_lat":-6.209188,"station_name":"Pondok Jati","distance":0,"i_long":106.861737,"station_id":"POK"},{"time":9,"station_name":"Jatinegara","station_id":"JNG","i_lat":-6.215091,"i_long":106.86807400000001,"transit":true,"line":1,"is_transit":true,"distance":1236},{"station_id":"MTR","distance":1377,"transit":false,"is_transit":false,"time":2,"station_name":"Matraman","line":1,"i_long":106.858896,"i_lat":-6.212485},{"time":2,"i_long":106.84912,"station_id":"MRI","distance":1275,"i_lat":-6.209883,"station_name":"Manggarai","transit":true,"is_transit":true,"line":2},{"distance":1590,"transit":false,"station_name":"Cikini","line":2,"is_transit":false,"time":4,"station_id":"CKI","i_lat":-6.198556,"i_long":106.840169},{"time":3,"transit":false,"i_lat":-6.186295,"station_name":"Gondangdia","station_id":"GDD","is_transit":false,"i_long":106.832183,"line":2,"distance":1750},{"transit":false,"i_lat":-6.166716,"i_long":106.828284,"station_id":"JUA","line":2,"distance":2015,"is_transit":false,"time":4,"station_name":"Juanda"},{"distance":1149,"is_transit":false,"station_id":"SW","transit":false,"time":2,"line":2,"station_name":"Sawah Besar","i_lat":-6.160725,"i_long":106.827103},{"station_id":"MGB","line":2,"is_transit":false,"transit":false,"time":2,"i_long":106.82482,"station_name":"Manggabesar","i_lat":-6.149769,"distance":906},{"station_id":"JAY","time":2,"line":2,"transit":false,"distance":1080,"is_transit":false,"i_lat":-6.141205,"i_long":106.820901,"station_name":"Jayakarta"},{"distance":1264,"is_transit":true,"i_lat":-6.137569,"i_long":106.812439,"time":4,"line":2,"station_name":"Jakarta Kota","station_id":"JAKK","transit":true},{"time":3,"distance":1364,"is_transit":true,"transit":true,"station_name":"Kampung Bandan","i_lat":-6.132549,"station_id":"KPB","i_long":106.826365,"line":4},{"line":1,"station_id":"AK","transit":false,"distance":4102,"time":9,"is_transit":false,"i_lat":-6.144674,"i_long":106.79867,"station_name":"Angke"},{"station_id":"DU","i_long":106.800832,"distance":1230,"time":4,"i_lat":-6.155215,"line":1,"transit":true,"is_transit":true,"station_name":"Duri"},{"transit":false,"line":5,"i_lat":-6.162021,"time":3,"i_long":106.788277,"station_name":"Grogol","distance":1700,"is_transit":false,"station_id":"GGL"},{"i_lat":-6.161433,"distance":2036,"time":2,"transit":false,"is_transit":false,"line":5,"i_long":106.771379,"station_id":"PSG","station_name":"Pesing"},{"i_lat":-6.1587309999999995,"station_name":"Taman Kota","transit":false,"time":2,"i_long":106.756522,"station_id":"TKO","is_transit":false,"distance":1614,"line":5},{"time":2,"line":5,"transit":false,"i_lat":-6.159876,"station_name":"Bojongindah","distance":2334,"station_id":"BOI","is_transit":false,"i_long":106.737035},{"i_lat":-6.162758,"station_id":"RW","transit":false,"is_transit":false,"time":4,"distance":1152,"station_name":"Rawa Buaya","i_long":106.723064,"line":5},{"transit":false,"time":3,"station_id":"KDS","station_name":"Kalideres","i_lat":-6.166068,"distance":2504,"i_long":106.701612,"line":5,"is_transit":false},{"station_name":"Poris","station_id":"PI","is_transit":false,"i_lat":-6.169933,"distance":2548,"i_long":106.679458,"transit":false,"time":3,"line":5}],[{"is_transit":false,"time":0,"distance":0,"i_long":106.861737,"line":11,"station_id":"POK","transit":false,"i_lat":-6.209188,"station_name":"Pondok Jati"},{"distance":1829,"line":11,"time":2,"station_name":"Kramat","is_transit":false,"transit":false,"i_lat":-6.193792,"i_long":106.855437,"station_id":"KMT"},{"is_transit":false,"i_long":106.850107,"transit":false,"line":11,"station_name":"Gang Sentiong","i_lat":-6.185975,"time":1,"distance":973,"station_id":"GST"},{"i_long":106.84368,"station_id":"PSE","time":8,"station_name":"Pasar Senen","i_lat":-6.174784,"is_transit":false,"transit":false,"line":11,"distance":1567},{"station_id":"KMO","is_transit":false,"i_long":106.839204,"distance":1436,"station_name":"Kemayoran","transit":false,"time":4,"line":11,"i_lat":-6.161728},{"i_lat":-6.14505,"transit":false,"station_name":"Rajawali","is_transit":false,"station_id":"RJW","i_long":106.836569,"distance":1901,"time":5,"line":11},{"i_long":106.826365,"station_id":"KPB","transit":true,"distance":1444,"i_lat":-6.132549,"time":3,"station_name":"Kampung Bandan","line":4,"is_transit":true},{"i_lat":-6.137569,"time":3,"station_id":"JAKK","i_long":106.812439,"line":2,"is_transit":true,"distance":1364,"station_name":"Jakarta Kota","transit":true},{"time":4,"is_transit":false,"transit":false,"station_id":"JAY","distance":1264,"station_name":"Jayakarta","i_long":106.820901,"line":2,"i_lat":-6.141205},{"station_id":"MGB","transit":false,"time":2,"distance":1080,"i_lat":-6.149769,"i_long":106.82482,"line":2,"is_transit":false,"station_name":"Manggabesar"},{"i_lat":-6.160725,"i_long":106.827103,"line":2,"is_transit":false,"transit":false,"distance":906,"time":2,"station_name":"Sawah Besar","station_id":"SW"},{"time":2,"i_long":106.828284,"transit":false,"distance":1149,"i_lat":-6.166716,"line":2,"station_name":"Juanda","is_transit":false,"station_id":"JUA"},{"station_name":"Gondangdia","is_transit":false,"station_id":"GDD","i_lat":-6.186295,"i_long":106.832183,"line":2,"distance":2015,"transit":false,"time":4},{"distance":1750,"i_long":106.840169,"station_name":"Cikini","i_lat":-6.198556,"transit":false,"time":3,"station_id":"CKI","line":2,"is_transit":false},{"transit":true,"is_transit":true,"station_name":"Manggarai","i_lat":-6.209883,"i_long":106.84912,"distance":1590,"station_id":"MRI","line":2,"time":4},{"transit":false,"is_transit":false,"i_long":106.822649,"station_name":"Sudirman","station_id":"SUD","time":4,"i_lat":-6.202263,"distance":3186,"line":1},{"i_lat":-6.201433,"transit":false,"line":1,"station_id":"SUDB","station_name":"Sudirman Baru","distance":280,"is_transit":false,"time":1,"i_long":106.819881},{"transit":false,"i_lat":-6.20132,"distance":471,"line":1,"station_name":"Karet","i_long":106.816351,"station_id":"KAT","is_transit":false,"time":1},{"distance":2029,"time":5,"i_long":106.811091,"station_id":"THB","station_name":"Tanah Abang","i_lat":-6.185545,"transit":false,"is_transit":false,"line":1},{"distance":3632,"i_lat":-6.155215,"i_long":106.800832,"line":1,"transit":true,"time":8,"station_name":"Duri","is_transit":true,"station_id":"DU"},{"station_name":"Grogol","transit":false,"distance":1700,"is_transit":false,"line":5,"time":3,"i_long":106.788277,"i_lat":-6.162021,"station_id":"GGL"},{"time":2,"i_long":106.771379,"i_lat":-6.161433,"station_id":"PSG","station_name":"Pesing","transit":false,"is_transit":false,"line":5,"distance":2036},{"i_lat":-6.1587309999999995,"is_transit":false,"station_id":"TKO","i_long":106.756522,"time":2,"transit":false,"station_name":"Taman Kota","distance":1614,"line":5},{"line":5,"transit":false,"i_lat":-6.159876,"time":2,"i_long":106.737035,"distance":2334,"station_id":"BOI","station_name":"Bojongindah","is_transit":false},{"distance":1152,"is_transit":false,"i_lat":-6.162758,"station_name":"Rawa Buaya","station_id":"RW","transit":false,"line":5,"time":4,"i_long":106.723064},{"transit":false,"is_transit":false,"i_long":106.701612,"distance":2504,"time":3,"station_name":"Kalideres","station_id":"KDS","line":5,"i_lat":-6.166068},{"station_name":"Poris","line":5,"i_lat":-6.169933,"station_id":"PI","i_long":106.679458,"transit":false,"time":3,"is_transit":false,"distance":2548}]]}