{"data":[[{"station_name":"Pondok Jati","i_long":106.861737,"station_id":"POK","transit":false,"time":0,"is_transit":false,"distance":0,"i_lat":-6.209188,"line":11},{"i_lat":-6.215091,"transit":true,"station_name":"Jatinegara","is_transit":true,"i_long":106.86807400000001,"line":1,"station_id":"JNG","time":9,"distance":1236},{"i_long":106.899548,"distance":3395,"station_name":"Klender","i_lat":-6.2135,"time":3,"transit":false,"line":1,"is_transit":false,"station_id":"KLD"},{"line":1,"i_long":106.922662,"station_name":"Buaran","is_transit":false,"distance":3100,"i_lat":-6.215568,"transit":false,"station_id":"BUA","time":2},{"i_lat":-6.217455,"station_name":"Klenderbaru","i_long":106.939679,"transit":false,"distance":1305,"time":1,"line":1,"is_transit":false,"station_id":"KLDB"},{"station_id":"CUK","i_lat":-6.219053,"is_transit":false,"time":8,"line":1,"i_long":106.951283,"distance":1385,"station_name":"Cakung","transit":false}],[{"transit":false,"is_transit":false,"i_long":106.861737,"station_id":"POK","time":0,"distance":0,"station_name":"Pondok Jati","i_lat":-6.209188,"line":11},{"transit":false,"i_long":106.855437,"line":11,"is_transit":false,"station_name":"Kramat","station_id":"KMT","time":2,"distance":1829,"i_lat":-6.193792},{"is_transit":false,"transit":false,"station_name":"Gang Sentiong","distance":973,"i_long":106.850107,"station_id":"GST","time":1,"line":11,"i_lat":-6.185975},{"transit":false,"time":8,"station_id":"PSE","station_name":"Pasar Senen","distance":1567,"i_lat":-6.174784,"is_transit":false,"i_long":106.84368,"line":11},{"is_transit":false,"i_lat":-6.161728,"station_id":"KMO","time":4,"i_long":106.839204,"line":11,"station_name":"Kemayoran","distance":1436,"transit":false},{"station_id":"RJW","i_lat":-6.14505,"line":11,"is_transit":false,"time":5,"transit":false,"distance":1901,"i_long":106.836569,"station_name":"Rajawali"},{"transit":true,"time":3,"is_transit":true,"i_long":106.826365,"line":4,"station_name":"Kampung Bandan","station_id":"KPB","distance":1444,"i_lat":-6.132549},{"transit":false,"station_name":"Angke","is_transit":false,"line":1,"i_lat":-6.144674,"time":9,"distance":4102,"i_long":106.79867,"station_id":"AK"},{"station_id":"DU","line":1,"i_long":106.800832,"time":4,"i_lat":-6.155215,"distance":1230,"transit":false,"is_transit":false,"station_name":"Duri"},{"i_lat":-6.185545,"is_transit":false,"line":1,"distance":3632,"station_name":"Tanah Abang","time":8,"i_long":106.811091,"transit":false,"station_id":"THB"},{"station_name":"Karet","station_id":"KAT","transit":false,"is_transit":false,"distance":2029,"i_long":106.816351,"time":5,"line":1,"i_lat":-6.20132},{"station_id":"SUDB","transit":false,"station_name":"Sudirman Baru","time":1,"line":1,"is_transit":false,"i_lat":-6.201433,"i_long":106.819881,"distance":471},{"transit":false,"distance":280,"line":1,"is_transit":false,"time":1,"station_id":"SUD","i_lat":-6.202263,"i_long":106.822649,"station_name":"Sudirman"},{"transit":false,"i_lat":-6.209883,"station_name":"Manggarai","time":4,"station_id":"MRI","is_transit":false,"distance":3186,"i_long":106.84912,"line":2},{"line":1,"time":2,"i_lat":-6.212485,"distance":1275,"transit":false,"station_id":"MTR","station_name":"Matraman","i_long":106.858896,"is_transit":false},{"i_lat":-6.215091,"transit":false,"station_name":"Jatinegara","is_transit":false,"distance":1377,"time":8,"line":1,"i_long":106.86807400000001,"station_id":"JNG"},{"time":3,"transit":false,"station_name":"Klender","distance":3395,"line":1,"station_id":"KLD","i_long":106.899548,"is_transit":false,"i_lat":-6.2135},{"time":2,"i_long":106.922662,"is_transit":false,"transit":false,"station_name":"Buaran","i_lat":-6.215568,"distance":3100,"line":1,"station_id":"BUA"},{"station_name":"Klenderbaru","i_lat":-6.217455,"distance":1305,"i_long":106.939679,"time":1,"is_transit":false,"line":1,"station_id":"KLDB","transit":false},{"station_id":"CUK","is_transit":false,"time":8,"distance":1385,"station_name":"Cakung","i_lat":-6.219053,"transit":false,"line":1,"i_long":106.951283}],[{"time":0,"i_lat":-6.209188,"is_transit":false,"i_long":106.861737,"distance":0,"station_id":"POK","line":11,"station_name":"Pondok Jati","transit":false},{"station_id":"KMT","is_transit":false,"i_lat":-6.193792,"station_name":"Kramat","distance":1829,"i_long":106.855437,"time":2,"transit":false,"line":11},{"time":1,"i_lat":-6.185975,"is_transit":false,"i_long":106.850107,"station_id":"GST","station_name":"Gang Sentiong","distance":973,"line":11,"transit":false},{"line":11,"transit":false,"distance":1567,"time":8,"station_id":"PSE","i_lat":-6.174784,"i_long":106.84368,"station_name":"Pasar Senen","is_transit":false},{"i_long":106.839204,"distance":1436,"station_id":"KMO","is_transit":false,"line":11,"transit":false,"time":4,"station_name":"Kemayoran","i_lat":-6.161728},{"transit":false,"line":11,"i_lat":-6.14505,"time":5,"distance":1901,"station_id":"RJW","i_long":106.836569,"is_transit":false,"station_name":"Rajawali"},{"station_id":"KPB","time":3,"is_transit":true,"i_long":106.826365,"line":4,"distance":1444,"transit":true,"station_name":"Kampung Bandan","i_lat":-6.132549},{"station_id":"JAKK","line":2,"transit":true,"station_name":"Jakarta Kota","is_transit":true,"i_long":106.812439,"time":3,"distance":1364,"i_lat":-6.137569},{"is_transit":false,"distance":1264,"transit":false,"station_name":"Jayakarta","i_lat":-6.141205,"line":2,"station_id":"JAY","time":4,"i_long":106.820901},{"time":2,"transit":false,"distance":1080,"i_long":106.82482,"station_name":"Manggabesar","i_lat":-6.149769,"line":2,"station_id":"MGB","is_transit":false},{"time":2,"transit":false,"i_long":106.827103,"line":2,"station_name":"Sawah Besar","distance":906,"i_lat":-6.160725,"station_id":"SW","is_transit":false},{"station_id":"JUA","is_transit":false,"i_long":106.828284,"line":2,"distance":1149,"time":2,"transit":false,"station_name":"Juanda","i_lat":-6.166716},{"station_id":"GDD","station_name":"Gondangdia","i_lat":-6.186295,"i_long":106.832183,"is_transit":false,"line":2,"time":4,"transit":false,"distance":2015},{"i_lat":-6.198556,"transit":false,"time":3,"line":2,"station_name":"Cikini","distance":1750,"station_id":"CKI","i_long":106.840169,"is_transit":false},{"distance":1590,"station_name":"Manggarai","is_transit":true,"time":4,"line":2,"i_lat":-6.209883,"transit":true,"station_id":"MRI","i_long":106.84912},{"time":2,"line":1,"is_transit":false,"i_lat":-6.212485,"i_long":106.858896,"transit":false,"station_name":"Matraman","distance":1275,"station_id":"MTR"},{"time":8,"i_lat":-6.215091,"i_long":106.86807400000001,"transit":false,"distance":1377,"station_id":"JNG","is_transit":false,"station_name":"Jatinegara","line":1},{"distance":3395,"i_long":106.899548,"time":3,"transit":false,"station_id":"KLD","is_transit":false,"i_lat":-6.2135,"station_name":"Klender","line":1},{"i_long":106.922662,"line":1,"is_transit":false,"time":2,"i_lat":-6.215568,"distance":3100,"transit":false,"station_name":"Buaran","station_id":"BUA"},{"time":1,"transit":false,"line":1,"station_name":"Klenderbaru","is_transit":false,"distance":1305,"i_lat":-6.217455,"station_id":"KLDB","i_long":106.939679},{"i_long":106.951283,"distance":1385,"time":8,"transit":false,"station_id":"CUK","i_lat":-6.219053,"station_name":"Cakung","is_transit":false,"line":1}]]}