{"data":[[{"station_name":"Pondok Jati","is_transit":false,"transit":false,"time":0,"i_long":106.861737,"distance":0,"line":11,"i_lat":-6.209188,"station_id":"POK"},{"is_transit":true,"i_lat":-6.215091,"i_long":106.86807400000001,"station_name":"Jatinegara","distance":1236,"station_id":"JNG","transit":true,"time":9,"line":0},{"distance":1377,"station_name":"Matraman","transit":false,"time":2,"line":1,"i_lat":-6.212485,"is_transit":false,"i_long":106.858896,"station_id":"MTR"},{"time":2,"distance":1275,"is_transit":true,"i_lat":-6.209883,"station_name":"Manggarai","station_id":"MRI","i_long":106.84912,"line":0,"transit":false},{"i_lat":-6.202263,"line":1,"distance":3186,"time":4,"transit":false,"is_transit":false,"station_id":"SUD","station_name":"Sudirman","i_long":106.822649},{"i_long":106.819881,"time":1,"line":1,"station_id":"SUDB","is_transit":false,"station_name":"Sudirman Baru","i_lat":-6.201433,"distance":280,"transit":false},{"is_transit":false,"distance":471,"line":1,"time":1,"station_id":"KAT","transit":false,"station_name":"Karet","i_lat":-6.20132,"i_long":106.816351},{"transit":true,"i_long":106.811091,"is_transit":true,"time":5,"i_lat":-6.185545,"station_id":"THB","line":1,"station_name":"Tanah Abang","distance":2029},{"line":6,"i_long":106.79689,"station_id":"PLM","transit":false,"time":6,"station_name":"Palmerah","is_transit":false,"distance":3191,"i_lat":-6.207404},{"is_transit":false,"transit":false,"line":6,"station_id":"KBY","time":7,"station_name":"Kebayoran","distance":3737,"i_long":106.780334,"i_lat":-6.237242},{"distance":6218,"station_name":"Pondokranji","time":8,"i_lat":-6.276362,"transit":false,"is_transit":false,"station_id":"PDJ","line":6,"i_long":106.74273},{"time":3,"station_id":"JMU","station_name":"Jurangmangu","i_long":106.728916,"transit":false,"distance":2179,"i_lat":-6.288927,"is_transit":false,"line":6}],[{"is_transit":false,"transit":false,"time":0,"line":11,"i_lat":-6.209188,"station_id":"POK","distance":0,"i_long":106.861737,"station_name":"Pondok Jati"},{"is_transit":false,"line":11,"distance":1829,"transit":false,"station_name":"Kramat","i_long":106.855437,"i_lat":-6.193792,"station_id":"KMT","time":2},{"i_lat":-6.185975,"distance":973,"station_name":"Gang Sentiong","station_id":"GST","time":1,"line":11,"i_long":106.850107,"transit":false,"is_transit":false},{"distance":1567,"i_lat":-6.174784,"time":8,"is_transit":false,"transit":false,"station_id":"PSE","i_long":106.84368,"line":11,"station_name":"Pasar Senen"},{"time":4,"station_name":"Kemayoran","i_lat":-6.161728,"line":11,"transit":false,"i_long":106.839204,"distance":1436,"is_transit":false,"station_id":"KMO"},{"station_id":"RJW","is_transit":false,"distance":1901,"line":11,"i_long":106.836569,"time":5,"transit":false,"station_name":"Rajawali","i_lat":-6.14505},{"station_name":"Kampung Bandan","i_lat":-6.132549,"distance":1444,"i_long":106.826365,"is_transit":true,"transit":true,"line":0,"station_id":"KPB","time":3},{"distance":4102,"station_id":"AK","transit":false,"is_transit":false,"i_long":106.79867,"station_name":"Angke","time":9,"i_lat":-6.144674,"line":0},{"transit":true,"time":4,"i_long":106.800832,"distance":1230,"station_id":"DU","is_transit":true,"i_lat":-6.155215,"line":1,"station_name":"Duri"},{"is_transit":true,"i_lat":-6.185545,"line":1,"distance":3632,"i_long":106.811091,"time":8,"station_id":"THB","station_name":"Tanah Abang","transit":true},{"distance":3191,"is_transit":false,"i_long":106.79689,"station_name":"Palmerah","transit":false,"time":6,"line":6,"station_id":"PLM","i_lat":-6.207404},{"i_long":106.780334,"i_lat":-6.237242,"time":7,"station_name":"Kebayoran","distance":3737,"station_id":"KBY","transit":false,"line":6,"is_transit":false},{"is_transit":false,"transit":false,"line":6,"i_lat":-6.276362,"distance":6218,"time":8,"i_long":106.74273,"station_id":"PDJ","station_name":"Pondokranji"},{"distance":2179,"station_name":"Jurangmangu","is_transit":false,"time":3,"i_lat":-6.288927,"i_long":106.728916,"transit":false,"station_id":"JMU","line":6}],[{"transit":false,"i_lat":-6.209188,"line":11,"station_name":"Pondok Jati","i_long":106.861737,"time":0,"distance":0,"is_transit":false,"station_id":"POK"},{"station_name":"Jatinegara","time":9,"i_long":106.86807400000001,"distance":1236,"station_id":"JNG","transit":true,"i_lat":-6.215091,"is_transit":true,"line":0},{"distance":1377,"station_name":"Matraman","time":2,"station_id":"MTR","i_lat":-6.212485,"i_long":106.858896,"line":1,"is_transit":false,"transit":false},{"i_lat":-6.209883,"line":0,"station_id":"MRI","distance":1275,"i_long":106.84912,"station_name":"Manggarai","transit":true,"time":2,"is_transit":true},{"is_transit":false,"station_name":"Cikini","time":4,"line":0,"distance":1590,"i_long":106.840169,"station_id":"CKI","transit":false,"i_lat":-6.198556},{"station_id":"GDD","line":2,"transit":false,"is_transit":false,"i_long":106.832183,"time":3,"distance":1750,"station_name":"Gondangdia","i_lat":-6.186295},{"station_id":"JUA","i_lat":-6.166716,"line":2,"is_transit":false,"time":4,"station_name":"Juanda","distance":2015,"transit":false,"i_long":106.828284},{"time":2,"transit":false,"is_transit":false,"i_long":106.827103,"i_lat":-6.160725,"station_name":"Sawah Besar","distance":1149,"line":2,"station_id":"SW"},{"station_id":"MGB","station_name":"Manggabesar","i_lat":-6.149769,"distance":906,"time":2,"transit":false,"i_long":106.82482,"line":2,"is_transit":false},{"transit":false,"is_transit":false,"station_id":"JAY","i_lat":-6.141205,"line":7,"time":2,"station_name":"Jayakarta","i_long":106.820901,"distance":1080},{"line":0,"distance":1264,"station_name":"Jakarta Kota","i_long":106.812439,"i_lat":-6.137569,"station_id":"JAKK","time":4,"is_transit":true,"transit":true},{"is_transit":true,"time":3,"line":0,"i_lat":-6.132549,"station_id":"KPB","station_name":"Kampung Bandan","transit":false,"distance":1364,"i_long":106.826365},{"station_name":"Angke","i_lat":-6.144674,"time":9,"station_id":"AK","distance":4102,"i_long":106.79867,"line":0,"is_transit":false,"transit":false},{"is_transit":true,"transit":true,"time":4,"station_id":"DU","i_long":106.800832,"distance":1230,"i_lat":-6.155215,"line":1,"station_name":"Duri"},{"station_name":"Tanah Abang","transit":true,"i_long":106.811091,"line":1,"distance":3632,"is_transit":true,"time":8,"i_lat":-6.185545,"station_id":"THB"},{"distance":3191,"i_lat":-6.207404,"transit":false,"time":6,"i_long":106.79689,"station_name":"Palmerah","station_id":"PLM","line":6,"is_transit":false},{"distance":3737,"i_long":106.780334,"line":6,"time":7,"transit":false,"is_transit":false,"station_id":"KBY","i_lat":-6.237242,"station_name":"Kebayoran"},{"i_long":106.74273,"time":8,"i_lat":-6.276362,"distance":6218,"station_name":"Pondokranji","transit":false,"is_transit":false,"station_id":"PDJ","line":6},{"station_name":"Jurangmangu","transit":false,"distance":2179,"time":3,"station_id":"JMU","i_long":106.728916,"i_lat":-6.288927,"line":6,"is_transit":false}],[{"station_name":"Pondok Jati","transit":false,"is_transit":false,"line":11,"time":0,"i_lat":-6.209188,"i_long":106.861737,"distance":0,"station_id":"POK"},{"is_transit":false,"distance":1829,"station_name":"Kramat","transit":false,"i_long":106.855437,"time":2,"line":11,"station_id":"KMT","i_lat":-6.193792},{"station_name":"Gang Sentiong","transit":false,"i_lat":-6.185975,"i_long":106.850107,"station_id":"GST","is_transit":false,"line":11,"time":1,"distance":973},{"i_lat":-6.174784,"line":11,"distance":1567,"station_name":"Pasar Senen","station_id":"PSE","i_long":106.84368,"transit":false,"is_transit":false,"time":8},{"line":11,"distance":1436,"station_id":"KMO","i_long":106.839204,"time":4,"i_lat":-6.161728,"is_transit":false,"station_name":"Kemayoran","transit":false},{"line":11,"station_name":"Rajawali","is_transit":false,"transit":false,"station_id":"RJW","distance":1901,"i_long":106.836569,"time":5,"i_lat":-6.14505},{"station_id":"KPB","distance":1444,"time":3,"is_transit":true,"i_long":106.826365,"i_lat":-6.132549,"line":0,"transit":true,"station_name":"Kampung Bandan"},{"is_transit":true,"i_lat":-6.137569,"transit":true,"station_name":"Jakarta Kota","station_id":"JAKK","i_long":106.812439,"line":0,"time":3,"distance":1364},{"i_lat":-6.141205,"distance":1264,"is_transit":false,"i_long":106.820901,"station_id":"JAY","station_name":"Jayakarta","transit":false,"time":4,"line":7},{"station_id":"MGB","station_name":"Manggabesar","transit":false,"time":2,"line":2,"i_long":106.82482,"i_lat":-6.149769,"distance":1080,"is_transit":false},{"i_lat":-6.160725,"time":2,"station_name":"Sawah Besar","line":2,"i_long":106.827103,"distance":906,"is_transit":false,"transit":false,"station_id":"SW"},{"time":2,"i_lat":-6.166716,"station_id":"JUA","transit":false,"station_name":"Juanda","i_long":106.828284,"distance":1149,"is_transit":false,"line":2},{"i_lat":-6.186295,"is_transit":false,"transit":false,"time":4,"line":2,"i_long":106.832183,"distance":2015,"station_name":"Gondangdia","station_id":"GDD"},{"time":3,"is_transit":false,"line":0,"transit":false,"station_name":"Cikini","i_lat":-6.198556,"i_long":106.840169,"station_id":"CKI","distance":1750},{"distance":1590,"is_transit":true,"station_id":"MRI","i_long":106.84912,"time":4,"i_lat":-6.209883,"line":0,"transit":true,"station_name":"Manggarai"},{"time":4,"i_long":106.822649,"transit":false,"i_lat":-6.202263,"is_transit":false,"distance":3186,"line":1,"station_id":"SUD","station_name":"Sudirman"},{"distance":280,"station_name":"Sudirman Baru","line":1,"station_id":"SUDB","is_transit":false,"time":1,"i_lat":-6.201433,"i_long":106.819881,"transit":false},{"distance":471,"is_transit":false,"i_lat":-6.20132,"time":1,"station_name":"Karet","transit":false,"i_long":106.816351,"station_id":"KAT","line":1},{"station_id":"THB","is_transit":true,"station_name":"Tanah Abang","time":5,"line":1,"i_long":106.811091,"i_lat":-6.185545,"transit":true,"distance":2029},{"i_long":106.79689,"station_id":"PLM","line":6,"distance":3191,"transit":false,"time":6,"i_lat":-6.207404,"is_transit":false,"station_name":"Palmerah"},{"distance":3737,"is_transit":false,"station_name":"Kebayoran","station_id":"KBY","i_long":106.780334,"time":7,"transit":false,"i_lat":-6.237242,"line":6},{"transit":false,"distance":6218,"time":8,"line":6,"i_lat":-6.276362,"is_transit":false,"station_id":"PDJ","station_name":"Pondokranji","i_long":106.74273},{"distance":2179,"is_transit":false,"line":6,"station_name":"Jurangmangu","i_long":106.728916,"time":3,"station_id":"JMU","i_lat":-6.288927,"transit":false}]]}