{"data":[[{"time":0,"distance":0,"station_id":"POK","transit":false,"line":11,"station_name":"Pondok Jati","i_lat":-6.209188,"i_long":106.861737,"is_transit":false},{"transit":true,"station_id":"JNG","distance":1236,"station_name":"Jatinegara","i_long":106.86807400000001,"line":1,"time":9,"is_transit":true,"i_lat":-6.215091},{"station_name":"Matraman","i_long":106.858896,"i_lat":-6.212485,"transit":false,"time":2,"is_transit":false,"line":1,"distance":1377,"station_id":"MTR"},{"distance":1275,"station_id":"MRI","i_lat":-6.209883,"transit":false,"station_name":"Manggarai","is_transit":false,"time":2,"i_long":106.84912,"line":2},{"line":1,"transit":false,"is_transit":false,"time":4,"station_id":"SUD","i_lat":-6.202263,"distance":3186,"i_long":106.822649,"station_name":"Sudirman"},{"transit":false,"i_long":106.819881,"line":1,"station_name":"Sudirman Baru","distance":280,"i_lat":-6.201433,"station_id":"SUDB","is_transit":false,"time":1},{"station_id":"KAT","transit":false,"is_transit":false,"line":1,"time":1,"distance":471,"i_lat":-6.20132,"station_name":"Karet","i_long":106.816351},{"line":1,"transit":false,"is_transit":false,"i_lat":-6.185545,"distance":2029,"time":5,"i_long":106.811091,"station_name":"Tanah Abang","station_id":"THB"},{"time":8,"station_id":"DU","transit":true,"is_transit":true,"station_name":"Duri","i_lat":-6.155215,"distance":3632,"i_long":106.800832,"line":1},{"time":3,"station_name":"Grogol","i_lat":-6.162021,"i_long":106.788277,"is_transit":false,"distance":1700,"transit":false,"line":5,"station_id":"GGL"},{"station_name":"Pesing","transit":false,"distance":2036,"i_long":106.771379,"is_transit":false,"station_id":"PSG","i_lat":-6.161433,"line":5,"time":2},{"line":5,"station_id":"TKO","distance":1614,"transit":false,"i_lat":-6.1587309999999995,"station_name":"Taman Kota","is_transit":false,"i_long":106.756522,"time":2},{"distance":2334,"i_lat":-6.159876,"station_name":"Bojongindah","line":5,"station_id":"BOI","is_transit":false,"transit":false,"time":2,"i_long":106.737035},{"transit":false,"i_lat":-6.162758,"time":4,"i_long":106.723064,"distance":1152,"line":5,"is_transit":false,"station_id":"RW","station_name":"Rawa Buaya"},{"line":5,"time":3,"distance":2504,"is_transit":false,"station_name":"Kalideres","i_lat":-6.166068,"i_long":106.701612,"transit":false,"station_id":"KDS"},{"i_lat":-6.169933,"is_transit":false,"distance":2548,"transit":false,"i_long":106.679458,"line":5,"time":3,"station_id":"PI","station_name":"Poris"}],[{"station_id":"POK","i_lat":-6.209188,"i_long":106.861737,"time":0,"station_name":"Pondok Jati","transit":false,"line":11,"is_transit":false,"distance":0},{"line":11,"i_lat":-6.193792,"station_name":"Kramat","time":2,"distance":1829,"is_transit":false,"transit":false,"i_long":106.855437,"station_id":"KMT"},{"distance":973,"i_lat":-6.185975,"station_name":"Gang Sentiong","time":1,"transit":false,"line":11,"i_long":106.850107,"station_id":"GST","is_transit":false},{"i_long":106.84368,"transit":false,"distance":1567,"station_id":"PSE","station_name":"Pasar Senen","line":11,"i_lat":-6.174784,"time":8,"is_transit":false},{"i_long":106.839204,"distance":1436,"time":4,"station_name":"Kemayoran","station_id":"KMO","transit":false,"i_lat":-6.161728,"is_transit":false,"line":11},{"is_transit":false,"i_lat":-6.14505,"distance":1901,"time":5,"station_name":"Rajawali","line":11,"i_long":106.836569,"station_id":"RJW","transit":false},{"distance":1444,"i_lat":-6.132549,"station_id":"KPB","line":4,"time":3,"is_transit":true,"transit":true,"station_name":"Kampung Bandan","i_long":106.826365},{"transit":false,"i_long":106.79867,"distance":4102,"is_transit":false,"line":1,"station_id":"AK","i_lat":-6.144674,"time":9,"station_name":"Angke"},{"distance":1230,"i_long":106.800832,"transit":true,"i_lat":-6.155215,"time":4,"line":1,"is_transit":true,"station_id":"DU","station_name":"Duri"},{"station_name":"Grogol","i_lat":-6.162021,"distance":1700,"is_transit":false,"time":3,"transit":false,"i_long":106.788277,"station_id":"GGL","line":5},{"station_id":"PSG","i_long":106.771379,"distance":2036,"i_lat":-6.161433,"line":5,"is_transit":false,"time":2,"station_name":"Pesing","transit":false},{"distance":1614,"i_lat":-6.1587309999999995,"line":5,"i_long":106.756522,"station_id":"TKO","time":2,"station_name":"Taman Kota","transit":false,"is_transit":false},{"is_transit":false,"time":2,"station_id":"BOI","i_long":106.737035,"station_name":"Bojongindah","line":5,"i_lat":-6.159876,"distance":2334,"transit":false},{"station_name":"Rawa Buaya","i_long":106.723064,"station_id":"RW","distance":1152,"line":5,"is_transit":false,"transit":false,"i_lat":-6.162758,"time":4},{"i_lat":-6.166068,"distance":2504,"line":5,"station_name":"Kalideres","i_long":106.701612,"time":3,"is_transit":false,"station_id":"KDS","transit":false},{"transit":false,"distance":2548,"station_id":"PI","time":3,"is_transit":false,"i_long":106.679458,"line":5,"station_name":"Poris","i_lat":-6.169933}],[{"is_transit":false,"i_lat":-6.209188,"station_id":"POK","station_name":"Pondok Jati","distance":0,"i_long":106.861737,"transit":false,"time":0,"line":11},{"station_name":"Jatinegara","transit":true,"i_long":106.86807400000001,"is_transit":true,"line":1,"distance":1236,"time":9,"i_lat":-6.215091,"station_id":"JNG"},{"distance":1377,"station_name":"Matraman","line":1,"i_lat":-6.212485,"is_transit":false,"i_long":106.858896,"station_id":"MTR","transit":false,"time":2},{"i_long":106.84912,"time":2,"transit":true,"i_lat":-6.209883,"distance":1275,"station_name":"Manggarai","is_transit":true,"line":2,"station_id":"MRI"},{"time":4,"distance":1590,"line":2,"transit":false,"station_id":"CKI","is_transit":false,"i_lat":-6.198556,"i_long":106.840169,"station_name":"Cikini"},{"i_long":106.832183,"line":2,"station_id":"GDD","station_name":"Gondangdia","is_transit":false,"transit":false,"distance":1750,"time":3,"i_lat":-6.186295},{"time":4,"line":2,"transit":false,"i_long":106.828284,"is_transit":false,"station_id":"JUA","distance":2015,"i_lat":-6.166716,"station_name":"Juanda"},{"station_id":"SW","time":2,"is_transit":false,"i_long":106.827103,"distance":1149,"station_name":"Sawah Besar","line":2,"i_lat":-6.160725,"transit":false},{"time":2,"distance":906,"station_id":"MGB","i_long":106.82482,"line":2,"i_lat":-6.149769,"transit":false,"station_name":"Manggabesar","is_transit":false},{"time":2,"distance":1080,"station_name":"Jayakarta","i_lat":-6.141205,"transit":false,"is_transit":false,"i_long":106.820901,"line":2,"station_id":"JAY"},{"time":4,"distance":1264,"station_id":"JAKK","i_lat":-6.137569,"line":2,"transit":true,"is_transit":true,"i_long":106.812439,"station_name":"Jakarta Kota"},{"i_long":106.826365,"time":3,"distance":1364,"station_id":"KPB","station_name":"Kampung Bandan","is_transit":true,"transit":true,"i_lat":-6.132549,"line":4},{"transit":false,"time":9,"i_lat":-6.144674,"station_id":"AK","line":1,"i_long":106.79867,"station_name":"Angke","is_transit":false,"distance":4102},{"i_lat":-6.155215,"time":4,"transit":true,"line":1,"station_id":"DU","station_name":"Duri","i_long":106.800832,"distance":1230,"is_transit":true},{"is_transit":false,"i_lat":-6.162021,"line":5,"i_long":106.788277,"distance":1700,"time":3,"station_id":"GGL","station_name":"Grogol","transit":false},{"transit":false,"i_lat":-6.161433,"time":2,"distance":2036,"i_long":106.771379,"is_transit":false,"line":5,"station_id":"PSG","station_name":"Pesing"},{"station_id":"TKO","i_long":106.756522,"line":5,"time":2,"distance":1614,"station_name":"Taman Kota","i_lat":-6.1587309999999995,"is_transit":false,"transit":false},{"i_lat":-6.159876,"station_name":"Bojongindah","line":5,"distance":2334,"i_long":106.737035,"time":2,"transit":false,"station_id":"BOI","is_transit":false},{"transit":false,"is_transit":false,"station_name":"Rawa Buaya","station_id":"RW","time":4,"i_long":106.723064,"distance":1152,"i_lat":-6.162758,"line":5},{"i_lat":-6.166068,"i_long":106.701612,"is_transit":false,"station_name":"Kalideres","station_id":"KDS","transit":false,"line":5,"time":3,"distance":2504},{"i_long":106.679458,"station_id":"PI","time":3,"distance":2548,"transit":false,"is_transit":false,"i_lat":-6.169933,"station_name":"Poris","line":5}],[{"time":0,"is_transit":false,"station_name":"Pondok Jati","transit":false,"station_id":"POK","distance":0,"i_lat":-6.209188,"line":11,"i_long":106.861737},{"station_name":"Kramat","station_id":"KMT","i_lat":-6.193792,"line":11,"i_long":106.855437,"transit":false,"distance":1829,"is_transit":false,"time":2},{"i_long":106.850107,"time":1,"line":11,"is_transit":false,"i_lat":-6.185975,"station_id":"GST","station_name":"Gang Sentiong","distance":973,"transit":false},{"time":8,"transit":false,"i_lat":-6.174784,"station_id":"PSE","i_long":106.84368,"is_transit":false,"distance":1567,"station_name":"Pasar Senen","line":11},{"line":11,"is_transit":false,"station_name":"Kemayoran","time":4,"distance":1436,"station_id":"KMO","i_long":106.839204,"transit":false,"i_lat":-6.161728},{"distance":1901,"i_lat":-6.14505,"time":5,"i_long":106.836569,"station_id":"RJW","transit":false,"line":11,"is_transit":false,"station_name":"Rajawali"},{"time":3,"line":4,"distance":1444,"i_lat":-6.132549,"station_name":"Kampung Bandan","station_id":"KPB","i_long":106.826365,"transit":true,"is_transit":true},{"station_id":"JAKK","is_transit":true,"transit":true,"i_long":106.812439,"line":2,"station_name":"Jakarta Kota","time":3,"i_lat":-6.137569,"distance":1364},{"distance":1264,"station_name":"Jayakarta","station_id":"JAY","line":2,"is_transit":false,"time":4,"transit":false,"i_lat":-6.141205,"i_long":106.820901},{"distance":1080,"transit":false,"station_name":"Manggabesar","is_transit":false,"line":2,"station_id":"MGB","i_lat":-6.149769,"i_long":106.82482,"time":2},{"station_id":"SW","line":2,"i_long":106.827103,"i_lat":-6.160725,"is_transit":false,"transit":false,"time":2,"distance":906,"station_name":"Sawah Besar"},{"time":2,"distance":1149,"is_transit":false,"transit":false,"station_name":"Juanda","i_lat":-6.166716,"station_id":"JUA","line":2,"i_long":106.828284},{"is_transit":false,"distance":2015,"time":4,"transit":false,"station_name":"Gondangdia","i_long":106.832183,"station_id":"GDD","i_lat":-6.186295,"line":2},{"distance":1750,"line":2,"transit":false,"time":3,"i_long":106.840169,"is_transit":false,"i_lat":-6.198556,"station_name":"Cikini","station_id":"CKI"},{"time":4,"is_transit":true,"i_lat":-6.209883,"distance":1590,"line":2,"i_long":106.84912,"station_id":"MRI","transit":true,"station_name":"Manggarai"},{"line":1,"station_id":"SUD","time":4,"i_long":106.822649,"distance":3186,"is_transit":false,"station_name":"Sudirman","transit":false,"i_lat":-6.202263},{"transit":false,"i_long":106.819881,"i_lat":-6.201433,"line":1,"time":1,"station_id":"SUDB","is_transit":false,"station_name":"Sudirman Baru","distance":280},{"transit":false,"station_id":"KAT","time":1,"i_lat":-6.20132,"i_long":106.816351,"line":1,"station_name":"Karet","distance":471,"is_transit":false},{"line":1,"time":5,"distance":2029,"i_long":106.811091,"station_id":"THB","transit":false,"is_transit":false,"i_lat":-6.185545,"station_name":"Tanah Abang"},{"time":8,"station_name":"Duri","i_lat":-6.155215,"transit":true,"i_long":106.800832,"is_transit":true,"station_id":"DU","line":1,"distance":3632},{"distance":1700,"i_long":106.788277,"is_transit":false,"transit":false,"line":5,"station_id":"GGL","station_name":"Grogol","time":3,"i_lat":-6.162021},{"line":5,"i_lat":-6.161433,"station_id":"PSG","transit":false,"station_name":"Pesing","i_long":106.771379,"time":2,"distance":2036,"is_transit":false},{"transit":false,"station_id":"TKO","i_lat":-6.1587309999999995,"time":2,"station_name":"Taman Kota","line":5,"is_transit":false,"distance":1614,"i_long":106.756522},{"distance":2334,"is_transit":false,"time":2,"line":5,"transit":false,"station_id":"BOI","station_name":"Bojongindah","i_lat":-6.159876,"i_long":106.737035},{"i_long":106.723064,"station_name":"Rawa Buaya","distance":1152,"transit":false,"is_transit":false,"time":4,"line":5,"station_id":"RW","i_lat":-6.162758},{"is_transit":false,"station_id":"KDS","line":5,"distance":2504,"transit":false,"i_lat":-6.166068,"time":3,"station_name":"Kalideres","i_long":106.701612},{"is_transit":false,"station_id":"PI","time":3,"station_name":"Poris","i_long":106.679458,"distance":2548,"line":5,"i_lat":-6.169933,"transit":false}]]}