{"data":[[{"line":11,"is_transit":false,"i_lat":-6.209188,"distance":0,"time":0,"station_name":"Pondok Jati","i_long":106.861737,"station_id":"POK","transit":false},{"time":9,"transit":true,"station_name":"Jatinegara","station_id":"JNG","distance":1236,"is_transit":true,"i_lat":-6.215091,"i_long":106.86807400000001,"line":1},{"station_name":"Matraman","station_id":"MTR","distance":1377,"is_transit":false,"i_lat":-6.212485,"time":2,"line":1,"transit":false,"i_long":106.858896},{"i_long":106.84912,"time":2,"is_transit":true,"station_name":"Manggarai","station_id":"MRI","line":2,"distance":1275,"transit":true,"i_lat":-6.209883},{"line":2,"is_transit":false,"distance":2610,"i_lat":-6.226659,"station_name":"Tebet","transit":false,"time":4,"station_id":"TEB","i_long":106.857948},{"line":2,"station_id":"CW","station_name":"Cawang","transit":false,"distance":1230,"time":2,"i_lat":-6.242512,"is_transit":false,"i_long":106.856607},{"is_transit":false,"station_name":"Duren Kalibata","transit":false,"distance":1546,"i_lat":-6.255332,"i_long":106.85449,"line":2,"time":3,"station_id":"DRN"},{"transit":false,"is_transit":false,"distance":824,"i_lat":-6.263214,"station_id":"PSMB","i_long":106.851577,"time":2,"station_name":"Pasar Minggu Baru","line":2},{"i_lat":-6.2842400000000005,"station_name":"Pasar Minggu","station_id":"PSM","transit":false,"i_long":106.843999,"time":2,"is_transit":false,"line":2,"distance":2380},{"station_name":"Tanjung Barat","i_long":106.838896,"line":2,"station_id":"TNT","transit":false,"is_transit":false,"i_lat":-6.3080680000000005,"time":4,"distance":2820},{"time":3,"transit":false,"distance":2671,"line":2,"station_name":"Lenteng Agung","station_id":"LNA","is_transit":false,"i_long":106.832616,"i_lat":-6.330363}],[{"station_id":"POK","i_lat":-6.209188,"station_name":"Pondok Jati","distance":0,"line":11,"is_transit":false,"time":0,"i_long":106.861737,"transit":false},{"station_name":"Kramat","is_transit":false,"time":2,"station_id":"KMT","distance":1829,"transit":false,"i_lat":-6.193792,"i_long":106.855437,"line":11},{"line":11,"time":1,"distance":973,"is_transit":false,"station_name":"Gang Sentiong","transit":false,"i_lat":-6.185975,"station_id":"GST","i_long":106.850107},{"station_id":"PSE","is_transit":false,"distance":1567,"transit":false,"i_lat":-6.174784,"i_long":106.84368,"time":8,"station_name":"Pasar Senen","line":11},{"station_id":"KMO","i_lat":-6.161728,"station_name":"Kemayoran","i_long":106.839204,"line":11,"time":4,"transit":false,"is_transit":false,"distance":1436},{"station_name":"Rajawali","is_transit":false,"time":5,"i_long":106.836569,"i_lat":-6.14505,"line":11,"transit":false,"station_id":"RJW","distance":1901},{"station_name":"Kampung Bandan","i_long":106.826365,"transit":true,"is_transit":true,"station_id":"KPB","line":4,"i_lat":-6.132549,"distance":1444,"time":3},{"time":9,"i_long":106.79867,"is_transit":false,"station_name":"Angke","i_lat":-6.144674,"station_id":"AK","transit":false,"line":1,"distance":4102},{"time":4,"station_id":"DU","i_lat":-6.155215,"i_long":106.800832,"transit":false,"line":1,"station_name":"Duri","distance":1230,"is_transit":false},{"i_long":106.811091,"line":1,"i_lat":-6.185545,"is_transit":false,"transit":false,"station_name":"Tanah Abang","station_id":"THB","time":8,"distance":3632},{"i_lat":-6.20132,"i_long":106.816351,"distance":2029,"station_id":"KAT","transit":false,"station_name":"Karet","line":1,"time":5,"is_transit":false},{"i_lat":-6.201433,"is_transit":false,"i_long":106.819881,"station_name":"Sudirman Baru","station_id":"SUDB","time":1,"line":1,"distance":471,"transit":false},{"i_long":106.822649,"distance":280,"time":1,"is_transit":false,"i_lat":-6.202263,"line":1,"station_id":"SUD","station_name":"Sudirman","transit":false},{"i_lat":-6.209883,"i_long":106.84912,"distance":3186,"station_name":"Manggarai","transit":true,"is_transit":true,"station_id":"MRI","line":2,"time":4},{"time":4,"i_lat":-6.226659,"i_long":106.857948,"is_transit":false,"distance":2610,"transit":false,"line":2,"station_id":"TEB","station_name":"Tebet"},{"station_name":"Cawang","i_long":106.856607,"station_id":"CW","time":2,"i_lat":-6.242512,"transit":false,"line":2,"distance":1230,"is_transit":false},{"i_long":106.85449,"time":3,"station_name":"Duren Kalibata","station_id":"DRN","distance":1546,"is_transit":false,"transit":false,"i_lat":-6.255332,"line":2},{"is_transit":false,"i_long":106.851577,"station_name":"Pasar Minggu Baru","station_id":"PSMB","i_lat":-6.263214,"time":2,"transit":false,"distance":824,"line":2},{"distance":2380,"transit":false,"i_lat":-6.2842400000000005,"is_transit":false,"time":2,"i_long":106.843999,"station_name":"Pasar Minggu","line":2,"station_id":"PSM"},{"time":4,"transit":false,"i_long":106.838896,"station_name":"Tanjung Barat","station_id":"TNT","distance":2820,"is_transit":false,"i_lat":-6.3080680000000005,"line":2},{"station_id":"LNA","distance":2671,"i_long":106.832616,"line":2,"time":3,"is_transit":false,"transit":false,"i_lat":-6.330363,"station_name":"Lenteng Agung"}],[{"station_id":"POK","distance":0,"is_transit":false,"station_name":"Pondok Jati","line":11,"i_lat":-6.209188,"time":0,"transit":false,"i_long":106.861737},{"is_transit":false,"i_lat":-6.193792,"i_long":106.855437,"transit":false,"station_name":"Kramat","distance":1829,"time":2,"line":11,"station_id":"KMT"},{"distance":973,"i_long":106.850107,"station_id":"GST","line":11,"time":1,"is_transit":false,"station_name":"Gang Sentiong","transit":false,"i_lat":-6.185975},{"transit":false,"station_id":"PSE","i_lat":-6.174784,"is_transit":false,"time":8,"distance":1567,"line":11,"station_name":"Pasar Senen","i_long":106.84368},{"station_name":"Kemayoran","time":4,"distance":1436,"line":11,"transit":false,"i_lat":-6.161728,"is_transit":false,"station_id":"KMO","i_long":106.839204},{"i_lat":-6.14505,"station_name":"Rajawali","station_id":"RJW","transit":false,"distance":1901,"line":11,"i_long":106.836569,"time":5,"is_transit":false},{"distance":1444,"i_lat":-6.132549,"i_long":106.826365,"time":3,"transit":true,"is_transit":true,"station_name":"Kampung Bandan","station_id":"KPB","line":4},{"line":2,"distance":1364,"time":3,"transit":true,"station_id":"JAKK","is_transit":true,"i_lat":-6.137569,"station_name":"Jakarta Kota","i_long":106.812439},{"distance":1264,"i_long":106.820901,"transit":false,"is_transit":false,"station_id":"JAY","time":4,"i_lat":-6.141205,"station_name":"Jayakarta","line":2},{"transit":false,"station_name":"Manggabesar","is_transit":false,"distance":1080,"time":2,"station_id":"MGB","i_lat":-6.149769,"i_long":106.82482,"line":2},{"line":2,"i_long":106.827103,"distance":906,"station_id":"SW","time":2,"transit":false,"i_lat":-6.160725,"station_name":"Sawah Besar","is_transit":false},{"time":2,"is_transit":false,"station_id":"JUA","i_long":106.828284,"line":2,"transit":false,"station_name":"Juanda","distance":1149,"i_lat":-6.166716},{"time":4,"i_lat":-6.186295,"transit":false,"is_transit":false,"station_id":"GDD","distance":2015,"i_long":106.832183,"line":2,"station_name":"Gondangdia"},{"i_long":106.840169,"line":2,"transit":false,"station_name":"Cikini","is_transit":false,"distance":1750,"i_lat":-6.198556,"time":3,"station_id":"CKI"},{"time":4,"station_name":"Manggarai","i_long":106.84912,"transit":false,"distance":1590,"is_transit":false,"i_lat":-6.209883,"line":2,"station_id":"MRI"},{"is_transit":false,"i_long":106.857948,"time":4,"distance":2610,"transit":false,"line":2,"station_name":"Tebet","i_lat":-6.226659,"station_id":"TEB"},{"is_transit":false,"transit":false,"i_lat":-6.242512,"time":2,"i_long":106.856607,"station_name":"Cawang","distance":1230,"line":2,"station_id":"CW"},{"line":2,"station_name":"Duren Kalibata","station_id":"DRN","is_transit":false,"distance":1546,"time":3,"transit":false,"i_long":106.85449,"i_lat":-6.255332},{"line":2,"i_lat":-6.263214,"station_name":"Pasar Minggu Baru","station_id":"PSMB","distance":824,"time":2,"transit":false,"is_transit":false,"i_long":106.851577},{"station_name":"Pasar Minggu","transit":false,"i_lat":-6.2842400000000005,"i_long":106.843999,"line":2,"station_id":"PSM","time":2,"is_transit":false,"distance":2380},{"time":4,"station_id":"TNT","distance":2820,"transit":false,"is_transit":false,"line":2,"i_long":106.838896,"i_lat":-6.3080680000000005,"station_name":"Tanjung Barat"},{"distance":2671,"station_id":"LNA","i_long":106.832616,"time":3,"is_transit":false,"transit":false,"i_lat":-6.330363,"station_name":"Lenteng Agung","line":2}]]}