{"data":[[{"station_id":"POK","station_name":"Pondok Jati","line":11,"is_transit":false,"i_lat":-6.209188,"distance":0,"time":0,"i_long":106.861737,"transit":false},{"transit":true,"station_name":"Jatinegara","i_long":106.86807400000001,"i_lat":-6.215091,"station_id":"JNG","is_transit":true,"time":9,"line":1,"distance":1236},{"transit":false,"is_transit":false,"time":2,"station_id":"MTR","i_lat":-6.212485,"distance":1377,"line":1,"station_name":"Matraman","i_long":106.858896},{"distance":1275,"station_name":"Manggarai","transit":false,"station_id":"MRI","i_lat":-6.209883,"time":2,"is_transit":false,"line":2,"i_long":106.84912},{"transit":false,"time":4,"station_id":"SUD","distance":3186,"station_name":"Sudirman","is_transit":false,"line":1,"i_lat":-6.202263,"i_long":106.822649},{"distance":280,"transit":false,"is_transit":false,"station_name":"Sudirman Baru","i_long":106.819881,"time":1,"i_lat":-6.201433,"station_id":"SUDB","line":1},{"i_long":106.816351,"station_id":"KAT","time":1,"distance":471,"line":1,"transit":false,"station_name":"Karet","i_lat":-6.20132,"is_transit":false},{"time":5,"distance":2029,"line":1,"station_name":"Tanah Abang","transit":true,"is_transit":true,"i_long":106.811091,"i_lat":-6.185545,"station_id":"THB"},{"station_id":"PLM","transit":false,"line":6,"time":6,"is_transit":false,"i_lat":-6.207404,"distance":3191,"station_name":"Palmerah","i_long":106.79689},{"station_name":"Kebayoran","line":6,"time":7,"i_lat":-6.237242,"is_transit":false,"transit":false,"station_id":"KBY","i_long":106.780334,"distance":3737},{"time":8,"station_id":"PDJ","i_long":106.74273,"line":6,"i_lat":-6.276362,"station_name":"Pondokranji","transit":false,"is_transit":false,"distance":6218},{"is_transit":false,"i_long":106.728916,"station_id":"JMU","distance":2179,"transit":false,"i_lat":-6.288927,"line":6,"station_name":"Jurangmangu","time":3},{"distance":1994,"i_long":106.712277,"i_lat":-6.296963,"is_transit":false,"line":6,"time":4,"station_id":"SDM","station_name":"Sudimara","transit":false},{"transit":false,"distance":4566,"station_name":"Rawa Buntu","time":6,"is_transit":false,"i_lat":-6.314823,"i_long":106.675475,"line":6,"station_id":"RU"}],[{"is_transit":false,"transit":false,"i_long":106.861737,"line":11,"station_name":"Pondok Jati","time":0,"distance":0,"i_lat":-6.209188,"station_id":"POK"},{"time":2,"line":11,"distance":1829,"station_name":"Kramat","is_transit":false,"i_long":106.855437,"transit":false,"i_lat":-6.193792,"station_id":"KMT"},{"line":11,"station_id":"GST","distance":973,"station_name":"Gang Sentiong","time":1,"i_lat":-6.185975,"transit":false,"is_transit":false,"i_long":106.850107},{"line":11,"station_id":"PSE","station_name":"Pasar Senen","i_lat":-6.174784,"transit":false,"time":8,"is_transit":false,"i_long":106.84368,"distance":1567},{"i_long":106.839204,"i_lat":-6.161728,"station_id":"KMO","station_name":"Kemayoran","transit":false,"time":4,"is_transit":false,"distance":1436,"line":11},{"i_long":106.836569,"distance":1901,"time":5,"is_transit":false,"i_lat":-6.14505,"line":11,"transit":false,"station_name":"Rajawali","station_id":"RJW"},{"station_name":"Kampung Bandan","i_lat":-6.132549,"is_transit":true,"station_id":"KPB","i_long":106.826365,"distance":1444,"line":4,"time":3,"transit":true},{"i_lat":-6.144674,"line":1,"distance":4102,"transit":false,"time":9,"station_id":"AK","station_name":"Angke","i_long":106.79867,"is_transit":false},{"time":4,"station_name":"Duri","i_lat":-6.155215,"is_transit":false,"line":1,"transit":false,"i_long":106.800832,"station_id":"DU","distance":1230},{"station_name":"Tanah Abang","i_lat":-6.185545,"time":8,"i_long":106.811091,"transit":true,"station_id":"THB","line":1,"distance":3632,"is_transit":true},{"station_name":"Palmerah","i_long":106.79689,"station_id":"PLM","transit":false,"is_transit":false,"i_lat":-6.207404,"distance":3191,"time":6,"line":6},{"i_lat":-6.237242,"line":6,"transit":false,"time":7,"station_name":"Kebayoran","distance":3737,"station_id":"KBY","is_transit":false,"i_long":106.780334},{"station_name":"Pondokranji","distance":6218,"is_transit":false,"transit":false,"station_id":"PDJ","i_lat":-6.276362,"time":8,"line":6,"i_long":106.74273},{"i_lat":-6.288927,"is_transit":false,"station_name":"Jurangmangu","line":6,"time":3,"station_id":"JMU","distance":2179,"transit":false,"i_long":106.728916},{"i_lat":-6.296963,"time":4,"station_id":"SDM","transit":false,"station_name":"Sudimara","distance":1994,"is_transit":false,"i_long":106.712277,"line":6},{"i_lat":-6.314823,"time":6,"line":6,"is_transit":false,"station_id":"RU","transit":false,"station_name":"Rawa Buntu","distance":4566,"i_long":106.675475}],[{"station_id":"POK","i_lat":-6.209188,"distance":0,"line":11,"time":0,"transit":false,"i_long":106.861737,"station_name":"Pondok Jati","is_transit":false},{"time":9,"is_transit":true,"station_id":"JNG","i_lat":-6.215091,"distance":1236,"line":1,"transit":true,"station_name":"Jatinegara","i_long":106.86807400000001},{"transit":false,"is_transit":false,"i_long":106.858896,"time":2,"i_lat":-6.212485,"line":1,"station_id":"MTR","distance":1377,"station_name":"Matraman"},{"i_long":106.84912,"line":2,"distance":1275,"i_lat":-6.209883,"station_name":"Manggarai","time":2,"station_id":"MRI","transit":true,"is_transit":true},{"transit":false,"distance":1590,"station_id":"CKI","i_lat":-6.198556,"line":2,"is_transit":false,"station_name":"Cikini","time":4,"i_long":106.840169},{"i_lat":-6.186295,"time":3,"station_id":"GDD","transit":false,"station_name":"Gondangdia","i_long":106.832183,"distance":1750,"line":2,"is_transit":false},{"time":4,"station_id":"JUA","i_lat":-6.166716,"distance":2015,"station_name":"Juanda","transit":false,"is_transit":false,"line":2,"i_long":106.828284},{"station_id":"SW","transit":false,"i_lat":-6.160725,"time":2,"station_name":"Sawah Besar","distance":1149,"is_transit":false,"i_long":106.827103,"line":2},{"station_name":"Manggabesar","transit":false,"is_transit":false,"i_lat":-6.149769,"i_long":106.82482,"line":2,"time":2,"station_id":"MGB","distance":906},{"distance":1080,"time":2,"is_transit":false,"station_name":"Jayakarta","i_lat":-6.141205,"station_id":"JAY","line":2,"i_long":106.820901,"transit":false},{"line":2,"station_name":"Jakarta Kota","i_long":106.812439,"transit":true,"station_id":"JAKK","distance":1264,"time":4,"is_transit":true,"i_lat":-6.137569},{"distance":1364,"is_transit":true,"transit":true,"line":4,"i_lat":-6.132549,"time":3,"station_id":"KPB","station_name":"Kampung Bandan","i_long":106.826365},{"i_lat":-6.144674,"line":1,"i_long":106.79867,"time":9,"distance":4102,"station_name":"Angke","transit":false,"is_transit":false,"station_id":"AK"},{"line":1,"station_name":"Duri","transit":false,"is_transit":false,"distance":1230,"time":4,"i_long":106.800832,"i_lat":-6.155215,"station_id":"DU"},{"is_transit":true,"time":8,"distance":3632,"i_lat":-6.185545,"station_name":"Tanah Abang","transit":true,"i_long":106.811091,"station_id":"THB","line":1},{"time":6,"i_lat":-6.207404,"station_name":"Palmerah","transit":false,"line":6,"is_transit":false,"i_long":106.79689,"station_id":"PLM","distance":3191},{"time":7,"i_lat":-6.237242,"i_long":106.780334,"station_id":"KBY","transit":false,"station_name":"Kebayoran","is_transit":false,"line":6,"distance":3737},{"distance":6218,"i_long":106.74273,"i_lat":-6.276362,"line":6,"is_transit":false,"station_id":"PDJ","station_name":"Pondokranji","transit":false,"time":8},{"line":6,"i_lat":-6.288927,"distance":2179,"station_name":"Jurangmangu","is_transit":false,"station_id":"JMU","i_long":106.728916,"time":3,"transit":false},{"station_id":"SDM","transit":false,"i_lat":-6.296963,"distance":1994,"i_long":106.712277,"time":4,"is_transit":false,"station_name":"Sudimara","line":6},{"line":6,"transit":false,"is_transit":false,"station_id":"RU","station_name":"Rawa Buntu","i_long":106.675475,"i_lat":-6.314823,"distance":4566,"time":6}],[{"is_transit":false,"i_long":106.861737,"transit":false,"station_name":"Pondok Jati","i_lat":-6.209188,"station_id":"POK","time":0,"distance":0,"line":11},{"station_id":"KMT","transit":false,"time":2,"i_long":106.855437,"distance":1829,"is_transit":false,"i_lat":-6.193792,"station_name":"Kramat","line":11},{"time":1,"is_transit":false,"distance":973,"station_id":"GST","station_name":"Gang Sentiong","line":11,"i_long":106.850107,"transit":false,"i_lat":-6.185975},{"station_id":"PSE","is_transit":false,"distance":1567,"station_name":"Pasar Senen","line":11,"i_long":106.84368,"i_lat":-6.174784,"time":8,"transit":false},{"transit":false,"station_name":"Kemayoran","i_long":106.839204,"line":11,"time":4,"distance":1436,"is_transit":false,"i_lat":-6.161728,"station_id":"KMO"},{"station_name":"Rajawali","distance":1901,"station_id":"RJW","is_transit":false,"time":5,"i_long":106.836569,"transit":false,"line":11,"i_lat":-6.14505},{"station_id":"KPB","station_name":"Kampung Bandan","is_transit":true,"transit":true,"i_lat":-6.132549,"time":3,"i_long":106.826365,"line":4,"distance":1444},{"is_transit":true,"i_lat":-6.137569,"transit":true,"station_id":"JAKK","time":3,"distance":1364,"i_long":106.812439,"station_name":"Jakarta Kota","line":2},{"distance":1264,"station_name":"Jayakarta","i_lat":-6.141205,"transit":false,"time":4,"station_id":"JAY","is_transit":false,"i_long":106.820901,"line":2},{"line":2,"transit":false,"is_transit":false,"station_id":"MGB","time":2,"station_name":"Manggabesar","i_lat":-6.149769,"distance":1080,"i_long":106.82482},{"line":2,"i_long":106.827103,"i_lat":-6.160725,"time":2,"station_id":"SW","distance":906,"station_name":"Sawah Besar","transit":false,"is_transit":false},{"station_name":"Juanda","distance":1149,"is_transit":false,"line":2,"i_lat":-6.166716,"i_long":106.828284,"transit":false,"time":2,"station_id":"JUA"},{"time":4,"transit":false,"i_lat":-6.186295,"station_id":"GDD","distance":2015,"line":2,"station_name":"Gondangdia","is_transit":false,"i_long":106.832183},{"line":2,"distance":1750,"station_name":"Cikini","i_long":106.840169,"station_id":"CKI","i_lat":-6.198556,"transit":false,"time":3,"is_transit":false},{"time":4,"station_name":"Manggarai","distance":1590,"i_lat":-6.209883,"is_transit":true,"station_id":"MRI","i_long":106.84912,"transit":true,"line":2},{"is_transit":false,"line":1,"i_lat":-6.202263,"station_name":"Sudirman","time":4,"transit":false,"station_id":"SUD","i_long":106.822649,"distance":3186},{"is_transit":false,"time":1,"line":1,"station_id":"SUDB","station_name":"Sudirman Baru","transit":false,"distance":280,"i_lat":-6.201433,"i_long":106.819881},{"distance":471,"station_id":"KAT","transit":false,"station_name":"Karet","i_lat":-6.20132,"time":1,"is_transit":false,"i_long":106.816351,"line":1},{"transit":true,"time":5,"station_name":"Tanah Abang","line":1,"i_long":106.811091,"is_transit":true,"distance":2029,"station_id":"THB","i_lat":-6.185545},{"line":6,"i_long":106.79689,"time":6,"is_transit":false,"transit":false,"station_id":"PLM","distance":3191,"station_name":"Palmerah","i_lat":-6.207404},{"i_long":106.780334,"time":7,"distance":3737,"station_name":"Kebayoran","line":6,"transit":false,"is_transit":false,"station_id":"KBY","i_lat":-6.237242},{"i_lat":-6.276362,"time":8,"line":6,"is_transit":false,"station_name":"Pondokranji","station_id":"PDJ","distance":6218,"i_long":106.74273,"transit":false},{"line":6,"station_name":"Jurangmangu","transit":false,"i_long":106.728916,"station_id":"JMU","is_transit":false,"time":3,"distance":2179,"i_lat":-6.288927},{"station_name":"Sudimara","transit":false,"is_transit":false,"i_long":106.712277,"time":4,"i_lat":-6.296963,"line":6,"station_id":"SDM","distance":1994},{"transit":false,"station_id":"RU","i_lat":-6.314823,"station_name":"Rawa Buntu","i_long":106.675475,"distance":4566,"line":6,"is_transit":false,"time":6}]]}