{"data":[[{"station_id":"POK","i_lat":-6.209188,"station_name":"Pondok Jati","i_long":106.861737,"line":11,"time":0,"distance":0,"transit":false,"is_transit":false},{"distance":1236,"transit":true,"station_id":"JNG","time":9,"i_lat":-6.215091,"line":0,"station_name":"Jatinegara","is_transit":true,"i_long":106.86807400000001},{"i_lat":-6.212485,"distance":1377,"transit":false,"station_id":"MTR","line":1,"station_name":"Matraman","i_long":106.858896,"is_transit":false,"time":2},{"i_lat":-6.209883,"line":0,"is_transit":true,"distance":1275,"transit":false,"time":2,"station_name":"Manggarai","station_id":"MRI","i_long":106.84912},{"line":1,"station_name":"Sudirman","time":4,"i_long":106.822649,"is_transit":false,"station_id":"SUD","distance":3186,"i_lat":-6.202263,"transit":false},{"line":1,"i_long":106.819881,"is_transit":false,"station_id":"SUDB","transit":false,"distance":280,"time":1,"i_lat":-6.201433,"station_name":"Sudirman Baru"},{"station_name":"Karet","time":1,"i_lat":-6.20132,"transit":false,"i_long":106.816351,"station_id":"KAT","is_transit":false,"distance":471,"line":1},{"i_long":106.811091,"station_id":"THB","station_name":"Tanah Abang","time":5,"i_lat":-6.185545,"distance":2029,"is_transit":true,"transit":true,"line":1},{"i_lat":-6.207404,"distance":3191,"line":6,"time":6,"station_id":"PLM","i_long":106.79689,"is_transit":false,"station_name":"Palmerah","transit":false},{"i_lat":-6.237242,"transit":false,"station_name":"Kebayoran","time":7,"line":6,"distance":3737,"station_id":"KBY","i_long":106.780334,"is_transit":false}],[{"transit":false,"i_long":106.861737,"is_transit":false,"i_lat":-6.209188,"distance":0,"line":11,"station_name":"Pondok Jati","station_id":"POK","time":0},{"distance":1829,"time":2,"station_id":"KMT","i_lat":-6.193792,"is_transit":false,"transit":false,"i_long":106.855437,"station_name":"Kramat","line":11},{"distance":973,"station_id":"GST","i_lat":-6.185975,"transit":false,"time":1,"is_transit":false,"station_name":"Gang Sentiong","i_long":106.850107,"line":11},{"station_name":"Pasar Senen","is_transit":false,"time":8,"station_id":"PSE","i_long":106.84368,"distance":1567,"i_lat":-6.174784,"line":11,"transit":false},{"line":11,"i_lat":-6.161728,"is_transit":false,"station_id":"KMO","transit":false,"i_long":106.839204,"station_name":"Kemayoran","distance":1436,"time":4},{"station_id":"RJW","is_transit":false,"i_long":106.836569,"distance":1901,"station_name":"Rajawali","transit":false,"time":5,"i_lat":-6.14505,"line":11},{"i_long":106.826365,"i_lat":-6.132549,"distance":1444,"is_transit":true,"line":0,"station_id":"KPB","station_name":"Kampung Bandan","transit":true,"time":3},{"distance":4102,"station_id":"AK","transit":false,"station_name":"Angke","is_transit":false,"i_long":106.79867,"time":9,"i_lat":-6.144674,"line":0},{"station_name":"Duri","is_transit":true,"transit":true,"line":1,"i_lat":-6.155215,"station_id":"DU","time":4,"i_long":106.800832,"distance":1230},{"station_name":"Tanah Abang","transit":true,"i_long":106.811091,"time":8,"i_lat":-6.185545,"is_transit":true,"line":1,"distance":3632,"station_id":"THB"},{"line":6,"station_id":"PLM","distance":3191,"is_transit":false,"i_long":106.79689,"station_name":"Palmerah","transit":false,"i_lat":-6.207404,"time":6},{"station_name":"Kebayoran","time":7,"i_lat":-6.237242,"transit":false,"i_long":106.780334,"line":6,"distance":3737,"station_id":"KBY","is_transit":false}],[{"station_name":"Pondok Jati","i_lat":-6.209188,"i_long":106.861737,"is_transit":false,"transit":false,"station_id":"POK","line":11,"distance":0,"time":0},{"transit":true,"station_name":"Jatinegara","i_lat":-6.215091,"time":9,"is_transit":true,"i_long":106.86807400000001,"line":0,"station_id":"JNG","distance":1236},{"station_id":"MTR","i_long":106.858896,"station_name":"Matraman","i_lat":-6.212485,"time":2,"line":1,"is_transit":false,"distance":1377,"transit":false},{"distance":1275,"line":0,"i_long":106.84912,"is_transit":true,"station_id":"MRI","i_lat":-6.209883,"station_name":"Manggarai","transit":true,"time":2},{"i_lat":-6.198556,"transit":false,"i_long":106.840169,"station_name":"Cikini","is_transit":false,"distance":1590,"line":0,"time":4,"station_id":"CKI"},{"i_long":106.832183,"i_lat":-6.186295,"is_transit":false,"time":3,"distance":1750,"line":2,"station_name":"Gondangdia","transit":false,"station_id":"GDD"},{"line":2,"is_transit":false,"distance":2015,"time":4,"i_lat":-6.166716,"transit":false,"i_long":106.828284,"station_name":"Juanda","station_id":"JUA"},{"transit":false,"line":2,"is_transit":false,"distance":1149,"station_name":"Sawah Besar","station_id":"SW","i_long":106.827103,"time":2,"i_lat":-6.160725},{"is_transit":false,"time":2,"station_name":"Manggabesar","i_lat":-6.149769,"i_long":106.82482,"transit":false,"station_id":"MGB","line":2,"distance":906},{"i_lat":-6.141205,"distance":1080,"transit":false,"line":7,"station_name":"Jayakarta","station_id":"JAY","time":2,"is_transit":false,"i_long":106.820901},{"station_name":"Jakarta Kota","station_id":"JAKK","transit":true,"line":0,"i_long":106.812439,"i_lat":-6.137569,"distance":1264,"is_transit":true,"time":4},{"i_lat":-6.132549,"line":0,"station_name":"Kampung Bandan","i_long":106.826365,"distance":1364,"is_transit":true,"station_id":"KPB","transit":false,"time":3},{"transit":false,"distance":4102,"station_name":"Angke","i_long":106.79867,"is_transit":false,"time":9,"i_lat":-6.144674,"station_id":"AK","line":0},{"distance":1230,"time":4,"i_lat":-6.155215,"i_long":106.800832,"station_id":"DU","line":1,"station_name":"Duri","is_transit":true,"transit":true},{"i_long":106.811091,"distance":3632,"transit":true,"time":8,"line":1,"is_transit":true,"station_id":"THB","station_name":"Tanah Abang","i_lat":-6.185545},{"station_id":"PLM","line":6,"is_transit":false,"distance":3191,"station_name":"Palmerah","i_lat":-6.207404,"time":6,"transit":false,"i_long":106.79689},{"line":6,"i_lat":-6.237242,"station_name":"Kebayoran","station_id":"KBY","i_long":106.780334,"time":7,"distance":3737,"is_transit":false,"transit":false}],[{"is_transit":false,"station_name":"Pondok Jati","transit":false,"i_long":106.861737,"line":11,"time":0,"distance":0,"i_lat":-6.209188,"station_id":"POK"},{"is_transit":false,"station_name":"Kramat","transit":false,"station_id":"KMT","distance":1829,"line":11,"i_lat":-6.193792,"i_long":106.855437,"time":2},{"station_name":"Gang Sentiong","transit":false,"i_lat":-6.185975,"time":1,"line":11,"station_id":"GST","is_transit":false,"i_long":106.850107,"distance":973},{"transit":false,"i_lat":-6.174784,"station_id":"PSE","station_name":"Pasar Senen","i_long":106.84368,"line":11,"time":8,"is_transit":false,"distance":1567},{"i_long":106.839204,"station_name":"Kemayoran","station_id":"KMO","transit":false,"distance":1436,"line":11,"time":4,"is_transit":false,"i_lat":-6.161728},{"transit":false,"i_lat":-6.14505,"time":5,"i_long":106.836569,"distance":1901,"station_id":"RJW","station_name":"Rajawali","is_transit":false,"line":11},{"i_lat":-6.132549,"i_long":106.826365,"line":0,"station_id":"KPB","station_name":"Kampung Bandan","transit":true,"time":3,"distance":1444,"is_transit":true},{"time":3,"is_transit":true,"station_id":"JAKK","distance":1364,"i_lat":-6.137569,"station_name":"Jakarta Kota","transit":true,"i_long":106.812439,"line":0},{"is_transit":false,"line":7,"i_long":106.820901,"station_id":"JAY","station_name":"Jayakarta","i_lat":-6.141205,"distance":1264,"time":4,"transit":false},{"i_long":106.82482,"station_name":"Manggabesar","line":2,"transit":false,"is_transit":false,"station_id":"MGB","distance":1080,"time":2,"i_lat":-6.149769},{"station_id":"SW","i_long":106.827103,"time":2,"station_name":"Sawah Besar","distance":906,"is_transit":false,"line":2,"transit":false,"i_lat":-6.160725},{"line":2,"i_lat":-6.166716,"distance":1149,"transit":false,"time":2,"station_name":"Juanda","is_transit":false,"station_id":"JUA","i_long":106.828284},{"transit":false,"distance":2015,"is_transit":false,"i_lat":-6.186295,"i_long":106.832183,"line":2,"station_name":"Gondangdia","station_id":"GDD","time":4},{"i_long":106.840169,"time":3,"i_lat":-6.198556,"distance":1750,"station_id":"CKI","transit":false,"line":0,"station_name":"Cikini","is_transit":false},{"transit":true,"is_transit":true,"i_long":106.84912,"i_lat":-6.209883,"station_name":"Manggarai","time":4,"distance":1590,"line":0,"station_id":"MRI"},{"time":4,"distance":3186,"is_transit":false,"transit":false,"line":1,"i_lat":-6.202263,"i_long":106.822649,"station_id":"SUD","station_name":"Sudirman"},{"station_name":"Sudirman Baru","time":1,"line":1,"transit":false,"i_lat":-6.201433,"station_id":"SUDB","distance":280,"is_transit":false,"i_long":106.819881},{"i_long":106.816351,"station_id":"KAT","line":1,"station_name":"Karet","is_transit":false,"distance":471,"transit":false,"i_lat":-6.20132,"time":1},{"station_name":"Tanah Abang","line":1,"is_transit":true,"time":5,"transit":true,"i_lat":-6.185545,"distance":2029,"i_long":106.811091,"station_id":"THB"},{"transit":false,"distance":3191,"is_transit":false,"station_id":"PLM","station_name":"Palmerah","i_long":106.79689,"line":6,"time":6,"i_lat":-6.207404},{"distance":3737,"i_lat":-6.237242,"line":6,"station_id":"KBY","is_transit":false,"transit":false,"i_long":106.780334,"time":7,"station_name":"Kebayoran"}]]}