{"data":[[{"time":0,"transit":false,"is_transit":false,"i_lat":-6.209188,"distance":0,"i_long":106.861737,"line":11,"station_id":"POK","station_name":"Pondok Jati"},{"station_name":"Jatinegara","is_transit":true,"line":1,"i_lat":-6.215091,"distance":1236,"i_long":106.86807400000001,"transit":true,"time":9,"station_id":"JNG"},{"distance":1377,"line":1,"station_name":"Matraman","transit":false,"i_long":106.858896,"is_transit":false,"time":2,"i_lat":-6.212485,"station_id":"MTR"},{"distance":1275,"line":2,"i_lat":-6.209883,"is_transit":false,"transit":false,"i_long":106.84912,"station_id":"MRI","station_name":"Manggarai","time":2},{"transit":false,"distance":3186,"i_long":106.822649,"time":4,"i_lat":-6.202263,"line":1,"station_name":"Sudirman","station_id":"SUD","is_transit":false},{"i_lat":-6.201433,"transit":false,"station_id":"SUDB","i_long":106.819881,"is_transit":false,"station_name":"Sudirman Baru","line":1,"time":1,"distance":280},{"is_transit":false,"distance":471,"line":1,"i_long":106.816351,"station_id":"KAT","transit":false,"station_name":"Karet","time":1,"i_lat":-6.20132},{"station_name":"Tanah Abang","i_long":106.811091,"is_transit":true,"time":5,"transit":true,"line":1,"distance":2029,"station_id":"THB","i_lat":-6.185545},{"i_lat":-6.207404,"is_transit":false,"line":6,"station_id":"PLM","time":6,"transit":false,"station_name":"Palmerah","distance":3191,"i_long":106.79689},{"station_id":"KBY","time":7,"distance":3737,"transit":false,"i_long":106.780334,"station_name":"Kebayoran","line":6,"is_transit":false,"i_lat":-6.237242},{"i_lat":-6.276362,"distance":6218,"line":6,"station_id":"PDJ","transit":false,"i_long":106.74273,"station_name":"Pondokranji","is_transit":false,"time":8},{"transit":false,"i_long":106.728916,"distance":2179,"i_lat":-6.288927,"time":3,"station_name":"Jurangmangu","station_id":"JMU","is_transit":false,"line":6},{"i_long":106.712277,"line":6,"transit":false,"station_name":"Sudimara","is_transit":false,"time":4,"distance":1994,"station_id":"SDM","i_lat":-6.296963},{"is_transit":false,"distance":4566,"i_long":106.675475,"station_id":"RU","line":6,"station_name":"Rawa Buntu","i_lat":-6.314823,"time":6,"transit":false},{"i_long":106.66566,"transit":false,"station_name":"Serpong","time":4,"distance":2413,"i_lat":-6.319871,"is_transit":false,"line":6,"station_id":"SRP"},{"i_long":106.640411,"station_id":"CSK","distance":1784,"line":3,"transit":false,"station_name":"Cisauk","is_transit":false,"time":4,"i_lat":-6.32484},{"station_id":"CC","line":3,"transit":false,"station_name":"Cicayur","distance":2519,"i_lat":-6.329547,"i_long":106.617853,"is_transit":false,"time":4}],[{"line":11,"transit":false,"time":0,"distance":0,"station_name":"Pondok Jati","i_lat":-6.209188,"station_id":"POK","is_transit":false,"i_long":106.861737},{"i_long":106.855437,"distance":1829,"station_name":"Kramat","station_id":"KMT","i_lat":-6.193792,"transit":false,"line":11,"is_transit":false,"time":2},{"transit":false,"is_transit":false,"station_name":"Gang Sentiong","line":11,"i_long":106.850107,"distance":973,"time":1,"i_lat":-6.185975,"station_id":"GST"},{"distance":1567,"transit":false,"i_long":106.84368,"line":11,"i_lat":-6.174784,"station_id":"PSE","station_name":"Pasar Senen","time":8,"is_transit":false},{"is_transit":false,"transit":false,"distance":1436,"station_name":"Kemayoran","i_lat":-6.161728,"line":11,"station_id":"KMO","time":4,"i_long":106.839204},{"transit":false,"i_lat":-6.14505,"time":5,"line":11,"station_id":"RJW","i_long":106.836569,"distance":1901,"station_name":"Rajawali","is_transit":false},{"transit":true,"station_name":"Kampung Bandan","distance":1444,"i_long":106.826365,"is_transit":true,"i_lat":-6.132549,"line":4,"station_id":"KPB","time":3},{"station_name":"Angke","station_id":"AK","i_lat":-6.144674,"line":1,"transit":false,"i_long":106.79867,"is_transit":false,"distance":4102,"time":9},{"time":4,"i_long":106.800832,"transit":false,"line":1,"station_id":"DU","station_name":"Duri","is_transit":false,"distance":1230,"i_lat":-6.155215},{"is_transit":true,"i_lat":-6.185545,"station_id":"THB","distance":3632,"transit":true,"i_long":106.811091,"line":1,"time":8,"station_name":"Tanah Abang"},{"i_lat":-6.207404,"transit":false,"i_long":106.79689,"station_name":"Palmerah","station_id":"PLM","time":6,"distance":3191,"line":6,"is_transit":false},{"station_id":"KBY","i_long":106.780334,"time":7,"distance":3737,"is_transit":false,"line":6,"transit":false,"i_lat":-6.237242,"station_name":"Kebayoran"},{"station_id":"PDJ","i_long":106.74273,"time":8,"i_lat":-6.276362,"station_name":"Pondokranji","line":6,"transit":false,"is_transit":false,"distance":6218},{"time":3,"distance":2179,"is_transit":false,"transit":false,"station_id":"JMU","i_lat":-6.288927,"station_name":"Jurangmangu","i_long":106.728916,"line":6},{"line":6,"i_long":106.712277,"i_lat":-6.296963,"station_id":"SDM","is_transit":false,"time":4,"station_name":"Sudimara","transit":false,"distance":1994},{"station_id":"RU","i_lat":-6.314823,"transit":false,"station_name":"Rawa Buntu","time":6,"distance":4566,"line":6,"i_long":106.675475,"is_transit":false},{"is_transit":false,"time":4,"station_name":"Serpong","distance":2413,"transit":false,"station_id":"SRP","i_lat":-6.319871,"i_long":106.66566,"line":6},{"transit":false,"station_id":"CSK","line":3,"is_transit":false,"distance":1784,"i_long":106.640411,"i_lat":-6.32484,"time":4,"station_name":"Cisauk"},{"line":3,"transit":false,"station_name":"Cicayur","i_long":106.617853,"station_id":"CC","time":4,"i_lat":-6.329547,"distance":2519,"is_transit":false}],[{"i_lat":-6.209188,"line":11,"i_long":106.861737,"transit":false,"distance":0,"time":0,"is_transit":false,"station_name":"Pondok Jati","station_id":"POK"},{"transit":true,"station_name":"Jatinegara","station_id":"JNG","time":9,"i_lat":-6.215091,"is_transit":true,"line":1,"distance":1236,"i_long":106.86807400000001},{"i_long":106.858896,"line":1,"transit":false,"time":2,"station_id":"MTR","is_transit":false,"distance":1377,"i_lat":-6.212485,"station_name":"Matraman"},{"station_id":"MRI","distance":1275,"i_lat":-6.209883,"time":2,"line":2,"is_transit":true,"i_long":106.84912,"transit":true,"station_name":"Manggarai"},{"transit":false,"is_transit":false,"station_name":"Cikini","distance":1590,"station_id":"CKI","i_long":106.840169,"time":4,"i_lat":-6.198556,"line":2},{"distance":1750,"transit":false,"station_name":"Gondangdia","i_long":106.832183,"line":2,"i_lat":-6.186295,"station_id":"GDD","time":3,"is_transit":false},{"is_transit":false,"transit":false,"station_name":"Juanda","line":2,"i_lat":-6.166716,"i_long":106.828284,"distance":2015,"time":4,"station_id":"JUA"},{"i_long":106.827103,"is_transit":false,"i_lat":-6.160725,"distance":1149,"line":2,"station_id":"SW","station_name":"Sawah Besar","transit":false,"time":2},{"station_name":"Manggabesar","i_long":106.82482,"time":2,"transit":false,"station_id":"MGB","is_transit":false,"i_lat":-6.149769,"distance":906,"line":2},{"is_transit":false,"transit":false,"line":2,"distance":1080,"i_long":106.820901,"station_id":"JAY","time":2,"i_lat":-6.141205,"station_name":"Jayakarta"},{"station_id":"JAKK","line":2,"transit":true,"is_transit":true,"station_name":"Jakarta Kota","i_long":106.812439,"distance":1264,"time":4,"i_lat":-6.137569},{"i_long":106.826365,"transit":true,"station_name":"Kampung Bandan","station_id":"KPB","is_transit":true,"distance":1364,"i_lat":-6.132549,"time":3,"line":4},{"is_transit":false,"i_long":106.79867,"line":1,"time":9,"station_id":"AK","transit":false,"station_name":"Angke","distance":4102,"i_lat":-6.144674},{"is_transit":false,"i_long":106.800832,"station_id":"DU","station_name":"Duri","transit":false,"i_lat":-6.155215,"line":1,"time":4,"distance":1230},{"is_transit":true,"time":8,"station_name":"Tanah Abang","distance":3632,"station_id":"THB","transit":true,"i_long":106.811091,"i_lat":-6.185545,"line":1},{"line":6,"time":6,"station_id":"PLM","transit":false,"is_transit":false,"distance":3191,"i_lat":-6.207404,"station_name":"Palmerah","i_long":106.79689},{"time":7,"line":6,"station_name":"Kebayoran","station_id":"KBY","distance":3737,"is_transit":false,"i_long":106.780334,"transit":false,"i_lat":-6.237242},{"station_name":"Pondokranji","line":6,"is_transit":false,"distance":6218,"transit":false,"i_lat":-6.276362,"station_id":"PDJ","time":8,"i_long":106.74273},{"is_transit":false,"i_lat":-6.288927,"station_id":"JMU","i_long":106.728916,"line":6,"distance":2179,"transit":false,"station_name":"Jurangmangu","time":3},{"i_long":106.712277,"station_id":"SDM","i_lat":-6.296963,"transit":false,"distance":1994,"is_transit":false,"time":4,"station_name":"Sudimara","line":6},{"time":6,"line":6,"i_long":106.675475,"station_name":"Rawa Buntu","is_transit":false,"i_lat":-6.314823,"distance":4566,"transit":false,"station_id":"RU"},{"time":4,"i_lat":-6.319871,"transit":false,"station_id":"SRP","i_long":106.66566,"line":6,"is_transit":false,"station_name":"Serpong","distance":2413},{"transit":false,"station_id":"CSK","i_long":106.640411,"station_name":"Cisauk","is_transit":false,"time":4,"distance":1784,"i_lat":-6.32484,"line":3},{"distance":2519,"i_long":106.617853,"station_id":"CC","i_lat":-6.329547,"is_transit":false,"transit":false,"time":4,"line":3,"station_name":"Cicayur"}],[{"transit":false,"is_transit":false,"time":0,"station_name":"Pondok Jati","distance":0,"i_long":106.861737,"station_id":"POK","line":11,"i_lat":-6.209188},{"station_name":"Kramat","line":11,"station_id":"KMT","distance":1829,"is_transit":false,"i_lat":-6.193792,"time":2,"i_long":106.855437,"transit":false},{"i_lat":-6.185975,"distance":973,"line":11,"station_name":"Gang Sentiong","station_id":"GST","transit":false,"time":1,"i_long":106.850107,"is_transit":false},{"station_id":"PSE","station_name":"Pasar Senen","is_transit":false,"distance":1567,"i_lat":-6.174784,"i_long":106.84368,"line":11,"transit":false,"time":8},{"i_long":106.839204,"is_transit":false,"time":4,"i_lat":-6.161728,"distance":1436,"station_name":"Kemayoran","station_id":"KMO","transit":false,"line":11},{"station_name":"Rajawali","is_transit":false,"time":5,"line":11,"station_id":"RJW","transit":false,"i_long":106.836569,"distance":1901,"i_lat":-6.14505},{"is_transit":true,"line":4,"transit":true,"station_id":"KPB","station_name":"Kampung Bandan","i_lat":-6.132549,"i_long":106.826365,"distance":1444,"time":3},{"time":3,"station_name":"Jakarta Kota","i_lat":-6.137569,"transit":true,"line":2,"is_transit":true,"station_id":"JAKK","distance":1364,"i_long":106.812439},{"station_name":"Jayakarta","transit":false,"time":4,"station_id":"JAY","i_lat":-6.141205,"line":2,"i_long":106.820901,"is_transit":false,"distance":1264},{"distance":1080,"transit":false,"station_name":"Manggabesar","i_lat":-6.149769,"time":2,"line":2,"station_id":"MGB","i_long":106.82482,"is_transit":false},{"i_lat":-6.160725,"is_transit":false,"station_id":"SW","time":2,"line":2,"station_name":"Sawah Besar","i_long":106.827103,"transit":false,"distance":906},{"station_name":"Juanda","is_transit":false,"time":2,"line":2,"station_id":"JUA","distance":1149,"i_long":106.828284,"i_lat":-6.166716,"transit":false},{"station_name":"Gondangdia","distance":2015,"i_long":106.832183,"line":2,"station_id":"GDD","transit":false,"is_transit":false,"time":4,"i_lat":-6.186295},{"station_name":"Cikini","line":2,"transit":false,"time":3,"station_id":"CKI","i_long":106.840169,"is_transit":false,"distance":1750,"i_lat":-6.198556},{"time":4,"distance":1590,"transit":true,"is_transit":true,"station_name":"Manggarai","i_lat":-6.209883,"line":2,"i_long":106.84912,"station_id":"MRI"},{"is_transit":false,"distance":3186,"i_lat":-6.202263,"line":1,"i_long":106.822649,"station_id":"SUD","station_name":"Sudirman","transit":false,"time":4},{"i_lat":-6.201433,"transit":false,"is_transit":false,"time":1,"station_id":"SUDB","station_name":"Sudirman Baru","i_long":106.819881,"line":1,"distance":280},{"i_lat":-6.20132,"time":1,"transit":false,"is_transit":false,"station_name":"Karet","distance":471,"i_long":106.816351,"station_id":"KAT","line":1},{"time":5,"distance":2029,"station_name":"Tanah Abang","line":1,"transit":true,"station_id":"THB","is_transit":true,"i_lat":-6.185545,"i_long":106.811091},{"time":6,"transit":false,"line":6,"i_lat":-6.207404,"i_long":106.79689,"distance":3191,"is_transit":false,"station_id":"PLM","station_name":"Palmerah"},{"i_long":106.780334,"distance":3737,"time":7,"transit":false,"station_name":"Kebayoran","i_lat":-6.237242,"line":6,"is_transit":false,"station_id":"KBY"},{"is_transit":false,"i_lat":-6.276362,"transit":false,"station_id":"PDJ","i_long":106.74273,"station_name":"Pondokranji","distance":6218,"time":8,"line":6},{"i_lat":-6.288927,"line":6,"is_transit":false,"station_id":"JMU","time":3,"station_name":"Jurangmangu","transit":false,"distance":2179,"i_long":106.728916},{"station_id":"SDM","is_transit":false,"i_lat":-6.296963,"station_name":"Sudimara","transit":false,"time":4,"distance":1994,"line":6,"i_long":106.712277},{"time":6,"distance":4566,"i_long":106.675475,"transit":false,"is_transit":false,"i_lat":-6.314823,"station_name":"Rawa Buntu","line":6,"station_id":"RU"},{"i_lat":-6.319871,"transit":false,"distance":2413,"line":6,"is_transit":false,"station_name":"Serpong","time":4,"i_long":106.66566,"station_id":"SRP"},{"transit":false,"station_id":"CSK","station_name":"Cisauk","time":4,"distance":1784,"i_lat":-6.32484,"is_transit":false,"i_long":106.640411,"line":3},{"i_long":106.617853,"line":3,"station_name":"Cicayur","transit":false,"time":4,"distance":2519,"station_id":"CC","is_transit":false,"i_lat":-6.329547}]]}