{"data":[[{"station_id":"POK","line":11,"time":0,"station_name":"Pondok Jati","transit":false,"i_lat":-6.209188,"i_long":106.861737,"is_transit":false,"distance":0},{"line":1,"distance":1236,"station_id":"JNG","station_name":"Jatinegara","time":9,"i_long":106.86807400000001,"i_lat":-6.215091,"transit":true,"is_transit":true},{"i_lat":-6.212485,"is_transit":false,"station_name":"Matraman","distance":1377,"station_id":"MTR","i_long":106.858896,"line":1,"transit":false,"time":2},{"station_name":"Manggarai","time":2,"is_transit":false,"i_long":106.84912,"station_id":"MRI","i_lat":-6.209883,"transit":false,"line":2,"distance":1275},{"is_transit":false,"time":4,"line":1,"i_long":106.822649,"station_id":"SUD","i_lat":-6.202263,"distance":3186,"transit":false,"station_name":"Sudirman"},{"distance":280,"station_id":"SUDB","transit":false,"station_name":"Sudirman Baru","time":1,"i_lat":-6.201433,"line":1,"i_long":106.819881,"is_transit":false},{"time":1,"station_id":"KAT","distance":471,"station_name":"Karet","is_transit":false,"i_long":106.816351,"transit":false,"line":1,"i_lat":-6.20132},{"station_id":"THB","time":5,"line":1,"station_name":"Tanah Abang","i_long":106.811091,"is_transit":true,"distance":2029,"transit":true,"i_lat":-6.185545},{"distance":3191,"station_id":"PLM","station_name":"Palmerah","i_lat":-6.207404,"is_transit":false,"line":6,"i_long":106.79689,"transit":false,"time":6},{"distance":3737,"station_name":"Kebayoran","i_long":106.780334,"station_id":"KBY","is_transit":false,"transit":false,"i_lat":-6.237242,"line":6,"time":7},{"station_name":"Pondokranji","distance":6218,"is_transit":false,"i_lat":-6.276362,"i_long":106.74273,"line":6,"station_id":"PDJ","transit":false,"time":8},{"i_long":106.728916,"is_transit":false,"i_lat":-6.288927,"line":6,"distance":2179,"station_name":"Jurangmangu","time":3,"station_id":"JMU","transit":false}],[{"time":0,"line":11,"distance":0,"i_long":106.861737,"is_transit":false,"station_name":"Pondok Jati","i_lat":-6.209188,"transit":false,"station_id":"POK"},{"is_transit":false,"distance":1829,"station_id":"KMT","time":2,"i_long":106.855437,"i_lat":-6.193792,"station_name":"Kramat","line":11,"transit":false},{"i_long":106.850107,"is_transit":false,"station_name":"Gang Sentiong","station_id":"GST","transit":false,"distance":973,"time":1,"line":11,"i_lat":-6.185975},{"i_lat":-6.174784,"i_long":106.84368,"station_name":"Pasar Senen","line":11,"is_transit":false,"station_id":"PSE","time":8,"distance":1567,"transit":false},{"station_id":"KMO","time":4,"is_transit":false,"distance":1436,"i_lat":-6.161728,"i_long":106.839204,"station_name":"Kemayoran","transit":false,"line":11},{"station_id":"RJW","transit":false,"is_transit":false,"distance":1901,"station_name":"Rajawali","i_lat":-6.14505,"i_long":106.836569,"line":11,"time":5},{"distance":1444,"transit":true,"station_name":"Kampung Bandan","is_transit":true,"time":3,"line":4,"station_id":"KPB","i_lat":-6.132549,"i_long":106.826365},{"time":9,"i_lat":-6.144674,"transit":false,"distance":4102,"is_transit":false,"station_id":"AK","line":1,"station_name":"Angke","i_long":106.79867},{"transit":false,"station_id":"DU","time":4,"i_lat":-6.155215,"distance":1230,"i_long":106.800832,"line":1,"station_name":"Duri","is_transit":false},{"station_name":"Tanah Abang","distance":3632,"station_id":"THB","i_lat":-6.185545,"is_transit":true,"time":8,"transit":true,"i_long":106.811091,"line":1},{"time":6,"station_id":"PLM","distance":3191,"transit":false,"is_transit":false,"i_lat":-6.207404,"station_name":"Palmerah","i_long":106.79689,"line":6},{"station_name":"Kebayoran","station_id":"KBY","line":6,"distance":3737,"transit":false,"is_transit":false,"time":7,"i_lat":-6.237242,"i_long":106.780334},{"transit":false,"i_lat":-6.276362,"station_name":"Pondokranji","is_transit":false,"i_long":106.74273,"time":8,"line":6,"distance":6218,"station_id":"PDJ"},{"time":3,"i_long":106.728916,"transit":false,"station_id":"JMU","station_name":"Jurangmangu","is_transit":false,"line":6,"i_lat":-6.288927,"distance":2179}],[{"line":11,"time":0,"i_lat":-6.209188,"station_id":"POK","transit":false,"is_transit":false,"distance":0,"station_name":"Pondok Jati","i_long":106.861737},{"station_id":"JNG","station_name":"Jatinegara","distance":1236,"i_lat":-6.215091,"i_long":106.86807400000001,"is_transit":true,"line":1,"time":9,"transit":true},{"station_name":"Matraman","is_transit":false,"line":1,"i_long":106.858896,"transit":false,"time":2,"distance":1377,"station_id":"MTR","i_lat":-6.212485},{"station_name":"Manggarai","distance":1275,"station_id":"MRI","time":2,"transit":true,"i_lat":-6.209883,"line":2,"i_long":106.84912,"is_transit":true},{"transit":false,"distance":1590,"station_name":"Cikini","i_lat":-6.198556,"line":2,"is_transit":false,"i_long":106.840169,"time":4,"station_id":"CKI"},{"station_name":"Gondangdia","station_id":"GDD","distance":1750,"i_lat":-6.186295,"i_long":106.832183,"is_transit":false,"transit":false,"time":3,"line":2},{"station_name":"Juanda","i_long":106.828284,"station_id":"JUA","distance":2015,"transit":false,"line":2,"is_transit":false,"time":4,"i_lat":-6.166716},{"transit":false,"is_transit":false,"time":2,"i_lat":-6.160725,"line":2,"station_id":"SW","station_name":"Sawah Besar","i_long":106.827103,"distance":1149},{"i_lat":-6.149769,"line":2,"distance":906,"is_transit":false,"station_id":"MGB","station_name":"Manggabesar","i_long":106.82482,"transit":false,"time":2},{"line":2,"transit":false,"is_transit":false,"station_name":"Jayakarta","time":2,"i_long":106.820901,"distance":1080,"station_id":"JAY","i_lat":-6.141205},{"distance":1264,"i_long":106.812439,"line":2,"i_lat":-6.137569,"station_id":"JAKK","transit":true,"station_name":"Jakarta Kota","time":4,"is_transit":true},{"is_transit":true,"station_name":"Kampung Bandan","time":3,"transit":true,"i_long":106.826365,"distance":1364,"station_id":"KPB","line":4,"i_lat":-6.132549},{"distance":4102,"line":1,"station_id":"AK","station_name":"Angke","i_long":106.79867,"is_transit":false,"time":9,"i_lat":-6.144674,"transit":false},{"station_id":"DU","i_long":106.800832,"distance":1230,"is_transit":false,"line":1,"transit":false,"station_name":"Duri","time":4,"i_lat":-6.155215},{"is_transit":true,"transit":true,"i_long":106.811091,"time":8,"line":1,"station_id":"THB","station_name":"Tanah Abang","i_lat":-6.185545,"distance":3632},{"is_transit":false,"i_long":106.79689,"time":6,"i_lat":-6.207404,"transit":false,"distance":3191,"station_id":"PLM","station_name":"Palmerah","line":6},{"station_name":"Kebayoran","transit":false,"is_transit":false,"station_id":"KBY","distance":3737,"time":7,"line":6,"i_long":106.780334,"i_lat":-6.237242},{"is_transit":false,"line":6,"station_name":"Pondokranji","i_lat":-6.276362,"station_id":"PDJ","transit":false,"time":8,"i_long":106.74273,"distance":6218},{"is_transit":false,"station_name":"Jurangmangu","line":6,"station_id":"JMU","time":3,"distance":2179,"transit":false,"i_lat":-6.288927,"i_long":106.728916}],[{"i_lat":-6.209188,"is_transit":false,"station_id":"POK","transit":false,"line":11,"station_name":"Pondok Jati","distance":0,"time":0,"i_long":106.861737},{"distance":1829,"transit":false,"station_id":"KMT","i_lat":-6.193792,"time":2,"line":11,"i_long":106.855437,"is_transit":false,"station_name":"Kramat"},{"transit":false,"station_name":"Gang Sentiong","station_id":"GST","time":1,"i_long":106.850107,"i_lat":-6.185975,"distance":973,"line":11,"is_transit":false},{"transit":false,"station_name":"Pasar Senen","i_lat":-6.174784,"i_long":106.84368,"station_id":"PSE","distance":1567,"line":11,"time":8,"is_transit":false},{"distance":1436,"station_id":"KMO","i_lat":-6.161728,"line":11,"i_long":106.839204,"transit":false,"is_transit":false,"station_name":"Kemayoran","time":4},{"transit":false,"i_lat":-6.14505,"i_long":106.836569,"distance":1901,"line":11,"is_transit":false,"station_name":"Rajawali","time":5,"station_id":"RJW"},{"is_transit":true,"time":3,"station_name":"Kampung Bandan","station_id":"KPB","line":4,"transit":true,"distance":1444,"i_long":106.826365,"i_lat":-6.132549},{"distance":1364,"line":2,"is_transit":true,"transit":true,"station_id":"JAKK","station_name":"Jakarta Kota","i_lat":-6.137569,"time":3,"i_long":106.812439},{"is_transit":false,"distance":1264,"transit":false,"station_id":"JAY","i_lat":-6.141205,"line":2,"station_name":"Jayakarta","i_long":106.820901,"time":4},{"is_transit":false,"transit":false,"station_name":"Manggabesar","i_lat":-6.149769,"line":2,"i_long":106.82482,"station_id":"MGB","time":2,"distance":1080},{"distance":906,"i_long":106.827103,"transit":false,"time":2,"station_id":"SW","i_lat":-6.160725,"line":2,"is_transit":false,"station_name":"Sawah Besar"},{"station_id":"JUA","is_transit":false,"i_lat":-6.166716,"i_long":106.828284,"line":2,"station_name":"Juanda","transit":false,"time":2,"distance":1149},{"i_long":106.832183,"is_transit":false,"station_name":"Gondangdia","time":4,"i_lat":-6.186295,"transit":false,"distance":2015,"station_id":"GDD","line":2},{"time":3,"i_lat":-6.198556,"transit":false,"line":2,"i_long":106.840169,"station_name":"Cikini","is_transit":false,"distance":1750,"station_id":"CKI"},{"station_id":"MRI","i_lat":-6.209883,"time":4,"i_long":106.84912,"line":2,"is_transit":true,"distance":1590,"transit":true,"station_name":"Manggarai"},{"time":4,"i_lat":-6.202263,"transit":false,"is_transit":false,"distance":3186,"station_name":"Sudirman","station_id":"SUD","i_long":106.822649,"line":1},{"station_name":"Sudirman Baru","i_lat":-6.201433,"is_transit":false,"line":1,"distance":280,"time":1,"station_id":"SUDB","i_long":106.819881,"transit":false},{"distance":471,"i_long":106.816351,"station_id":"KAT","transit":false,"i_lat":-6.20132,"is_transit":false,"time":1,"station_name":"Karet","line":1},{"line":1,"station_id":"THB","distance":2029,"station_name":"Tanah Abang","i_long":106.811091,"transit":true,"time":5,"is_transit":true,"i_lat":-6.185545},{"station_id":"PLM","time":6,"transit":false,"is_transit":false,"distance":3191,"station_name":"Palmerah","i_long":106.79689,"line":6,"i_lat":-6.207404},{"transit":false,"distance":3737,"line":6,"station_id":"KBY","time":7,"i_lat":-6.237242,"is_transit":false,"i_long":106.780334,"station_name":"Kebayoran"},{"transit":false,"station_id":"PDJ","time":8,"i_long":106.74273,"is_transit":false,"distance":6218,"station_name":"Pondokranji","i_lat":-6.276362,"line":6},{"station_name":"Jurangmangu","line":6,"i_lat":-6.288927,"i_long":106.728916,"distance":2179,"station_id":"JMU","time":3,"is_transit":false,"transit":false}]]}