{"data":[[{"transit":false,"time":0,"line":11,"station_name":"Pondok Jati","i_lat":-6.209188,"is_transit":false,"distance":0,"station_id":"POK","i_long":106.861737},{"distance":1236,"time":9,"i_lat":-6.215091,"i_long":106.86807400000001,"is_transit":true,"station_id":"JNG","station_name":"Jatinegara","line":1,"transit":true},{"transit":false,"distance":1377,"time":2,"i_long":106.858896,"is_transit":false,"line":1,"station_name":"Matraman","station_id":"MTR","i_lat":-6.212485},{"transit":true,"i_lat":-6.209883,"line":2,"station_id":"MRI","station_name":"Manggarai","is_transit":true,"i_long":106.84912,"time":2,"distance":1275},{"i_long":106.857948,"is_transit":false,"time":4,"i_lat":-6.226659,"distance":2610,"transit":false,"station_name":"Tebet","line":2,"station_id":"TEB"},{"distance":1230,"is_transit":false,"station_id":"CW","transit":false,"line":2,"i_lat":-6.242512,"station_name":"Cawang","time":2,"i_long":106.856607},{"station_id":"DRN","i_lat":-6.255332,"time":3,"i_long":106.85449,"distance":1546,"is_transit":false,"transit":false,"line":2,"station_name":"Duren Kalibata"},{"is_transit":false,"station_name":"Pasar Minggu Baru","time":2,"station_id":"PSMB","distance":824,"transit":false,"i_lat":-6.263214,"line":2,"i_long":106.851577},{"transit":false,"time":2,"i_lat":-6.2842400000000005,"i_long":106.843999,"line":2,"station_id":"PSM","station_name":"Pasar Minggu","is_transit":false,"distance":2380},{"station_name":"Tanjung Barat","transit":false,"is_transit":false,"station_id":"TNT","i_long":106.838896,"distance":2820,"line":2,"time":4,"i_lat":-6.3080680000000005},{"station_name":"Lenteng Agung","is_transit":false,"line":2,"time":3,"station_id":"LNA","distance":2671,"transit":false,"i_lat":-6.330363,"i_long":106.832616},{"station_id":"UP","distance":1029,"i_lat":-6.339291,"transit":false,"is_transit":false,"i_long":106.834175,"station_name":"Univ. Pancasila","time":2,"line":2},{"distance":2264,"i_long":106.831474,"line":2,"i_lat":-6.360749,"is_transit":false,"time":3,"station_name":"Univ. Indonesia","station_id":"UI","transit":false},{"station_name":"Pondok Cina","is_transit":false,"station_id":"POC","i_long":106.831114,"line":2,"i_lat":-6.369073,"distance":1109,"transit":false,"time":2},{"transit":false,"i_lat":-6.391065,"i_long":106.819451,"is_transit":false,"station_name":"Depokbaru","time":4,"line":2,"distance":2727,"station_id":"DPB"}],[{"i_long":106.861737,"station_id":"POK","is_transit":false,"transit":false,"station_name":"Pondok Jati","time":0,"distance":0,"i_lat":-6.209188,"line":11},{"i_long":106.855437,"line":11,"distance":1829,"station_name":"Kramat","time":2,"is_transit":false,"transit":false,"i_lat":-6.193792,"station_id":"KMT"},{"station_id":"GST","station_name":"Gang Sentiong","time":1,"line":11,"distance":973,"transit":false,"is_transit":false,"i_lat":-6.185975,"i_long":106.850107},{"time":8,"line":11,"is_transit":false,"transit":false,"station_id":"PSE","distance":1567,"i_long":106.84368,"i_lat":-6.174784,"station_name":"Pasar Senen"},{"i_long":106.839204,"station_id":"KMO","time":4,"i_lat":-6.161728,"line":11,"transit":false,"station_name":"Kemayoran","is_transit":false,"distance":1436},{"distance":1901,"station_name":"Rajawali","i_lat":-6.14505,"station_id":"RJW","is_transit":false,"transit":false,"time":5,"i_long":106.836569,"line":11},{"time":3,"distance":1444,"i_long":106.826365,"is_transit":true,"i_lat":-6.132549,"transit":true,"station_name":"Kampung Bandan","station_id":"KPB","line":4},{"distance":4102,"time":9,"i_lat":-6.144674,"i_long":106.79867,"is_transit":false,"transit":false,"station_name":"Angke","line":1,"station_id":"AK"},{"line":1,"distance":1230,"transit":false,"is_transit":false,"station_id":"DU","time":4,"i_lat":-6.155215,"i_long":106.800832,"station_name":"Duri"},{"transit":false,"station_id":"THB","distance":3632,"i_lat":-6.185545,"is_transit":false,"time":8,"station_name":"Tanah Abang","i_long":106.811091,"line":1},{"station_id":"KAT","is_transit":false,"i_lat":-6.20132,"line":1,"i_long":106.816351,"distance":2029,"transit":false,"station_name":"Karet","time":5},{"i_long":106.819881,"distance":471,"i_lat":-6.201433,"station_name":"Sudirman Baru","transit":false,"line":1,"is_transit":false,"time":1,"station_id":"SUDB"},{"i_long":106.822649,"line":1,"i_lat":-6.202263,"transit":false,"time":1,"station_name":"Sudirman","station_id":"SUD","distance":280,"is_transit":false},{"is_transit":true,"line":2,"i_lat":-6.209883,"time":4,"distance":3186,"station_name":"Manggarai","transit":true,"i_long":106.84912,"station_id":"MRI"},{"transit":false,"line":2,"is_transit":false,"distance":2610,"i_lat":-6.226659,"station_name":"Tebet","station_id":"TEB","time":4,"i_long":106.857948},{"station_name":"Cawang","transit":false,"i_long":106.856607,"station_id":"CW","time":2,"is_transit":false,"i_lat":-6.242512,"line":2,"distance":1230},{"station_name":"Duren Kalibata","station_id":"DRN","i_lat":-6.255332,"i_long":106.85449,"time":3,"is_transit":false,"line":2,"distance":1546,"transit":false},{"is_transit":false,"distance":824,"transit":false,"station_name":"Pasar Minggu Baru","i_lat":-6.263214,"time":2,"i_long":106.851577,"line":2,"station_id":"PSMB"},{"station_name":"Pasar Minggu","line":2,"distance":2380,"time":2,"station_id":"PSM","transit":false,"is_transit":false,"i_long":106.843999,"i_lat":-6.2842400000000005},{"line":2,"is_transit":false,"station_id":"TNT","time":4,"transit":false,"i_long":106.838896,"station_name":"Tanjung Barat","distance":2820,"i_lat":-6.3080680000000005},{"station_id":"LNA","distance":2671,"line":2,"i_lat":-6.330363,"transit":false,"i_long":106.832616,"is_transit":false,"station_name":"Lenteng Agung","time":3},{"transit":false,"line":2,"is_transit":false,"i_lat":-6.339291,"station_name":"Univ. Pancasila","time":2,"station_id":"UP","distance":1029,"i_long":106.834175},{"line":2,"time":3,"station_name":"Univ. Indonesia","i_lat":-6.360749,"distance":2264,"transit":false,"i_long":106.831474,"is_transit":false,"station_id":"UI"},{"is_transit":false,"station_id":"POC","line":2,"i_lat":-6.369073,"distance":1109,"i_long":106.831114,"transit":false,"time":2,"station_name":"Pondok Cina"},{"station_id":"DPB","time":4,"i_lat":-6.391065,"is_transit":false,"distance":2727,"line":2,"i_long":106.819451,"station_name":"Depokbaru","transit":false}],[{"i_long":106.861737,"line":11,"time":0,"station_name":"Pondok Jati","i_lat":-6.209188,"is_transit":false,"station_id":"POK","transit":false,"distance":0},{"i_long":106.855437,"distance":1829,"station_name":"Kramat","station_id":"KMT","is_transit":false,"transit":false,"time":2,"i_lat":-6.193792,"line":11},{"is_transit":false,"station_name":"Gang Sentiong","distance":973,"transit":false,"i_long":106.850107,"station_id":"GST","time":1,"line":11,"i_lat":-6.185975},{"distance":1567,"line":11,"station_name":"Pasar Senen","i_lat":-6.174784,"time":8,"station_id":"PSE","is_transit":false,"transit":false,"i_long":106.84368},{"station_name":"Kemayoran","line":11,"i_long":106.839204,"transit":false,"distance":1436,"station_id":"KMO","is_transit":false,"i_lat":-6.161728,"time":4},{"is_transit":false,"station_name":"Rajawali","transit":false,"i_lat":-6.14505,"distance":1901,"line":11,"time":5,"station_id":"RJW","i_long":106.836569},{"distance":1444,"is_transit":true,"transit":true,"line":4,"i_lat":-6.132549,"station_name":"Kampung Bandan","time":3,"station_id":"KPB","i_long":106.826365},{"station_id":"JAKK","distance":1364,"is_transit":true,"time":3,"station_name":"Jakarta Kota","i_lat":-6.137569,"transit":true,"line":2,"i_long":106.812439},{"is_transit":false,"station_name":"Jayakarta","i_lat":-6.141205,"station_id":"JAY","transit":false,"distance":1264,"line":2,"i_long":106.820901,"time":4},{"distance":1080,"station_id":"MGB","line":2,"station_name":"Manggabesar","time":2,"transit":false,"i_long":106.82482,"is_transit":false,"i_lat":-6.149769},{"distance":906,"station_name":"Sawah Besar","time":2,"i_long":106.827103,"i_lat":-6.160725,"station_id":"SW","is_transit":false,"line":2,"transit":false},{"i_long":106.828284,"line":2,"i_lat":-6.166716,"distance":1149,"time":2,"station_name":"Juanda","is_transit":false,"station_id":"JUA","transit":false},{"time":4,"i_long":106.832183,"i_lat":-6.186295,"is_transit":false,"station_name":"Gondangdia","station_id":"GDD","distance":2015,"transit":false,"line":2},{"is_transit":false,"distance":1750,"station_id":"CKI","transit":false,"i_long":106.840169,"time":3,"i_lat":-6.198556,"line":2,"station_name":"Cikini"},{"i_long":106.84912,"line":2,"station_id":"MRI","station_name":"Manggarai","time":4,"distance":1590,"is_transit":false,"transit":false,"i_lat":-6.209883},{"station_name":"Tebet","time":4,"i_lat":-6.226659,"distance":2610,"transit":false,"line":2,"i_long":106.857948,"is_transit":false,"station_id":"TEB"},{"line":2,"i_long":106.856607,"transit":false,"station_name":"Cawang","time":2,"distance":1230,"i_lat":-6.242512,"is_transit":false,"station_id":"CW"},{"station_name":"Duren Kalibata","i_lat":-6.255332,"line":2,"i_long":106.85449,"station_id":"DRN","time":3,"distance":1546,"transit":false,"is_transit":false},{"is_transit":false,"distance":824,"i_long":106.851577,"time":2,"station_id":"PSMB","line":2,"transit":false,"i_lat":-6.263214,"station_name":"Pasar Minggu Baru"},{"station_id":"PSM","distance":2380,"is_transit":false,"transit":false,"time":2,"i_long":106.843999,"line":2,"i_lat":-6.2842400000000005,"station_name":"Pasar Minggu"},{"station_name":"Tanjung Barat","time":4,"transit":false,"i_long":106.838896,"distance":2820,"i_lat":-6.3080680000000005,"is_transit":false,"station_id":"TNT","line":2},{"station_name":"Lenteng Agung","transit":false,"distance":2671,"line":2,"i_long":106.832616,"time":3,"is_transit":false,"station_id":"LNA","i_lat":-6.330363},{"time":2,"i_lat":-6.339291,"distance":1029,"transit":false,"line":2,"station_name":"Univ. Pancasila","station_id":"UP","is_transit":false,"i_long":106.834175},{"station_name":"Univ. Indonesia","line":2,"i_long":106.831474,"is_transit":false,"station_id":"UI","distance":2264,"i_lat":-6.360749,"transit":false,"time":3},{"i_long":106.831114,"time":2,"station_id":"POC","distance":1109,"transit":false,"is_transit":false,"station_name":"Pondok Cina","i_lat":-6.369073,"line":2},{"distance":2727,"transit":false,"is_transit":false,"station_id":"DPB","station_name":"Depokbaru","time":4,"i_lat":-6.391065,"i_long":106.819451,"line":2}]]}