{"data":[[{"is_transit":false,"distance":0,"transit":false,"station_name":"Pondok Jati","time":0,"i_lat":-6.209188,"i_long":106.861737,"line":11,"station_id":"POK"},{"i_long":106.86807400000001,"time":9,"transit":true,"is_transit":true,"station_name":"Jatinegara","i_lat":-6.215091,"distance":1236,"line":1,"station_id":"JNG"},{"i_lat":-6.212485,"station_name":"Matraman","station_id":"MTR","i_long":106.858896,"time":2,"line":1,"distance":1377,"transit":false,"is_transit":false},{"transit":false,"line":2,"i_long":106.84912,"distance":1275,"time":2,"station_name":"Manggarai","is_transit":false,"i_lat":-6.209883,"station_id":"MRI"},{"is_transit":false,"distance":3186,"station_name":"Sudirman","i_lat":-6.202263,"station_id":"SUD","i_long":106.822649,"time":4,"line":1,"transit":false},{"time":1,"i_long":106.819881,"line":1,"i_lat":-6.201433,"is_transit":false,"transit":false,"station_id":"SUDB","distance":280,"station_name":"Sudirman Baru"},{"distance":471,"i_lat":-6.20132,"time":1,"station_id":"KAT","is_transit":false,"line":1,"i_long":106.816351,"transit":false,"station_name":"Karet"},{"i_long":106.811091,"i_lat":-6.185545,"line":1,"transit":true,"station_name":"Tanah Abang","station_id":"THB","time":5,"distance":2029,"is_transit":true},{"time":6,"line":6,"station_name":"Palmerah","distance":3191,"i_long":106.79689,"transit":false,"i_lat":-6.207404,"station_id":"PLM","is_transit":false},{"is_transit":false,"station_id":"KBY","time":7,"transit":false,"station_name":"Kebayoran","distance":3737,"line":6,"i_long":106.780334,"i_lat":-6.237242},{"time":8,"station_id":"PDJ","station_name":"Pondokranji","transit":false,"is_transit":false,"i_lat":-6.276362,"i_long":106.74273,"line":6,"distance":6218},{"i_long":106.728916,"station_name":"Jurangmangu","i_lat":-6.288927,"distance":2179,"is_transit":false,"line":6,"station_id":"JMU","transit":false,"time":3},{"transit":false,"is_transit":false,"station_name":"Sudimara","time":4,"line":6,"distance":1994,"station_id":"SDM","i_long":106.712277,"i_lat":-6.296963},{"i_long":106.675475,"line":6,"time":6,"station_id":"RU","transit":false,"i_lat":-6.314823,"station_name":"Rawa Buntu","distance":4566,"is_transit":false},{"distance":2413,"i_lat":-6.319871,"is_transit":false,"line":6,"i_long":106.66566,"time":4,"transit":false,"station_id":"SRP","station_name":"Serpong"},{"distance":1784,"transit":false,"i_lat":-6.32484,"i_long":106.640411,"station_name":"Cisauk","is_transit":false,"station_id":"CSK","time":4,"line":3},{"station_id":"CC","is_transit":false,"i_long":106.617853,"line":3,"distance":2519,"transit":false,"station_name":"Cicayur","i_lat":-6.329547,"time":4},{"station_id":"PRP","distance":5968,"line":6,"i_lat":-6.3441410000000005,"transit":false,"i_long":106.568863,"station_name":"Parung Panjang","time":8,"is_transit":false},{"distance":7025,"is_transit":false,"station_id":"CJT","i_long":106.508482,"transit":false,"station_name":"Cilejit","time":9,"line":3,"i_lat":-6.354349},{"station_id":"DAR","i_lat":-6.338021,"is_transit":false,"i_long":106.491338,"distance":2675,"transit":false,"station_name":"Daru","time":6,"line":0},{"transit":false,"i_long":106.460812,"station_id":"TEJ","i_lat":-6.327251,"time":5,"station_name":"Tenjo","distance":3902,"line":6,"is_transit":false},{"transit":false,"distance":2974,"station_id":"TGS","station_name":"Tigaraksa","is_transit":false,"time":5,"i_lat":-6.328533,"line":6,"i_long":106.425991}],[{"i_lat":-6.209188,"station_name":"Pondok Jati","is_transit":false,"distance":0,"time":0,"i_long":106.861737,"line":11,"station_id":"POK","transit":false},{"is_transit":false,"time":2,"distance":1829,"i_lat":-6.193792,"station_name":"Kramat","i_long":106.855437,"transit":false,"station_id":"KMT","line":11},{"station_name":"Gang Sentiong","station_id":"GST","distance":973,"line":11,"i_long":106.850107,"transit":false,"time":1,"is_transit":false,"i_lat":-6.185975},{"i_lat":-6.174784,"time":8,"station_id":"PSE","transit":false,"i_long":106.84368,"line":11,"station_name":"Pasar Senen","distance":1567,"is_transit":false},{"station_name":"Kemayoran","i_lat":-6.161728,"time":4,"is_transit":false,"station_id":"KMO","line":11,"transit":false,"distance":1436,"i_long":106.839204},{"is_transit":false,"station_id":"RJW","station_name":"Rajawali","time":5,"i_long":106.836569,"i_lat":-6.14505,"line":11,"distance":1901,"transit":false},{"i_lat":-6.132549,"i_long":106.826365,"line":4,"transit":true,"station_name":"Kampung Bandan","distance":1444,"is_transit":true,"time":3,"station_id":"KPB"},{"time":9,"line":1,"distance":4102,"i_long":106.79867,"station_id":"AK","i_lat":-6.144674,"is_transit":false,"transit":false,"station_name":"Angke"},{"station_id":"DU","station_name":"Duri","is_transit":false,"time":4,"transit":false,"i_lat":-6.155215,"distance":1230,"i_long":106.800832,"line":1},{"line":1,"transit":true,"i_lat":-6.185545,"station_name":"Tanah Abang","station_id":"THB","distance":3632,"time":8,"is_transit":true,"i_long":106.811091},{"line":6,"is_transit":false,"distance":3191,"time":6,"i_lat":-6.207404,"transit":false,"station_id":"PLM","i_long":106.79689,"station_name":"Palmerah"},{"time":7,"i_long":106.780334,"station_name":"Kebayoran","i_lat":-6.237242,"is_transit":false,"line":6,"transit":false,"station_id":"KBY","distance":3737},{"line":6,"station_id":"PDJ","i_long":106.74273,"distance":6218,"time":8,"is_transit":false,"transit":false,"i_lat":-6.276362,"station_name":"Pondokranji"},{"station_id":"JMU","transit":false,"station_name":"Jurangmangu","is_transit":false,"distance":2179,"line":6,"time":3,"i_long":106.728916,"i_lat":-6.288927},{"time":4,"station_id":"SDM","station_name":"Sudimara","transit":false,"line":6,"i_lat":-6.296963,"is_transit":false,"i_long":106.712277,"distance":1994},{"is_transit":false,"station_name":"Rawa Buntu","station_id":"RU","time":6,"line":6,"distance":4566,"i_long":106.675475,"i_lat":-6.314823,"transit":false},{"station_name":"Serpong","transit":false,"i_lat":-6.319871,"is_transit":false,"time":4,"i_long":106.66566,"line":6,"distance":2413,"station_id":"SRP"},{"station_name":"Cisauk","i_lat":-6.32484,"distance":1784,"is_transit":false,"transit":false,"i_long":106.640411,"station_id":"CSK","line":3,"time":4},{"line":3,"time":4,"transit":false,"i_lat":-6.329547,"i_long":106.617853,"station_id":"CC","distance":2519,"station_name":"Cicayur","is_transit":false},{"station_name":"Parung Panjang","transit":false,"station_id":"PRP","distance":5968,"is_transit":false,"time":8,"i_lat":-6.3441410000000005,"line":6,"i_long":106.568863},{"i_lat":-6.354349,"is_transit":false,"station_id":"CJT","distance":7025,"time":9,"station_name":"Cilejit","transit":false,"i_long":106.508482,"line":3},{"i_lat":-6.338021,"is_transit":false,"i_long":106.491338,"distance":2675,"line":0,"station_id":"DAR","time":6,"transit":false,"station_name":"Daru"},{"i_long":106.460812,"i_lat":-6.327251,"distance":3902,"time":5,"station_id":"TEJ","line":6,"is_transit":false,"station_name":"Tenjo","transit":false},{"station_id":"TGS","is_transit":false,"i_lat":-6.328533,"i_long":106.425991,"distance":2974,"time":5,"station_name":"Tigaraksa","line":6,"transit":false}],[{"transit":false,"i_lat":-6.209188,"is_transit":false,"distance":0,"station_id":"POK","station_name":"Pondok Jati","i_long":106.861737,"time":0,"line":11},{"distance":1236,"station_name":"Jatinegara","time":9,"i_long":106.86807400000001,"transit":true,"i_lat":-6.215091,"line":1,"is_transit":true,"station_id":"JNG"},{"station_id":"MTR","i_long":106.858896,"station_name":"Matraman","transit":false,"i_lat":-6.212485,"distance":1377,"line":1,"time":2,"is_transit":false},{"i_lat":-6.209883,"i_long":106.84912,"distance":1275,"station_id":"MRI","station_name":"Manggarai","line":2,"is_transit":true,"transit":true,"time":2},{"time":4,"i_lat":-6.198556,"is_transit":false,"i_long":106.840169,"distance":1590,"line":2,"station_id":"CKI","transit":false,"station_name":"Cikini"},{"station_id":"GDD","distance":1750,"is_transit":false,"i_lat":-6.186295,"line":2,"time":3,"i_long":106.832183,"station_name":"Gondangdia","transit":false},{"line":2,"i_lat":-6.166716,"time":4,"i_long":106.828284,"distance":2015,"station_id":"JUA","transit":false,"station_name":"Juanda","is_transit":false},{"i_long":106.827103,"station_name":"Sawah Besar","is_transit":false,"line":2,"i_lat":-6.160725,"distance":1149,"time":2,"transit":false,"station_id":"SW"},{"i_lat":-6.149769,"station_id":"MGB","i_long":106.82482,"transit":false,"time":2,"distance":906,"line":2,"station_name":"Manggabesar","is_transit":false},{"time":2,"transit":false,"distance":1080,"station_name":"Jayakarta","i_lat":-6.141205,"i_long":106.820901,"is_transit":false,"station_id":"JAY","line":2},{"is_transit":true,"distance":1264,"time":4,"station_id":"JAKK","transit":true,"station_name":"Jakarta Kota","i_lat":-6.137569,"line":2,"i_long":106.812439},{"time":3,"transit":true,"line":4,"station_id":"KPB","is_transit":true,"i_long":106.826365,"distance":1364,"station_name":"Kampung Bandan","i_lat":-6.132549},{"is_transit":false,"transit":false,"i_long":106.79867,"station_id":"AK","time":9,"station_name":"Angke","distance":4102,"line":1,"i_lat":-6.144674},{"transit":false,"station_name":"Duri","is_transit":false,"distance":1230,"time":4,"i_long":106.800832,"i_lat":-6.155215,"line":1,"station_id":"DU"},{"distance":3632,"station_id":"THB","i_lat":-6.185545,"station_name":"Tanah Abang","is_transit":true,"time":8,"line":1,"i_long":106.811091,"transit":true},{"is_transit":false,"i_long":106.79689,"station_id":"PLM","transit":false,"line":6,"time":6,"i_lat":-6.207404,"station_name":"Palmerah","distance":3191},{"i_lat":-6.237242,"line":6,"station_id":"KBY","is_transit":false,"station_name":"Kebayoran","time":7,"distance":3737,"transit":false,"i_long":106.780334},{"station_name":"Pondokranji","i_lat":-6.276362,"station_id":"PDJ","distance":6218,"transit":false,"time":8,"i_long":106.74273,"line":6,"is_transit":false},{"distance":2179,"time":3,"transit":false,"station_name":"Jurangmangu","line":6,"i_long":106.728916,"station_id":"JMU","is_transit":false,"i_lat":-6.288927},{"station_name":"Sudimara","is_transit":false,"station_id":"SDM","distance":1994,"i_lat":-6.296963,"transit":false,"time":4,"i_long":106.712277,"line":6},{"line":6,"transit":false,"distance":4566,"time":6,"station_name":"Rawa Buntu","is_transit":false,"i_lat":-6.314823,"i_long":106.675475,"station_id":"RU"},{"transit":false,"i_long":106.66566,"is_transit":false,"distance":2413,"station_name":"Serpong","time":4,"i_lat":-6.319871,"line":6,"station_id":"SRP"},{"station_id":"CSK","i_lat":-6.32484,"line":3,"distance":1784,"time":4,"i_long":106.640411,"is_transit":false,"transit":false,"station_name":"Cisauk"},{"station_name":"Cicayur","transit":false,"distance":2519,"line":3,"station_id":"CC","i_lat":-6.329547,"is_transit":false,"time":4,"i_long":106.617853},{"i_lat":-6.3441410000000005,"is_transit":false,"time":8,"transit":false,"station_id":"PRP","line":6,"station_name":"Parung Panjang","distance":5968,"i_long":106.568863},{"transit":false,"i_long":106.508482,"distance":7025,"station_name":"Cilejit","station_id":"CJT","time":9,"is_transit":false,"line":3,"i_lat":-6.354349},{"i_lat":-6.338021,"i_long":106.491338,"line":0,"station_name":"Daru","is_transit":false,"time":6,"station_id":"DAR","distance":2675,"transit":false},{"distance":3902,"i_long":106.460812,"transit":false,"station_id":"TEJ","line":6,"station_name":"Tenjo","time":5,"i_lat":-6.327251,"is_transit":false},{"transit":false,"station_id":"TGS","distance":2974,"line":6,"station_name":"Tigaraksa","time":5,"i_long":106.425991,"is_transit":false,"i_lat":-6.328533}],[{"distance":0,"i_long":106.861737,"i_lat":-6.209188,"station_id":"POK","time":0,"transit":false,"station_name":"Pondok Jati","line":11,"is_transit":false},{"line":11,"transit":false,"station_id":"KMT","is_transit":false,"time":2,"i_lat":-6.193792,"distance":1829,"i_long":106.855437,"station_name":"Kramat"},{"transit":false,"is_transit":false,"i_long":106.850107,"station_id":"GST","station_name":"Gang Sentiong","time":1,"distance":973,"i_lat":-6.185975,"line":11},{"line":11,"time":8,"station_name":"Pasar Senen","is_transit":false,"station_id":"PSE","i_long":106.84368,"distance":1567,"transit":false,"i_lat":-6.174784},{"time":4,"transit":false,"distance":1436,"station_name":"Kemayoran","is_transit":false,"i_long":106.839204,"line":11,"i_lat":-6.161728,"station_id":"KMO"},{"time":5,"i_long":106.836569,"station_id":"RJW","is_transit":false,"station_name":"Rajawali","line":11,"transit":false,"i_lat":-6.14505,"distance":1901},{"distance":1444,"i_lat":-6.132549,"station_name":"Kampung Bandan","station_id":"KPB","is_transit":true,"time":3,"i_long":106.826365,"line":4,"transit":true},{"is_transit":true,"transit":true,"station_id":"JAKK","station_name":"Jakarta Kota","i_long":106.812439,"line":2,"time":3,"i_lat":-6.137569,"distance":1364},{"distance":1264,"i_lat":-6.141205,"is_transit":false,"i_long":106.820901,"line":2,"station_id":"JAY","time":4,"station_name":"Jayakarta","transit":false},{"line":2,"station_name":"Manggabesar","is_transit":false,"time":2,"station_id":"MGB","distance":1080,"transit":false,"i_long":106.82482,"i_lat":-6.149769},{"i_long":106.827103,"line":2,"time":2,"i_lat":-6.160725,"transit":false,"station_name":"Sawah Besar","station_id":"SW","distance":906,"is_transit":false},{"i_lat":-6.166716,"is_transit":false,"transit":false,"distance":1149,"line":2,"time":2,"station_id":"JUA","i_long":106.828284,"station_name":"Juanda"},{"station_name":"Gondangdia","i_lat":-6.186295,"i_long":106.832183,"distance":2015,"transit":false,"station_id":"GDD","line":2,"is_transit":false,"time":4},{"i_lat":-6.198556,"station_name":"Cikini","station_id":"CKI","transit":false,"i_long":106.840169,"line":2,"distance":1750,"is_transit":false,"time":3},{"station_id":"MRI","station_name":"Manggarai","i_lat":-6.209883,"line":2,"transit":true,"distance":1590,"time":4,"is_transit":true,"i_long":106.84912},{"i_lat":-6.202263,"transit":false,"distance":3186,"station_id":"SUD","is_transit":false,"i_long":106.822649,"line":1,"station_name":"Sudirman","time":4},{"transit":false,"station_id":"SUDB","i_long":106.819881,"i_lat":-6.201433,"distance":280,"line":1,"station_name":"Sudirman Baru","is_transit":false,"time":1},{"is_transit":false,"i_lat":-6.20132,"transit":false,"station_id":"KAT","station_name":"Karet","time":1,"line":1,"distance":471,"i_long":106.816351},{"transit":true,"is_transit":true,"i_long":106.811091,"line":1,"time":5,"i_lat":-6.185545,"distance":2029,"station_id":"THB","station_name":"Tanah Abang"},{"station_id":"PLM","transit":false,"i_long":106.79689,"time":6,"line":6,"distance":3191,"i_lat":-6.207404,"station_name":"Palmerah","is_transit":false},{"i_lat":-6.237242,"transit":false,"time":7,"is_transit":false,"station_name":"Kebayoran","line":6,"i_long":106.780334,"distance":3737,"station_id":"KBY"},{"station_id":"PDJ","line":6,"time":8,"i_lat":-6.276362,"transit":false,"i_long":106.74273,"station_name":"Pondokranji","distance":6218,"is_transit":false},{"station_id":"JMU","line":6,"i_lat":-6.288927,"i_long":106.728916,"time":3,"is_transit":false,"transit":false,"station_name":"Jurangmangu","distance":2179},{"is_transit":false,"distance":1994,"line":6,"station_name":"Sudimara","station_id":"SDM","transit":false,"time":4,"i_long":106.712277,"i_lat":-6.296963},{"i_long":106.675475,"distance":4566,"transit":false,"time":6,"station_name":"Rawa Buntu","is_transit":false,"line":6,"station_id":"RU","i_lat":-6.314823},{"i_long":106.66566,"station_name":"Serpong","time":4,"line":6,"station_id":"SRP","distance":2413,"transit":false,"i_lat":-6.319871,"is_transit":false},{"i_lat":-6.32484,"i_long":106.640411,"station_name":"Cisauk","distance":1784,"station_id":"CSK","is_transit":false,"time":4,"line":3,"transit":false},{"station_name":"Cicayur","transit":false,"station_id":"CC","distance":2519,"time":4,"line":3,"is_transit":false,"i_long":106.617853,"i_lat":-6.329547},{"transit":false,"i_lat":-6.3441410000000005,"distance":5968,"i_long":106.568863,"is_transit":false,"station_id":"PRP","station_name":"Parung Panjang","line":6,"time":8},{"i_long":106.508482,"time":9,"is_transit":false,"transit":false,"i_lat":-6.354349,"line":3,"station_id":"CJT","distance":7025,"station_name":"Cilejit"},{"line":0,"transit":false,"i_long":106.491338,"station_id":"DAR","distance":2675,"station_name":"Daru","is_transit":false,"time":6,"i_lat":-6.338021},{"line":6,"transit":false,"station_name":"Tenjo","time":5,"i_lat":-6.327251,"i_long":106.460812,"is_transit":false,"distance":3902,"station_id":"TEJ"},{"line":6,"is_transit":false,"station_name":"Tigaraksa","transit":false,"distance":2974,"i_lat":-6.328533,"station_id":"TGS","i_long":106.425991,"time":5}]]}