{"data":[[{"time":0,"distance":0,"transit":false,"is_transit":false,"station_name":"Pondok Jati","i_lat":-6.209188,"i_long":106.861737,"line":11,"station_id":"POK"},{"time":9,"i_long":106.86807400000001,"is_transit":true,"station_id":"JNG","i_lat":-6.215091,"distance":1236,"line":1,"transit":true,"station_name":"Jatinegara"},{"i_long":106.858896,"distance":1377,"time":2,"is_transit":false,"station_name":"Matraman","transit":false,"i_lat":-6.212485,"station_id":"MTR","line":1},{"time":2,"i_long":106.84912,"distance":1275,"station_id":"MRI","station_name":"Manggarai","is_transit":true,"transit":true,"i_lat":-6.209883,"line":2},{"is_transit":false,"time":4,"i_lat":-6.226659,"i_long":106.857948,"transit":false,"station_name":"Tebet","distance":2610,"station_id":"TEB","line":2},{"transit":false,"i_long":106.856607,"line":2,"is_transit":false,"i_lat":-6.242512,"time":2,"station_name":"Cawang","station_id":"CW","distance":1230},{"distance":1546,"is_transit":false,"station_id":"DRN","i_lat":-6.255332,"station_name":"Duren Kalibata","transit":false,"line":2,"i_long":106.85449,"time":3},{"distance":824,"time":2,"i_lat":-6.263214,"station_name":"Pasar Minggu Baru","i_long":106.851577,"is_transit":false,"line":2,"station_id":"PSMB","transit":false},{"is_transit":false,"distance":2380,"time":2,"i_long":106.843999,"station_name":"Pasar Minggu","i_lat":-6.2842400000000005,"line":2,"station_id":"PSM","transit":false},{"distance":2820,"station_id":"TNT","station_name":"Tanjung Barat","i_long":106.838896,"line":2,"time":4,"is_transit":false,"transit":false,"i_lat":-6.3080680000000005},{"transit":false,"distance":2671,"i_lat":-6.330363,"i_long":106.832616,"line":2,"station_name":"Lenteng Agung","time":3,"is_transit":false,"station_id":"LNA"},{"transit":false,"station_id":"UP","line":2,"i_long":106.834175,"is_transit":false,"distance":1029,"station_name":"Univ. Pancasila","time":2,"i_lat":-6.339291},{"i_long":106.831474,"time":3,"transit":false,"is_transit":false,"station_id":"UI","distance":2264,"station_name":"Univ. Indonesia","i_lat":-6.360749,"line":2},{"station_id":"POC","i_long":106.831114,"i_lat":-6.369073,"station_name":"Pondok Cina","is_transit":false,"line":2,"time":2,"distance":1109,"transit":false},{"i_lat":-6.391065,"distance":2727,"station_name":"Depokbaru","station_id":"DPB","is_transit":false,"transit":false,"time":4,"i_long":106.819451,"line":2},{"station_name":"Depok","distance":1584,"is_transit":false,"time":3,"line":2,"i_lat":-6.405256,"transit":false,"station_id":"DP","i_long":106.816926},{"line":2,"distance":5084,"station_id":"CTA","station_name":"Citayam","is_transit":true,"i_long":106.800298,"transit":true,"time":6,"i_lat":-6.448811},{"i_lat":-6.460735,"station_name":"Pondok Rajeg","is_transit":false,"line":21,"i_long":106.824374,"transit":false,"time":0,"station_id":"PDRG","distance":0},{"i_long":106.851978,"station_name":"Cibinong","i_lat":-6.46424,"distance":0,"time":0,"line":21,"transit":false,"station_id":"CBN","is_transit":false},{"i_lat":-6.466285,"is_transit":false,"time":10,"distance":6527,"line":21,"transit":false,"i_long":106.905196,"station_id":"NMO","station_name":"Nambo"}],[{"line":11,"time":0,"i_long":106.861737,"station_name":"Pondok Jati","station_id":"POK","distance":0,"transit":false,"i_lat":-6.209188,"is_transit":false},{"i_lat":-6.193792,"station_name":"Kramat","distance":1829,"transit":false,"time":2,"line":11,"is_transit":false,"i_long":106.855437,"station_id":"KMT"},{"i_lat":-6.185975,"is_transit":false,"distance":973,"station_id":"GST","transit":false,"time":1,"i_long":106.850107,"line":11,"station_name":"Gang Sentiong"},{"station_id":"PSE","distance":1567,"i_lat":-6.174784,"is_transit":false,"time":8,"i_long":106.84368,"station_name":"Pasar Senen","transit":false,"line":11},{"station_name":"Kemayoran","distance":1436,"is_transit":false,"station_id":"KMO","i_lat":-6.161728,"line":11,"time":4,"i_long":106.839204,"transit":false},{"i_long":106.836569,"distance":1901,"time":5,"line":11,"is_transit":false,"station_id":"RJW","transit":false,"i_lat":-6.14505,"station_name":"Rajawali"},{"distance":1444,"transit":true,"time":3,"line":4,"station_id":"KPB","i_lat":-6.132549,"station_name":"Kampung Bandan","i_long":106.826365,"is_transit":true},{"distance":4102,"is_transit":false,"line":1,"transit":false,"i_lat":-6.144674,"station_name":"Angke","station_id":"AK","time":9,"i_long":106.79867},{"transit":false,"i_long":106.800832,"station_id":"DU","distance":1230,"i_lat":-6.155215,"is_transit":false,"station_name":"Duri","time":4,"line":1},{"station_id":"THB","i_lat":-6.185545,"i_long":106.811091,"time":8,"transit":false,"is_transit":false,"line":1,"station_name":"Tanah Abang","distance":3632},{"transit":false,"station_id":"KAT","station_name":"Karet","is_transit":false,"time":5,"line":1,"i_lat":-6.20132,"i_long":106.816351,"distance":2029},{"line":1,"is_transit":false,"station_id":"SUDB","transit":false,"distance":471,"i_long":106.819881,"time":1,"station_name":"Sudirman Baru","i_lat":-6.201433},{"is_transit":false,"i_long":106.822649,"distance":280,"transit":false,"i_lat":-6.202263,"station_id":"SUD","time":1,"station_name":"Sudirman","line":1},{"station_id":"MRI","station_name":"Manggarai","i_long":106.84912,"transit":true,"is_transit":true,"time":4,"line":2,"i_lat":-6.209883,"distance":3186},{"distance":2610,"i_long":106.857948,"time":4,"i_lat":-6.226659,"line":2,"transit":false,"station_name":"Tebet","station_id":"TEB","is_transit":false},{"line":2,"transit":false,"station_id":"CW","distance":1230,"i_long":106.856607,"is_transit":false,"time":2,"i_lat":-6.242512,"station_name":"Cawang"},{"distance":1546,"station_name":"Duren Kalibata","is_transit":false,"time":3,"i_lat":-6.255332,"i_long":106.85449,"line":2,"transit":false,"station_id":"DRN"},{"station_name":"Pasar Minggu Baru","station_id":"PSMB","line":2,"i_long":106.851577,"distance":824,"transit":false,"is_transit":false,"i_lat":-6.263214,"time":2},{"distance":2380,"time":2,"station_id":"PSM","line":2,"station_name":"Pasar Minggu","i_lat":-6.2842400000000005,"transit":false,"i_long":106.843999,"is_transit":false},{"time":4,"distance":2820,"station_id":"TNT","i_lat":-6.3080680000000005,"i_long":106.838896,"line":2,"station_name":"Tanjung Barat","transit":false,"is_transit":false},{"is_transit":false,"i_long":106.832616,"station_id":"LNA","time":3,"line":2,"i_lat":-6.330363,"station_name":"Lenteng Agung","transit":false,"distance":2671},{"transit":false,"station_id":"UP","time":2,"i_lat":-6.339291,"i_long":106.834175,"distance":1029,"line":2,"is_transit":false,"station_name":"Univ. Pancasila"},{"transit":false,"is_transit":false,"i_long":106.831474,"time":3,"i_lat":-6.360749,"line":2,"station_name":"Univ. Indonesia","station_id":"UI","distance":2264},{"i_lat":-6.369073,"transit":false,"i_long":106.831114,"station_name":"Pondok Cina","station_id":"POC","distance":1109,"line":2,"time":2,"is_transit":false},{"station_name":"Depokbaru","distance":2727,"station_id":"DPB","i_long":106.819451,"time":4,"is_transit":false,"i_lat":-6.391065,"line":2,"transit":false},{"distance":1584,"transit":false,"station_name":"Depok","line":2,"is_transit":false,"station_id":"DP","i_long":106.816926,"i_lat":-6.405256,"time":3},{"transit":true,"i_long":106.800298,"is_transit":true,"distance":5084,"station_name":"Citayam","time":6,"line":2,"station_id":"CTA","i_lat":-6.448811},{"station_id":"PDRG","distance":0,"station_name":"Pondok Rajeg","transit":false,"time":0,"i_long":106.824374,"line":21,"i_lat":-6.460735,"is_transit":false},{"station_name":"Cibinong","i_lat":-6.46424,"line":21,"distance":0,"transit":false,"station_id":"CBN","is_transit":false,"i_long":106.851978,"time":0},{"time":10,"line":21,"i_long":106.905196,"transit":false,"station_id":"NMO","distance":6527,"i_lat":-6.466285,"is_transit":false,"station_name":"Nambo"}],[{"time":0,"station_name":"Pondok Jati","i_lat":-6.209188,"transit":false,"i_long":106.861737,"distance":0,"is_transit":false,"line":11,"station_id":"POK"},{"transit":false,"line":11,"i_long":106.855437,"station_name":"Kramat","distance":1829,"station_id":"KMT","is_transit":false,"i_lat":-6.193792,"time":2},{"time":1,"station_name":"Gang Sentiong","i_lat":-6.185975,"station_id":"GST","i_long":106.850107,"distance":973,"line":11,"is_transit":false,"transit":false},{"i_long":106.84368,"line":11,"time":8,"station_id":"PSE","i_lat":-6.174784,"is_transit":false,"distance":1567,"transit":false,"station_name":"Pasar Senen"},{"transit":false,"time":4,"station_name":"Kemayoran","i_lat":-6.161728,"i_long":106.839204,"line":11,"distance":1436,"is_transit":false,"station_id":"KMO"},{"i_long":106.836569,"transit":false,"line":11,"distance":1901,"time":5,"station_name":"Rajawali","is_transit":false,"i_lat":-6.14505,"station_id":"RJW"},{"i_long":106.826365,"station_id":"KPB","i_lat":-6.132549,"line":4,"distance":1444,"station_name":"Kampung Bandan","is_transit":true,"time":3,"transit":true},{"is_transit":true,"line":2,"i_lat":-6.137569,"transit":true,"distance":1364,"station_id":"JAKK","station_name":"Jakarta Kota","i_long":106.812439,"time":3},{"distance":1264,"station_id":"JAY","station_name":"Jayakarta","is_transit":false,"i_lat":-6.141205,"transit":false,"i_long":106.820901,"line":2,"time":4},{"transit":false,"line":2,"i_lat":-6.149769,"station_name":"Manggabesar","i_long":106.82482,"is_transit":false,"distance":1080,"time":2,"station_id":"MGB"},{"station_name":"Sawah Besar","station_id":"SW","distance":906,"transit":false,"i_lat":-6.160725,"i_long":106.827103,"is_transit":false,"line":2,"time":2},{"is_transit":false,"distance":1149,"i_lat":-6.166716,"station_name":"Juanda","transit":false,"line":2,"station_id":"JUA","i_long":106.828284,"time":2},{"is_transit":false,"time":4,"i_lat":-6.186295,"transit":false,"distance":2015,"i_long":106.832183,"station_name":"Gondangdia","station_id":"GDD","line":2},{"station_name":"Cikini","station_id":"CKI","distance":1750,"transit":false,"i_long":106.840169,"time":3,"line":2,"is_transit":false,"i_lat":-6.198556},{"distance":1590,"time":4,"i_lat":-6.209883,"i_long":106.84912,"line":2,"station_name":"Manggarai","is_transit":false,"transit":false,"station_id":"MRI"},{"line":2,"distance":2610,"time":4,"station_name":"Tebet","transit":false,"is_transit":false,"i_lat":-6.226659,"station_id":"TEB","i_long":106.857948},{"time":2,"i_lat":-6.242512,"station_name":"Cawang","transit":false,"distance":1230,"station_id":"CW","i_long":106.856607,"is_transit":false,"line":2},{"time":3,"i_long":106.85449,"line":2,"station_id":"DRN","transit":false,"is_transit":false,"station_name":"Duren Kalibata","i_lat":-6.255332,"distance":1546},{"line":2,"i_long":106.851577,"distance":824,"transit":false,"station_id":"PSMB","time":2,"i_lat":-6.263214,"is_transit":false,"station_name":"Pasar Minggu Baru"},{"i_lat":-6.2842400000000005,"is_transit":false,"i_long":106.843999,"line":2,"station_name":"Pasar Minggu","time":2,"transit":false,"distance":2380,"station_id":"PSM"},{"distance":2820,"transit":false,"station_id":"TNT","is_transit":false,"station_name":"Tanjung Barat","time":4,"i_lat":-6.3080680000000005,"i_long":106.838896,"line":2},{"distance":2671,"station_name":"Lenteng Agung","is_transit":false,"station_id":"LNA","transit":false,"time":3,"i_lat":-6.330363,"i_long":106.832616,"line":2},{"is_transit":false,"distance":1029,"station_name":"Univ. Pancasila","transit":false,"i_lat":-6.339291,"i_long":106.834175,"line":2,"time":2,"station_id":"UP"},{"distance":2264,"transit":false,"line":2,"station_id":"UI","i_lat":-6.360749,"is_transit":false,"time":3,"station_name":"Univ. Indonesia","i_long":106.831474},{"station_id":"POC","line":2,"station_name":"Pondok Cina","transit":false,"i_lat":-6.369073,"i_long":106.831114,"distance":1109,"time":2,"is_transit":false},{"transit":false,"i_long":106.819451,"line":2,"station_id":"DPB","time":4,"i_lat":-6.391065,"distance":2727,"is_transit":false,"station_name":"Depokbaru"},{"i_lat":-6.405256,"time":3,"transit":false,"i_long":106.816926,"distance":1584,"station_name":"Depok","is_transit":false,"line":2,"station_id":"DP"},{"is_transit":true,"time":6,"i_lat":-6.448811,"distance":5084,"station_name":"Citayam","transit":true,"i_long":106.800298,"line":2,"station_id":"CTA"},{"station_name":"Pondok Rajeg","station_id":"PDRG","transit":false,"line":21,"distance":0,"is_transit":false,"time":0,"i_long":106.824374,"i_lat":-6.460735},{"distance":0,"station_name":"Cibinong","transit":false,"time":0,"station_id":"CBN","is_transit":false,"i_long":106.851978,"i_lat":-6.46424,"line":21},{"station_id":"NMO","line":21,"is_transit":false,"transit":false,"i_lat":-6.466285,"time":10,"i_long":106.905196,"distance":6527,"station_name":"Nambo"}]]}