{"data":[[{"station_id":"POK","line":11,"transit":false,"station_name":"Pondok Jati","i_long":106.861737,"i_lat":-6.209188,"is_transit":false,"distance":0,"time":0},{"i_long":106.86807400000001,"station_id":"JNG","i_lat":-6.215091,"is_transit":true,"line":1,"time":9,"transit":true,"station_name":"Jatinegara","distance":1236},{"station_id":"MTR","line":1,"time":2,"is_transit":false,"i_lat":-6.212485,"distance":1377,"transit":false,"station_name":"Matraman","i_long":106.858896},{"i_long":106.84912,"transit":false,"is_transit":false,"line":2,"station_id":"MRI","station_name":"Manggarai","i_lat":-6.209883,"time":2,"distance":1275},{"time":4,"i_lat":-6.202263,"station_id":"SUD","transit":false,"distance":3186,"i_long":106.822649,"station_name":"Sudirman","is_transit":false,"line":1},{"distance":280,"time":1,"i_lat":-6.201433,"i_long":106.819881,"station_id":"SUDB","station_name":"Sudirman Baru","line":1,"is_transit":false,"transit":false},{"station_id":"KAT","i_long":106.816351,"i_lat":-6.20132,"is_transit":false,"distance":471,"transit":false,"station_name":"Karet","line":1,"time":1},{"transit":false,"time":5,"station_id":"THB","i_long":106.811091,"line":1,"is_transit":false,"distance":2029,"i_lat":-6.185545,"station_name":"Tanah Abang"},{"i_lat":-6.155215,"station_name":"Duri","i_long":106.800832,"is_transit":true,"time":8,"line":1,"transit":true,"station_id":"DU","distance":3632},{"line":5,"transit":false,"i_lat":-6.162021,"distance":1700,"i_long":106.788277,"time":3,"is_transit":false,"station_id":"GGL","station_name":"Grogol"}],[{"distance":0,"is_transit":false,"line":11,"station_name":"Pondok Jati","i_long":106.861737,"transit":false,"station_id":"POK","time":0,"i_lat":-6.209188},{"i_long":106.855437,"is_transit":false,"station_name":"Kramat","i_lat":-6.193792,"station_id":"KMT","transit":false,"line":11,"distance":1829,"time":2},{"i_lat":-6.185975,"time":1,"i_long":106.850107,"line":11,"is_transit":false,"distance":973,"transit":false,"station_id":"GST","station_name":"Gang Sentiong"},{"transit":false,"is_transit":false,"time":8,"station_id":"PSE","station_name":"Pasar Senen","i_long":106.84368,"distance":1567,"line":11,"i_lat":-6.174784},{"i_long":106.839204,"line":11,"time":4,"transit":false,"station_name":"Kemayoran","distance":1436,"is_transit":false,"station_id":"KMO","i_lat":-6.161728},{"station_name":"Rajawali","i_lat":-6.14505,"i_long":106.836569,"is_transit":false,"station_id":"RJW","time":5,"distance":1901,"transit":false,"line":11},{"transit":true,"station_id":"KPB","line":4,"time":3,"station_name":"Kampung Bandan","is_transit":true,"i_long":106.826365,"distance":1444,"i_lat":-6.132549},{"station_id":"AK","i_lat":-6.144674,"time":9,"is_transit":false,"distance":4102,"station_name":"Angke","line":1,"i_long":106.79867,"transit":false},{"distance":1230,"is_transit":true,"line":1,"station_id":"DU","time":4,"station_name":"Duri","i_long":106.800832,"i_lat":-6.155215,"transit":true},{"transit":false,"station_name":"Grogol","is_transit":false,"station_id":"GGL","i_lat":-6.162021,"line":5,"distance":1700,"time":3,"i_long":106.788277}],[{"distance":0,"line":11,"station_id":"POK","station_name":"Pondok Jati","i_lat":-6.209188,"is_transit":false,"time":0,"i_long":106.861737,"transit":false},{"station_name":"Jatinegara","time":9,"line":1,"transit":true,"is_transit":true,"i_lat":-6.215091,"station_id":"JNG","i_long":106.86807400000001,"distance":1236},{"station_name":"Matraman","transit":false,"is_transit":false,"i_lat":-6.212485,"line":1,"time":2,"i_long":106.858896,"station_id":"MTR","distance":1377},{"i_long":106.84912,"is_transit":true,"time":2,"station_name":"Manggarai","line":2,"i_lat":-6.209883,"transit":true,"station_id":"MRI","distance":1275},{"station_name":"Cikini","transit":false,"is_transit":false,"i_lat":-6.198556,"i_long":106.840169,"station_id":"CKI","time":4,"line":2,"distance":1590},{"transit":false,"is_transit":false,"station_name":"Gondangdia","i_long":106.832183,"distance":1750,"line":2,"time":3,"station_id":"GDD","i_lat":-6.186295},{"line":2,"station_id":"JUA","distance":2015,"station_name":"Juanda","time":4,"is_transit":false,"transit":false,"i_lat":-6.166716,"i_long":106.828284},{"station_id":"SW","transit":false,"i_long":106.827103,"i_lat":-6.160725,"time":2,"station_name":"Sawah Besar","distance":1149,"line":2,"is_transit":false},{"station_id":"MGB","transit":false,"distance":906,"time":2,"line":2,"station_name":"Manggabesar","is_transit":false,"i_long":106.82482,"i_lat":-6.149769},{"line":2,"is_transit":false,"i_lat":-6.141205,"station_name":"Jayakarta","time":2,"distance":1080,"transit":false,"station_id":"JAY","i_long":106.820901},{"line":2,"distance":1264,"station_id":"JAKK","station_name":"Jakarta Kota","i_lat":-6.137569,"transit":true,"i_long":106.812439,"is_transit":true,"time":4},{"station_id":"KPB","time":3,"station_name":"Kampung Bandan","i_long":106.826365,"transit":true,"line":4,"is_transit":true,"distance":1364,"i_lat":-6.132549},{"station_id":"AK","distance":4102,"station_name":"Angke","line":1,"i_lat":-6.144674,"i_long":106.79867,"time":9,"transit":false,"is_transit":false},{"transit":true,"is_transit":true,"i_long":106.800832,"station_name":"Duri","distance":1230,"station_id":"DU","i_lat":-6.155215,"line":1,"time":4},{"station_id":"GGL","distance":1700,"time":3,"transit":false,"is_transit":false,"line":5,"station_name":"Grogol","i_lat":-6.162021,"i_long":106.788277}],[{"station_id":"POK","distance":0,"i_lat":-6.209188,"line":11,"time":0,"station_name":"Pondok Jati","i_long":106.861737,"is_transit":false,"transit":false},{"is_transit":false,"i_long":106.855437,"time":2,"line":11,"i_lat":-6.193792,"transit":false,"station_id":"KMT","distance":1829,"station_name":"Kramat"},{"line":11,"station_id":"GST","station_name":"Gang Sentiong","transit":false,"distance":973,"is_transit":false,"time":1,"i_lat":-6.185975,"i_long":106.850107},{"time":8,"transit":false,"distance":1567,"station_name":"Pasar Senen","line":11,"is_transit":false,"i_long":106.84368,"i_lat":-6.174784,"station_id":"PSE"},{"station_name":"Kemayoran","is_transit":false,"station_id":"KMO","distance":1436,"i_lat":-6.161728,"line":11,"i_long":106.839204,"transit":false,"time":4},{"i_lat":-6.14505,"station_name":"Rajawali","transit":false,"distance":1901,"line":11,"time":5,"is_transit":false,"i_long":106.836569,"station_id":"RJW"},{"transit":true,"i_long":106.826365,"i_lat":-6.132549,"distance":1444,"line":4,"station_id":"KPB","station_name":"Kampung Bandan","is_transit":true,"time":3},{"transit":true,"time":3,"line":2,"i_long":106.812439,"station_id":"JAKK","is_transit":true,"i_lat":-6.137569,"station_name":"Jakarta Kota","distance":1364},{"transit":false,"i_long":106.820901,"time":4,"station_id":"JAY","distance":1264,"i_lat":-6.141205,"line":2,"station_name":"Jayakarta","is_transit":false},{"time":2,"is_transit":false,"i_long":106.82482,"distance":1080,"i_lat":-6.149769,"line":2,"station_name":"Manggabesar","station_id":"MGB","transit":false},{"line":2,"station_name":"Sawah Besar","is_transit":false,"transit":false,"i_long":106.827103,"station_id":"SW","time":2,"i_lat":-6.160725,"distance":906},{"station_name":"Juanda","line":2,"transit":false,"is_transit":false,"distance":1149,"station_id":"JUA","i_lat":-6.166716,"i_long":106.828284,"time":2},{"time":4,"line":2,"distance":2015,"station_id":"GDD","transit":false,"i_lat":-6.186295,"i_long":106.832183,"station_name":"Gondangdia","is_transit":false},{"transit":false,"time":3,"is_transit":false,"i_long":106.840169,"station_id":"CKI","distance":1750,"station_name":"Cikini","i_lat":-6.198556,"line":2},{"distance":1590,"i_lat":-6.209883,"time":4,"station_name":"Manggarai","station_id":"MRI","i_long":106.84912,"transit":true,"line":2,"is_transit":true},{"time":4,"i_lat":-6.202263,"is_transit":false,"station_name":"Sudirman","station_id":"SUD","transit":false,"distance":3186,"i_long":106.822649,"line":1},{"station_name":"Sudirman Baru","i_long":106.819881,"time":1,"i_lat":-6.201433,"transit":false,"line":1,"is_transit":false,"station_id":"SUDB","distance":280},{"transit":false,"distance":471,"line":1,"station_id":"KAT","time":1,"is_transit":false,"station_name":"Karet","i_long":106.816351,"i_lat":-6.20132},{"time":5,"transit":false,"line":1,"i_long":106.811091,"is_transit":false,"distance":2029,"i_lat":-6.185545,"station_id":"THB","station_name":"Tanah Abang"},{"station_id":"DU","distance":3632,"i_lat":-6.155215,"line":1,"time":8,"i_long":106.800832,"is_transit":true,"station_name":"Duri","transit":true},{"i_lat":-6.162021,"is_transit":false,"station_id":"GGL","transit":false,"distance":1700,"station_name":"Grogol","i_long":106.788277,"line":5,"time":3}]]}