{"data":[[{"line":11,"i_lat":-6.209188,"distance":0,"transit":false,"is_transit":false,"station_name":"Pondok Jati","i_long":106.861737,"station_id":"POK","time":0},{"is_transit":true,"station_name":"Jatinegara","transit":true,"line":0,"time":9,"station_id":"JNG","distance":1236,"i_lat":-6.215091,"i_long":106.86807400000001},{"time":2,"distance":1377,"station_name":"Matraman","i_lat":-6.212485,"station_id":"MTR","transit":false,"i_long":106.858896,"line":1,"is_transit":false},{"is_transit":true,"i_lat":-6.209883,"i_long":106.84912,"distance":1275,"station_id":"MRI","station_name":"Manggarai","transit":false,"line":0,"time":2},{"transit":false,"station_name":"Sudirman","distance":3186,"line":1,"is_transit":false,"time":4,"station_id":"SUD","i_lat":-6.202263,"i_long":106.822649},{"is_transit":false,"station_id":"SUDB","line":1,"i_long":106.819881,"i_lat":-6.201433,"time":1,"distance":280,"transit":false,"station_name":"Sudirman Baru"},{"i_lat":-6.20132,"distance":471,"station_id":"KAT","is_transit":false,"transit":false,"time":1,"i_long":106.816351,"line":1,"station_name":"Karet"},{"i_lat":-6.185545,"distance":2029,"i_long":106.811091,"station_id":"THB","station_name":"Tanah Abang","line":1,"is_transit":true,"time":5,"transit":false},{"time":8,"line":1,"transit":true,"station_id":"DU","i_lat":-6.155215,"station_name":"Duri","i_long":106.800832,"distance":3632,"is_transit":true},{"i_long":106.788277,"distance":1700,"time":3,"i_lat":-6.162021,"is_transit":false,"line":5,"transit":false,"station_name":"Grogol","station_id":"GGL"},{"time":2,"i_long":106.771379,"line":5,"distance":2036,"i_lat":-6.161433,"station_id":"PSG","is_transit":false,"station_name":"Pesing","transit":false},{"station_name":"Taman Kota","line":5,"distance":1614,"transit":false,"time":2,"is_transit":false,"i_long":106.756522,"i_lat":-6.1587309999999995,"station_id":"TKO"},{"line":0,"distance":2334,"time":2,"i_lat":-6.159876,"station_name":"Bojongindah","transit":false,"is_transit":false,"station_id":"BOI","i_long":106.737035},{"is_transit":false,"station_id":"RW","i_lat":-6.162758,"line":5,"distance":1152,"time":4,"station_name":"Rawa Buaya","transit":false,"i_long":106.723064},{"station_id":"KDS","station_name":"Kalideres","transit":false,"is_transit":false,"line":5,"i_lat":-6.166068,"distance":2504,"time":3,"i_long":106.701612},{"distance":2548,"time":3,"i_lat":-6.169933,"line":5,"transit":false,"is_transit":false,"station_id":"PI","station_name":"Poris","i_long":106.679458},{"distance":1834,"is_transit":false,"transit":false,"time":3,"i_lat":-6.171811,"station_id":"BPR","i_long":106.665036,"station_name":"Batuceper","line":0},{"station_name":"Tanah Tinggi","line":5,"time":3,"distance":2028,"transit":false,"station_id":"TTI","i_long":106.64657,"i_lat":-6.17331,"is_transit":false}],[{"line":11,"distance":0,"station_id":"POK","is_transit":false,"i_lat":-6.209188,"transit":false,"station_name":"Pondok Jati","i_long":106.861737,"time":0},{"i_lat":-6.193792,"i_long":106.855437,"line":11,"transit":false,"station_name":"Kramat","station_id":"KMT","distance":1829,"is_transit":false,"time":2},{"line":11,"station_name":"Gang Sentiong","i_lat":-6.185975,"distance":973,"i_long":106.850107,"station_id":"GST","transit":false,"time":1,"is_transit":false},{"i_lat":-6.174784,"transit":false,"time":8,"i_long":106.84368,"line":11,"distance":1567,"is_transit":false,"station_id":"PSE","station_name":"Pasar Senen"},{"distance":1436,"station_name":"Kemayoran","time":4,"i_long":106.839204,"station_id":"KMO","transit":false,"line":11,"is_transit":false,"i_lat":-6.161728},{"i_lat":-6.14505,"station_name":"Rajawali","distance":1901,"line":11,"i_long":106.836569,"time":5,"transit":false,"is_transit":false,"station_id":"RJW"},{"time":3,"distance":1444,"station_id":"KPB","is_transit":true,"station_name":"Kampung Bandan","i_lat":-6.132549,"i_long":106.826365,"transit":true,"line":0},{"is_transit":false,"station_id":"AK","line":0,"i_lat":-6.144674,"distance":4102,"station_name":"Angke","transit":false,"time":9,"i_long":106.79867},{"i_lat":-6.155215,"line":1,"transit":true,"station_name":"Duri","time":4,"i_long":106.800832,"station_id":"DU","distance":1230,"is_transit":true},{"transit":false,"is_transit":false,"line":5,"station_name":"Grogol","i_lat":-6.162021,"station_id":"GGL","i_long":106.788277,"distance":1700,"time":3},{"distance":2036,"is_transit":false,"station_name":"Pesing","station_id":"PSG","transit":false,"i_long":106.771379,"i_lat":-6.161433,"time":2,"line":5},{"i_lat":-6.1587309999999995,"station_name":"Taman Kota","line":5,"time":2,"is_transit":false,"distance":1614,"transit":false,"i_long":106.756522,"station_id":"TKO"},{"transit":false,"i_lat":-6.159876,"is_transit":false,"i_long":106.737035,"distance":2334,"station_name":"Bojongindah","time":2,"line":0,"station_id":"BOI"},{"station_name":"Rawa Buaya","transit":false,"is_transit":false,"i_lat":-6.162758,"i_long":106.723064,"time":4,"station_id":"RW","line":5,"distance":1152},{"transit":false,"is_transit":false,"time":3,"i_long":106.701612,"distance":2504,"station_id":"KDS","line":5,"i_lat":-6.166068,"station_name":"Kalideres"},{"i_long":106.679458,"i_lat":-6.169933,"station_name":"Poris","line":5,"station_id":"PI","time":3,"distance":2548,"is_transit":false,"transit":false},{"is_transit":false,"station_name":"Batuceper","i_lat":-6.171811,"station_id":"BPR","line":0,"time":3,"transit":false,"distance":1834,"i_long":106.665036},{"station_name":"Tanah Tinggi","is_transit":false,"time":3,"line":5,"transit":false,"i_long":106.64657,"station_id":"TTI","i_lat":-6.17331,"distance":2028}],[{"line":11,"i_long":106.861737,"station_name":"Pondok Jati","distance":0,"is_transit":false,"transit":false,"i_lat":-6.209188,"time":0,"station_id":"POK"},{"transit":true,"i_long":106.86807400000001,"time":9,"line":0,"station_id":"JNG","station_name":"Jatinegara","distance":1236,"is_transit":true,"i_lat":-6.215091},{"i_long":106.858896,"is_transit":false,"station_name":"Matraman","distance":1377,"i_lat":-6.212485,"transit":false,"line":1,"station_id":"MTR","time":2},{"is_transit":true,"station_name":"Manggarai","distance":1275,"station_id":"MRI","transit":true,"line":0,"time":2,"i_lat":-6.209883,"i_long":106.84912},{"transit":false,"line":0,"time":4,"station_name":"Cikini","i_lat":-6.198556,"distance":1590,"is_transit":false,"i_long":106.840169,"station_id":"CKI"},{"station_name":"Gondangdia","i_lat":-6.186295,"station_id":"GDD","time":3,"distance":1750,"i_long":106.832183,"line":2,"is_transit":false,"transit":false},{"i_lat":-6.166716,"line":2,"i_long":106.828284,"is_transit":false,"distance":2015,"station_id":"JUA","station_name":"Juanda","transit":false,"time":4},{"line":2,"time":2,"i_lat":-6.160725,"station_id":"SW","transit":false,"is_transit":false,"i_long":106.827103,"distance":1149,"station_name":"Sawah Besar"},{"is_transit":false,"line":2,"i_long":106.82482,"transit":false,"time":2,"i_lat":-6.149769,"distance":906,"station_id":"MGB","station_name":"Manggabesar"},{"distance":1080,"station_name":"Jayakarta","i_long":106.820901,"is_transit":false,"transit":false,"line":7,"station_id":"JAY","time":2,"i_lat":-6.141205},{"i_lat":-6.137569,"is_transit":true,"transit":true,"station_id":"JAKK","time":4,"line":0,"i_long":106.812439,"distance":1264,"station_name":"Jakarta Kota"},{"distance":1364,"station_id":"KPB","is_transit":true,"transit":false,"time":3,"i_lat":-6.132549,"line":0,"station_name":"Kampung Bandan","i_long":106.826365},{"is_transit":false,"i_long":106.79867,"distance":4102,"station_id":"AK","i_lat":-6.144674,"line":0,"station_name":"Angke","time":9,"transit":false},{"distance":1230,"station_name":"Duri","line":1,"is_transit":true,"i_lat":-6.155215,"i_long":106.800832,"time":4,"transit":true,"station_id":"DU"},{"time":3,"i_lat":-6.162021,"distance":1700,"station_id":"GGL","is_transit":false,"station_name":"Grogol","transit":false,"i_long":106.788277,"line":5},{"station_id":"PSG","i_lat":-6.161433,"line":5,"distance":2036,"is_transit":false,"station_name":"Pesing","time":2,"i_long":106.771379,"transit":false},{"is_transit":false,"transit":false,"time":2,"i_lat":-6.1587309999999995,"line":5,"station_name":"Taman Kota","i_long":106.756522,"station_id":"TKO","distance":1614},{"i_long":106.737035,"time":2,"is_transit":false,"station_id":"BOI","distance":2334,"i_lat":-6.159876,"transit":false,"line":0,"station_name":"Bojongindah"},{"distance":1152,"station_id":"RW","i_long":106.723064,"line":5,"is_transit":false,"i_lat":-6.162758,"station_name":"Rawa Buaya","transit":false,"time":4},{"line":5,"i_long":106.701612,"is_transit":false,"transit":false,"distance":2504,"station_id":"KDS","time":3,"station_name":"Kalideres","i_lat":-6.166068},{"station_id":"PI","i_long":106.679458,"line":5,"station_name":"Poris","distance":2548,"transit":false,"i_lat":-6.169933,"time":3,"is_transit":false},{"distance":1834,"is_transit":false,"i_lat":-6.171811,"i_long":106.665036,"transit":false,"line":0,"station_id":"BPR","time":3,"station_name":"Batuceper"},{"i_lat":-6.17331,"i_long":106.64657,"is_transit":false,"station_id":"TTI","distance":2028,"station_name":"Tanah Tinggi","time":3,"transit":false,"line":5}],[{"is_transit":false,"station_id":"POK","i_lat":-6.209188,"line":11,"distance":0,"transit":false,"station_name":"Pondok Jati","i_long":106.861737,"time":0},{"station_id":"KMT","time":2,"i_lat":-6.193792,"distance":1829,"transit":false,"station_name":"Kramat","is_transit":false,"i_long":106.855437,"line":11},{"line":11,"i_lat":-6.185975,"station_name":"Gang Sentiong","distance":973,"is_transit":false,"i_long":106.850107,"time":1,"transit":false,"station_id":"GST"},{"i_lat":-6.174784,"i_long":106.84368,"distance":1567,"station_id":"PSE","is_transit":false,"transit":false,"time":8,"line":11,"station_name":"Pasar Senen"},{"line":11,"time":4,"i_lat":-6.161728,"is_transit":false,"transit":false,"i_long":106.839204,"distance":1436,"station_id":"KMO","station_name":"Kemayoran"},{"station_id":"RJW","time":5,"is_transit":false,"distance":1901,"line":11,"transit":false,"station_name":"Rajawali","i_lat":-6.14505,"i_long":106.836569},{"is_transit":true,"station_name":"Kampung Bandan","distance":1444,"i_long":106.826365,"i_lat":-6.132549,"time":3,"line":0,"station_id":"KPB","transit":true},{"i_long":106.812439,"line":0,"i_lat":-6.137569,"time":3,"is_transit":true,"station_id":"JAKK","station_name":"Jakarta Kota","transit":true,"distance":1364},{"time":4,"station_name":"Jayakarta","transit":false,"station_id":"JAY","i_lat":-6.141205,"i_long":106.820901,"distance":1264,"is_transit":false,"line":7},{"time":2,"line":2,"distance":1080,"is_transit":false,"transit":false,"i_lat":-6.149769,"i_long":106.82482,"station_id":"MGB","station_name":"Manggabesar"},{"station_name":"Sawah Besar","line":2,"is_transit":false,"station_id":"SW","i_lat":-6.160725,"transit":false,"distance":906,"time":2,"i_long":106.827103},{"is_transit":false,"i_lat":-6.166716,"station_name":"Juanda","station_id":"JUA","distance":1149,"transit":false,"time":2,"line":2,"i_long":106.828284},{"transit":false,"distance":2015,"station_name":"Gondangdia","line":2,"time":4,"i_long":106.832183,"i_lat":-6.186295,"is_transit":false,"station_id":"GDD"},{"station_name":"Cikini","station_id":"CKI","i_long":106.840169,"distance":1750,"line":0,"transit":false,"time":3,"is_transit":false,"i_lat":-6.198556},{"time":4,"station_name":"Manggarai","station_id":"MRI","transit":true,"distance":1590,"i_long":106.84912,"i_lat":-6.209883,"line":0,"is_transit":true},{"distance":3186,"transit":false,"time":4,"line":1,"i_lat":-6.202263,"station_id":"SUD","i_long":106.822649,"is_transit":false,"station_name":"Sudirman"},{"line":1,"i_lat":-6.201433,"station_name":"Sudirman Baru","is_transit":false,"i_long":106.819881,"station_id":"SUDB","time":1,"transit":false,"distance":280},{"i_lat":-6.20132,"i_long":106.816351,"line":1,"station_id":"KAT","distance":471,"station_name":"Karet","time":1,"transit":false,"is_transit":false},{"i_long":106.811091,"line":1,"distance":2029,"i_lat":-6.185545,"is_transit":true,"station_id":"THB","station_name":"Tanah Abang","transit":false,"time":5},{"distance":3632,"is_transit":true,"station_id":"DU","transit":true,"i_long":106.800832,"line":1,"station_name":"Duri","i_lat":-6.155215,"time":8},{"i_lat":-6.162021,"i_long":106.788277,"station_name":"Grogol","station_id":"GGL","transit":false,"is_transit":false,"time":3,"distance":1700,"line":5},{"is_transit":false,"station_name":"Pesing","line":5,"distance":2036,"station_id":"PSG","i_long":106.771379,"transit":false,"time":2,"i_lat":-6.161433},{"distance":1614,"i_long":106.756522,"station_id":"TKO","i_lat":-6.1587309999999995,"line":5,"station_name":"Taman Kota","time":2,"is_transit":false,"transit":false},{"distance":2334,"transit":false,"time":2,"i_long":106.737035,"is_transit":false,"station_id":"BOI","line":0,"i_lat":-6.159876,"station_name":"Bojongindah"},{"line":5,"i_long":106.723064,"distance":1152,"is_transit":false,"station_id":"RW","i_lat":-6.162758,"station_name":"Rawa Buaya","time":4,"transit":false},{"station_id":"KDS","station_name":"Kalideres","line":5,"i_lat":-6.166068,"transit":false,"time":3,"is_transit":false,"i_long":106.701612,"distance":2504},{"i_lat":-6.169933,"is_transit":false,"station_name":"Poris","distance":2548,"time":3,"i_long":106.679458,"station_id":"PI","line":5,"transit":false},{"line":0,"station_id":"BPR","transit":false,"time":3,"distance":1834,"is_transit":false,"station_name":"Batuceper","i_lat":-6.171811,"i_long":106.665036},{"station_name":"Tanah Tinggi","line":5,"distance":2028,"i_long":106.64657,"is_transit":false,"station_id":"TTI","i_lat":-6.17331,"time":3,"transit":false}]]}