{"data":[[{"transit":false,"station_name":"Pondok Jati","station_id":"POK","is_transit":false,"time":0,"distance":0,"line":11,"i_long":106.861737,"i_lat":-6.209188},{"i_lat":-6.215091,"is_transit":true,"station_name":"Jatinegara","transit":true,"distance":1236,"station_id":"JNG","time":9,"line":1,"i_long":106.86807400000001},{"i_lat":-6.212485,"i_long":106.858896,"station_name":"Matraman","time":2,"is_transit":false,"transit":false,"line":1,"station_id":"MTR","distance":1377},{"station_name":"Manggarai","time":2,"transit":true,"station_id":"MRI","i_lat":-6.209883,"is_transit":true,"line":2,"distance":1275,"i_long":106.84912},{"station_name":"Tebet","station_id":"TEB","time":4,"i_long":106.857948,"line":2,"distance":2610,"i_lat":-6.226659,"transit":false,"is_transit":false},{"station_name":"Cawang","i_lat":-6.242512,"i_long":106.856607,"transit":false,"distance":1230,"station_id":"CW","is_transit":false,"time":2,"line":2},{"transit":false,"i_long":106.85449,"line":2,"time":3,"station_name":"Duren Kalibata","station_id":"DRN","distance":1546,"is_transit":false,"i_lat":-6.255332},{"is_transit":false,"i_lat":-6.263214,"station_name":"Pasar Minggu Baru","transit":false,"i_long":106.851577,"station_id":"PSMB","line":2,"distance":824,"time":2},{"time":2,"distance":2380,"i_lat":-6.2842400000000005,"is_transit":false,"transit":false,"station_name":"Pasar Minggu","line":2,"station_id":"PSM","i_long":106.843999},{"station_id":"TNT","station_name":"Tanjung Barat","line":2,"is_transit":false,"time":4,"distance":2820,"i_lat":-6.3080680000000005,"transit":false,"i_long":106.838896},{"distance":2671,"station_id":"LNA","station_name":"Lenteng Agung","transit":false,"i_long":106.832616,"line":2,"is_transit":false,"time":3,"i_lat":-6.330363}],[{"i_lat":-6.209188,"i_long":106.861737,"station_id":"POK","is_transit":false,"time":0,"station_name":"Pondok Jati","transit":false,"distance":0,"line":11},{"station_id":"KMT","i_long":106.855437,"is_transit":false,"station_name":"Kramat","distance":1829,"i_lat":-6.193792,"line":11,"time":2,"transit":false},{"station_name":"Gang Sentiong","is_transit":false,"distance":973,"i_lat":-6.185975,"station_id":"GST","line":11,"time":1,"i_long":106.850107,"transit":false},{"i_long":106.84368,"is_transit":false,"distance":1567,"line":11,"station_id":"PSE","time":8,"i_lat":-6.174784,"station_name":"Pasar Senen","transit":false},{"i_long":106.839204,"station_id":"KMO","line":11,"is_transit":false,"station_name":"Kemayoran","distance":1436,"i_lat":-6.161728,"time":4,"transit":false},{"line":11,"station_id":"RJW","time":5,"transit":false,"is_transit":false,"i_lat":-6.14505,"distance":1901,"station_name":"Rajawali","i_long":106.836569},{"transit":true,"time":3,"distance":1444,"station_name":"Kampung Bandan","is_transit":true,"i_lat":-6.132549,"i_long":106.826365,"line":4,"station_id":"KPB"},{"is_transit":false,"distance":4102,"i_lat":-6.144674,"station_name":"Angke","station_id":"AK","i_long":106.79867,"line":1,"time":9,"transit":false},{"i_long":106.800832,"i_lat":-6.155215,"line":1,"is_transit":false,"transit":false,"station_name":"Duri","station_id":"DU","time":4,"distance":1230},{"distance":3632,"station_id":"THB","is_transit":false,"line":1,"transit":false,"i_lat":-6.185545,"i_long":106.811091,"station_name":"Tanah Abang","time":8},{"is_transit":false,"i_long":106.816351,"station_name":"Karet","transit":false,"station_id":"KAT","time":5,"i_lat":-6.20132,"line":1,"distance":2029},{"station_id":"SUDB","distance":471,"i_lat":-6.201433,"transit":false,"is_transit":false,"time":1,"station_name":"Sudirman Baru","i_long":106.819881,"line":1},{"is_transit":false,"transit":false,"i_long":106.822649,"line":1,"distance":280,"station_id":"SUD","time":1,"i_lat":-6.202263,"station_name":"Sudirman"},{"line":2,"station_name":"Manggarai","station_id":"MRI","time":4,"i_long":106.84912,"i_lat":-6.209883,"is_transit":true,"transit":true,"distance":3186},{"time":4,"distance":2610,"transit":false,"line":2,"station_id":"TEB","i_long":106.857948,"station_name":"Tebet","i_lat":-6.226659,"is_transit":false},{"station_name":"Cawang","is_transit":false,"time":2,"i_lat":-6.242512,"transit":false,"station_id":"CW","i_long":106.856607,"distance":1230,"line":2},{"time":3,"station_name":"Duren Kalibata","distance":1546,"line":2,"station_id":"DRN","transit":false,"is_transit":false,"i_long":106.85449,"i_lat":-6.255332},{"distance":824,"i_long":106.851577,"station_name":"Pasar Minggu Baru","is_transit":false,"station_id":"PSMB","transit":false,"i_lat":-6.263214,"line":2,"time":2},{"time":2,"line":2,"distance":2380,"station_name":"Pasar Minggu","i_long":106.843999,"station_id":"PSM","is_transit":false,"transit":false,"i_lat":-6.2842400000000005},{"station_id":"TNT","distance":2820,"time":4,"i_long":106.838896,"is_transit":false,"station_name":"Tanjung Barat","i_lat":-6.3080680000000005,"transit":false,"line":2},{"station_name":"Lenteng Agung","station_id":"LNA","line":2,"time":3,"distance":2671,"transit":false,"i_lat":-6.330363,"is_transit":false,"i_long":106.832616}],[{"station_id":"POK","i_lat":-6.209188,"is_transit":false,"i_long":106.861737,"station_name":"Pondok Jati","distance":0,"line":11,"time":0,"transit":false},{"station_name":"Kramat","station_id":"KMT","distance":1829,"i_lat":-6.193792,"i_long":106.855437,"is_transit":false,"time":2,"transit":false,"line":11},{"distance":973,"i_lat":-6.185975,"line":11,"transit":false,"is_transit":false,"station_name":"Gang Sentiong","station_id":"GST","time":1,"i_long":106.850107},{"i_lat":-6.174784,"transit":false,"station_name":"Pasar Senen","station_id":"PSE","time":8,"i_long":106.84368,"line":11,"is_transit":false,"distance":1567},{"line":11,"time":4,"i_lat":-6.161728,"is_transit":false,"i_long":106.839204,"transit":false,"station_name":"Kemayoran","station_id":"KMO","distance":1436},{"time":5,"is_transit":false,"line":11,"transit":false,"distance":1901,"i_lat":-6.14505,"station_name":"Rajawali","station_id":"RJW","i_long":106.836569},{"distance":1444,"line":4,"station_name":"Kampung Bandan","time":3,"transit":true,"is_transit":true,"i_long":106.826365,"i_lat":-6.132549,"station_id":"KPB"},{"station_name":"Jakarta Kota","station_id":"JAKK","is_transit":true,"transit":true,"distance":1364,"i_lat":-6.137569,"time":3,"i_long":106.812439,"line":2},{"is_transit":false,"station_id":"JAY","i_lat":-6.141205,"i_long":106.820901,"distance":1264,"time":4,"line":2,"station_name":"Jayakarta","transit":false},{"i_long":106.82482,"station_name":"Manggabesar","station_id":"MGB","transit":false,"is_transit":false,"time":2,"i_lat":-6.149769,"line":2,"distance":1080},{"distance":906,"line":2,"time":2,"is_transit":false,"i_lat":-6.160725,"station_id":"SW","station_name":"Sawah Besar","transit":false,"i_long":106.827103},{"time":2,"line":2,"is_transit":false,"distance":1149,"station_name":"Juanda","station_id":"JUA","i_lat":-6.166716,"transit":false,"i_long":106.828284},{"is_transit":false,"time":4,"i_long":106.832183,"line":2,"station_id":"GDD","distance":2015,"i_lat":-6.186295,"transit":false,"station_name":"Gondangdia"},{"is_transit":false,"i_lat":-6.198556,"i_long":106.840169,"station_id":"CKI","time":3,"distance":1750,"transit":false,"line":2,"station_name":"Cikini"},{"is_transit":false,"i_long":106.84912,"station_name":"Manggarai","i_lat":-6.209883,"station_id":"MRI","transit":false,"time":4,"line":2,"distance":1590},{"line":2,"transit":false,"station_id":"TEB","is_transit":false,"time":4,"i_lat":-6.226659,"station_name":"Tebet","distance":2610,"i_long":106.857948},{"distance":1230,"transit":false,"time":2,"i_lat":-6.242512,"line":2,"is_transit":false,"station_id":"CW","i_long":106.856607,"station_name":"Cawang"},{"station_name":"Duren Kalibata","line":2,"i_lat":-6.255332,"station_id":"DRN","time":3,"transit":false,"distance":1546,"i_long":106.85449,"is_transit":false},{"time":2,"i_long":106.851577,"i_lat":-6.263214,"station_name":"Pasar Minggu Baru","distance":824,"line":2,"transit":false,"station_id":"PSMB","is_transit":false},{"transit":false,"time":2,"line":2,"i_long":106.843999,"i_lat":-6.2842400000000005,"station_id":"PSM","station_name":"Pasar Minggu","is_transit":false,"distance":2380},{"station_name":"Tanjung Barat","station_id":"TNT","transit":false,"time":4,"distance":2820,"i_lat":-6.3080680000000005,"line":2,"is_transit":false,"i_long":106.838896},{"station_name":"Lenteng Agung","distance":2671,"i_long":106.832616,"is_transit":false,"time":3,"line":2,"i_lat":-6.330363,"station_id":"LNA","transit":false}]]}