{"data":[[{"i_long":106.861737,"line":11,"station_name":"Pondok Jati","time":0,"distance":0,"transit":false,"i_lat":-6.209188,"is_transit":false,"station_id":"POK"},{"line":1,"is_transit":true,"distance":1236,"station_id":"JNG","time":9,"station_name":"Jatinegara","i_lat":-6.215091,"i_long":106.86807400000001,"transit":true},{"is_transit":false,"i_long":106.858896,"station_name":"Matraman","distance":1377,"i_lat":-6.212485,"line":1,"time":2,"station_id":"MTR","transit":false},{"i_long":106.84912,"i_lat":-6.209883,"time":2,"station_name":"Manggarai","distance":1275,"is_transit":false,"line":2,"station_id":"MRI","transit":false},{"line":1,"i_lat":-6.202263,"time":4,"station_id":"SUD","distance":3186,"station_name":"Sudirman","i_long":106.822649,"transit":false,"is_transit":false},{"distance":280,"station_name":"Sudirman Baru","is_transit":false,"station_id":"SUDB","time":1,"line":1,"transit":false,"i_lat":-6.201433,"i_long":106.819881},{"station_id":"KAT","line":1,"distance":471,"time":1,"transit":false,"i_long":106.816351,"i_lat":-6.20132,"is_transit":false,"station_name":"Karet"},{"line":1,"transit":false,"is_transit":false,"i_lat":-6.185545,"distance":2029,"i_long":106.811091,"station_id":"THB","station_name":"Tanah Abang","time":5},{"station_name":"Duri","station_id":"DU","line":1,"i_long":106.800832,"transit":false,"distance":3632,"i_lat":-6.155215,"is_transit":false,"time":8}],[{"line":11,"station_name":"Pondok Jati","distance":0,"time":0,"station_id":"POK","is_transit":false,"i_lat":-6.209188,"transit":false,"i_long":106.861737},{"station_name":"Kramat","distance":1829,"i_long":106.855437,"is_transit":false,"i_lat":-6.193792,"station_id":"KMT","time":2,"transit":false,"line":11},{"is_transit":false,"station_id":"GST","distance":973,"station_name":"Gang Sentiong","time":1,"transit":false,"i_long":106.850107,"i_lat":-6.185975,"line":11},{"is_transit":false,"station_name":"Pasar Senen","station_id":"PSE","i_long":106.84368,"time":8,"distance":1567,"transit":false,"line":11,"i_lat":-6.174784},{"station_id":"KMO","time":4,"transit":false,"i_long":106.839204,"line":11,"station_name":"Kemayoran","distance":1436,"i_lat":-6.161728,"is_transit":false},{"transit":false,"is_transit":false,"i_long":106.836569,"distance":1901,"station_name":"Rajawali","time":5,"i_lat":-6.14505,"station_id":"RJW","line":11},{"station_name":"Kampung Bandan","line":4,"is_transit":true,"station_id":"KPB","distance":1444,"time":3,"transit":true,"i_lat":-6.132549,"i_long":106.826365},{"station_id":"AK","station_name":"Angke","is_transit":false,"i_long":106.79867,"line":1,"i_lat":-6.144674,"time":9,"transit":false,"distance":4102},{"time":4,"line":1,"station_name":"Duri","is_transit":false,"station_id":"DU","distance":1230,"transit":false,"i_lat":-6.155215,"i_long":106.800832}],[{"station_name":"Pondok Jati","i_lat":-6.209188,"line":11,"time":0,"transit":false,"station_id":"POK","distance":0,"i_long":106.861737,"is_transit":false},{"is_transit":true,"i_long":106.86807400000001,"line":1,"distance":1236,"transit":true,"i_lat":-6.215091,"station_id":"JNG","time":9,"station_name":"Jatinegara"},{"is_transit":false,"distance":1377,"time":2,"station_id":"MTR","station_name":"Matraman","transit":false,"i_lat":-6.212485,"i_long":106.858896,"line":1},{"station_id":"MRI","i_long":106.84912,"is_transit":true,"time":2,"line":2,"distance":1275,"i_lat":-6.209883,"transit":true,"station_name":"Manggarai"},{"distance":1590,"station_id":"CKI","i_long":106.840169,"line":2,"station_name":"Cikini","time":4,"transit":false,"is_transit":false,"i_lat":-6.198556},{"transit":false,"distance":1750,"line":2,"is_transit":false,"time":3,"i_lat":-6.186295,"station_name":"Gondangdia","i_long":106.832183,"station_id":"GDD"},{"transit":false,"i_lat":-6.166716,"i_long":106.828284,"station_name":"Juanda","is_transit":false,"line":2,"station_id":"JUA","time":4,"distance":2015},{"line":2,"distance":1149,"station_name":"Sawah Besar","i_long":106.827103,"is_transit":false,"transit":false,"station_id":"SW","i_lat":-6.160725,"time":2},{"line":2,"transit":false,"i_long":106.82482,"i_lat":-6.149769,"station_id":"MGB","time":2,"station_name":"Manggabesar","distance":906,"is_transit":false},{"station_name":"Jayakarta","i_lat":-6.141205,"station_id":"JAY","i_long":106.820901,"is_transit":false,"line":2,"transit":false,"time":2,"distance":1080},{"is_transit":true,"transit":true,"i_lat":-6.137569,"i_long":106.812439,"station_id":"JAKK","station_name":"Jakarta Kota","distance":1264,"time":4,"line":2},{"i_lat":-6.132549,"i_long":106.826365,"is_transit":true,"transit":true,"line":4,"distance":1364,"station_id":"KPB","time":3,"station_name":"Kampung Bandan"},{"station_id":"AK","i_lat":-6.144674,"distance":4102,"line":1,"transit":false,"i_long":106.79867,"station_name":"Angke","is_transit":false,"time":9},{"time":4,"i_lat":-6.155215,"transit":false,"station_name":"Duri","line":1,"distance":1230,"i_long":106.800832,"station_id":"DU","is_transit":false}],[{"distance":0,"station_id":"POK","i_long":106.861737,"time":0,"line":11,"is_transit":false,"i_lat":-6.209188,"transit":false,"station_name":"Pondok Jati"},{"station_id":"KMT","time":2,"i_long":106.855437,"distance":1829,"transit":false,"is_transit":false,"i_lat":-6.193792,"station_name":"Kramat","line":11},{"line":11,"i_lat":-6.185975,"is_transit":false,"transit":false,"time":1,"i_long":106.850107,"station_id":"GST","distance":973,"station_name":"Gang Sentiong"},{"i_long":106.84368,"station_name":"Pasar Senen","is_transit":false,"time":8,"i_lat":-6.174784,"line":11,"distance":1567,"station_id":"PSE","transit":false},{"i_long":106.839204,"transit":false,"station_name":"Kemayoran","station_id":"KMO","i_lat":-6.161728,"line":11,"time":4,"distance":1436,"is_transit":false},{"distance":1901,"station_id":"RJW","time":5,"station_name":"Rajawali","is_transit":false,"i_long":106.836569,"line":11,"transit":false,"i_lat":-6.14505},{"is_transit":true,"transit":true,"line":4,"i_long":106.826365,"time":3,"i_lat":-6.132549,"station_id":"KPB","distance":1444,"station_name":"Kampung Bandan"},{"station_id":"JAKK","i_long":106.812439,"i_lat":-6.137569,"time":3,"distance":1364,"station_name":"Jakarta Kota","line":2,"is_transit":true,"transit":true},{"station_name":"Jayakarta","time":4,"station_id":"JAY","transit":false,"distance":1264,"i_long":106.820901,"is_transit":false,"i_lat":-6.141205,"line":2},{"transit":false,"line":2,"time":2,"i_long":106.82482,"i_lat":-6.149769,"station_id":"MGB","distance":1080,"station_name":"Manggabesar","is_transit":false},{"i_long":106.827103,"is_transit":false,"transit":false,"time":2,"distance":906,"station_name":"Sawah Besar","i_lat":-6.160725,"station_id":"SW","line":2},{"station_name":"Juanda","is_transit":false,"transit":false,"time":2,"distance":1149,"line":2,"i_long":106.828284,"i_lat":-6.166716,"station_id":"JUA"},{"is_transit":false,"time":4,"line":2,"distance":2015,"transit":false,"i_long":106.832183,"station_name":"Gondangdia","i_lat":-6.186295,"station_id":"GDD"},{"distance":1750,"time":3,"i_lat":-6.198556,"station_name":"Cikini","line":2,"station_id":"CKI","i_long":106.840169,"transit":false,"is_transit":false},{"line":2,"transit":true,"time":4,"distance":1590,"station_id":"MRI","station_name":"Manggarai","is_transit":true,"i_lat":-6.209883,"i_long":106.84912},{"station_id":"SUD","time":4,"distance":3186,"station_name":"Sudirman","transit":false,"i_long":106.822649,"i_lat":-6.202263,"line":1,"is_transit":false},{"is_transit":false,"i_long":106.819881,"distance":280,"station_id":"SUDB","station_name":"Sudirman Baru","transit":false,"line":1,"time":1,"i_lat":-6.201433},{"transit":false,"time":1,"is_transit":false,"distance":471,"station_id":"KAT","i_long":106.816351,"i_lat":-6.20132,"station_name":"Karet","line":1},{"transit":false,"station_id":"THB","i_lat":-6.185545,"time":5,"distance":2029,"station_name":"Tanah Abang","line":1,"i_long":106.811091,"is_transit":false},{"time":8,"station_id":"DU","is_transit":false,"i_long":106.800832,"i_lat":-6.155215,"line":1,"transit":false,"distance":3632,"station_name":"Duri"}]]}