{"data":[[{"time":0,"i_lat":-6.209188,"is_transit":false,"i_long":106.861737,"station_id":"POK","station_name":"Pondok Jati","distance":0,"line":11,"transit":false},{"line":11,"transit":false,"distance":1829,"time":2,"station_id":"KMT","i_lat":-6.193792,"i_long":106.855437,"station_name":"Kramat","is_transit":false},{"i_long":106.850107,"distance":973,"station_id":"GST","is_transit":false,"line":11,"transit":false,"time":1,"station_name":"Gang Sentiong","i_lat":-6.185975},{"transit":false,"line":11,"i_lat":-6.174784,"time":8,"distance":1567,"station_id":"PSE","i_long":106.84368,"is_transit":false,"station_name":"Pasar Senen"},{"station_id":"KMO","time":4,"is_transit":false,"i_long":106.839204,"line":11,"distance":1436,"transit":false,"station_name":"Kemayoran","i_lat":-6.161728}],[{"station_id":"POK","line":11,"transit":false,"station_name":"Pondok Jati","is_transit":false,"i_long":106.861737,"time":0,"distance":0,"i_lat":-6.209188},{"is_transit":true,"distance":1236,"transit":true,"station_name":"Jatinegara","i_lat":-6.215091,"line":1,"station_id":"JNG","time":9,"i_long":106.86807400000001},{"time":2,"transit":false,"distance":1377,"i_long":106.858896,"station_name":"Matraman","i_lat":-6.212485,"line":1,"station_id":"MTR","is_transit":false},{"time":2,"transit":false,"i_long":106.84912,"line":2,"station_name":"Manggarai","distance":1275,"i_lat":-6.209883,"station_id":"MRI","is_transit":false},{"station_id":"SUD","is_transit":false,"i_long":106.822649,"line":1,"distance":3186,"time":4,"transit":false,"station_name":"Sudirman","i_lat":-6.202263},{"station_id":"SUDB","station_name":"Sudirman Baru","i_lat":-6.201433,"i_long":106.819881,"is_transit":false,"line":1,"time":1,"transit":false,"distance":280},{"i_lat":-6.20132,"transit":false,"time":1,"line":1,"station_name":"Karet","distance":471,"station_id":"KAT","i_long":106.816351,"is_transit":false},{"distance":2029,"station_name":"Tanah Abang","is_transit":false,"time":5,"line":1,"i_lat":-6.185545,"transit":false,"station_id":"THB","i_long":106.811091},{"time":8,"line":1,"is_transit":false,"i_lat":-6.155215,"i_long":106.800832,"transit":false,"station_name":"Duri","distance":3632,"station_id":"DU"},{"time":4,"i_lat":-6.144674,"i_long":106.79867,"transit":false,"distance":1230,"station_id":"AK","is_transit":false,"station_name":"Angke","line":1},{"is_transit":true,"station_id":"KPB","time":9,"i_long":106.826365,"line":4,"transit":true,"station_name":"Kampung Bandan","i_lat":-6.132549,"distance":4102},{"transit":false,"i_long":106.836569,"station_name":"Rajawali","station_id":"RJW","line":11,"time":3,"distance":1444,"is_transit":false,"i_lat":-6.14505},{"i_lat":-6.161728,"i_long":106.839204,"distance":1901,"line":11,"is_transit":false,"station_name":"Kemayoran","time":5,"transit":false,"station_id":"KMO"}],[{"time":0,"i_long":106.861737,"transit":false,"distance":0,"line":11,"i_lat":-6.209188,"is_transit":false,"station_id":"POK","station_name":"Pondok Jati"},{"is_transit":true,"station_name":"Jatinegara","i_lat":-6.215091,"station_id":"JNG","distance":1236,"time":9,"i_long":106.86807400000001,"transit":true,"line":1},{"transit":false,"station_id":"MTR","is_transit":false,"line":1,"distance":1377,"station_name":"Matraman","i_long":106.858896,"i_lat":-6.212485,"time":2},{"distance":1275,"is_transit":true,"station_id":"MRI","i_long":106.84912,"station_name":"Manggarai","time":2,"i_lat":-6.209883,"line":2,"transit":true},{"time":4,"i_long":106.840169,"station_name":"Cikini","i_lat":-6.198556,"transit":false,"line":2,"station_id":"CKI","distance":1590,"is_transit":false},{"time":3,"line":2,"station_id":"GDD","transit":false,"is_transit":false,"i_lat":-6.186295,"distance":1750,"i_long":106.832183,"station_name":"Gondangdia"},{"i_long":106.828284,"distance":2015,"station_name":"Juanda","time":4,"line":2,"station_id":"JUA","transit":false,"is_transit":false,"i_lat":-6.166716},{"line":2,"station_name":"Sawah Besar","is_transit":false,"i_lat":-6.160725,"transit":false,"station_id":"SW","time":2,"distance":1149,"i_long":106.827103},{"station_name":"Manggabesar","station_id":"MGB","transit":false,"time":2,"distance":906,"i_lat":-6.149769,"is_transit":false,"i_long":106.82482,"line":2},{"i_lat":-6.141205,"transit":false,"station_name":"Jayakarta","is_transit":false,"distance":1080,"time":2,"i_long":106.820901,"station_id":"JAY","line":2},{"station_name":"Jakarta Kota","time":4,"transit":true,"i_lat":-6.137569,"line":2,"distance":1264,"station_id":"JAKK","is_transit":true,"i_long":106.812439},{"i_long":106.826365,"distance":1364,"i_lat":-6.132549,"station_id":"KPB","is_transit":true,"station_name":"Kampung Bandan","line":4,"transit":true,"time":3},{"station_name":"Rajawali","transit":false,"distance":1444,"line":11,"station_id":"RJW","i_long":106.836569,"i_lat":-6.14505,"time":3,"is_transit":false},{"i_lat":-6.161728,"station_name":"Kemayoran","transit":false,"i_long":106.839204,"time":5,"station_id":"KMO","distance":1901,"line":11,"is_transit":false}]]}