{"data":[[{"time":0,"distance":0,"station_id":"POK","line":11,"is_transit":false,"transit":false,"i_lat":-6.209188,"i_long":106.861737,"station_name":"Pondok Jati"},{"i_lat":-6.215091,"time":9,"line":1,"transit":false,"station_name":"Jatinegara","is_transit":false,"i_long":106.86807400000001,"station_id":"JNG","distance":1236}],[{"distance":0,"line":11,"transit":false,"i_lat":-6.209188,"station_name":"Pondok Jati","time":0,"is_transit":false,"station_id":"POK","i_long":106.861737},{"is_transit":false,"line":11,"i_lat":-6.193792,"station_name":"Kramat","station_id":"KMT","i_long":106.855437,"distance":1829,"time":2,"transit":false},{"i_lat":-6.185975,"station_id":"GST","transit":false,"is_transit":false,"time":1,"distance":973,"i_long":106.850107,"station_name":"Gang Sentiong","line":11},{"station_name":"Pasar Senen","line":11,"time":8,"is_transit":false,"distance":1567,"transit":false,"i_lat":-6.174784,"i_long":106.84368,"station_id":"PSE"},{"is_transit":false,"i_lat":-6.161728,"line":11,"distance":1436,"station_id":"KMO","transit":false,"time":4,"i_long":106.839204,"station_name":"Kemayoran"},{"line":11,"time":5,"distance":1901,"i_long":106.836569,"transit":false,"station_name":"Rajawali","i_lat":-6.14505,"is_transit":false,"station_id":"RJW"},{"distance":1444,"i_long":106.826365,"station_id":"KPB","time":3,"i_lat":-6.132549,"line":4,"station_name":"Kampung Bandan","transit":true,"is_transit":true},{"line":1,"i_lat":-6.144674,"i_long":106.79867,"time":9,"transit":false,"station_name":"Angke","distance":4102,"station_id":"AK","is_transit":false},{"time":4,"is_transit":false,"station_name":"Duri","i_lat":-6.155215,"transit":false,"i_long":106.800832,"line":1,"station_id":"DU","distance":1230},{"time":8,"is_transit":false,"line":1,"station_id":"THB","i_long":106.811091,"transit":false,"station_name":"Tanah Abang","distance":3632,"i_lat":-6.185545},{"i_lat":-6.20132,"transit":false,"distance":2029,"line":1,"i_long":106.816351,"time":5,"station_name":"Karet","station_id":"KAT","is_transit":false},{"transit":false,"is_transit":false,"station_name":"Sudirman Baru","time":1,"i_lat":-6.201433,"i_long":106.819881,"line":1,"station_id":"SUDB","distance":471},{"line":1,"station_name":"Sudirman","distance":280,"i_long":106.822649,"transit":false,"i_lat":-6.202263,"station_id":"SUD","is_transit":false,"time":1},{"station_name":"Manggarai","transit":false,"station_id":"MRI","time":4,"i_lat":-6.209883,"is_transit":false,"distance":3186,"i_long":106.84912,"line":2},{"i_lat":-6.212485,"time":2,"line":1,"transit":false,"station_id":"MTR","distance":1275,"station_name":"Matraman","is_transit":false,"i_long":106.858896},{"is_transit":false,"i_lat":-6.215091,"station_id":"JNG","i_long":106.86807400000001,"distance":1377,"line":1,"time":8,"transit":false,"station_name":"Jatinegara"}],[{"time":0,"is_transit":false,"line":11,"station_name":"Pondok Jati","distance":0,"i_lat":-6.209188,"station_id":"POK","transit":false,"i_long":106.861737},{"i_long":106.855437,"time":2,"station_id":"KMT","is_transit":false,"station_name":"Kramat","transit":false,"distance":1829,"i_lat":-6.193792,"line":11},{"transit":false,"time":1,"i_long":106.850107,"station_name":"Gang Sentiong","station_id":"GST","distance":973,"i_lat":-6.185975,"line":11,"is_transit":false},{"i_long":106.84368,"transit":false,"station_id":"PSE","station_name":"Pasar Senen","distance":1567,"i_lat":-6.174784,"time":8,"is_transit":false,"line":11},{"station_id":"KMO","station_name":"Kemayoran","time":4,"i_long":106.839204,"is_transit":false,"distance":1436,"transit":false,"i_lat":-6.161728,"line":11},{"distance":1901,"is_transit":false,"transit":false,"i_long":106.836569,"i_lat":-6.14505,"line":11,"station_name":"Rajawali","station_id":"RJW","time":5},{"distance":1444,"station_id":"KPB","is_transit":true,"time":3,"i_lat":-6.132549,"line":4,"transit":true,"i_long":106.826365,"station_name":"Kampung Bandan"},{"i_lat":-6.137569,"line":2,"station_id":"JAKK","distance":1364,"station_name":"Jakarta Kota","transit":true,"is_transit":true,"time":3,"i_long":106.812439},{"i_lat":-6.141205,"transit":false,"distance":1264,"line":2,"is_transit":false,"time":4,"station_name":"Jayakarta","station_id":"JAY","i_long":106.820901},{"time":2,"i_long":106.82482,"station_id":"MGB","distance":1080,"station_name":"Manggabesar","i_lat":-6.149769,"line":2,"transit":false,"is_transit":false},{"time":2,"i_long":106.827103,"is_transit":false,"line":2,"i_lat":-6.160725,"transit":false,"station_name":"Sawah Besar","distance":906,"station_id":"SW"},{"i_lat":-6.166716,"station_id":"JUA","transit":false,"station_name":"Juanda","line":2,"i_long":106.828284,"distance":1149,"time":2,"is_transit":false},{"i_long":106.832183,"station_name":"Gondangdia","line":2,"distance":2015,"i_lat":-6.186295,"transit":false,"station_id":"GDD","is_transit":false,"time":4},{"station_name":"Cikini","station_id":"CKI","i_lat":-6.198556,"line":2,"transit":false,"is_transit":false,"time":3,"distance":1750,"i_long":106.840169},{"transit":true,"distance":1590,"i_long":106.84912,"station_name":"Manggarai","line":2,"i_lat":-6.209883,"station_id":"MRI","time":4,"is_transit":true},{"station_name":"Matraman","station_id":"MTR","distance":1275,"i_long":106.858896,"transit":false,"is_transit":false,"time":2,"line":1,"i_lat":-6.212485},{"is_transit":false,"i_long":106.86807400000001,"station_id":"JNG","station_name":"Jatinegara","distance":1377,"i_lat":-6.215091,"transit":false,"time":8,"line":1}]]}