{"data":[[{"time":0,"station_name":"Pondok Jati","line":11,"distance":0,"transit":false,"i_long":106.861737,"i_lat":-6.209188,"is_transit":false,"station_id":"POK"},{"is_transit":true,"station_name":"Jatinegara","i_lat":-6.215091,"station_id":"JNG","distance":1236,"time":9,"line":0,"i_long":106.86807400000001,"transit":true},{"station_id":"MTR","i_lat":-6.212485,"transit":false,"i_long":106.858896,"time":2,"is_transit":false,"station_name":"Matraman","distance":1377,"line":1},{"distance":1275,"line":0,"station_name":"Manggarai","time":2,"i_lat":-6.209883,"is_transit":true,"station_id":"MRI","transit":false,"i_long":106.84912},{"line":1,"station_id":"SUD","distance":3186,"i_lat":-6.202263,"transit":false,"station_name":"Sudirman","time":4,"is_transit":false,"i_long":106.822649},{"transit":false,"distance":280,"is_transit":false,"i_long":106.819881,"station_id":"SUDB","time":1,"i_lat":-6.201433,"line":1,"station_name":"Sudirman Baru"},{"line":1,"station_name":"Karet","time":1,"transit":false,"i_long":106.816351,"i_lat":-6.20132,"distance":471,"station_id":"KAT","is_transit":false},{"i_lat":-6.185545,"transit":false,"is_transit":true,"station_name":"Tanah Abang","i_long":106.811091,"line":1,"distance":2029,"station_id":"THB","time":5},{"time":8,"distance":3632,"is_transit":true,"station_name":"Duri","i_lat":-6.155215,"line":1,"i_long":106.800832,"station_id":"DU","transit":true},{"i_long":106.788277,"i_lat":-6.162021,"transit":false,"is_transit":false,"station_name":"Grogol","station_id":"GGL","time":3,"line":5,"distance":1700},{"i_lat":-6.161433,"is_transit":false,"i_long":106.771379,"transit":false,"line":5,"station_name":"Pesing","distance":2036,"time":2,"station_id":"PSG"}],[{"i_lat":-6.209188,"i_long":106.861737,"distance":0,"station_id":"POK","line":11,"transit":false,"station_name":"Pondok Jati","time":0,"is_transit":false},{"distance":1829,"station_name":"Kramat","transit":false,"i_long":106.855437,"station_id":"KMT","i_lat":-6.193792,"line":11,"time":2,"is_transit":false},{"transit":false,"time":1,"line":11,"station_name":"Gang Sentiong","i_lat":-6.185975,"is_transit":false,"station_id":"GST","distance":973,"i_long":106.850107},{"station_id":"PSE","time":8,"transit":false,"distance":1567,"is_transit":false,"station_name":"Pasar Senen","i_lat":-6.174784,"i_long":106.84368,"line":11},{"i_long":106.839204,"station_id":"KMO","transit":false,"time":4,"is_transit":false,"station_name":"Kemayoran","distance":1436,"i_lat":-6.161728,"line":11},{"station_name":"Rajawali","i_lat":-6.14505,"i_long":106.836569,"line":11,"transit":false,"is_transit":false,"distance":1901,"station_id":"RJW","time":5},{"station_id":"KPB","time":3,"line":0,"transit":true,"distance":1444,"i_lat":-6.132549,"i_long":106.826365,"is_transit":true,"station_name":"Kampung Bandan"},{"i_lat":-6.144674,"is_transit":false,"i_long":106.79867,"station_id":"AK","time":9,"transit":false,"distance":4102,"station_name":"Angke","line":0},{"i_lat":-6.155215,"is_transit":true,"line":1,"station_id":"DU","distance":1230,"i_long":106.800832,"station_name":"Duri","time":4,"transit":true},{"distance":1700,"line":5,"transit":false,"time":3,"i_lat":-6.162021,"station_id":"GGL","is_transit":false,"station_name":"Grogol","i_long":106.788277},{"time":2,"line":5,"i_long":106.771379,"is_transit":false,"station_name":"Pesing","transit":false,"i_lat":-6.161433,"station_id":"PSG","distance":2036}],[{"i_long":106.861737,"is_transit":false,"transit":false,"line":11,"distance":0,"station_id":"POK","station_name":"Pondok Jati","i_lat":-6.209188,"time":0},{"station_id":"JNG","station_name":"Jatinegara","transit":true,"is_transit":true,"i_long":106.86807400000001,"distance":1236,"line":0,"i_lat":-6.215091,"time":9},{"time":2,"i_lat":-6.212485,"is_transit":false,"i_long":106.858896,"line":1,"station_id":"MTR","distance":1377,"transit":false,"station_name":"Matraman"},{"line":0,"time":2,"distance":1275,"i_long":106.84912,"is_transit":true,"station_id":"MRI","station_name":"Manggarai","transit":true,"i_lat":-6.209883},{"time":4,"distance":1590,"station_id":"CKI","transit":false,"i_lat":-6.198556,"i_long":106.840169,"is_transit":false,"line":0,"station_name":"Cikini"},{"time":3,"line":2,"is_transit":false,"station_name":"Gondangdia","station_id":"GDD","i_long":106.832183,"distance":1750,"i_lat":-6.186295,"transit":false},{"transit":false,"i_long":106.828284,"station_name":"Juanda","i_lat":-6.166716,"distance":2015,"line":2,"is_transit":false,"station_id":"JUA","time":4},{"transit":false,"time":2,"station_id":"SW","station_name":"Sawah Besar","i_long":106.827103,"line":2,"i_lat":-6.160725,"distance":1149,"is_transit":false},{"transit":false,"i_lat":-6.149769,"station_name":"Manggabesar","time":2,"is_transit":false,"station_id":"MGB","i_long":106.82482,"line":2,"distance":906},{"time":2,"distance":1080,"is_transit":false,"transit":false,"i_long":106.820901,"station_id":"JAY","line":7,"i_lat":-6.141205,"station_name":"Jayakarta"},{"is_transit":true,"distance":1264,"transit":true,"station_id":"JAKK","station_name":"Jakarta Kota","line":0,"time":4,"i_long":106.812439,"i_lat":-6.137569},{"i_long":106.826365,"transit":false,"i_lat":-6.132549,"time":3,"is_transit":true,"distance":1364,"station_name":"Kampung Bandan","line":0,"station_id":"KPB"},{"station_id":"AK","line":0,"time":9,"i_lat":-6.144674,"is_transit":false,"station_name":"Angke","i_long":106.79867,"transit":false,"distance":4102},{"station_name":"Duri","i_lat":-6.155215,"i_long":106.800832,"line":1,"distance":1230,"is_transit":true,"transit":true,"time":4,"station_id":"DU"},{"station_name":"Grogol","i_lat":-6.162021,"line":5,"station_id":"GGL","is_transit":false,"time":3,"transit":false,"i_long":106.788277,"distance":1700},{"distance":2036,"station_name":"Pesing","i_lat":-6.161433,"transit":false,"time":2,"i_long":106.771379,"is_transit":false,"line":5,"station_id":"PSG"}],[{"distance":0,"transit":false,"station_name":"Pondok Jati","is_transit":false,"i_lat":-6.209188,"i_long":106.861737,"line":11,"station_id":"POK","time":0},{"time":2,"i_long":106.855437,"station_name":"Kramat","line":11,"is_transit":false,"distance":1829,"i_lat":-6.193792,"transit":false,"station_id":"KMT"},{"line":11,"i_long":106.850107,"distance":973,"is_transit":false,"i_lat":-6.185975,"station_id":"GST","station_name":"Gang Sentiong","transit":false,"time":1},{"distance":1567,"i_lat":-6.174784,"i_long":106.84368,"line":11,"station_name":"Pasar Senen","is_transit":false,"station_id":"PSE","transit":false,"time":8},{"line":11,"time":4,"is_transit":false,"i_lat":-6.161728,"station_id":"KMO","distance":1436,"station_name":"Kemayoran","i_long":106.839204,"transit":false},{"i_long":106.836569,"distance":1901,"is_transit":false,"station_id":"RJW","line":11,"transit":false,"i_lat":-6.14505,"station_name":"Rajawali","time":5},{"line":0,"is_transit":true,"transit":true,"time":3,"i_lat":-6.132549,"station_id":"KPB","i_long":106.826365,"distance":1444,"station_name":"Kampung Bandan"},{"time":3,"i_lat":-6.137569,"transit":true,"distance":1364,"i_long":106.812439,"is_transit":true,"line":0,"station_id":"JAKK","station_name":"Jakarta Kota"},{"station_id":"JAY","time":4,"is_transit":false,"i_long":106.820901,"distance":1264,"i_lat":-6.141205,"transit":false,"line":7,"station_name":"Jayakarta"},{"station_name":"Manggabesar","transit":false,"station_id":"MGB","line":2,"is_transit":false,"time":2,"i_lat":-6.149769,"i_long":106.82482,"distance":1080},{"time":2,"is_transit":false,"station_id":"SW","i_lat":-6.160725,"i_long":106.827103,"distance":906,"transit":false,"line":2,"station_name":"Sawah Besar"},{"distance":1149,"time":2,"line":2,"i_lat":-6.166716,"station_id":"JUA","is_transit":false,"station_name":"Juanda","i_long":106.828284,"transit":false},{"distance":2015,"station_id":"GDD","i_lat":-6.186295,"is_transit":false,"transit":false,"i_long":106.832183,"station_name":"Gondangdia","time":4,"line":2},{"is_transit":false,"i_long":106.840169,"station_name":"Cikini","time":3,"transit":false,"i_lat":-6.198556,"distance":1750,"station_id":"CKI","line":0},{"distance":1590,"i_lat":-6.209883,"station_name":"Manggarai","transit":true,"is_transit":true,"time":4,"station_id":"MRI","i_long":106.84912,"line":0},{"station_id":"SUD","station_name":"Sudirman","distance":3186,"transit":false,"i_lat":-6.202263,"line":1,"is_transit":false,"time":4,"i_long":106.822649},{"line":1,"is_transit":false,"station_id":"SUDB","transit":false,"distance":280,"i_long":106.819881,"station_name":"Sudirman Baru","i_lat":-6.201433,"time":1},{"transit":false,"i_long":106.816351,"station_name":"Karet","distance":471,"is_transit":false,"station_id":"KAT","i_lat":-6.20132,"time":1,"line":1},{"i_long":106.811091,"station_name":"Tanah Abang","is_transit":true,"transit":false,"line":1,"station_id":"THB","i_lat":-6.185545,"time":5,"distance":2029},{"i_lat":-6.155215,"i_long":106.800832,"station_name":"Duri","line":1,"station_id":"DU","transit":true,"time":8,"is_transit":true,"distance":3632},{"station_id":"GGL","line":5,"transit":false,"time":3,"is_transit":false,"i_long":106.788277,"i_lat":-6.162021,"distance":1700,"station_name":"Grogol"},{"station_id":"PSG","i_lat":-6.161433,"transit":false,"i_long":106.771379,"line":5,"station_name":"Pesing","distance":2036,"time":2,"is_transit":false}]]}