{"data":[[{"station_id":"POK","transit":false,"i_long":106.861737,"time":0,"distance":0,"i_lat":-6.209188,"line":11,"is_transit":false,"station_name":"Pondok Jati"},{"time":2,"distance":1829,"line":11,"i_lat":-6.193792,"station_name":"Kramat","i_long":106.855437,"transit":false,"is_transit":false,"station_id":"KMT"},{"i_long":106.850107,"line":11,"is_transit":false,"transit":false,"station_name":"Gang Sentiong","i_lat":-6.185975,"distance":973,"time":1,"station_id":"GST"},{"time":8,"is_transit":false,"distance":1567,"station_name":"Pasar Senen","i_long":106.84368,"station_id":"PSE","transit":false,"i_lat":-6.174784,"line":11},{"time":4,"is_transit":false,"i_long":106.839204,"station_name":"Kemayoran","line":11,"station_id":"KMO","distance":1436,"transit":false,"i_lat":-6.161728}],[{"time":0,"distance":0,"is_transit":false,"transit":false,"i_lat":-6.209188,"station_id":"POK","station_name":"Pondok Jati","i_long":106.861737,"line":11},{"distance":1236,"station_id":"JNG","station_name":"Jatinegara","line":1,"i_long":106.86807400000001,"time":9,"is_transit":true,"transit":true,"i_lat":-6.215091},{"station_name":"Matraman","i_lat":-6.212485,"i_long":106.858896,"is_transit":false,"transit":false,"distance":1377,"line":1,"station_id":"MTR","time":2},{"station_id":"MRI","is_transit":false,"i_lat":-6.209883,"transit":false,"time":2,"station_name":"Manggarai","distance":1275,"i_long":106.84912,"line":2},{"transit":false,"distance":3186,"station_name":"Sudirman","i_lat":-6.202263,"time":4,"station_id":"SUD","is_transit":false,"i_long":106.822649,"line":1},{"line":1,"i_lat":-6.201433,"time":1,"i_long":106.819881,"transit":false,"is_transit":false,"station_id":"SUDB","station_name":"Sudirman Baru","distance":280},{"transit":false,"station_name":"Karet","line":1,"i_lat":-6.20132,"distance":471,"station_id":"KAT","i_long":106.816351,"time":1,"is_transit":false},{"is_transit":false,"transit":false,"station_id":"THB","distance":2029,"i_long":106.811091,"line":1,"time":5,"i_lat":-6.185545,"station_name":"Tanah Abang"},{"station_id":"DU","i_long":106.800832,"i_lat":-6.155215,"line":1,"is_transit":false,"transit":false,"distance":3632,"station_name":"Duri","time":8},{"i_long":106.79867,"station_name":"Angke","time":4,"i_lat":-6.144674,"line":1,"transit":false,"is_transit":false,"station_id":"AK","distance":1230},{"is_transit":true,"i_long":106.826365,"line":4,"transit":true,"distance":4102,"station_name":"Kampung Bandan","station_id":"KPB","i_lat":-6.132549,"time":9},{"is_transit":false,"station_name":"Rajawali","transit":false,"time":3,"i_lat":-6.14505,"line":11,"distance":1444,"station_id":"RJW","i_long":106.836569},{"distance":1901,"i_lat":-6.161728,"is_transit":false,"line":11,"time":5,"i_long":106.839204,"transit":false,"station_name":"Kemayoran","station_id":"KMO"}],[{"is_transit":false,"i_lat":-6.209188,"distance":0,"station_id":"POK","station_name":"Pondok Jati","time":0,"i_long":106.861737,"line":11,"transit":false},{"station_id":"JNG","i_lat":-6.215091,"i_long":106.86807400000001,"line":1,"transit":true,"distance":1236,"time":9,"is_transit":true,"station_name":"Jatinegara"},{"i_long":106.858896,"line":1,"station_name":"Matraman","transit":false,"time":2,"distance":1377,"station_id":"MTR","i_lat":-6.212485,"is_transit":false},{"time":2,"is_transit":true,"distance":1275,"station_name":"Manggarai","transit":true,"i_long":106.84912,"line":2,"i_lat":-6.209883,"station_id":"MRI"},{"transit":false,"line":2,"i_lat":-6.198556,"station_id":"CKI","i_long":106.840169,"is_transit":false,"station_name":"Cikini","time":4,"distance":1590},{"i_lat":-6.186295,"distance":1750,"transit":false,"station_name":"Gondangdia","is_transit":false,"time":3,"i_long":106.832183,"line":2,"station_id":"GDD"},{"station_name":"Juanda","transit":false,"station_id":"JUA","is_transit":false,"distance":2015,"time":4,"i_long":106.828284,"line":2,"i_lat":-6.166716},{"station_name":"Sawah Besar","station_id":"SW","transit":false,"time":2,"i_long":106.827103,"line":2,"distance":1149,"is_transit":false,"i_lat":-6.160725},{"time":2,"station_id":"MGB","line":2,"distance":906,"i_lat":-6.149769,"transit":false,"i_long":106.82482,"is_transit":false,"station_name":"Manggabesar"},{"i_long":106.820901,"transit":false,"station_name":"Jayakarta","station_id":"JAY","i_lat":-6.141205,"time":2,"distance":1080,"line":2,"is_transit":false},{"distance":1264,"is_transit":true,"station_id":"JAKK","time":4,"transit":true,"line":2,"station_name":"Jakarta Kota","i_long":106.812439,"i_lat":-6.137569},{"transit":true,"line":4,"station_id":"KPB","is_transit":true,"station_name":"Kampung Bandan","time":3,"i_long":106.826365,"distance":1364,"i_lat":-6.132549},{"is_transit":false,"transit":false,"distance":1444,"station_name":"Rajawali","time":3,"i_long":106.836569,"station_id":"RJW","i_lat":-6.14505,"line":11},{"i_long":106.839204,"transit":false,"is_transit":false,"distance":1901,"station_name":"Kemayoran","station_id":"KMO","line":11,"i_lat":-6.161728,"time":5}]]}