{"data":[[{"line":11,"i_long":106.861737,"i_lat":-6.209188,"station_id":"POK","time":0,"transit":false,"station_name":"Pondok Jati","distance":0,"is_transit":false},{"time":9,"is_transit":true,"transit":true,"i_lat":-6.215091,"line":1,"distance":1236,"station_name":"Jatinegara","station_id":"JNG","i_long":106.86807400000001},{"distance":1377,"i_long":106.858896,"time":2,"transit":false,"is_transit":false,"station_id":"MTR","station_name":"Matraman","i_lat":-6.212485,"line":1},{"i_long":106.84912,"transit":false,"i_lat":-6.209883,"station_id":"MRI","station_name":"Manggarai","time":2,"line":2,"distance":1275,"is_transit":false},{"station_name":"Sudirman","transit":false,"station_id":"SUD","time":4,"is_transit":false,"i_lat":-6.202263,"i_long":106.822649,"line":1,"distance":3186},{"i_lat":-6.201433,"distance":280,"i_long":106.819881,"time":1,"station_name":"Sudirman Baru","line":1,"station_id":"SUDB","is_transit":false,"transit":false},{"station_name":"Karet","station_id":"KAT","i_long":106.816351,"is_transit":false,"time":1,"transit":false,"distance":471,"i_lat":-6.20132,"line":1},{"transit":false,"station_id":"THB","i_long":106.811091,"time":5,"i_lat":-6.185545,"is_transit":false,"line":1,"station_name":"Tanah Abang","distance":2029},{"station_id":"DU","distance":3632,"transit":true,"i_long":106.800832,"time":8,"i_lat":-6.155215,"is_transit":true,"line":1,"station_name":"Duri"},{"distance":1700,"line":5,"station_name":"Grogol","time":3,"i_lat":-6.162021,"i_long":106.788277,"transit":false,"station_id":"GGL","is_transit":false},{"is_transit":false,"i_lat":-6.161433,"distance":2036,"station_name":"Pesing","line":5,"station_id":"PSG","i_long":106.771379,"time":2,"transit":false},{"transit":false,"is_transit":false,"i_long":106.756522,"i_lat":-6.1587309999999995,"distance":1614,"time":2,"station_id":"TKO","station_name":"Taman Kota","line":5},{"station_name":"Bojongindah","transit":false,"distance":2334,"station_id":"BOI","i_long":106.737035,"line":5,"i_lat":-6.159876,"time":2,"is_transit":false},{"station_id":"RW","transit":false,"i_lat":-6.162758,"line":5,"time":4,"i_long":106.723064,"distance":1152,"station_name":"Rawa Buaya","is_transit":false},{"station_id":"KDS","i_long":106.701612,"time":3,"transit":false,"is_transit":false,"line":5,"i_lat":-6.166068,"station_name":"Kalideres","distance":2504},{"line":5,"station_id":"PI","transit":false,"i_long":106.679458,"distance":2548,"i_lat":-6.169933,"time":3,"station_name":"Poris","is_transit":false},{"is_transit":false,"station_id":"BPR","distance":1834,"i_lat":-6.171811,"i_long":106.665036,"time":3,"transit":false,"line":5,"station_name":"Batuceper"},{"i_long":106.64657,"line":5,"is_transit":false,"time":3,"station_id":"TTI","transit":false,"i_lat":-6.17331,"distance":2028,"station_name":"Tanah Tinggi"}],[{"time":0,"station_name":"Pondok Jati","i_long":106.861737,"i_lat":-6.209188,"station_id":"POK","distance":0,"transit":false,"is_transit":false,"line":11},{"line":11,"i_long":106.855437,"station_name":"Kramat","time":2,"transit":false,"station_id":"KMT","distance":1829,"is_transit":false,"i_lat":-6.193792},{"i_long":106.850107,"is_transit":false,"time":1,"station_name":"Gang Sentiong","i_lat":-6.185975,"line":11,"station_id":"GST","distance":973,"transit":false},{"is_transit":false,"i_lat":-6.174784,"station_name":"Pasar Senen","distance":1567,"station_id":"PSE","line":11,"i_long":106.84368,"transit":false,"time":8},{"time":4,"transit":false,"distance":1436,"is_transit":false,"station_id":"KMO","line":11,"station_name":"Kemayoran","i_lat":-6.161728,"i_long":106.839204},{"distance":1901,"line":11,"i_long":106.836569,"time":5,"transit":false,"i_lat":-6.14505,"station_id":"RJW","is_transit":false,"station_name":"Rajawali"},{"i_lat":-6.132549,"i_long":106.826365,"distance":1444,"station_id":"KPB","station_name":"Kampung Bandan","transit":true,"time":3,"is_transit":true,"line":4},{"time":9,"i_lat":-6.144674,"distance":4102,"i_long":106.79867,"transit":false,"is_transit":false,"station_name":"Angke","line":1,"station_id":"AK"},{"i_long":106.800832,"transit":true,"i_lat":-6.155215,"time":4,"is_transit":true,"line":1,"station_name":"Duri","station_id":"DU","distance":1230},{"i_long":106.788277,"line":5,"i_lat":-6.162021,"station_id":"GGL","distance":1700,"is_transit":false,"transit":false,"time":3,"station_name":"Grogol"},{"is_transit":false,"time":2,"station_name":"Pesing","station_id":"PSG","i_lat":-6.161433,"i_long":106.771379,"distance":2036,"transit":false,"line":5},{"i_lat":-6.1587309999999995,"i_long":106.756522,"transit":false,"station_name":"Taman Kota","distance":1614,"is_transit":false,"line":5,"time":2,"station_id":"TKO"},{"transit":false,"station_name":"Bojongindah","time":2,"is_transit":false,"station_id":"BOI","i_lat":-6.159876,"distance":2334,"line":5,"i_long":106.737035},{"distance":1152,"station_id":"RW","time":4,"i_lat":-6.162758,"line":5,"station_name":"Rawa Buaya","is_transit":false,"transit":false,"i_long":106.723064},{"station_name":"Kalideres","station_id":"KDS","i_lat":-6.166068,"i_long":106.701612,"line":5,"time":3,"is_transit":false,"transit":false,"distance":2504},{"is_transit":false,"station_name":"Poris","line":5,"i_lat":-6.169933,"distance":2548,"time":3,"transit":false,"station_id":"PI","i_long":106.679458},{"time":3,"is_transit":false,"i_long":106.665036,"line":5,"distance":1834,"station_name":"Batuceper","transit":false,"i_lat":-6.171811,"station_id":"BPR"},{"distance":2028,"time":3,"station_id":"TTI","is_transit":false,"i_lat":-6.17331,"i_long":106.64657,"transit":false,"station_name":"Tanah Tinggi","line":5}],[{"transit":false,"time":0,"is_transit":false,"i_lat":-6.209188,"station_id":"POK","distance":0,"station_name":"Pondok Jati","i_long":106.861737,"line":11},{"transit":true,"line":1,"is_transit":true,"station_id":"JNG","station_name":"Jatinegara","i_lat":-6.215091,"i_long":106.86807400000001,"time":9,"distance":1236},{"i_long":106.858896,"line":1,"time":2,"station_id":"MTR","distance":1377,"i_lat":-6.212485,"is_transit":false,"station_name":"Matraman","transit":false},{"time":2,"station_name":"Manggarai","is_transit":true,"line":2,"station_id":"MRI","i_lat":-6.209883,"distance":1275,"transit":true,"i_long":106.84912},{"i_lat":-6.198556,"is_transit":false,"station_id":"CKI","distance":1590,"i_long":106.840169,"time":4,"line":2,"station_name":"Cikini","transit":false},{"distance":1750,"time":3,"transit":false,"line":2,"i_lat":-6.186295,"i_long":106.832183,"station_id":"GDD","is_transit":false,"station_name":"Gondangdia"},{"line":2,"transit":false,"distance":2015,"station_id":"JUA","station_name":"Juanda","time":4,"i_lat":-6.166716,"i_long":106.828284,"is_transit":false},{"i_long":106.827103,"distance":1149,"is_transit":false,"i_lat":-6.160725,"transit":false,"line":2,"station_id":"SW","time":2,"station_name":"Sawah Besar"},{"is_transit":false,"time":2,"i_lat":-6.149769,"i_long":106.82482,"line":2,"station_id":"MGB","distance":906,"transit":false,"station_name":"Manggabesar"},{"i_long":106.820901,"line":2,"station_id":"JAY","time":2,"distance":1080,"i_lat":-6.141205,"station_name":"Jayakarta","is_transit":false,"transit":false},{"transit":true,"i_long":106.812439,"time":4,"distance":1264,"station_name":"Jakarta Kota","i_lat":-6.137569,"line":2,"is_transit":true,"station_id":"JAKK"},{"distance":1364,"i_long":106.826365,"station_name":"Kampung Bandan","is_transit":true,"station_id":"KPB","transit":true,"time":3,"i_lat":-6.132549,"line":4},{"station_id":"AK","i_long":106.79867,"transit":false,"time":9,"distance":4102,"line":1,"is_transit":false,"station_name":"Angke","i_lat":-6.144674},{"line":1,"distance":1230,"transit":true,"is_transit":true,"time":4,"i_lat":-6.155215,"i_long":106.800832,"station_name":"Duri","station_id":"DU"},{"time":3,"line":5,"station_id":"GGL","transit":false,"station_name":"Grogol","distance":1700,"is_transit":false,"i_lat":-6.162021,"i_long":106.788277},{"distance":2036,"line":5,"station_id":"PSG","time":2,"station_name":"Pesing","transit":false,"is_transit":false,"i_lat":-6.161433,"i_long":106.771379},{"station_name":"Taman Kota","i_lat":-6.1587309999999995,"time":2,"station_id":"TKO","distance":1614,"transit":false,"i_long":106.756522,"line":5,"is_transit":false},{"station_id":"BOI","time":2,"station_name":"Bojongindah","transit":false,"i_long":106.737035,"line":5,"is_transit":false,"i_lat":-6.159876,"distance":2334},{"i_lat":-6.162758,"i_long":106.723064,"is_transit":false,"time":4,"distance":1152,"line":5,"transit":false,"station_id":"RW","station_name":"Rawa Buaya"},{"time":3,"distance":2504,"station_name":"Kalideres","is_transit":false,"station_id":"KDS","i_lat":-6.166068,"i_long":106.701612,"line":5,"transit":false},{"station_id":"PI","station_name":"Poris","i_lat":-6.169933,"time":3,"transit":false,"is_transit":false,"i_long":106.679458,"distance":2548,"line":5},{"station_name":"Batuceper","transit":false,"station_id":"BPR","i_long":106.665036,"distance":1834,"is_transit":false,"line":5,"i_lat":-6.171811,"time":3},{"time":3,"distance":2028,"station_name":"Tanah Tinggi","station_id":"TTI","transit":false,"is_transit":false,"i_lat":-6.17331,"i_long":106.64657,"line":5}],[{"line":11,"i_lat":-6.209188,"transit":false,"station_id":"POK","is_transit":false,"time":0,"distance":0,"station_name":"Pondok Jati","i_long":106.861737},{"line":11,"is_transit":false,"distance":1829,"station_name":"Kramat","station_id":"KMT","transit":false,"i_lat":-6.193792,"time":2,"i_long":106.855437},{"distance":973,"is_transit":false,"transit":false,"i_lat":-6.185975,"time":1,"station_name":"Gang Sentiong","i_long":106.850107,"line":11,"station_id":"GST"},{"transit":false,"i_lat":-6.174784,"time":8,"station_id":"PSE","line":11,"i_long":106.84368,"distance":1567,"station_name":"Pasar Senen","is_transit":false},{"i_lat":-6.161728,"station_id":"KMO","transit":false,"is_transit":false,"i_long":106.839204,"line":11,"station_name":"Kemayoran","time":4,"distance":1436},{"i_lat":-6.14505,"line":11,"station_id":"RJW","time":5,"is_transit":false,"transit":false,"station_name":"Rajawali","i_long":106.836569,"distance":1901},{"line":4,"transit":true,"station_id":"KPB","i_lat":-6.132549,"i_long":106.826365,"time":3,"distance":1444,"is_transit":true,"station_name":"Kampung Bandan"},{"station_name":"Jakarta Kota","is_transit":true,"i_lat":-6.137569,"i_long":106.812439,"time":3,"transit":true,"line":2,"distance":1364,"station_id":"JAKK"},{"is_transit":false,"station_id":"JAY","transit":false,"i_lat":-6.141205,"station_name":"Jayakarta","i_long":106.820901,"time":4,"line":2,"distance":1264},{"transit":false,"i_lat":-6.149769,"is_transit":false,"line":2,"station_id":"MGB","station_name":"Manggabesar","i_long":106.82482,"time":2,"distance":1080},{"station_name":"Sawah Besar","time":2,"station_id":"SW","distance":906,"i_lat":-6.160725,"i_long":106.827103,"is_transit":false,"transit":false,"line":2},{"distance":1149,"is_transit":false,"transit":false,"i_long":106.828284,"i_lat":-6.166716,"station_name":"Juanda","station_id":"JUA","time":2,"line":2},{"is_transit":false,"i_long":106.832183,"station_name":"Gondangdia","i_lat":-6.186295,"line":2,"distance":2015,"time":4,"transit":false,"station_id":"GDD"},{"distance":1750,"line":2,"is_transit":false,"station_id":"CKI","i_long":106.840169,"time":3,"i_lat":-6.198556,"station_name":"Cikini","transit":false},{"is_transit":true,"time":4,"i_lat":-6.209883,"line":2,"i_long":106.84912,"distance":1590,"transit":true,"station_id":"MRI","station_name":"Manggarai"},{"station_id":"SUD","distance":3186,"station_name":"Sudirman","time":4,"transit":false,"line":1,"i_lat":-6.202263,"i_long":106.822649,"is_transit":false},{"transit":false,"is_transit":false,"distance":280,"i_long":106.819881,"station_name":"Sudirman Baru","time":1,"i_lat":-6.201433,"line":1,"station_id":"SUDB"},{"i_long":106.816351,"distance":471,"station_name":"Karet","station_id":"KAT","transit":false,"time":1,"i_lat":-6.20132,"line":1,"is_transit":false},{"i_long":106.811091,"distance":2029,"i_lat":-6.185545,"station_name":"Tanah Abang","time":5,"station_id":"THB","transit":false,"line":1,"is_transit":false},{"station_name":"Duri","time":8,"is_transit":true,"distance":3632,"transit":true,"line":1,"i_long":106.800832,"i_lat":-6.155215,"station_id":"DU"},{"station_id":"GGL","station_name":"Grogol","i_lat":-6.162021,"time":3,"transit":false,"i_long":106.788277,"is_transit":false,"line":5,"distance":1700},{"i_lat":-6.161433,"line":5,"is_transit":false,"transit":false,"time":2,"station_name":"Pesing","distance":2036,"station_id":"PSG","i_long":106.771379},{"station_id":"TKO","transit":false,"is_transit":false,"line":5,"station_name":"Taman Kota","time":2,"i_long":106.756522,"i_lat":-6.1587309999999995,"distance":1614},{"line":5,"station_name":"Bojongindah","distance":2334,"transit":false,"i_lat":-6.159876,"i_long":106.737035,"time":2,"is_transit":false,"station_id":"BOI"},{"distance":1152,"i_long":106.723064,"station_id":"RW","transit":false,"time":4,"station_name":"Rawa Buaya","i_lat":-6.162758,"is_transit":false,"line":5},{"is_transit":false,"transit":false,"i_long":106.701612,"distance":2504,"line":5,"station_id":"KDS","i_lat":-6.166068,"time":3,"station_name":"Kalideres"},{"is_transit":false,"station_id":"PI","distance":2548,"station_name":"Poris","line":5,"i_lat":-6.169933,"transit":false,"time":3,"i_long":106.679458},{"station_name":"Batuceper","is_transit":false,"station_id":"BPR","distance":1834,"time":3,"i_lat":-6.171811,"transit":false,"i_long":106.665036,"line":5},{"transit":false,"time":3,"station_id":"TTI","distance":2028,"is_transit":false,"i_lat":-6.17331,"line":5,"station_name":"Tanah Tinggi","i_long":106.64657}]]}