{"data":[[{"is_transit":false,"station_id":"POK","time":0,"i_long":106.861737,"distance":0,"station_name":"Pondok Jati","transit":false,"i_lat":-6.209188,"line":11},{"line":1,"time":9,"station_name":"Jatinegara","i_lat":-6.215091,"station_id":"JNG","transit":true,"distance":1236,"is_transit":true,"i_long":106.86807400000001},{"station_name":"Matraman","line":1,"transit":false,"station_id":"MTR","time":2,"distance":1377,"i_lat":-6.212485,"is_transit":false,"i_long":106.858896},{"transit":false,"time":2,"i_lat":-6.209883,"is_transit":false,"i_long":106.84912,"line":2,"station_name":"Manggarai","distance":1275,"station_id":"MRI"},{"line":1,"station_name":"Sudirman","is_transit":false,"time":4,"i_long":106.822649,"distance":3186,"transit":false,"station_id":"SUD","i_lat":-6.202263},{"i_lat":-6.201433,"i_long":106.819881,"station_id":"SUDB","is_transit":false,"line":1,"station_name":"Sudirman Baru","distance":280,"transit":false,"time":1},{"time":1,"line":1,"transit":false,"i_lat":-6.20132,"is_transit":false,"station_id":"KAT","distance":471,"station_name":"Karet","i_long":106.816351},{"line":1,"station_id":"THB","i_lat":-6.185545,"transit":false,"station_name":"Tanah Abang","is_transit":false,"distance":2029,"time":5,"i_long":106.811091},{"distance":3632,"i_lat":-6.155215,"station_id":"DU","time":8,"line":1,"is_transit":true,"i_long":106.800832,"transit":true,"station_name":"Duri"},{"station_name":"Grogol","transit":false,"i_long":106.788277,"is_transit":false,"distance":1700,"station_id":"GGL","i_lat":-6.162021,"time":3,"line":5},{"station_id":"PSG","station_name":"Pesing","distance":2036,"i_lat":-6.161433,"i_long":106.771379,"line":5,"time":2,"is_transit":false,"transit":false}],[{"is_transit":false,"i_long":106.861737,"transit":false,"station_id":"POK","i_lat":-6.209188,"distance":0,"station_name":"Pondok Jati","time":0,"line":11},{"i_long":106.855437,"time":2,"transit":false,"station_name":"Kramat","distance":1829,"is_transit":false,"line":11,"station_id":"KMT","i_lat":-6.193792},{"station_id":"GST","is_transit":false,"distance":973,"i_long":106.850107,"station_name":"Gang Sentiong","transit":false,"i_lat":-6.185975,"time":1,"line":11},{"i_long":106.84368,"station_id":"PSE","is_transit":false,"time":8,"line":11,"transit":false,"i_lat":-6.174784,"distance":1567,"station_name":"Pasar Senen"},{"line":11,"station_id":"KMO","station_name":"Kemayoran","transit":false,"distance":1436,"time":4,"i_lat":-6.161728,"i_long":106.839204,"is_transit":false},{"i_lat":-6.14505,"station_id":"RJW","time":5,"i_long":106.836569,"station_name":"Rajawali","transit":false,"is_transit":false,"distance":1901,"line":11},{"line":4,"i_lat":-6.132549,"transit":true,"is_transit":true,"time":3,"station_id":"KPB","i_long":106.826365,"station_name":"Kampung Bandan","distance":1444},{"station_name":"Angke","is_transit":false,"station_id":"AK","distance":4102,"i_long":106.79867,"line":1,"i_lat":-6.144674,"transit":false,"time":9},{"distance":1230,"is_transit":true,"i_long":106.800832,"station_id":"DU","transit":true,"line":1,"station_name":"Duri","time":4,"i_lat":-6.155215},{"i_long":106.788277,"line":5,"station_name":"Grogol","is_transit":false,"distance":1700,"transit":false,"station_id":"GGL","i_lat":-6.162021,"time":3},{"is_transit":false,"line":5,"time":2,"transit":false,"station_id":"PSG","station_name":"Pesing","distance":2036,"i_lat":-6.161433,"i_long":106.771379}],[{"distance":0,"i_lat":-6.209188,"i_long":106.861737,"line":11,"station_name":"Pondok Jati","transit":false,"is_transit":false,"station_id":"POK","time":0},{"station_name":"Jatinegara","station_id":"JNG","distance":1236,"time":9,"i_long":106.86807400000001,"transit":true,"i_lat":-6.215091,"is_transit":true,"line":1},{"station_id":"MTR","is_transit":false,"transit":false,"time":2,"i_lat":-6.212485,"distance":1377,"line":1,"i_long":106.858896,"station_name":"Matraman"},{"station_name":"Manggarai","line":2,"time":2,"station_id":"MRI","transit":true,"distance":1275,"i_lat":-6.209883,"is_transit":true,"i_long":106.84912},{"line":2,"distance":1590,"is_transit":false,"station_id":"CKI","transit":false,"time":4,"i_long":106.840169,"i_lat":-6.198556,"station_name":"Cikini"},{"transit":false,"distance":1750,"is_transit":false,"i_lat":-6.186295,"i_long":106.832183,"line":2,"station_name":"Gondangdia","station_id":"GDD","time":3},{"station_id":"JUA","is_transit":false,"i_long":106.828284,"i_lat":-6.166716,"station_name":"Juanda","distance":2015,"transit":false,"time":4,"line":2},{"transit":false,"station_id":"SW","is_transit":false,"i_lat":-6.160725,"station_name":"Sawah Besar","i_long":106.827103,"distance":1149,"line":2,"time":2},{"station_name":"Manggabesar","station_id":"MGB","i_long":106.82482,"transit":false,"time":2,"i_lat":-6.149769,"line":2,"distance":906,"is_transit":false},{"i_long":106.820901,"line":2,"station_name":"Jayakarta","time":2,"station_id":"JAY","is_transit":false,"transit":false,"distance":1080,"i_lat":-6.141205},{"station_id":"JAKK","station_name":"Jakarta Kota","i_lat":-6.137569,"line":2,"i_long":106.812439,"time":4,"is_transit":true,"distance":1264,"transit":true},{"is_transit":true,"line":4,"i_long":106.826365,"station_name":"Kampung Bandan","transit":true,"station_id":"KPB","i_lat":-6.132549,"distance":1364,"time":3},{"i_long":106.79867,"station_name":"Angke","station_id":"AK","i_lat":-6.144674,"line":1,"time":9,"distance":4102,"transit":false,"is_transit":false},{"is_transit":true,"transit":true,"station_id":"DU","time":4,"i_long":106.800832,"line":1,"distance":1230,"i_lat":-6.155215,"station_name":"Duri"},{"line":5,"i_long":106.788277,"station_name":"Grogol","time":3,"i_lat":-6.162021,"station_id":"GGL","transit":false,"distance":1700,"is_transit":false},{"distance":2036,"transit":false,"i_long":106.771379,"line":5,"station_id":"PSG","station_name":"Pesing","i_lat":-6.161433,"time":2,"is_transit":false}],[{"station_name":"Pondok Jati","i_lat":-6.209188,"station_id":"POK","distance":0,"time":0,"i_long":106.861737,"line":11,"transit":false,"is_transit":false},{"transit":false,"time":2,"i_lat":-6.193792,"line":11,"station_id":"KMT","station_name":"Kramat","is_transit":false,"distance":1829,"i_long":106.855437},{"station_name":"Gang Sentiong","station_id":"GST","time":1,"i_long":106.850107,"line":11,"i_lat":-6.185975,"transit":false,"is_transit":false,"distance":973},{"station_name":"Pasar Senen","transit":false,"time":8,"distance":1567,"line":11,"i_long":106.84368,"is_transit":false,"station_id":"PSE","i_lat":-6.174784},{"station_name":"Kemayoran","line":11,"station_id":"KMO","distance":1436,"transit":false,"i_lat":-6.161728,"time":4,"is_transit":false,"i_long":106.839204},{"transit":false,"distance":1901,"station_id":"RJW","i_lat":-6.14505,"station_name":"Rajawali","is_transit":false,"time":5,"i_long":106.836569,"line":11},{"i_lat":-6.132549,"is_transit":true,"time":3,"station_name":"Kampung Bandan","station_id":"KPB","line":4,"distance":1444,"transit":true,"i_long":106.826365},{"line":2,"transit":true,"station_id":"JAKK","station_name":"Jakarta Kota","time":3,"distance":1364,"i_lat":-6.137569,"is_transit":true,"i_long":106.812439},{"station_id":"JAY","distance":1264,"i_lat":-6.141205,"line":2,"time":4,"transit":false,"i_long":106.820901,"station_name":"Jayakarta","is_transit":false},{"distance":1080,"time":2,"is_transit":false,"station_id":"MGB","station_name":"Manggabesar","transit":false,"i_lat":-6.149769,"i_long":106.82482,"line":2},{"i_lat":-6.160725,"is_transit":false,"transit":false,"station_name":"Sawah Besar","station_id":"SW","distance":906,"i_long":106.827103,"line":2,"time":2},{"is_transit":false,"time":2,"i_lat":-6.166716,"i_long":106.828284,"line":2,"distance":1149,"station_name":"Juanda","transit":false,"station_id":"JUA"},{"i_long":106.832183,"is_transit":false,"i_lat":-6.186295,"time":4,"station_id":"GDD","transit":false,"line":2,"station_name":"Gondangdia","distance":2015},{"i_lat":-6.198556,"is_transit":false,"time":3,"station_name":"Cikini","i_long":106.840169,"transit":false,"station_id":"CKI","distance":1750,"line":2},{"time":4,"station_name":"Manggarai","line":2,"is_transit":true,"station_id":"MRI","distance":1590,"i_long":106.84912,"transit":true,"i_lat":-6.209883},{"time":4,"i_lat":-6.202263,"line":1,"station_id":"SUD","station_name":"Sudirman","i_long":106.822649,"distance":3186,"is_transit":false,"transit":false},{"i_lat":-6.201433,"transit":false,"is_transit":false,"distance":280,"time":1,"line":1,"station_id":"SUDB","i_long":106.819881,"station_name":"Sudirman Baru"},{"time":1,"distance":471,"station_id":"KAT","is_transit":false,"i_long":106.816351,"station_name":"Karet","line":1,"transit":false,"i_lat":-6.20132},{"distance":2029,"i_lat":-6.185545,"line":1,"station_name":"Tanah Abang","transit":false,"i_long":106.811091,"is_transit":false,"time":5,"station_id":"THB"},{"i_lat":-6.155215,"station_name":"Duri","distance":3632,"station_id":"DU","time":8,"transit":true,"is_transit":true,"i_long":106.800832,"line":1},{"is_transit":false,"station_name":"Grogol","distance":1700,"transit":false,"i_long":106.788277,"station_id":"GGL","i_lat":-6.162021,"time":3,"line":5},{"distance":2036,"i_long":106.771379,"is_transit":false,"i_lat":-6.161433,"time":2,"transit":false,"station_id":"PSG","station_name":"Pesing","line":5}]]}