{"data":[[{"station_id":"POK","time":0,"i_long":106.861737,"station_name":"Pondok Jati","transit":false,"distance":0,"i_lat":-6.209188,"line":11,"is_transit":false},{"station_name":"Jatinegara","transit":true,"time":9,"is_transit":true,"i_lat":-6.215091,"line":1,"station_id":"JNG","distance":1236,"i_long":106.86807400000001},{"i_lat":-6.212485,"transit":false,"i_long":106.858896,"station_id":"MTR","distance":1377,"station_name":"Matraman","time":2,"is_transit":false,"line":1},{"i_long":106.84912,"line":2,"time":2,"station_id":"MRI","transit":false,"station_name":"Manggarai","is_transit":false,"distance":1275,"i_lat":-6.209883},{"i_lat":-6.202263,"distance":3186,"station_name":"Sudirman","line":1,"station_id":"SUD","is_transit":false,"i_long":106.822649,"transit":false,"time":4},{"distance":280,"is_transit":false,"i_long":106.819881,"transit":false,"i_lat":-6.201433,"line":1,"station_id":"SUDB","station_name":"Sudirman Baru","time":1},{"line":1,"station_name":"Karet","transit":false,"distance":471,"is_transit":false,"time":1,"station_id":"KAT","i_lat":-6.20132,"i_long":106.816351},{"station_id":"THB","station_name":"Tanah Abang","distance":2029,"line":1,"transit":false,"is_transit":false,"i_lat":-6.185545,"time":5,"i_long":106.811091},{"transit":true,"line":1,"station_name":"Duri","time":8,"station_id":"DU","distance":3632,"i_long":106.800832,"i_lat":-6.155215,"is_transit":true},{"time":3,"station_name":"Grogol","transit":false,"is_transit":false,"distance":1700,"i_long":106.788277,"station_id":"GGL","line":5,"i_lat":-6.162021},{"is_transit":false,"station_id":"PSG","distance":2036,"line":5,"transit":false,"i_lat":-6.161433,"station_name":"Pesing","i_long":106.771379,"time":2},{"station_name":"Taman Kota","time":2,"transit":false,"i_lat":-6.1587309999999995,"station_id":"TKO","i_long":106.756522,"line":5,"distance":1614,"is_transit":false},{"line":5,"distance":2334,"is_transit":false,"i_lat":-6.159876,"station_name":"Bojongindah","time":2,"i_long":106.737035,"transit":false,"station_id":"BOI"},{"is_transit":false,"station_id":"RW","distance":1152,"time":4,"station_name":"Rawa Buaya","i_long":106.723064,"transit":false,"i_lat":-6.162758,"line":5},{"is_transit":false,"station_name":"Kalideres","transit":false,"station_id":"KDS","time":3,"i_lat":-6.166068,"i_long":106.701612,"distance":2504,"line":5},{"i_lat":-6.169933,"is_transit":false,"station_name":"Poris","time":3,"i_long":106.679458,"distance":2548,"line":5,"station_id":"PI","transit":false},{"station_name":"Batuceper","station_id":"BPR","transit":false,"i_lat":-6.171811,"is_transit":false,"distance":1834,"i_long":106.665036,"line":5,"time":3},{"station_name":"Tanah Tinggi","i_lat":-6.17331,"is_transit":false,"station_id":"TTI","time":3,"transit":false,"i_long":106.64657,"distance":2028,"line":5}],[{"is_transit":false,"transit":false,"line":11,"i_long":106.861737,"station_name":"Pondok Jati","i_lat":-6.209188,"distance":0,"time":0,"station_id":"POK"},{"time":2,"station_id":"KMT","i_long":106.855437,"distance":1829,"transit":false,"line":11,"station_name":"Kramat","is_transit":false,"i_lat":-6.193792},{"station_name":"Gang Sentiong","time":1,"station_id":"GST","transit":false,"distance":973,"is_transit":false,"i_lat":-6.185975,"i_long":106.850107,"line":11},{"i_lat":-6.174784,"line":11,"station_id":"PSE","transit":false,"time":8,"i_long":106.84368,"station_name":"Pasar Senen","is_transit":false,"distance":1567},{"is_transit":false,"station_id":"KMO","line":11,"i_lat":-6.161728,"i_long":106.839204,"station_name":"Kemayoran","time":4,"transit":false,"distance":1436},{"station_name":"Rajawali","station_id":"RJW","transit":false,"time":5,"distance":1901,"i_lat":-6.14505,"is_transit":false,"line":11,"i_long":106.836569},{"distance":1444,"i_lat":-6.132549,"station_id":"KPB","is_transit":true,"station_name":"Kampung Bandan","transit":true,"time":3,"line":4,"i_long":106.826365},{"i_lat":-6.144674,"line":1,"transit":false,"time":9,"station_name":"Angke","is_transit":false,"distance":4102,"i_long":106.79867,"station_id":"AK"},{"i_long":106.800832,"line":1,"station_id":"DU","transit":true,"time":4,"is_transit":true,"distance":1230,"i_lat":-6.155215,"station_name":"Duri"},{"station_id":"GGL","distance":1700,"time":3,"i_lat":-6.162021,"station_name":"Grogol","is_transit":false,"line":5,"i_long":106.788277,"transit":false},{"transit":false,"time":2,"i_lat":-6.161433,"i_long":106.771379,"line":5,"station_id":"PSG","station_name":"Pesing","is_transit":false,"distance":2036},{"line":5,"station_id":"TKO","time":2,"distance":1614,"transit":false,"i_lat":-6.1587309999999995,"i_long":106.756522,"station_name":"Taman Kota","is_transit":false},{"transit":false,"distance":2334,"i_lat":-6.159876,"i_long":106.737035,"is_transit":false,"station_id":"BOI","station_name":"Bojongindah","line":5,"time":2},{"i_long":106.723064,"time":4,"line":5,"station_name":"Rawa Buaya","i_lat":-6.162758,"transit":false,"station_id":"RW","is_transit":false,"distance":1152},{"station_id":"KDS","station_name":"Kalideres","i_lat":-6.166068,"is_transit":false,"i_long":106.701612,"time":3,"transit":false,"line":5,"distance":2504},{"i_long":106.679458,"distance":2548,"is_transit":false,"i_lat":-6.169933,"station_name":"Poris","line":5,"time":3,"transit":false,"station_id":"PI"},{"line":5,"i_lat":-6.171811,"transit":false,"station_name":"Batuceper","is_transit":false,"station_id":"BPR","distance":1834,"i_long":106.665036,"time":3},{"station_name":"Tanah Tinggi","time":3,"line":5,"i_lat":-6.17331,"i_long":106.64657,"distance":2028,"is_transit":false,"transit":false,"station_id":"TTI"}],[{"station_id":"POK","distance":0,"i_lat":-6.209188,"is_transit":false,"transit":false,"i_long":106.861737,"line":11,"station_name":"Pondok Jati","time":0},{"transit":true,"distance":1236,"station_id":"JNG","i_lat":-6.215091,"is_transit":true,"line":1,"i_long":106.86807400000001,"time":9,"station_name":"Jatinegara"},{"distance":1377,"is_transit":false,"time":2,"line":1,"station_id":"MTR","station_name":"Matraman","i_lat":-6.212485,"i_long":106.858896,"transit":false},{"transit":true,"is_transit":true,"distance":1275,"i_lat":-6.209883,"line":2,"time":2,"station_id":"MRI","station_name":"Manggarai","i_long":106.84912},{"i_long":106.840169,"time":4,"i_lat":-6.198556,"station_id":"CKI","line":2,"transit":false,"distance":1590,"is_transit":false,"station_name":"Cikini"},{"i_lat":-6.186295,"line":2,"transit":false,"distance":1750,"station_name":"Gondangdia","i_long":106.832183,"time":3,"station_id":"GDD","is_transit":false},{"distance":2015,"line":2,"time":4,"i_long":106.828284,"station_id":"JUA","i_lat":-6.166716,"is_transit":false,"transit":false,"station_name":"Juanda"},{"transit":false,"time":2,"distance":1149,"i_long":106.827103,"station_id":"SW","line":2,"i_lat":-6.160725,"station_name":"Sawah Besar","is_transit":false},{"distance":906,"line":2,"station_name":"Manggabesar","is_transit":false,"i_lat":-6.149769,"transit":false,"i_long":106.82482,"time":2,"station_id":"MGB"},{"time":2,"i_lat":-6.141205,"transit":false,"is_transit":false,"line":2,"station_name":"Jayakarta","i_long":106.820901,"station_id":"JAY","distance":1080},{"i_long":106.812439,"i_lat":-6.137569,"is_transit":true,"transit":true,"station_id":"JAKK","station_name":"Jakarta Kota","distance":1264,"line":2,"time":4},{"station_id":"KPB","time":3,"i_long":106.826365,"i_lat":-6.132549,"distance":1364,"line":4,"station_name":"Kampung Bandan","transit":true,"is_transit":true},{"time":9,"distance":4102,"transit":false,"station_id":"AK","station_name":"Angke","is_transit":false,"i_lat":-6.144674,"line":1,"i_long":106.79867},{"i_long":106.800832,"distance":1230,"station_name":"Duri","station_id":"DU","transit":true,"i_lat":-6.155215,"line":1,"time":4,"is_transit":true},{"line":5,"i_lat":-6.162021,"i_long":106.788277,"transit":false,"is_transit":false,"station_name":"Grogol","time":3,"distance":1700,"station_id":"GGL"},{"time":2,"i_lat":-6.161433,"line":5,"transit":false,"i_long":106.771379,"is_transit":false,"distance":2036,"station_id":"PSG","station_name":"Pesing"},{"station_name":"Taman Kota","transit":false,"station_id":"TKO","is_transit":false,"distance":1614,"i_lat":-6.1587309999999995,"i_long":106.756522,"line":5,"time":2},{"line":5,"distance":2334,"is_transit":false,"time":2,"station_id":"BOI","i_lat":-6.159876,"station_name":"Bojongindah","transit":false,"i_long":106.737035},{"distance":1152,"line":5,"time":4,"is_transit":false,"transit":false,"i_long":106.723064,"station_id":"RW","station_name":"Rawa Buaya","i_lat":-6.162758},{"i_long":106.701612,"station_name":"Kalideres","distance":2504,"station_id":"KDS","i_lat":-6.166068,"line":5,"transit":false,"time":3,"is_transit":false},{"is_transit":false,"distance":2548,"i_lat":-6.169933,"station_id":"PI","station_name":"Poris","transit":false,"i_long":106.679458,"line":5,"time":3},{"transit":false,"is_transit":false,"time":3,"station_name":"Batuceper","line":5,"station_id":"BPR","i_long":106.665036,"i_lat":-6.171811,"distance":1834},{"station_id":"TTI","line":5,"is_transit":false,"transit":false,"station_name":"Tanah Tinggi","distance":2028,"i_lat":-6.17331,"time":3,"i_long":106.64657}],[{"station_name":"Pondok Jati","is_transit":false,"transit":false,"i_lat":-6.209188,"i_long":106.861737,"distance":0,"time":0,"line":11,"station_id":"POK"},{"transit":false,"station_id":"KMT","station_name":"Kramat","i_long":106.855437,"line":11,"distance":1829,"time":2,"i_lat":-6.193792,"is_transit":false},{"i_lat":-6.185975,"i_long":106.850107,"line":11,"time":1,"station_id":"GST","station_name":"Gang Sentiong","transit":false,"is_transit":false,"distance":973},{"is_transit":false,"time":8,"distance":1567,"station_name":"Pasar Senen","transit":false,"station_id":"PSE","i_lat":-6.174784,"i_long":106.84368,"line":11},{"i_long":106.839204,"i_lat":-6.161728,"station_id":"KMO","line":11,"transit":false,"station_name":"Kemayoran","is_transit":false,"time":4,"distance":1436},{"i_lat":-6.14505,"station_id":"RJW","time":5,"station_name":"Rajawali","transit":false,"i_long":106.836569,"distance":1901,"line":11,"is_transit":false},{"i_long":106.826365,"station_id":"KPB","is_transit":true,"station_name":"Kampung Bandan","time":3,"distance":1444,"line":4,"i_lat":-6.132549,"transit":true},{"station_name":"Jakarta Kota","is_transit":true,"time":3,"transit":true,"line":2,"distance":1364,"i_lat":-6.137569,"i_long":106.812439,"station_id":"JAKK"},{"is_transit":false,"station_name":"Jayakarta","time":4,"distance":1264,"i_lat":-6.141205,"i_long":106.820901,"transit":false,"line":2,"station_id":"JAY"},{"station_id":"MGB","is_transit":false,"line":2,"time":2,"transit":false,"i_lat":-6.149769,"i_long":106.82482,"distance":1080,"station_name":"Manggabesar"},{"is_transit":false,"distance":906,"station_id":"SW","line":2,"transit":false,"i_long":106.827103,"i_lat":-6.160725,"time":2,"station_name":"Sawah Besar"},{"line":2,"transit":false,"i_lat":-6.166716,"station_name":"Juanda","station_id":"JUA","is_transit":false,"time":2,"distance":1149,"i_long":106.828284},{"distance":2015,"transit":false,"i_lat":-6.186295,"is_transit":false,"station_id":"GDD","station_name":"Gondangdia","line":2,"i_long":106.832183,"time":4},{"time":3,"distance":1750,"transit":false,"line":2,"station_name":"Cikini","is_transit":false,"station_id":"CKI","i_lat":-6.198556,"i_long":106.840169},{"i_lat":-6.209883,"i_long":106.84912,"distance":1590,"transit":true,"station_name":"Manggarai","line":2,"station_id":"MRI","is_transit":true,"time":4},{"i_long":106.822649,"line":1,"time":4,"station_name":"Sudirman","distance":3186,"is_transit":false,"station_id":"SUD","transit":false,"i_lat":-6.202263},{"station_name":"Sudirman Baru","station_id":"SUDB","distance":280,"time":1,"i_lat":-6.201433,"i_long":106.819881,"transit":false,"line":1,"is_transit":false},{"distance":471,"i_lat":-6.20132,"station_name":"Karet","i_long":106.816351,"line":1,"station_id":"KAT","transit":false,"is_transit":false,"time":1},{"transit":false,"time":5,"station_name":"Tanah Abang","is_transit":false,"i_lat":-6.185545,"station_id":"THB","distance":2029,"line":1,"i_long":106.811091},{"station_id":"DU","i_lat":-6.155215,"transit":true,"is_transit":true,"time":8,"i_long":106.800832,"station_name":"Duri","distance":3632,"line":1},{"time":3,"station_name":"Grogol","line":5,"i_lat":-6.162021,"is_transit":false,"transit":false,"station_id":"GGL","i_long":106.788277,"distance":1700},{"i_long":106.771379,"line":5,"station_id":"PSG","is_transit":false,"transit":false,"station_name":"Pesing","distance":2036,"i_lat":-6.161433,"time":2},{"station_name":"Taman Kota","transit":false,"i_lat":-6.1587309999999995,"i_long":106.756522,"time":2,"distance":1614,"is_transit":false,"line":5,"station_id":"TKO"},{"line":5,"transit":false,"is_transit":false,"time":2,"station_name":"Bojongindah","i_lat":-6.159876,"distance":2334,"station_id":"BOI","i_long":106.737035},{"is_transit":false,"i_lat":-6.162758,"transit":false,"station_name":"Rawa Buaya","station_id":"RW","line":5,"i_long":106.723064,"time":4,"distance":1152},{"line":5,"station_id":"KDS","is_transit":false,"i_long":106.701612,"distance":2504,"transit":false,"station_name":"Kalideres","time":3,"i_lat":-6.166068},{"transit":false,"i_long":106.679458,"is_transit":false,"line":5,"station_id":"PI","time":3,"station_name":"Poris","distance":2548,"i_lat":-6.169933},{"i_long":106.665036,"is_transit":false,"transit":false,"station_id":"BPR","time":3,"distance":1834,"station_name":"Batuceper","i_lat":-6.171811,"line":5},{"i_lat":-6.17331,"i_long":106.64657,"is_transit":false,"line":5,"transit":false,"station_id":"TTI","station_name":"Tanah Tinggi","time":3,"distance":2028}]]}