{"data":[[{"distance":0,"line":11,"transit":false,"station_name":"Pondok Jati","station_id":"POK","time":0,"is_transit":false,"i_long":106.861737,"i_lat":-6.209188},{"distance":1236,"station_name":"Jatinegara","is_transit":true,"transit":true,"i_long":106.86807400000001,"station_id":"JNG","i_lat":-6.215091,"time":9,"line":1},{"station_name":"Matraman","i_long":106.858896,"time":2,"station_id":"MTR","i_lat":-6.212485,"is_transit":false,"line":1,"transit":false,"distance":1377},{"is_transit":true,"i_long":106.84912,"i_lat":-6.209883,"station_name":"Manggarai","line":2,"time":2,"station_id":"MRI","distance":1275,"transit":true},{"station_name":"Tebet","distance":2610,"time":4,"i_long":106.857948,"i_lat":-6.226659,"transit":false,"line":2,"station_id":"TEB","is_transit":false},{"station_name":"Cawang","is_transit":false,"time":2,"distance":1230,"i_long":106.856607,"line":2,"transit":false,"i_lat":-6.242512,"station_id":"CW"},{"line":2,"station_id":"DRN","station_name":"Duren Kalibata","transit":false,"distance":1546,"time":3,"i_long":106.85449,"i_lat":-6.255332,"is_transit":false},{"transit":false,"i_lat":-6.263214,"i_long":106.851577,"is_transit":false,"station_name":"Pasar Minggu Baru","line":2,"time":2,"distance":824,"station_id":"PSMB"},{"i_long":106.843999,"distance":2380,"i_lat":-6.2842400000000005,"time":2,"station_name":"Pasar Minggu","transit":false,"station_id":"PSM","is_transit":false,"line":2},{"i_long":106.838896,"line":2,"station_name":"Tanjung Barat","station_id":"TNT","transit":false,"is_transit":false,"time":4,"distance":2820,"i_lat":-6.3080680000000005},{"transit":false,"i_long":106.832616,"is_transit":false,"line":2,"station_name":"Lenteng Agung","station_id":"LNA","time":3,"i_lat":-6.330363,"distance":2671},{"i_long":106.834175,"station_id":"UP","line":2,"time":2,"distance":1029,"is_transit":false,"i_lat":-6.339291,"station_name":"Univ. Pancasila","transit":false},{"station_id":"UI","station_name":"Univ. Indonesia","line":2,"distance":2264,"i_lat":-6.360749,"time":3,"i_long":106.831474,"is_transit":false,"transit":false},{"station_name":"Pondok Cina","i_lat":-6.369073,"time":2,"transit":false,"is_transit":false,"i_long":106.831114,"station_id":"POC","distance":1109,"line":2},{"transit":false,"i_long":106.819451,"i_lat":-6.391065,"station_name":"Depokbaru","time":4,"line":2,"distance":2727,"station_id":"DPB","is_transit":false},{"station_name":"Depok","i_lat":-6.405256,"station_id":"DP","is_transit":false,"time":3,"distance":1584,"transit":false,"i_long":106.816926,"line":2},{"i_long":106.800298,"is_transit":true,"transit":true,"distance":5084,"time":6,"station_name":"Citayam","i_lat":-6.448811,"line":2,"station_id":"CTA"},{"line":21,"time":0,"i_lat":-6.460735,"station_name":"Pondok Rajeg","i_long":106.824374,"transit":false,"is_transit":false,"distance":0,"station_id":"PDRG"}],[{"station_name":"Pondok Jati","line":11,"is_transit":false,"station_id":"POK","i_lat":-6.209188,"transit":false,"distance":0,"time":0,"i_long":106.861737},{"i_long":106.855437,"line":11,"transit":false,"time":2,"station_name":"Kramat","is_transit":false,"distance":1829,"i_lat":-6.193792,"station_id":"KMT"},{"station_id":"GST","station_name":"Gang Sentiong","line":11,"transit":false,"distance":973,"i_lat":-6.185975,"time":1,"i_long":106.850107,"is_transit":false},{"i_lat":-6.174784,"i_long":106.84368,"line":11,"time":8,"station_id":"PSE","transit":false,"station_name":"Pasar Senen","distance":1567,"is_transit":false},{"transit":false,"line":11,"time":4,"station_id":"KMO","distance":1436,"i_long":106.839204,"station_name":"Kemayoran","is_transit":false,"i_lat":-6.161728},{"station_name":"Rajawali","station_id":"RJW","i_long":106.836569,"i_lat":-6.14505,"transit":false,"line":11,"is_transit":false,"time":5,"distance":1901},{"is_transit":true,"i_lat":-6.132549,"transit":true,"time":3,"distance":1444,"line":4,"i_long":106.826365,"station_id":"KPB","station_name":"Kampung Bandan"},{"is_transit":false,"transit":false,"distance":4102,"line":1,"time":9,"station_name":"Angke","i_long":106.79867,"station_id":"AK","i_lat":-6.144674},{"station_id":"DU","station_name":"Duri","is_transit":false,"distance":1230,"i_lat":-6.155215,"transit":false,"i_long":106.800832,"line":1,"time":4},{"i_lat":-6.185545,"line":1,"is_transit":false,"time":8,"i_long":106.811091,"station_name":"Tanah Abang","station_id":"THB","transit":false,"distance":3632},{"i_lat":-6.20132,"distance":2029,"line":1,"transit":false,"station_id":"KAT","i_long":106.816351,"station_name":"Karet","is_transit":false,"time":5},{"time":1,"distance":471,"line":1,"is_transit":false,"i_lat":-6.201433,"transit":false,"i_long":106.819881,"station_id":"SUDB","station_name":"Sudirman Baru"},{"transit":false,"time":1,"i_long":106.822649,"line":1,"distance":280,"station_name":"Sudirman","is_transit":false,"station_id":"SUD","i_lat":-6.202263},{"is_transit":true,"transit":true,"i_lat":-6.209883,"station_id":"MRI","distance":3186,"i_long":106.84912,"line":2,"station_name":"Manggarai","time":4},{"distance":2610,"station_name":"Tebet","time":4,"station_id":"TEB","i_lat":-6.226659,"i_long":106.857948,"transit":false,"is_transit":false,"line":2},{"is_transit":false,"line":2,"time":2,"distance":1230,"i_lat":-6.242512,"station_id":"CW","transit":false,"i_long":106.856607,"station_name":"Cawang"},{"i_long":106.85449,"line":2,"time":3,"distance":1546,"station_id":"DRN","station_name":"Duren Kalibata","is_transit":false,"transit":false,"i_lat":-6.255332},{"station_id":"PSMB","distance":824,"is_transit":false,"time":2,"line":2,"station_name":"Pasar Minggu Baru","i_long":106.851577,"i_lat":-6.263214,"transit":false},{"station_id":"PSM","time":2,"line":2,"is_transit":false,"distance":2380,"i_long":106.843999,"station_name":"Pasar Minggu","transit":false,"i_lat":-6.2842400000000005},{"distance":2820,"time":4,"station_name":"Tanjung Barat","transit":false,"i_lat":-6.3080680000000005,"is_transit":false,"i_long":106.838896,"line":2,"station_id":"TNT"},{"is_transit":false,"line":2,"i_long":106.832616,"i_lat":-6.330363,"station_id":"LNA","transit":false,"station_name":"Lenteng Agung","time":3,"distance":2671},{"station_name":"Univ. Pancasila","transit":false,"line":2,"distance":1029,"time":2,"i_lat":-6.339291,"station_id":"UP","i_long":106.834175,"is_transit":false},{"distance":2264,"i_long":106.831474,"line":2,"i_lat":-6.360749,"station_id":"UI","transit":false,"is_transit":false,"station_name":"Univ. Indonesia","time":3},{"i_lat":-6.369073,"station_name":"Pondok Cina","i_long":106.831114,"transit":false,"line":2,"is_transit":false,"time":2,"distance":1109,"station_id":"POC"},{"station_name":"Depokbaru","distance":2727,"i_long":106.819451,"transit":false,"i_lat":-6.391065,"station_id":"DPB","is_transit":false,"time":4,"line":2},{"i_lat":-6.405256,"time":3,"distance":1584,"line":2,"station_id":"DP","transit":false,"is_transit":false,"station_name":"Depok","i_long":106.816926},{"transit":true,"time":6,"i_long":106.800298,"i_lat":-6.448811,"distance":5084,"line":2,"station_name":"Citayam","is_transit":true,"station_id":"CTA"},{"line":21,"transit":false,"distance":0,"time":0,"station_id":"PDRG","station_name":"Pondok Rajeg","i_long":106.824374,"i_lat":-6.460735,"is_transit":false}],[{"transit":false,"is_transit":false,"i_lat":-6.209188,"station_name":"Pondok Jati","station_id":"POK","time":0,"distance":0,"i_long":106.861737,"line":11},{"time":2,"i_long":106.855437,"station_name":"Kramat","distance":1829,"line":11,"i_lat":-6.193792,"station_id":"KMT","transit":false,"is_transit":false},{"station_name":"Gang Sentiong","is_transit":false,"time":1,"i_long":106.850107,"i_lat":-6.185975,"transit":false,"line":11,"distance":973,"station_id":"GST"},{"line":11,"station_name":"Pasar Senen","i_lat":-6.174784,"i_long":106.84368,"transit":false,"station_id":"PSE","time":8,"is_transit":false,"distance":1567},{"i_long":106.839204,"transit":false,"line":11,"time":4,"station_id":"KMO","distance":1436,"station_name":"Kemayoran","is_transit":false,"i_lat":-6.161728},{"station_name":"Rajawali","is_transit":false,"time":5,"distance":1901,"i_lat":-6.14505,"transit":false,"i_long":106.836569,"station_id":"RJW","line":11},{"station_id":"KPB","transit":true,"is_transit":true,"station_name":"Kampung Bandan","line":4,"i_lat":-6.132549,"time":3,"i_long":106.826365,"distance":1444},{"distance":1364,"is_transit":true,"transit":true,"time":3,"i_lat":-6.137569,"i_long":106.812439,"line":2,"station_id":"JAKK","station_name":"Jakarta Kota"},{"transit":false,"time":4,"distance":1264,"i_lat":-6.141205,"line":2,"station_name":"Jayakarta","station_id":"JAY","is_transit":false,"i_long":106.820901},{"station_name":"Manggabesar","distance":1080,"transit":false,"time":2,"is_transit":false,"station_id":"MGB","i_lat":-6.149769,"i_long":106.82482,"line":2},{"station_id":"SW","transit":false,"is_transit":false,"time":2,"distance":906,"i_lat":-6.160725,"station_name":"Sawah Besar","i_long":106.827103,"line":2},{"station_name":"Juanda","time":2,"is_transit":false,"transit":false,"station_id":"JUA","i_lat":-6.166716,"i_long":106.828284,"line":2,"distance":1149},{"i_long":106.832183,"station_name":"Gondangdia","transit":false,"station_id":"GDD","line":2,"time":4,"is_transit":false,"i_lat":-6.186295,"distance":2015},{"i_lat":-6.198556,"time":3,"is_transit":false,"distance":1750,"station_name":"Cikini","station_id":"CKI","line":2,"i_long":106.840169,"transit":false},{"station_name":"Manggarai","i_long":106.84912,"transit":false,"line":2,"i_lat":-6.209883,"station_id":"MRI","is_transit":false,"time":4,"distance":1590},{"i_lat":-6.226659,"line":2,"station_name":"Tebet","station_id":"TEB","distance":2610,"i_long":106.857948,"transit":false,"time":4,"is_transit":false},{"i_lat":-6.242512,"i_long":106.856607,"station_name":"Cawang","station_id":"CW","time":2,"line":2,"transit":false,"is_transit":false,"distance":1230},{"i_long":106.85449,"transit":false,"time":3,"station_name":"Duren Kalibata","is_transit":false,"i_lat":-6.255332,"line":2,"station_id":"DRN","distance":1546},{"i_lat":-6.263214,"time":2,"i_long":106.851577,"is_transit":false,"line":2,"station_id":"PSMB","transit":false,"station_name":"Pasar Minggu Baru","distance":824},{"i_long":106.843999,"distance":2380,"i_lat":-6.2842400000000005,"station_name":"Pasar Minggu","transit":false,"line":2,"time":2,"station_id":"PSM","is_transit":false},{"transit":false,"is_transit":false,"i_lat":-6.3080680000000005,"line":2,"station_id":"TNT","distance":2820,"time":4,"station_name":"Tanjung Barat","i_long":106.838896},{"time":3,"distance":2671,"i_long":106.832616,"transit":false,"station_id":"LNA","is_transit":false,"station_name":"Lenteng Agung","line":2,"i_lat":-6.330363},{"time":2,"is_transit":false,"station_id":"UP","station_name":"Univ. Pancasila","i_long":106.834175,"transit":false,"line":2,"distance":1029,"i_lat":-6.339291},{"is_transit":false,"station_name":"Univ. Indonesia","time":3,"i_long":106.831474,"i_lat":-6.360749,"station_id":"UI","transit":false,"line":2,"distance":2264},{"i_long":106.831114,"time":2,"transit":false,"i_lat":-6.369073,"is_transit":false,"line":2,"station_name":"Pondok Cina","station_id":"POC","distance":1109},{"station_id":"DPB","transit":false,"is_transit":false,"time":4,"distance":2727,"i_long":106.819451,"i_lat":-6.391065,"station_name":"Depokbaru","line":2},{"i_long":106.816926,"is_transit":false,"line":2,"station_name":"Depok","station_id":"DP","transit":false,"time":3,"distance":1584,"i_lat":-6.405256},{"station_id":"CTA","distance":5084,"i_long":106.800298,"time":6,"is_transit":true,"transit":true,"i_lat":-6.448811,"station_name":"Citayam","line":2},{"transit":false,"i_long":106.824374,"station_name":"Pondok Rajeg","is_transit":false,"distance":0,"line":21,"station_id":"PDRG","time":0,"i_lat":-6.460735}]]}