{"data":[[{"transit":false,"is_transit":false,"time":0,"i_long":106.861737,"station_id":"POK","i_lat":-6.209188,"line":11,"distance":0,"station_name":"Pondok Jati"},{"i_lat":-6.215091,"i_long":106.86807400000001,"station_id":"JNG","distance":1236,"station_name":"Jatinegara","line":1,"time":9,"transit":true,"is_transit":true},{"i_lat":-6.212485,"i_long":106.858896,"distance":1377,"transit":false,"station_id":"MTR","is_transit":false,"time":2,"line":1,"station_name":"Matraman"},{"is_transit":false,"i_lat":-6.209883,"i_long":106.84912,"station_name":"Manggarai","time":2,"transit":false,"distance":1275,"line":2,"station_id":"MRI"},{"time":4,"i_lat":-6.202263,"i_long":106.822649,"station_id":"SUD","transit":false,"is_transit":false,"distance":3186,"station_name":"Sudirman","line":1},{"line":1,"i_long":106.819881,"transit":false,"station_name":"Sudirman Baru","station_id":"SUDB","time":1,"distance":280,"i_lat":-6.201433,"is_transit":false}],[{"is_transit":false,"transit":false,"station_name":"Pondok Jati","line":11,"time":0,"i_long":106.861737,"i_lat":-6.209188,"distance":0,"station_id":"POK"},{"transit":false,"station_id":"KMT","is_transit":false,"station_name":"Kramat","time":2,"line":11,"i_long":106.855437,"distance":1829,"i_lat":-6.193792},{"distance":973,"line":11,"station_id":"GST","i_long":106.850107,"is_transit":false,"time":1,"i_lat":-6.185975,"transit":false,"station_name":"Gang Sentiong"},{"station_name":"Pasar Senen","is_transit":false,"line":11,"i_lat":-6.174784,"station_id":"PSE","time":8,"transit":false,"distance":1567,"i_long":106.84368},{"station_name":"Kemayoran","i_lat":-6.161728,"i_long":106.839204,"time":4,"is_transit":false,"transit":false,"line":11,"station_id":"KMO","distance":1436},{"transit":false,"is_transit":false,"distance":1901,"station_id":"RJW","i_long":106.836569,"station_name":"Rajawali","i_lat":-6.14505,"time":5,"line":11},{"line":4,"i_lat":-6.132549,"i_long":106.826365,"station_id":"KPB","time":3,"station_name":"Kampung Bandan","distance":1444,"transit":true,"is_transit":true},{"i_long":106.79867,"is_transit":false,"time":9,"line":1,"station_name":"Angke","transit":false,"station_id":"AK","i_lat":-6.144674,"distance":4102},{"distance":1230,"transit":false,"line":1,"station_id":"DU","time":4,"i_long":106.800832,"station_name":"Duri","i_lat":-6.155215,"is_transit":false},{"station_name":"Tanah Abang","is_transit":false,"station_id":"THB","line":1,"transit":false,"i_lat":-6.185545,"time":8,"distance":3632,"i_long":106.811091},{"i_lat":-6.20132,"transit":false,"station_name":"Karet","station_id":"KAT","is_transit":false,"distance":2029,"i_long":106.816351,"line":1,"time":5},{"station_name":"Sudirman Baru","is_transit":false,"transit":false,"station_id":"SUDB","distance":471,"time":1,"i_lat":-6.201433,"i_long":106.819881,"line":1}],[{"station_name":"Pondok Jati","i_long":106.861737,"line":11,"transit":false,"station_id":"POK","distance":0,"i_lat":-6.209188,"time":0,"is_transit":false},{"transit":true,"station_id":"JNG","is_transit":true,"line":1,"distance":1236,"time":9,"i_long":106.86807400000001,"i_lat":-6.215091,"station_name":"Jatinegara"},{"time":2,"station_name":"Matraman","transit":false,"i_lat":-6.212485,"is_transit":false,"station_id":"MTR","line":1,"i_long":106.858896,"distance":1377},{"transit":true,"station_name":"Manggarai","i_lat":-6.209883,"is_transit":true,"i_long":106.84912,"time":2,"line":2,"station_id":"MRI","distance":1275},{"transit":false,"distance":1590,"line":2,"time":4,"station_id":"CKI","station_name":"Cikini","is_transit":false,"i_lat":-6.198556,"i_long":106.840169},{"station_id":"GDD","i_long":106.832183,"is_transit":false,"station_name":"Gondangdia","distance":1750,"i_lat":-6.186295,"line":2,"transit":false,"time":3},{"station_name":"Juanda","line":2,"transit":false,"time":4,"distance":2015,"is_transit":false,"i_long":106.828284,"i_lat":-6.166716,"station_id":"JUA"},{"is_transit":false,"i_lat":-6.160725,"time":2,"i_long":106.827103,"transit":false,"station_name":"Sawah Besar","station_id":"SW","line":2,"distance":1149},{"station_name":"Manggabesar","station_id":"MGB","is_transit":false,"line":2,"transit":false,"distance":906,"i_lat":-6.149769,"i_long":106.82482,"time":2},{"station_id":"JAY","time":2,"i_lat":-6.141205,"line":2,"i_long":106.820901,"station_name":"Jayakarta","transit":false,"is_transit":false,"distance":1080},{"distance":1264,"i_long":106.812439,"station_name":"Jakarta Kota","time":4,"is_transit":true,"line":2,"station_id":"JAKK","i_lat":-6.137569,"transit":true},{"i_long":106.826365,"station_id":"KPB","is_transit":true,"line":4,"i_lat":-6.132549,"time":3,"transit":true,"station_name":"Kampung Bandan","distance":1364},{"station_name":"Angke","station_id":"AK","time":9,"i_long":106.79867,"distance":4102,"is_transit":false,"transit":false,"i_lat":-6.144674,"line":1},{"i_lat":-6.155215,"station_name":"Duri","time":4,"i_long":106.800832,"station_id":"DU","is_transit":false,"transit":false,"distance":1230,"line":1},{"station_id":"THB","time":8,"i_long":106.811091,"is_transit":false,"i_lat":-6.185545,"station_name":"Tanah Abang","distance":3632,"transit":false,"line":1},{"distance":2029,"station_name":"Karet","is_transit":false,"transit":false,"line":1,"station_id":"KAT","time":5,"i_long":106.816351,"i_lat":-6.20132},{"i_lat":-6.201433,"station_name":"Sudirman Baru","time":1,"i_long":106.819881,"is_transit":false,"station_id":"SUDB","line":1,"transit":false,"distance":471}],[{"station_id":"POK","line":11,"transit":false,"is_transit":false,"i_lat":-6.209188,"time":0,"i_long":106.861737,"distance":0,"station_name":"Pondok Jati"},{"time":2,"i_lat":-6.193792,"station_name":"Kramat","i_long":106.855437,"is_transit":false,"station_id":"KMT","transit":false,"distance":1829,"line":11},{"is_transit":false,"time":1,"distance":973,"line":11,"transit":false,"i_long":106.850107,"station_id":"GST","station_name":"Gang Sentiong","i_lat":-6.185975},{"line":11,"i_lat":-6.174784,"transit":false,"distance":1567,"station_id":"PSE","time":8,"i_long":106.84368,"station_name":"Pasar Senen","is_transit":false},{"distance":1436,"i_long":106.839204,"i_lat":-6.161728,"station_id":"KMO","line":11,"is_transit":false,"station_name":"Kemayoran","transit":false,"time":4},{"transit":false,"i_long":106.836569,"is_transit":false,"distance":1901,"station_id":"RJW","i_lat":-6.14505,"line":11,"time":5,"station_name":"Rajawali"},{"station_name":"Kampung Bandan","station_id":"KPB","line":4,"i_lat":-6.132549,"transit":true,"time":3,"i_long":106.826365,"is_transit":true,"distance":1444},{"is_transit":true,"i_lat":-6.137569,"transit":true,"station_id":"JAKK","distance":1364,"station_name":"Jakarta Kota","time":3,"i_long":106.812439,"line":2},{"transit":false,"distance":1264,"station_id":"JAY","is_transit":false,"i_lat":-6.141205,"time":4,"i_long":106.820901,"station_name":"Jayakarta","line":2},{"distance":1080,"i_long":106.82482,"station_name":"Manggabesar","is_transit":false,"i_lat":-6.149769,"station_id":"MGB","line":2,"transit":false,"time":2},{"distance":906,"station_id":"SW","is_transit":false,"i_lat":-6.160725,"time":2,"i_long":106.827103,"station_name":"Sawah Besar","line":2,"transit":false},{"station_name":"Juanda","transit":false,"station_id":"JUA","distance":1149,"i_lat":-6.166716,"i_long":106.828284,"is_transit":false,"time":2,"line":2},{"station_id":"GDD","is_transit":false,"i_lat":-6.186295,"i_long":106.832183,"time":4,"distance":2015,"line":2,"transit":false,"station_name":"Gondangdia"},{"station_name":"Cikini","is_transit":false,"station_id":"CKI","transit":false,"i_lat":-6.198556,"i_long":106.840169,"distance":1750,"line":2,"time":3},{"station_id":"MRI","transit":true,"is_transit":true,"station_name":"Manggarai","line":2,"i_lat":-6.209883,"time":4,"i_long":106.84912,"distance":1590},{"distance":3186,"is_transit":false,"transit":false,"time":4,"i_lat":-6.202263,"i_long":106.822649,"line":1,"station_id":"SUD","station_name":"Sudirman"},{"transit":false,"time":1,"distance":280,"i_lat":-6.201433,"line":1,"station_name":"Sudirman Baru","station_id":"SUDB","is_transit":false,"i_long":106.819881}]]}