{"data":[[{"i_long":106.861737,"i_lat":-6.209188,"distance":0,"station_id":"POK","station_name":"Pondok Jati","time":0,"transit":false,"line":11,"is_transit":false},{"station_name":"Jatinegara","i_lat":-6.215091,"line":0,"distance":1236,"time":9,"transit":true,"is_transit":true,"station_id":"JNG","i_long":106.86807400000001},{"station_name":"Matraman","transit":false,"is_transit":false,"line":1,"i_lat":-6.212485,"station_id":"MTR","distance":1377,"time":2,"i_long":106.858896},{"transit":true,"station_id":"MRI","station_name":"Manggarai","i_long":106.84912,"line":0,"is_transit":true,"distance":1275,"time":2,"i_lat":-6.209883},{"line":2,"distance":2610,"i_long":106.857948,"i_lat":-6.226659,"station_id":"TEB","station_name":"Tebet","is_transit":false,"transit":false,"time":4},{"is_transit":false,"time":2,"i_long":106.856607,"i_lat":-6.242512,"line":0,"station_id":"CW","station_name":"Cawang","transit":false,"distance":1230},{"is_transit":false,"line":0,"distance":1546,"transit":false,"i_lat":-6.255332,"station_id":"DRN","time":3,"station_name":"Duren Kalibata","i_long":106.85449},{"is_transit":false,"station_id":"PSMB","i_lat":-6.263214,"distance":824,"i_long":106.851577,"transit":false,"station_name":"Pasar Minggu Baru","line":2,"time":2},{"i_long":106.843999,"transit":false,"is_transit":false,"time":2,"station_id":"PSM","i_lat":-6.2842400000000005,"distance":2380,"line":2,"station_name":"Pasar Minggu"},{"station_name":"Tanjung Barat","i_lat":-6.3080680000000005,"distance":2820,"station_id":"TNT","is_transit":false,"transit":false,"time":4,"i_long":106.838896,"line":2},{"is_transit":false,"i_lat":-6.330363,"transit":false,"time":3,"line":2,"station_name":"Lenteng Agung","distance":2671,"station_id":"LNA","i_long":106.832616}],[{"i_lat":-6.209188,"station_name":"Pondok Jati","i_long":106.861737,"line":11,"distance":0,"time":0,"station_id":"POK","transit":false,"is_transit":false},{"station_name":"Kramat","is_transit":false,"time":2,"i_long":106.855437,"transit":false,"station_id":"KMT","distance":1829,"i_lat":-6.193792,"line":11},{"distance":973,"station_id":"GST","transit":false,"station_name":"Gang Sentiong","i_lat":-6.185975,"i_long":106.850107,"is_transit":false,"time":1,"line":11},{"time":8,"station_id":"PSE","station_name":"Pasar Senen","transit":false,"distance":1567,"i_lat":-6.174784,"i_long":106.84368,"line":11,"is_transit":false},{"station_name":"Kemayoran","time":4,"i_long":106.839204,"transit":false,"is_transit":false,"i_lat":-6.161728,"distance":1436,"station_id":"KMO","line":11},{"station_id":"RJW","i_long":106.836569,"is_transit":false,"transit":false,"time":5,"i_lat":-6.14505,"distance":1901,"station_name":"Rajawali","line":11},{"transit":true,"time":3,"i_lat":-6.132549,"line":0,"station_id":"KPB","i_long":106.826365,"is_transit":true,"distance":1444,"station_name":"Kampung Bandan"},{"i_long":106.79867,"station_id":"AK","i_lat":-6.144674,"time":9,"station_name":"Angke","line":0,"transit":false,"is_transit":false,"distance":4102},{"i_lat":-6.155215,"i_long":106.800832,"line":1,"time":4,"station_id":"DU","station_name":"Duri","is_transit":true,"transit":true,"distance":1230},{"distance":3632,"station_id":"THB","transit":false,"i_lat":-6.185545,"is_transit":true,"station_name":"Tanah Abang","time":8,"i_long":106.811091,"line":1},{"distance":2029,"time":5,"station_name":"Karet","is_transit":false,"line":1,"station_id":"KAT","transit":false,"i_lat":-6.20132,"i_long":106.816351},{"time":1,"i_lat":-6.201433,"i_long":106.819881,"line":1,"station_name":"Sudirman Baru","transit":false,"station_id":"SUDB","distance":471,"is_transit":false},{"i_lat":-6.202263,"line":1,"distance":280,"is_transit":false,"transit":false,"i_long":106.822649,"station_id":"SUD","station_name":"Sudirman","time":1},{"line":0,"station_id":"MRI","time":4,"i_long":106.84912,"is_transit":true,"transit":true,"i_lat":-6.209883,"station_name":"Manggarai","distance":3186},{"station_name":"Tebet","i_lat":-6.226659,"line":2,"transit":false,"is_transit":false,"time":4,"station_id":"TEB","i_long":106.857948,"distance":2610},{"station_name":"Cawang","is_transit":false,"transit":false,"distance":1230,"i_lat":-6.242512,"line":0,"time":2,"i_long":106.856607,"station_id":"CW"},{"is_transit":false,"i_long":106.85449,"distance":1546,"i_lat":-6.255332,"station_id":"DRN","transit":false,"line":0,"station_name":"Duren Kalibata","time":3},{"station_id":"PSMB","station_name":"Pasar Minggu Baru","transit":false,"i_lat":-6.263214,"i_long":106.851577,"line":2,"time":2,"is_transit":false,"distance":824},{"is_transit":false,"line":2,"transit":false,"station_id":"PSM","i_lat":-6.2842400000000005,"time":2,"i_long":106.843999,"distance":2380,"station_name":"Pasar Minggu"},{"station_name":"Tanjung Barat","station_id":"TNT","distance":2820,"i_lat":-6.3080680000000005,"is_transit":false,"transit":false,"i_long":106.838896,"time":4,"line":2},{"distance":2671,"station_id":"LNA","time":3,"i_long":106.832616,"is_transit":false,"line":2,"station_name":"Lenteng Agung","transit":false,"i_lat":-6.330363}],[{"line":11,"station_name":"Pondok Jati","is_transit":false,"transit":false,"i_lat":-6.209188,"station_id":"POK","i_long":106.861737,"distance":0,"time":0},{"station_name":"Kramat","is_transit":false,"transit":false,"i_long":106.855437,"line":11,"distance":1829,"time":2,"station_id":"KMT","i_lat":-6.193792},{"distance":973,"station_id":"GST","transit":false,"station_name":"Gang Sentiong","is_transit":false,"line":11,"i_long":106.850107,"time":1,"i_lat":-6.185975},{"i_long":106.84368,"transit":false,"station_id":"PSE","station_name":"Pasar Senen","distance":1567,"time":8,"is_transit":false,"i_lat":-6.174784,"line":11},{"transit":false,"distance":1436,"time":4,"line":11,"station_name":"Kemayoran","i_long":106.839204,"i_lat":-6.161728,"station_id":"KMO","is_transit":false},{"station_name":"Rajawali","distance":1901,"i_lat":-6.14505,"line":11,"station_id":"RJW","time":5,"transit":false,"is_transit":false,"i_long":106.836569},{"distance":1444,"station_name":"Kampung Bandan","transit":true,"is_transit":true,"time":3,"i_lat":-6.132549,"i_long":106.826365,"line":0,"station_id":"KPB"},{"is_transit":true,"distance":1364,"station_id":"JAKK","station_name":"Jakarta Kota","time":3,"i_long":106.812439,"i_lat":-6.137569,"transit":true,"line":0},{"line":7,"i_long":106.820901,"station_name":"Jayakarta","transit":false,"time":4,"i_lat":-6.141205,"distance":1264,"is_transit":false,"station_id":"JAY"},{"distance":1080,"transit":false,"time":2,"station_name":"Manggabesar","line":2,"station_id":"MGB","is_transit":false,"i_lat":-6.149769,"i_long":106.82482},{"distance":906,"is_transit":false,"time":2,"line":2,"station_id":"SW","station_name":"Sawah Besar","i_long":106.827103,"i_lat":-6.160725,"transit":false},{"station_id":"JUA","transit":false,"distance":1149,"is_transit":false,"i_lat":-6.166716,"i_long":106.828284,"time":2,"station_name":"Juanda","line":2},{"is_transit":false,"line":2,"distance":2015,"station_name":"Gondangdia","transit":false,"station_id":"GDD","time":4,"i_lat":-6.186295,"i_long":106.832183},{"station_id":"CKI","station_name":"Cikini","time":3,"is_transit":false,"transit":false,"i_lat":-6.198556,"distance":1750,"line":0,"i_long":106.840169},{"station_id":"MRI","distance":1590,"transit":true,"time":4,"i_lat":-6.209883,"station_name":"Manggarai","is_transit":true,"i_long":106.84912,"line":0},{"station_name":"Tebet","line":2,"distance":2610,"i_long":106.857948,"time":4,"station_id":"TEB","i_lat":-6.226659,"is_transit":false,"transit":false},{"transit":false,"i_long":106.856607,"is_transit":false,"station_id":"CW","i_lat":-6.242512,"time":2,"distance":1230,"station_name":"Cawang","line":0},{"i_long":106.85449,"i_lat":-6.255332,"is_transit":false,"line":0,"transit":false,"station_name":"Duren Kalibata","station_id":"DRN","time":3,"distance":1546},{"station_id":"PSMB","transit":false,"is_transit":false,"line":2,"distance":824,"i_lat":-6.263214,"time":2,"i_long":106.851577,"station_name":"Pasar Minggu Baru"},{"i_long":106.843999,"time":2,"is_transit":false,"i_lat":-6.2842400000000005,"line":2,"station_name":"Pasar Minggu","distance":2380,"station_id":"PSM","transit":false},{"time":4,"line":2,"station_id":"TNT","i_lat":-6.3080680000000005,"i_long":106.838896,"distance":2820,"is_transit":false,"station_name":"Tanjung Barat","transit":false},{"station_id":"LNA","i_long":106.832616,"station_name":"Lenteng Agung","distance":2671,"time":3,"transit":false,"line":2,"i_lat":-6.330363,"is_transit":false}]]}