{"data":[[{"station_name":"Pondok Jati","station_id":"POK","is_transit":false,"i_lat":-6.209188,"distance":0,"time":0,"transit":false,"i_long":106.861737,"line":11},{"time":9,"is_transit":true,"i_long":106.86807400000001,"station_name":"Jatinegara","station_id":"JNG","i_lat":-6.215091,"line":1,"distance":1236,"transit":true},{"time":3,"distance":3395,"station_name":"Klender","transit":false,"i_long":106.899548,"station_id":"KLD","i_lat":-6.2135,"line":1,"is_transit":false},{"time":2,"line":1,"i_lat":-6.215568,"station_id":"BUA","distance":3100,"station_name":"Buaran","is_transit":false,"transit":false,"i_long":106.922662},{"is_transit":false,"time":1,"transit":false,"i_lat":-6.217455,"i_long":106.939679,"distance":1305,"line":1,"station_id":"KLDB","station_name":"Klenderbaru"},{"line":1,"i_lat":-6.219053,"station_name":"Cakung","i_long":106.951283,"is_transit":false,"station_id":"CUK","distance":1385,"time":8,"transit":false}],[{"station_id":"POK","i_lat":-6.209188,"distance":0,"line":11,"station_name":"Pondok Jati","is_transit":false,"transit":false,"time":0,"i_long":106.861737},{"line":11,"i_lat":-6.193792,"time":2,"is_transit":false,"transit":false,"station_id":"KMT","i_long":106.855437,"distance":1829,"station_name":"Kramat"},{"time":1,"i_lat":-6.185975,"distance":973,"i_long":106.850107,"line":11,"station_id":"GST","station_name":"Gang Sentiong","is_transit":false,"transit":false},{"line":11,"transit":false,"time":8,"station_id":"PSE","i_lat":-6.174784,"station_name":"Pasar Senen","distance":1567,"i_long":106.84368,"is_transit":false},{"line":11,"station_id":"KMO","transit":false,"i_long":106.839204,"distance":1436,"i_lat":-6.161728,"is_transit":false,"station_name":"Kemayoran","time":4},{"time":5,"i_long":106.836569,"i_lat":-6.14505,"distance":1901,"station_name":"Rajawali","station_id":"RJW","is_transit":false,"transit":false,"line":11},{"station_id":"KPB","is_transit":true,"transit":true,"line":4,"distance":1444,"i_long":106.826365,"i_lat":-6.132549,"time":3,"station_name":"Kampung Bandan"},{"is_transit":false,"transit":false,"i_lat":-6.144674,"time":9,"line":1,"i_long":106.79867,"station_id":"AK","station_name":"Angke","distance":4102},{"station_id":"DU","is_transit":false,"i_long":106.800832,"line":1,"time":4,"transit":false,"station_name":"Duri","i_lat":-6.155215,"distance":1230},{"transit":false,"is_transit":false,"station_id":"THB","i_long":106.811091,"distance":3632,"time":8,"line":1,"i_lat":-6.185545,"station_name":"Tanah Abang"},{"i_lat":-6.20132,"time":5,"transit":false,"station_name":"Karet","i_long":106.816351,"distance":2029,"is_transit":false,"line":1,"station_id":"KAT"},{"i_long":106.819881,"transit":false,"station_id":"SUDB","time":1,"is_transit":false,"station_name":"Sudirman Baru","i_lat":-6.201433,"line":1,"distance":471},{"transit":false,"i_lat":-6.202263,"time":1,"distance":280,"i_long":106.822649,"line":1,"station_id":"SUD","is_transit":false,"station_name":"Sudirman"},{"station_name":"Manggarai","i_lat":-6.209883,"i_long":106.84912,"is_transit":false,"transit":false,"line":2,"time":4,"distance":3186,"station_id":"MRI"},{"line":1,"distance":1275,"is_transit":false,"station_name":"Matraman","time":2,"station_id":"MTR","transit":false,"i_lat":-6.212485,"i_long":106.858896},{"i_long":106.86807400000001,"station_id":"JNG","line":1,"distance":1377,"transit":false,"i_lat":-6.215091,"is_transit":false,"station_name":"Jatinegara","time":8},{"transit":false,"is_transit":false,"line":1,"i_long":106.899548,"station_id":"KLD","station_name":"Klender","i_lat":-6.2135,"time":3,"distance":3395},{"station_id":"BUA","is_transit":false,"line":1,"transit":false,"distance":3100,"i_lat":-6.215568,"i_long":106.922662,"station_name":"Buaran","time":2},{"distance":1305,"i_long":106.939679,"transit":false,"station_id":"KLDB","i_lat":-6.217455,"station_name":"Klenderbaru","is_transit":false,"time":1,"line":1},{"time":8,"station_name":"Cakung","transit":false,"station_id":"CUK","line":1,"is_transit":false,"i_lat":-6.219053,"distance":1385,"i_long":106.951283}],[{"line":11,"i_long":106.861737,"station_name":"Pondok Jati","station_id":"POK","transit":false,"is_transit":false,"distance":0,"i_lat":-6.209188,"time":0},{"distance":1829,"transit":false,"station_id":"KMT","line":11,"station_name":"Kramat","is_transit":false,"i_lat":-6.193792,"time":2,"i_long":106.855437},{"station_id":"GST","transit":false,"time":1,"i_lat":-6.185975,"i_long":106.850107,"distance":973,"line":11,"is_transit":false,"station_name":"Gang Sentiong"},{"i_lat":-6.174784,"i_long":106.84368,"transit":false,"line":11,"station_name":"Pasar Senen","distance":1567,"is_transit":false,"time":8,"station_id":"PSE"},{"line":11,"i_long":106.839204,"time":4,"station_name":"Kemayoran","station_id":"KMO","distance":1436,"is_transit":false,"transit":false,"i_lat":-6.161728},{"i_long":106.836569,"i_lat":-6.14505,"time":5,"distance":1901,"is_transit":false,"transit":false,"station_name":"Rajawali","line":11,"station_id":"RJW"},{"distance":1444,"station_id":"KPB","line":4,"station_name":"Kampung Bandan","time":3,"i_long":106.826365,"transit":true,"is_transit":true,"i_lat":-6.132549},{"i_long":106.812439,"is_transit":true,"distance":1364,"time":3,"transit":true,"station_name":"Jakarta Kota","i_lat":-6.137569,"line":2,"station_id":"JAKK"},{"station_name":"Jayakarta","i_lat":-6.141205,"is_transit":false,"station_id":"JAY","i_long":106.820901,"time":4,"line":2,"distance":1264,"transit":false},{"i_long":106.82482,"line":2,"transit":false,"station_name":"Manggabesar","distance":1080,"i_lat":-6.149769,"time":2,"is_transit":false,"station_id":"MGB"},{"station_id":"SW","i_long":106.827103,"distance":906,"is_transit":false,"station_name":"Sawah Besar","line":2,"time":2,"i_lat":-6.160725,"transit":false},{"i_lat":-6.166716,"station_id":"JUA","line":2,"transit":false,"i_long":106.828284,"time":2,"distance":1149,"is_transit":false,"station_name":"Juanda"},{"i_lat":-6.186295,"i_long":106.832183,"station_name":"Gondangdia","is_transit":false,"distance":2015,"transit":false,"line":2,"station_id":"GDD","time":4},{"i_lat":-6.198556,"line":2,"transit":false,"station_id":"CKI","time":3,"station_name":"Cikini","is_transit":false,"i_long":106.840169,"distance":1750},{"is_transit":true,"time":4,"distance":1590,"line":2,"station_id":"MRI","i_long":106.84912,"transit":true,"i_lat":-6.209883,"station_name":"Manggarai"},{"transit":false,"station_id":"MTR","distance":1275,"time":2,"is_transit":false,"i_long":106.858896,"line":1,"i_lat":-6.212485,"station_name":"Matraman"},{"distance":1377,"station_name":"Jatinegara","station_id":"JNG","i_long":106.86807400000001,"time":8,"is_transit":false,"transit":false,"i_lat":-6.215091,"line":1},{"line":1,"time":3,"station_id":"KLD","is_transit":false,"distance":3395,"transit":false,"i_long":106.899548,"i_lat":-6.2135,"station_name":"Klender"},{"is_transit":false,"distance":3100,"transit":false,"station_name":"Buaran","i_long":106.922662,"line":1,"i_lat":-6.215568,"time":2,"station_id":"BUA"},{"transit":false,"station_id":"KLDB","i_long":106.939679,"distance":1305,"station_name":"Klenderbaru","line":1,"is_transit":false,"time":1,"i_lat":-6.217455},{"distance":1385,"time":8,"station_id":"CUK","station_name":"Cakung","transit":false,"is_transit":false,"i_lat":-6.219053,"i_long":106.951283,"line":1}]]}