{"data":[[{"station_name":"Pondok Jati","line":11,"station_id":"POK","time":0,"distance":0,"i_long":106.861737,"i_lat":-6.209188,"is_transit":false,"transit":false},{"line":0,"station_name":"Jatinegara","station_id":"JNG","time":9,"distance":1236,"i_long":106.86807400000001,"is_transit":true,"transit":false,"i_lat":-6.215091}],[{"station_id":"POK","is_transit":false,"station_name":"Pondok Jati","line":11,"i_long":106.861737,"transit":false,"i_lat":-6.209188,"time":0,"distance":0},{"station_id":"KMT","is_transit":false,"transit":false,"line":11,"distance":1829,"time":2,"station_name":"Kramat","i_lat":-6.193792,"i_long":106.855437},{"station_id":"GST","station_name":"Gang Sentiong","distance":973,"i_lat":-6.185975,"i_long":106.850107,"time":1,"line":11,"is_transit":false,"transit":false},{"i_long":106.84368,"transit":false,"i_lat":-6.174784,"distance":1567,"is_transit":false,"station_id":"PSE","time":8,"line":11,"station_name":"Pasar Senen"},{"station_id":"KMO","is_transit":false,"station_name":"Kemayoran","transit":false,"i_long":106.839204,"i_lat":-6.161728,"distance":1436,"time":4,"line":11},{"i_lat":-6.14505,"is_transit":false,"i_long":106.836569,"distance":1901,"line":11,"station_name":"Rajawali","transit":false,"time":5,"station_id":"RJW"},{"distance":1444,"station_name":"Kampung Bandan","transit":true,"time":3,"i_long":106.826365,"i_lat":-6.132549,"is_transit":true,"line":0,"station_id":"KPB"},{"i_lat":-6.144674,"distance":4102,"station_name":"Angke","time":9,"transit":false,"is_transit":false,"i_long":106.79867,"station_id":"AK","line":0},{"is_transit":true,"line":1,"station_name":"Duri","distance":1230,"i_lat":-6.155215,"station_id":"DU","time":4,"i_long":106.800832,"transit":true},{"i_lat":-6.185545,"distance":3632,"time":8,"i_long":106.811091,"transit":false,"station_id":"THB","line":1,"is_transit":true,"station_name":"Tanah Abang"},{"station_name":"Karet","i_long":106.816351,"line":1,"distance":2029,"is_transit":false,"time":5,"transit":false,"i_lat":-6.20132,"station_id":"KAT"},{"station_id":"SUDB","time":1,"i_lat":-6.201433,"station_name":"Sudirman Baru","i_long":106.819881,"distance":471,"is_transit":false,"transit":false,"line":1},{"station_id":"SUD","is_transit":false,"station_name":"Sudirman","i_lat":-6.202263,"line":1,"time":1,"i_long":106.822649,"transit":false,"distance":280},{"time":4,"is_transit":true,"distance":3186,"transit":false,"station_name":"Manggarai","station_id":"MRI","i_lat":-6.209883,"i_long":106.84912,"line":0},{"i_lat":-6.212485,"station_id":"MTR","station_name":"Matraman","is_transit":false,"transit":false,"time":2,"distance":1275,"line":1,"i_long":106.858896},{"station_name":"Jatinegara","is_transit":true,"transit":false,"station_id":"JNG","distance":1377,"time":8,"i_long":106.86807400000001,"line":0,"i_lat":-6.215091}],[{"time":0,"is_transit":false,"station_name":"Pondok Jati","transit":false,"i_lat":-6.209188,"i_long":106.861737,"distance":0,"station_id":"POK","line":11},{"station_id":"KMT","line":11,"time":2,"i_long":106.855437,"is_transit":false,"station_name":"Kramat","i_lat":-6.193792,"transit":false,"distance":1829},{"station_name":"Gang Sentiong","i_long":106.850107,"i_lat":-6.185975,"line":11,"distance":973,"station_id":"GST","is_transit":false,"transit":false,"time":1},{"station_id":"PSE","transit":false,"i_long":106.84368,"station_name":"Pasar Senen","line":11,"i_lat":-6.174784,"is_transit":false,"time":8,"distance":1567},{"distance":1436,"transit":false,"station_name":"Kemayoran","i_lat":-6.161728,"i_long":106.839204,"line":11,"station_id":"KMO","time":4,"is_transit":false},{"time":5,"distance":1901,"i_lat":-6.14505,"i_long":106.836569,"station_name":"Rajawali","transit":false,"line":11,"is_transit":false,"station_id":"RJW"},{"i_lat":-6.132549,"is_transit":true,"line":0,"station_id":"KPB","station_name":"Kampung Bandan","distance":1444,"transit":true,"i_long":106.826365,"time":3},{"station_id":"JAKK","station_name":"Jakarta Kota","time":3,"distance":1364,"line":0,"is_transit":true,"transit":true,"i_lat":-6.137569,"i_long":106.812439},{"station_name":"Jayakarta","i_long":106.820901,"line":7,"station_id":"JAY","time":4,"distance":1264,"is_transit":false,"transit":false,"i_lat":-6.141205},{"is_transit":false,"station_id":"MGB","time":2,"i_lat":-6.149769,"distance":1080,"transit":false,"i_long":106.82482,"line":2,"station_name":"Manggabesar"},{"distance":906,"i_lat":-6.160725,"is_transit":false,"i_long":106.827103,"transit":false,"time":2,"station_name":"Sawah Besar","line":2,"station_id":"SW"},{"station_id":"JUA","time":2,"transit":false,"i_lat":-6.166716,"i_long":106.828284,"line":2,"is_transit":false,"station_name":"Juanda","distance":1149},{"i_lat":-6.186295,"i_long":106.832183,"time":4,"transit":false,"distance":2015,"station_id":"GDD","line":2,"station_name":"Gondangdia","is_transit":false},{"is_transit":false,"i_lat":-6.198556,"distance":1750,"station_id":"CKI","station_name":"Cikini","transit":false,"time":3,"i_long":106.840169,"line":0},{"station_name":"Manggarai","i_lat":-6.209883,"i_long":106.84912,"line":0,"time":4,"distance":1590,"station_id":"MRI","is_transit":true,"transit":true},{"is_transit":false,"time":2,"station_id":"MTR","i_lat":-6.212485,"transit":false,"i_long":106.858896,"station_name":"Matraman","distance":1275,"line":1},{"i_lat":-6.215091,"is_transit":true,"line":0,"distance":1377,"transit":false,"time":8,"station_id":"JNG","station_name":"Jatinegara","i_long":106.86807400000001}]]}