{"data":[[{"i_lat":-6.209188,"i_long":106.861737,"station_name":"Pondok Jati","time":0,"transit":false,"is_transit":false,"station_id":"POK","line":11,"distance":0},{"i_lat":-6.215091,"i_long":106.86807400000001,"line":1,"transit":true,"time":9,"distance":1236,"station_name":"Jatinegara","station_id":"JNG","is_transit":true},{"distance":1377,"station_name":"Matraman","i_long":106.858896,"transit":false,"time":2,"line":1,"is_transit":false,"i_lat":-6.212485,"station_id":"MTR"},{"time":2,"station_name":"Manggarai","is_transit":true,"transit":true,"i_long":106.84912,"line":2,"i_lat":-6.209883,"distance":1275,"station_id":"MRI"},{"time":4,"transit":false,"is_transit":false,"i_lat":-6.226659,"station_id":"TEB","i_long":106.857948,"line":2,"distance":2610,"station_name":"Tebet"},{"line":2,"distance":1230,"station_id":"CW","is_transit":false,"transit":false,"station_name":"Cawang","time":2,"i_long":106.856607,"i_lat":-6.242512},{"distance":1546,"time":3,"station_name":"Duren Kalibata","is_transit":false,"station_id":"DRN","transit":false,"i_lat":-6.255332,"i_long":106.85449,"line":2},{"i_long":106.851577,"i_lat":-6.263214,"station_id":"PSMB","station_name":"Pasar Minggu Baru","transit":false,"is_transit":false,"time":2,"distance":824,"line":2},{"station_id":"PSM","i_lat":-6.2842400000000005,"distance":2380,"is_transit":false,"i_long":106.843999,"line":2,"time":2,"transit":false,"station_name":"Pasar Minggu"},{"is_transit":false,"transit":false,"line":2,"time":4,"station_id":"TNT","station_name":"Tanjung Barat","i_long":106.838896,"distance":2820,"i_lat":-6.3080680000000005},{"station_name":"Lenteng Agung","time":3,"is_transit":false,"station_id":"LNA","distance":2671,"i_lat":-6.330363,"line":2,"transit":false,"i_long":106.832616}],[{"station_id":"POK","i_lat":-6.209188,"time":0,"is_transit":false,"station_name":"Pondok Jati","transit":false,"distance":0,"i_long":106.861737,"line":11},{"i_lat":-6.193792,"is_transit":false,"distance":1829,"line":11,"i_long":106.855437,"station_id":"KMT","transit":false,"time":2,"station_name":"Kramat"},{"station_name":"Gang Sentiong","i_long":106.850107,"transit":false,"is_transit":false,"station_id":"GST","i_lat":-6.185975,"distance":973,"line":11,"time":1},{"is_transit":false,"i_lat":-6.174784,"time":8,"station_id":"PSE","i_long":106.84368,"line":11,"transit":false,"station_name":"Pasar Senen","distance":1567},{"i_long":106.839204,"line":11,"transit":false,"time":4,"distance":1436,"station_name":"Kemayoran","is_transit":false,"station_id":"KMO","i_lat":-6.161728},{"line":11,"distance":1901,"station_id":"RJW","i_lat":-6.14505,"transit":false,"time":5,"is_transit":false,"i_long":106.836569,"station_name":"Rajawali"},{"time":3,"line":4,"station_name":"Kampung Bandan","is_transit":true,"distance":1444,"i_lat":-6.132549,"i_long":106.826365,"station_id":"KPB","transit":true},{"is_transit":false,"time":9,"transit":false,"distance":4102,"station_id":"AK","station_name":"Angke","line":1,"i_lat":-6.144674,"i_long":106.79867},{"i_lat":-6.155215,"is_transit":false,"i_long":106.800832,"time":4,"station_id":"DU","transit":false,"distance":1230,"station_name":"Duri","line":1},{"is_transit":false,"distance":3632,"i_lat":-6.185545,"transit":false,"i_long":106.811091,"time":8,"line":1,"station_name":"Tanah Abang","station_id":"THB"},{"transit":false,"distance":2029,"i_lat":-6.20132,"i_long":106.816351,"is_transit":false,"station_name":"Karet","station_id":"KAT","time":5,"line":1},{"station_name":"Sudirman Baru","is_transit":false,"time":1,"line":1,"i_lat":-6.201433,"transit":false,"distance":471,"station_id":"SUDB","i_long":106.819881},{"i_long":106.822649,"distance":280,"line":1,"station_name":"Sudirman","station_id":"SUD","is_transit":false,"i_lat":-6.202263,"time":1,"transit":false},{"time":4,"is_transit":true,"transit":true,"i_long":106.84912,"station_id":"MRI","distance":3186,"station_name":"Manggarai","i_lat":-6.209883,"line":2},{"time":4,"station_id":"TEB","is_transit":false,"distance":2610,"transit":false,"i_lat":-6.226659,"i_long":106.857948,"station_name":"Tebet","line":2},{"transit":false,"i_lat":-6.242512,"is_transit":false,"station_id":"CW","line":2,"time":2,"i_long":106.856607,"station_name":"Cawang","distance":1230},{"station_id":"DRN","i_long":106.85449,"distance":1546,"i_lat":-6.255332,"station_name":"Duren Kalibata","line":2,"is_transit":false,"transit":false,"time":3},{"i_lat":-6.263214,"station_id":"PSMB","i_long":106.851577,"transit":false,"line":2,"distance":824,"time":2,"is_transit":false,"station_name":"Pasar Minggu Baru"},{"is_transit":false,"station_id":"PSM","i_long":106.843999,"line":2,"time":2,"distance":2380,"i_lat":-6.2842400000000005,"transit":false,"station_name":"Pasar Minggu"},{"station_id":"TNT","i_long":106.838896,"line":2,"transit":false,"station_name":"Tanjung Barat","time":4,"distance":2820,"i_lat":-6.3080680000000005,"is_transit":false},{"i_lat":-6.330363,"station_name":"Lenteng Agung","station_id":"LNA","line":2,"is_transit":false,"i_long":106.832616,"transit":false,"time":3,"distance":2671}],[{"is_transit":false,"time":0,"station_name":"Pondok Jati","transit":false,"i_lat":-6.209188,"i_long":106.861737,"station_id":"POK","line":11,"distance":0},{"distance":1829,"transit":false,"station_id":"KMT","i_lat":-6.193792,"is_transit":false,"station_name":"Kramat","i_long":106.855437,"time":2,"line":11},{"station_name":"Gang Sentiong","i_lat":-6.185975,"station_id":"GST","transit":false,"distance":973,"is_transit":false,"i_long":106.850107,"time":1,"line":11},{"distance":1567,"station_name":"Pasar Senen","time":8,"i_lat":-6.174784,"transit":false,"station_id":"PSE","line":11,"is_transit":false,"i_long":106.84368},{"station_name":"Kemayoran","station_id":"KMO","is_transit":false,"distance":1436,"i_lat":-6.161728,"time":4,"i_long":106.839204,"transit":false,"line":11},{"is_transit":false,"station_id":"RJW","i_lat":-6.14505,"distance":1901,"i_long":106.836569,"line":11,"station_name":"Rajawali","transit":false,"time":5},{"station_id":"KPB","station_name":"Kampung Bandan","line":4,"distance":1444,"is_transit":true,"i_lat":-6.132549,"time":3,"i_long":106.826365,"transit":true},{"time":3,"i_lat":-6.137569,"transit":true,"is_transit":true,"station_name":"Jakarta Kota","distance":1364,"line":2,"station_id":"JAKK","i_long":106.812439},{"i_lat":-6.141205,"station_id":"JAY","distance":1264,"i_long":106.820901,"line":2,"station_name":"Jayakarta","time":4,"transit":false,"is_transit":false},{"station_name":"Manggabesar","distance":1080,"transit":false,"i_long":106.82482,"line":2,"station_id":"MGB","i_lat":-6.149769,"is_transit":false,"time":2},{"i_long":106.827103,"distance":906,"is_transit":false,"station_id":"SW","i_lat":-6.160725,"station_name":"Sawah Besar","line":2,"transit":false,"time":2},{"station_name":"Juanda","i_lat":-6.166716,"distance":1149,"i_long":106.828284,"station_id":"JUA","time":2,"is_transit":false,"transit":false,"line":2},{"station_id":"GDD","transit":false,"i_long":106.832183,"i_lat":-6.186295,"line":2,"station_name":"Gondangdia","time":4,"distance":2015,"is_transit":false},{"line":2,"distance":1750,"i_lat":-6.198556,"station_id":"CKI","station_name":"Cikini","transit":false,"time":3,"i_long":106.840169,"is_transit":false},{"i_lat":-6.209883,"i_long":106.84912,"station_name":"Manggarai","is_transit":false,"station_id":"MRI","distance":1590,"transit":false,"line":2,"time":4},{"transit":false,"station_id":"TEB","i_long":106.857948,"i_lat":-6.226659,"time":4,"distance":2610,"is_transit":false,"station_name":"Tebet","line":2},{"i_lat":-6.242512,"distance":1230,"station_id":"CW","transit":false,"station_name":"Cawang","time":2,"i_long":106.856607,"is_transit":false,"line":2},{"transit":false,"i_long":106.85449,"line":2,"is_transit":false,"time":3,"i_lat":-6.255332,"station_name":"Duren Kalibata","distance":1546,"station_id":"DRN"},{"time":2,"distance":824,"i_lat":-6.263214,"i_long":106.851577,"is_transit":false,"station_id":"PSMB","transit":false,"station_name":"Pasar Minggu Baru","line":2},{"time":2,"i_long":106.843999,"i_lat":-6.2842400000000005,"station_id":"PSM","station_name":"Pasar Minggu","transit":false,"line":2,"is_transit":false,"distance":2380},{"distance":2820,"station_name":"Tanjung Barat","is_transit":false,"time":4,"i_long":106.838896,"transit":false,"station_id":"TNT","i_lat":-6.3080680000000005,"line":2},{"station_id":"LNA","i_long":106.832616,"line":2,"is_transit":false,"i_lat":-6.330363,"station_name":"Lenteng Agung","distance":2671,"time":3,"transit":false}]]}