{"data":[[{"i_lat":-6.209188,"time":0,"transit":false,"i_long":106.861737,"is_transit":false,"distance":0,"line":11,"station_name":"Pondok Jati","station_id":"POK"},{"is_transit":true,"time":9,"transit":true,"line":1,"i_lat":-6.215091,"i_long":106.86807400000001,"station_name":"Jatinegara","distance":1236,"station_id":"JNG"},{"is_transit":false,"line":1,"station_id":"MTR","station_name":"Matraman","distance":1377,"i_lat":-6.212485,"time":2,"i_long":106.858896,"transit":false},{"station_name":"Manggarai","time":2,"station_id":"MRI","transit":false,"i_long":106.84912,"distance":1275,"is_transit":false,"line":2,"i_lat":-6.209883},{"i_long":106.822649,"station_name":"Sudirman","station_id":"SUD","is_transit":false,"transit":false,"i_lat":-6.202263,"time":4,"distance":3186,"line":1},{"i_lat":-6.201433,"station_id":"SUDB","i_long":106.819881,"time":1,"transit":false,"distance":280,"station_name":"Sudirman Baru","is_transit":false,"line":1},{"is_transit":false,"line":1,"transit":false,"i_lat":-6.20132,"i_long":106.816351,"station_name":"Karet","time":1,"distance":471,"station_id":"KAT"},{"i_long":106.811091,"is_transit":true,"distance":2029,"time":5,"station_name":"Tanah Abang","i_lat":-6.185545,"station_id":"THB","transit":true,"line":1},{"transit":false,"is_transit":false,"distance":3191,"i_lat":-6.207404,"line":6,"station_id":"PLM","time":6,"station_name":"Palmerah","i_long":106.79689},{"transit":false,"line":6,"i_lat":-6.237242,"time":7,"i_long":106.780334,"is_transit":false,"distance":3737,"station_id":"KBY","station_name":"Kebayoran"},{"transit":false,"station_name":"Pondokranji","distance":6218,"time":8,"station_id":"PDJ","is_transit":false,"i_lat":-6.276362,"line":6,"i_long":106.74273},{"station_name":"Jurangmangu","station_id":"JMU","transit":false,"i_long":106.728916,"line":6,"time":3,"distance":2179,"is_transit":false,"i_lat":-6.288927},{"station_id":"SDM","i_long":106.712277,"distance":1994,"i_lat":-6.296963,"station_name":"Sudimara","is_transit":false,"line":6,"transit":false,"time":4},{"is_transit":false,"station_name":"Rawa Buntu","transit":false,"i_lat":-6.314823,"time":6,"distance":4566,"i_long":106.675475,"station_id":"RU","line":6},{"time":4,"station_id":"SRP","station_name":"Serpong","i_lat":-6.319871,"distance":2413,"line":6,"i_long":106.66566,"transit":false,"is_transit":false},{"time":4,"transit":false,"distance":1784,"station_id":"CSK","station_name":"Cisauk","is_transit":false,"i_long":106.640411,"line":3,"i_lat":-6.32484},{"line":3,"time":4,"station_id":"CC","distance":2519,"i_lat":-6.329547,"transit":false,"i_long":106.617853,"station_name":"Cicayur","is_transit":false}],[{"i_lat":-6.209188,"line":11,"transit":false,"station_name":"Pondok Jati","station_id":"POK","distance":0,"i_long":106.861737,"time":0,"is_transit":false},{"station_id":"KMT","distance":1829,"i_long":106.855437,"transit":false,"line":11,"i_lat":-6.193792,"is_transit":false,"station_name":"Kramat","time":2},{"station_id":"GST","time":1,"distance":973,"transit":false,"station_name":"Gang Sentiong","is_transit":false,"i_lat":-6.185975,"i_long":106.850107,"line":11},{"distance":1567,"station_name":"Pasar Senen","time":8,"i_long":106.84368,"station_id":"PSE","line":11,"is_transit":false,"i_lat":-6.174784,"transit":false},{"distance":1436,"station_name":"Kemayoran","station_id":"KMO","i_lat":-6.161728,"i_long":106.839204,"time":4,"transit":false,"line":11,"is_transit":false},{"station_name":"Rajawali","i_long":106.836569,"distance":1901,"transit":false,"line":11,"i_lat":-6.14505,"station_id":"RJW","time":5,"is_transit":false},{"i_lat":-6.132549,"transit":true,"line":4,"station_id":"KPB","time":3,"distance":1444,"station_name":"Kampung Bandan","is_transit":true,"i_long":106.826365},{"station_id":"AK","distance":4102,"time":9,"i_lat":-6.144674,"transit":false,"i_long":106.79867,"line":1,"station_name":"Angke","is_transit":false},{"i_lat":-6.155215,"time":4,"station_name":"Duri","distance":1230,"is_transit":false,"station_id":"DU","line":1,"i_long":106.800832,"transit":false},{"time":8,"station_name":"Tanah Abang","transit":true,"is_transit":true,"station_id":"THB","distance":3632,"i_long":106.811091,"line":1,"i_lat":-6.185545},{"station_name":"Palmerah","station_id":"PLM","time":6,"is_transit":false,"transit":false,"i_lat":-6.207404,"line":6,"distance":3191,"i_long":106.79689},{"time":7,"is_transit":false,"distance":3737,"station_name":"Kebayoran","station_id":"KBY","i_long":106.780334,"line":6,"i_lat":-6.237242,"transit":false},{"distance":6218,"time":8,"i_long":106.74273,"station_id":"PDJ","line":6,"is_transit":false,"station_name":"Pondokranji","transit":false,"i_lat":-6.276362},{"transit":false,"i_long":106.728916,"is_transit":false,"i_lat":-6.288927,"station_name":"Jurangmangu","line":6,"time":3,"distance":2179,"station_id":"JMU"},{"i_lat":-6.296963,"station_id":"SDM","transit":false,"is_transit":false,"station_name":"Sudimara","distance":1994,"line":6,"time":4,"i_long":106.712277},{"station_name":"Rawa Buntu","time":6,"line":6,"station_id":"RU","distance":4566,"transit":false,"is_transit":false,"i_lat":-6.314823,"i_long":106.675475},{"distance":2413,"i_long":106.66566,"station_name":"Serpong","is_transit":false,"i_lat":-6.319871,"time":4,"transit":false,"station_id":"SRP","line":6},{"distance":1784,"i_lat":-6.32484,"is_transit":false,"transit":false,"time":4,"station_id":"CSK","line":3,"station_name":"Cisauk","i_long":106.640411},{"distance":2519,"i_long":106.617853,"line":3,"station_id":"CC","i_lat":-6.329547,"transit":false,"time":4,"station_name":"Cicayur","is_transit":false}],[{"time":0,"distance":0,"line":11,"i_lat":-6.209188,"i_long":106.861737,"station_id":"POK","is_transit":false,"station_name":"Pondok Jati","transit":false},{"transit":true,"time":9,"i_lat":-6.215091,"line":1,"distance":1236,"i_long":106.86807400000001,"is_transit":true,"station_id":"JNG","station_name":"Jatinegara"},{"i_long":106.858896,"time":2,"is_transit":false,"station_id":"MTR","transit":false,"line":1,"distance":1377,"station_name":"Matraman","i_lat":-6.212485},{"station_id":"MRI","is_transit":true,"time":2,"station_name":"Manggarai","i_lat":-6.209883,"line":2,"distance":1275,"i_long":106.84912,"transit":true},{"i_lat":-6.198556,"line":2,"station_name":"Cikini","station_id":"CKI","transit":false,"is_transit":false,"i_long":106.840169,"distance":1590,"time":4},{"time":3,"line":2,"is_transit":false,"i_long":106.832183,"station_name":"Gondangdia","distance":1750,"station_id":"GDD","transit":false,"i_lat":-6.186295},{"i_lat":-6.166716,"time":4,"i_long":106.828284,"line":2,"is_transit":false,"transit":false,"distance":2015,"station_id":"JUA","station_name":"Juanda"},{"i_long":106.827103,"transit":false,"is_transit":false,"time":2,"station_name":"Sawah Besar","line":2,"distance":1149,"station_id":"SW","i_lat":-6.160725},{"station_name":"Manggabesar","distance":906,"station_id":"MGB","i_long":106.82482,"is_transit":false,"i_lat":-6.149769,"line":2,"transit":false,"time":2},{"time":2,"i_long":106.820901,"line":2,"transit":false,"distance":1080,"station_name":"Jayakarta","station_id":"JAY","i_lat":-6.141205,"is_transit":false},{"is_transit":true,"station_name":"Jakarta Kota","i_lat":-6.137569,"transit":true,"line":2,"time":4,"distance":1264,"i_long":106.812439,"station_id":"JAKK"},{"line":4,"is_transit":true,"transit":true,"i_lat":-6.132549,"time":3,"station_name":"Kampung Bandan","i_long":106.826365,"distance":1364,"station_id":"KPB"},{"is_transit":false,"i_long":106.79867,"transit":false,"line":1,"station_id":"AK","distance":4102,"i_lat":-6.144674,"time":9,"station_name":"Angke"},{"i_lat":-6.155215,"transit":false,"distance":1230,"station_id":"DU","line":1,"time":4,"station_name":"Duri","is_transit":false,"i_long":106.800832},{"transit":true,"is_transit":true,"time":8,"distance":3632,"i_long":106.811091,"line":1,"station_name":"Tanah Abang","i_lat":-6.185545,"station_id":"THB"},{"i_long":106.79689,"transit":false,"station_name":"Palmerah","is_transit":false,"time":6,"line":6,"i_lat":-6.207404,"distance":3191,"station_id":"PLM"},{"i_lat":-6.237242,"is_transit":false,"i_long":106.780334,"station_id":"KBY","transit":false,"station_name":"Kebayoran","line":6,"distance":3737,"time":7},{"i_long":106.74273,"station_name":"Pondokranji","distance":6218,"is_transit":false,"transit":false,"i_lat":-6.276362,"line":6,"time":8,"station_id":"PDJ"},{"i_long":106.728916,"i_lat":-6.288927,"line":6,"is_transit":false,"station_id":"JMU","station_name":"Jurangmangu","transit":false,"time":3,"distance":2179},{"line":6,"i_long":106.712277,"time":4,"i_lat":-6.296963,"station_name":"Sudimara","transit":false,"is_transit":false,"distance":1994,"station_id":"SDM"},{"line":6,"transit":false,"is_transit":false,"distance":4566,"i_long":106.675475,"station_id":"RU","time":6,"station_name":"Rawa Buntu","i_lat":-6.314823},{"station_id":"SRP","i_long":106.66566,"is_transit":false,"station_name":"Serpong","transit":false,"distance":2413,"time":4,"i_lat":-6.319871,"line":6},{"station_id":"CSK","time":4,"station_name":"Cisauk","i_long":106.640411,"line":3,"transit":false,"i_lat":-6.32484,"is_transit":false,"distance":1784},{"i_lat":-6.329547,"transit":false,"station_name":"Cicayur","distance":2519,"station_id":"CC","i_long":106.617853,"line":3,"is_transit":false,"time":4}],[{"station_id":"POK","distance":0,"is_transit":false,"transit":false,"time":0,"line":11,"station_name":"Pondok Jati","i_lat":-6.209188,"i_long":106.861737},{"line":11,"time":2,"transit":false,"is_transit":false,"station_id":"KMT","i_lat":-6.193792,"station_name":"Kramat","distance":1829,"i_long":106.855437},{"transit":false,"time":1,"station_name":"Gang Sentiong","station_id":"GST","i_long":106.850107,"line":11,"i_lat":-6.185975,"is_transit":false,"distance":973},{"i_long":106.84368,"distance":1567,"i_lat":-6.174784,"is_transit":false,"line":11,"transit":false,"time":8,"station_name":"Pasar Senen","station_id":"PSE"},{"line":11,"is_transit":false,"time":4,"i_long":106.839204,"station_id":"KMO","transit":false,"distance":1436,"i_lat":-6.161728,"station_name":"Kemayoran"},{"station_id":"RJW","time":5,"i_lat":-6.14505,"is_transit":false,"line":11,"distance":1901,"i_long":106.836569,"transit":false,"station_name":"Rajawali"},{"distance":1444,"transit":true,"station_name":"Kampung Bandan","station_id":"KPB","i_lat":-6.132549,"time":3,"i_long":106.826365,"is_transit":true,"line":4},{"transit":true,"station_id":"JAKK","time":3,"station_name":"Jakarta Kota","distance":1364,"i_lat":-6.137569,"line":2,"i_long":106.812439,"is_transit":true},{"i_lat":-6.141205,"time":4,"station_id":"JAY","distance":1264,"i_long":106.820901,"line":2,"transit":false,"is_transit":false,"station_name":"Jayakarta"},{"line":2,"transit":false,"station_id":"MGB","i_lat":-6.149769,"station_name":"Manggabesar","distance":1080,"time":2,"i_long":106.82482,"is_transit":false},{"i_lat":-6.160725,"is_transit":false,"station_id":"SW","distance":906,"transit":false,"time":2,"station_name":"Sawah Besar","line":2,"i_long":106.827103},{"transit":false,"i_long":106.828284,"is_transit":false,"station_id":"JUA","line":2,"i_lat":-6.166716,"time":2,"distance":1149,"station_name":"Juanda"},{"time":4,"is_transit":false,"station_id":"GDD","distance":2015,"station_name":"Gondangdia","i_long":106.832183,"line":2,"i_lat":-6.186295,"transit":false},{"time":3,"i_long":106.840169,"distance":1750,"is_transit":false,"i_lat":-6.198556,"station_id":"CKI","line":2,"station_name":"Cikini","transit":false},{"i_long":106.84912,"distance":1590,"transit":true,"i_lat":-6.209883,"is_transit":true,"time":4,"line":2,"station_id":"MRI","station_name":"Manggarai"},{"is_transit":false,"transit":false,"distance":3186,"time":4,"station_name":"Sudirman","i_lat":-6.202263,"i_long":106.822649,"station_id":"SUD","line":1},{"is_transit":false,"station_id":"SUDB","i_lat":-6.201433,"station_name":"Sudirman Baru","i_long":106.819881,"distance":280,"line":1,"time":1,"transit":false},{"time":1,"station_name":"Karet","station_id":"KAT","distance":471,"transit":false,"is_transit":false,"line":1,"i_long":106.816351,"i_lat":-6.20132},{"time":5,"i_long":106.811091,"line":1,"transit":true,"station_id":"THB","station_name":"Tanah Abang","distance":2029,"i_lat":-6.185545,"is_transit":true},{"station_id":"PLM","line":6,"i_long":106.79689,"transit":false,"distance":3191,"is_transit":false,"time":6,"station_name":"Palmerah","i_lat":-6.207404},{"transit":false,"is_transit":false,"distance":3737,"time":7,"i_long":106.780334,"line":6,"station_id":"KBY","station_name":"Kebayoran","i_lat":-6.237242},{"line":6,"time":8,"distance":6218,"station_id":"PDJ","transit":false,"i_lat":-6.276362,"i_long":106.74273,"station_name":"Pondokranji","is_transit":false},{"i_lat":-6.288927,"distance":2179,"i_long":106.728916,"line":6,"station_id":"JMU","transit":false,"time":3,"station_name":"Jurangmangu","is_transit":false},{"station_name":"Sudimara","is_transit":false,"station_id":"SDM","distance":1994,"time":4,"i_long":106.712277,"line":6,"transit":false,"i_lat":-6.296963},{"i_long":106.675475,"time":6,"station_name":"Rawa Buntu","is_transit":false,"distance":4566,"transit":false,"line":6,"station_id":"RU","i_lat":-6.314823},{"transit":false,"is_transit":false,"time":4,"station_name":"Serpong","line":6,"i_long":106.66566,"distance":2413,"station_id":"SRP","i_lat":-6.319871},{"station_name":"Cisauk","i_lat":-6.32484,"i_long":106.640411,"line":3,"is_transit":false,"station_id":"CSK","distance":1784,"transit":false,"time":4},{"station_name":"Cicayur","time":4,"transit":false,"i_long":106.617853,"is_transit":false,"station_id":"CC","i_lat":-6.329547,"line":3,"distance":2519}]]}