{"data":[[{"station_id":"POK","i_lat":-6.209188,"transit":false,"i_long":106.861737,"distance":0,"is_transit":false,"station_name":"Pondok Jati","time":0,"line":11},{"station_name":"Jatinegara","distance":1236,"station_id":"JNG","is_transit":true,"transit":true,"line":0,"i_long":106.86807400000001,"time":9,"i_lat":-6.215091},{"distance":1377,"station_name":"Matraman","line":1,"time":2,"i_long":106.858896,"i_lat":-6.212485,"is_transit":false,"station_id":"MTR","transit":false},{"is_transit":true,"line":0,"i_lat":-6.209883,"station_name":"Manggarai","transit":true,"time":2,"station_id":"MRI","distance":1275,"i_long":106.84912},{"station_name":"Cikini","transit":false,"is_transit":false,"line":0,"time":4,"distance":1590,"i_lat":-6.198556,"station_id":"CKI","i_long":106.840169},{"station_name":"Gondangdia","station_id":"GDD","line":2,"is_transit":false,"distance":1750,"i_long":106.832183,"transit":false,"i_lat":-6.186295,"time":3},{"i_long":106.828284,"i_lat":-6.166716,"transit":false,"distance":2015,"station_id":"JUA","station_name":"Juanda","line":2,"time":4,"is_transit":false},{"i_lat":-6.160725,"i_long":106.827103,"distance":1149,"station_name":"Sawah Besar","time":2,"station_id":"SW","line":2,"transit":false,"is_transit":false}],[{"station_name":"Pondok Jati","transit":false,"station_id":"POK","distance":0,"i_lat":-6.209188,"time":0,"i_long":106.861737,"line":11,"is_transit":false},{"station_name":"Kramat","i_lat":-6.193792,"time":2,"line":11,"transit":false,"i_long":106.855437,"is_transit":false,"station_id":"KMT","distance":1829},{"station_name":"Gang Sentiong","line":11,"is_transit":false,"distance":973,"station_id":"GST","i_long":106.850107,"time":1,"i_lat":-6.185975,"transit":false},{"is_transit":false,"time":8,"station_id":"PSE","transit":false,"line":11,"i_long":106.84368,"distance":1567,"i_lat":-6.174784,"station_name":"Pasar Senen"},{"line":11,"i_lat":-6.161728,"distance":1436,"station_id":"KMO","i_long":106.839204,"transit":false,"station_name":"Kemayoran","is_transit":false,"time":4},{"distance":1901,"transit":false,"is_transit":false,"time":5,"i_long":106.836569,"line":11,"station_id":"RJW","i_lat":-6.14505,"station_name":"Rajawali"},{"i_long":106.826365,"station_name":"Kampung Bandan","i_lat":-6.132549,"transit":true,"time":3,"station_id":"KPB","is_transit":true,"line":0,"distance":1444},{"time":3,"station_name":"Jakarta Kota","i_lat":-6.137569,"line":0,"is_transit":true,"i_long":106.812439,"distance":1364,"station_id":"JAKK","transit":true},{"distance":1264,"is_transit":false,"station_id":"JAY","time":4,"i_lat":-6.141205,"i_long":106.820901,"line":7,"station_name":"Jayakarta","transit":false},{"distance":1080,"is_transit":false,"time":2,"station_id":"MGB","station_name":"Manggabesar","transit":false,"i_lat":-6.149769,"line":2,"i_long":106.82482},{"time":2,"i_lat":-6.160725,"distance":906,"is_transit":false,"station_id":"SW","station_name":"Sawah Besar","i_long":106.827103,"transit":false,"line":2}],[{"station_id":"POK","transit":false,"time":0,"line":11,"distance":0,"i_long":106.861737,"i_lat":-6.209188,"station_name":"Pondok Jati","is_transit":false},{"distance":1236,"station_id":"JNG","transit":true,"station_name":"Jatinegara","time":9,"line":0,"i_lat":-6.215091,"i_long":106.86807400000001,"is_transit":true},{"transit":false,"i_long":106.858896,"line":1,"distance":1377,"i_lat":-6.212485,"station_name":"Matraman","station_id":"MTR","is_transit":false,"time":2},{"i_long":106.84912,"i_lat":-6.209883,"is_transit":true,"line":0,"transit":false,"station_name":"Manggarai","station_id":"MRI","time":2,"distance":1275},{"station_id":"SUD","transit":false,"is_transit":false,"line":1,"distance":3186,"i_lat":-6.202263,"time":4,"i_long":106.822649,"station_name":"Sudirman"},{"i_long":106.819881,"time":1,"is_transit":false,"i_lat":-6.201433,"line":1,"station_name":"Sudirman Baru","distance":280,"station_id":"SUDB","transit":false},{"time":1,"line":1,"station_id":"KAT","i_lat":-6.20132,"i_long":106.816351,"distance":471,"is_transit":false,"station_name":"Karet","transit":false},{"station_id":"THB","i_long":106.811091,"station_name":"Tanah Abang","distance":2029,"time":5,"transit":false,"line":1,"i_lat":-6.185545,"is_transit":true},{"i_long":106.800832,"station_id":"DU","is_transit":true,"i_lat":-6.155215,"line":1,"transit":true,"time":8,"distance":3632,"station_name":"Duri"},{"distance":1230,"i_lat":-6.144674,"line":0,"transit":false,"station_name":"Angke","station_id":"AK","time":4,"is_transit":false,"i_long":106.79867},{"is_transit":true,"line":0,"time":9,"distance":4102,"station_name":"Kampung Bandan","i_lat":-6.132549,"i_long":106.826365,"transit":false,"station_id":"KPB"},{"time":3,"i_long":106.812439,"is_transit":true,"station_name":"Jakarta Kota","transit":true,"i_lat":-6.137569,"line":0,"station_id":"JAKK","distance":1364},{"line":7,"i_long":106.820901,"time":4,"distance":1264,"transit":false,"i_lat":-6.141205,"is_transit":false,"station_id":"JAY","station_name":"Jayakarta"},{"station_name":"Manggabesar","distance":1080,"time":2,"station_id":"MGB","transit":false,"line":2,"i_long":106.82482,"is_transit":false,"i_lat":-6.149769},{"station_name":"Sawah Besar","is_transit":false,"station_id":"SW","i_long":106.827103,"line":2,"distance":906,"i_lat":-6.160725,"transit":false,"time":2}],[{"time":0,"station_name":"Pondok Jati","distance":0,"is_transit":false,"station_id":"POK","line":11,"transit":false,"i_lat":-6.209188,"i_long":106.861737},{"distance":1829,"station_id":"KMT","station_name":"Kramat","is_transit":false,"i_lat":-6.193792,"i_long":106.855437,"line":11,"transit":false,"time":2},{"is_transit":false,"station_name":"Gang Sentiong","time":1,"line":11,"distance":973,"station_id":"GST","transit":false,"i_lat":-6.185975,"i_long":106.850107},{"is_transit":false,"transit":false,"time":8,"line":11,"distance":1567,"station_name":"Pasar Senen","station_id":"PSE","i_lat":-6.174784,"i_long":106.84368},{"station_id":"KMO","i_lat":-6.161728,"time":4,"transit":false,"distance":1436,"line":11,"is_transit":false,"i_long":106.839204,"station_name":"Kemayoran"},{"station_id":"RJW","distance":1901,"i_long":106.836569,"is_transit":false,"i_lat":-6.14505,"line":11,"time":5,"transit":false,"station_name":"Rajawali"},{"i_long":106.826365,"time":3,"i_lat":-6.132549,"transit":true,"station_name":"Kampung Bandan","is_transit":true,"distance":1444,"station_id":"KPB","line":0},{"station_name":"Angke","line":0,"distance":4102,"i_lat":-6.144674,"station_id":"AK","is_transit":false,"transit":false,"i_long":106.79867,"time":9},{"station_id":"DU","station_name":"Duri","transit":true,"time":4,"is_transit":true,"i_long":106.800832,"distance":1230,"i_lat":-6.155215,"line":1},{"is_transit":true,"time":8,"transit":false,"i_long":106.811091,"station_name":"Tanah Abang","station_id":"THB","distance":3632,"i_lat":-6.185545,"line":1},{"station_name":"Karet","time":5,"i_lat":-6.20132,"transit":false,"line":1,"i_long":106.816351,"distance":2029,"station_id":"KAT","is_transit":false},{"i_long":106.819881,"distance":471,"station_id":"SUDB","transit":false,"station_name":"Sudirman Baru","line":1,"is_transit":false,"i_lat":-6.201433,"time":1},{"i_long":106.822649,"line":1,"distance":280,"station_name":"Sudirman","time":1,"is_transit":false,"transit":false,"station_id":"SUD","i_lat":-6.202263},{"i_long":106.84912,"time":4,"station_name":"Manggarai","is_transit":true,"line":0,"i_lat":-6.209883,"distance":3186,"station_id":"MRI","transit":true},{"i_long":106.840169,"station_name":"Cikini","transit":false,"line":0,"is_transit":false,"i_lat":-6.198556,"station_id":"CKI","distance":1590,"time":4},{"transit":false,"time":3,"station_name":"Gondangdia","i_lat":-6.186295,"i_long":106.832183,"line":2,"distance":1750,"station_id":"GDD","is_transit":false},{"line":2,"time":4,"distance":2015,"is_transit":false,"station_name":"Juanda","station_id":"JUA","transit":false,"i_lat":-6.166716,"i_long":106.828284},{"distance":1149,"station_name":"Sawah Besar","i_lat":-6.160725,"is_transit":false,"transit":false,"station_id":"SW","time":2,"line":2,"i_long":106.827103}]]}