{"data":[[{"transit":false,"time":0,"station_id":"POK","line":11,"station_name":"Pondok Jati","distance":0,"i_lat":-6.209188,"is_transit":false,"i_long":106.861737},{"is_transit":true,"time":9,"line":1,"station_name":"Jatinegara","transit":true,"station_id":"JNG","i_long":106.86807400000001,"distance":1236,"i_lat":-6.215091},{"line":1,"transit":false,"is_transit":false,"time":2,"station_name":"Matraman","station_id":"MTR","i_long":106.858896,"i_lat":-6.212485,"distance":1377},{"i_lat":-6.209883,"i_long":106.84912,"station_name":"Manggarai","line":2,"transit":true,"station_id":"MRI","time":2,"distance":1275,"is_transit":true},{"is_transit":false,"transit":false,"time":4,"i_lat":-6.226659,"line":2,"station_name":"Tebet","station_id":"TEB","i_long":106.857948,"distance":2610},{"is_transit":false,"time":2,"i_long":106.856607,"transit":false,"station_id":"CW","line":2,"i_lat":-6.242512,"station_name":"Cawang","distance":1230},{"distance":1546,"station_name":"Duren Kalibata","transit":false,"station_id":"DRN","i_lat":-6.255332,"i_long":106.85449,"line":2,"is_transit":false,"time":3},{"transit":false,"distance":824,"is_transit":false,"station_id":"PSMB","i_long":106.851577,"line":2,"i_lat":-6.263214,"time":2,"station_name":"Pasar Minggu Baru"},{"station_name":"Pasar Minggu","distance":2380,"is_transit":false,"transit":false,"time":2,"station_id":"PSM","line":2,"i_long":106.843999,"i_lat":-6.2842400000000005},{"station_id":"TNT","i_long":106.838896,"is_transit":false,"time":4,"distance":2820,"i_lat":-6.3080680000000005,"line":2,"transit":false,"station_name":"Tanjung Barat"},{"line":2,"station_name":"Lenteng Agung","time":3,"is_transit":false,"i_lat":-6.330363,"distance":2671,"i_long":106.832616,"station_id":"LNA","transit":false},{"i_long":106.834175,"transit":false,"is_transit":false,"time":2,"station_name":"Univ. Pancasila","i_lat":-6.339291,"line":2,"distance":1029,"station_id":"UP"},{"station_id":"UI","distance":2264,"i_lat":-6.360749,"transit":false,"time":3,"is_transit":false,"station_name":"Univ. Indonesia","i_long":106.831474,"line":2},{"transit":false,"station_name":"Pondok Cina","distance":1109,"i_long":106.831114,"line":2,"station_id":"POC","time":2,"i_lat":-6.369073,"is_transit":false},{"station_id":"DPB","i_lat":-6.391065,"i_long":106.819451,"is_transit":false,"transit":false,"line":2,"distance":2727,"station_name":"Depokbaru","time":4},{"i_long":106.816926,"line":2,"transit":false,"station_name":"Depok","is_transit":false,"distance":1584,"i_lat":-6.405256,"time":3,"station_id":"DP"},{"distance":5084,"i_long":106.800298,"station_name":"Citayam","is_transit":true,"time":6,"i_lat":-6.448811,"station_id":"CTA","line":2,"transit":true},{"station_name":"Pondok Rajeg","is_transit":false,"time":0,"station_id":"PDRG","i_lat":-6.460735,"distance":0,"i_long":106.824374,"transit":false,"line":21},{"i_long":106.851978,"is_transit":false,"time":0,"station_name":"Cibinong","line":21,"distance":0,"transit":false,"station_id":"CBN","i_lat":-6.46424},{"time":10,"station_id":"NMO","line":21,"i_lat":-6.466285,"is_transit":false,"transit":false,"distance":6527,"i_long":106.905196,"station_name":"Nambo"}],[{"i_long":106.861737,"is_transit":false,"i_lat":-6.209188,"time":0,"distance":0,"line":11,"transit":false,"station_name":"Pondok Jati","station_id":"POK"},{"station_id":"KMT","time":2,"distance":1829,"station_name":"Kramat","line":11,"transit":false,"is_transit":false,"i_lat":-6.193792,"i_long":106.855437},{"i_lat":-6.185975,"transit":false,"station_name":"Gang Sentiong","i_long":106.850107,"time":1,"distance":973,"station_id":"GST","is_transit":false,"line":11},{"transit":false,"time":8,"line":11,"i_long":106.84368,"station_name":"Pasar Senen","is_transit":false,"station_id":"PSE","i_lat":-6.174784,"distance":1567},{"transit":false,"is_transit":false,"i_lat":-6.161728,"i_long":106.839204,"station_name":"Kemayoran","station_id":"KMO","time":4,"distance":1436,"line":11},{"i_lat":-6.14505,"i_long":106.836569,"line":11,"station_id":"RJW","transit":false,"station_name":"Rajawali","time":5,"is_transit":false,"distance":1901},{"station_id":"KPB","transit":true,"station_name":"Kampung Bandan","time":3,"i_lat":-6.132549,"i_long":106.826365,"distance":1444,"is_transit":true,"line":4},{"i_lat":-6.144674,"transit":false,"station_id":"AK","i_long":106.79867,"is_transit":false,"time":9,"line":1,"distance":4102,"station_name":"Angke"},{"distance":1230,"station_name":"Duri","is_transit":false,"station_id":"DU","i_long":106.800832,"line":1,"transit":false,"i_lat":-6.155215,"time":4},{"station_name":"Tanah Abang","distance":3632,"is_transit":false,"transit":false,"time":8,"i_lat":-6.185545,"i_long":106.811091,"station_id":"THB","line":1},{"line":1,"time":5,"station_name":"Karet","transit":false,"distance":2029,"station_id":"KAT","i_lat":-6.20132,"is_transit":false,"i_long":106.816351},{"i_long":106.819881,"time":1,"transit":false,"i_lat":-6.201433,"station_name":"Sudirman Baru","is_transit":false,"line":1,"station_id":"SUDB","distance":471},{"distance":280,"transit":false,"i_long":106.822649,"i_lat":-6.202263,"line":1,"station_name":"Sudirman","is_transit":false,"station_id":"SUD","time":1},{"i_long":106.84912,"station_name":"Manggarai","is_transit":true,"distance":3186,"i_lat":-6.209883,"transit":true,"time":4,"station_id":"MRI","line":2},{"line":2,"station_name":"Tebet","time":4,"i_lat":-6.226659,"distance":2610,"i_long":106.857948,"station_id":"TEB","transit":false,"is_transit":false},{"i_lat":-6.242512,"time":2,"i_long":106.856607,"distance":1230,"station_name":"Cawang","is_transit":false,"line":2,"station_id":"CW","transit":false},{"distance":1546,"station_name":"Duren Kalibata","time":3,"i_long":106.85449,"transit":false,"is_transit":false,"line":2,"i_lat":-6.255332,"station_id":"DRN"},{"time":2,"line":2,"i_long":106.851577,"distance":824,"i_lat":-6.263214,"station_name":"Pasar Minggu Baru","is_transit":false,"station_id":"PSMB","transit":false},{"is_transit":false,"distance":2380,"station_id":"PSM","i_long":106.843999,"line":2,"station_name":"Pasar Minggu","time":2,"i_lat":-6.2842400000000005,"transit":false},{"station_id":"TNT","i_long":106.838896,"time":4,"distance":2820,"i_lat":-6.3080680000000005,"is_transit":false,"line":2,"station_name":"Tanjung Barat","transit":false},{"station_id":"LNA","i_lat":-6.330363,"i_long":106.832616,"transit":false,"station_name":"Lenteng Agung","line":2,"is_transit":false,"distance":2671,"time":3},{"station_id":"UP","is_transit":false,"i_long":106.834175,"line":2,"station_name":"Univ. Pancasila","transit":false,"time":2,"distance":1029,"i_lat":-6.339291},{"station_name":"Univ. Indonesia","distance":2264,"time":3,"station_id":"UI","i_long":106.831474,"i_lat":-6.360749,"line":2,"transit":false,"is_transit":false},{"i_lat":-6.369073,"i_long":106.831114,"station_name":"Pondok Cina","station_id":"POC","line":2,"transit":false,"is_transit":false,"time":2,"distance":1109},{"transit":false,"is_transit":false,"i_long":106.819451,"distance":2727,"line":2,"station_name":"Depokbaru","time":4,"station_id":"DPB","i_lat":-6.391065},{"line":2,"station_id":"DP","i_long":106.816926,"i_lat":-6.405256,"is_transit":false,"transit":false,"distance":1584,"time":3,"station_name":"Depok"},{"is_transit":true,"distance":5084,"station_id":"CTA","line":2,"station_name":"Citayam","i_lat":-6.448811,"time":6,"i_long":106.800298,"transit":true},{"is_transit":false,"transit":false,"distance":0,"i_long":106.824374,"station_id":"PDRG","station_name":"Pondok Rajeg","line":21,"time":0,"i_lat":-6.460735},{"station_name":"Cibinong","transit":false,"i_long":106.851978,"time":0,"line":21,"distance":0,"station_id":"CBN","i_lat":-6.46424,"is_transit":false},{"station_id":"NMO","i_lat":-6.466285,"station_name":"Nambo","time":10,"is_transit":false,"transit":false,"distance":6527,"i_long":106.905196,"line":21}],[{"station_id":"POK","time":0,"transit":false,"line":11,"station_name":"Pondok Jati","is_transit":false,"distance":0,"i_lat":-6.209188,"i_long":106.861737},{"station_id":"KMT","i_long":106.855437,"line":11,"transit":false,"distance":1829,"time":2,"i_lat":-6.193792,"is_transit":false,"station_name":"Kramat"},{"is_transit":false,"i_long":106.850107,"line":11,"station_name":"Gang Sentiong","time":1,"transit":false,"distance":973,"station_id":"GST","i_lat":-6.185975},{"is_transit":false,"transit":false,"time":8,"i_long":106.84368,"distance":1567,"station_name":"Pasar Senen","line":11,"i_lat":-6.174784,"station_id":"PSE"},{"transit":false,"i_lat":-6.161728,"time":4,"distance":1436,"station_name":"Kemayoran","i_long":106.839204,"line":11,"is_transit":false,"station_id":"KMO"},{"time":5,"i_long":106.836569,"transit":false,"distance":1901,"station_name":"Rajawali","station_id":"RJW","line":11,"i_lat":-6.14505,"is_transit":false},{"is_transit":true,"distance":1444,"line":4,"transit":true,"time":3,"i_long":106.826365,"station_name":"Kampung Bandan","station_id":"KPB","i_lat":-6.132549},{"transit":true,"time":3,"station_name":"Jakarta Kota","distance":1364,"station_id":"JAKK","i_long":106.812439,"is_transit":true,"i_lat":-6.137569,"line":2},{"line":2,"distance":1264,"transit":false,"station_id":"JAY","time":4,"i_lat":-6.141205,"is_transit":false,"i_long":106.820901,"station_name":"Jayakarta"},{"transit":false,"is_transit":false,"time":2,"distance":1080,"station_id":"MGB","station_name":"Manggabesar","i_long":106.82482,"i_lat":-6.149769,"line":2},{"transit":false,"i_lat":-6.160725,"station_name":"Sawah Besar","line":2,"time":2,"i_long":106.827103,"distance":906,"is_transit":false,"station_id":"SW"},{"time":2,"station_name":"Juanda","distance":1149,"i_long":106.828284,"is_transit":false,"i_lat":-6.166716,"transit":false,"line":2,"station_id":"JUA"},{"station_name":"Gondangdia","is_transit":false,"distance":2015,"time":4,"station_id":"GDD","transit":false,"i_long":106.832183,"line":2,"i_lat":-6.186295},{"i_lat":-6.198556,"is_transit":false,"time":3,"i_long":106.840169,"station_name":"Cikini","line":2,"station_id":"CKI","transit":false,"distance":1750},{"line":2,"is_transit":false,"station_id":"MRI","time":4,"transit":false,"distance":1590,"i_lat":-6.209883,"station_name":"Manggarai","i_long":106.84912},{"is_transit":false,"station_name":"Tebet","station_id":"TEB","distance":2610,"i_lat":-6.226659,"transit":false,"i_long":106.857948,"time":4,"line":2},{"station_name":"Cawang","is_transit":false,"time":2,"transit":false,"distance":1230,"i_lat":-6.242512,"line":2,"station_id":"CW","i_long":106.856607},{"line":2,"transit":false,"distance":1546,"i_lat":-6.255332,"station_id":"DRN","time":3,"is_transit":false,"station_name":"Duren Kalibata","i_long":106.85449},{"distance":824,"is_transit":false,"i_long":106.851577,"time":2,"station_name":"Pasar Minggu Baru","station_id":"PSMB","transit":false,"i_lat":-6.263214,"line":2},{"i_lat":-6.2842400000000005,"time":2,"line":2,"is_transit":false,"station_id":"PSM","i_long":106.843999,"station_name":"Pasar Minggu","transit":false,"distance":2380},{"distance":2820,"line":2,"station_name":"Tanjung Barat","i_lat":-6.3080680000000005,"station_id":"TNT","time":4,"is_transit":false,"i_long":106.838896,"transit":false},{"i_long":106.832616,"station_id":"LNA","distance":2671,"station_name":"Lenteng Agung","time":3,"is_transit":false,"i_lat":-6.330363,"line":2,"transit":false},{"distance":1029,"is_transit":false,"i_lat":-6.339291,"station_id":"UP","time":2,"station_name":"Univ. Pancasila","line":2,"transit":false,"i_long":106.834175},{"station_name":"Univ. Indonesia","i_lat":-6.360749,"is_transit":false,"distance":2264,"station_id":"UI","time":3,"line":2,"transit":false,"i_long":106.831474},{"i_long":106.831114,"i_lat":-6.369073,"station_id":"POC","station_name":"Pondok Cina","transit":false,"distance":1109,"line":2,"time":2,"is_transit":false},{"station_id":"DPB","station_name":"Depokbaru","is_transit":false,"i_lat":-6.391065,"time":4,"distance":2727,"i_long":106.819451,"line":2,"transit":false},{"station_name":"Depok","transit":false,"i_long":106.816926,"distance":1584,"station_id":"DP","is_transit":false,"line":2,"i_lat":-6.405256,"time":3},{"is_transit":true,"transit":true,"time":6,"distance":5084,"station_id":"CTA","station_name":"Citayam","i_long":106.800298,"line":2,"i_lat":-6.448811},{"transit":false,"time":0,"distance":0,"station_name":"Pondok Rajeg","i_lat":-6.460735,"line":21,"station_id":"PDRG","i_long":106.824374,"is_transit":false},{"transit":false,"station_name":"Cibinong","station_id":"CBN","distance":0,"is_transit":false,"i_lat":-6.46424,"line":21,"time":0,"i_long":106.851978},{"line":21,"time":10,"i_long":106.905196,"station_name":"Nambo","station_id":"NMO","distance":6527,"is_transit":false,"i_lat":-6.466285,"transit":false}]]}