{"data":[[{"distance":0,"station_name":"Pondok Jati","i_long":106.861737,"line":11,"station_id":"POK","time":0,"is_transit":false,"i_lat":-6.209188,"transit":false},{"is_transit":true,"time":9,"i_lat":-6.215091,"station_id":"JNG","i_long":106.86807400000001,"distance":1236,"line":1,"transit":true,"station_name":"Jatinegara"},{"is_transit":false,"transit":false,"time":3,"i_long":106.899548,"station_id":"KLD","i_lat":-6.2135,"distance":3395,"line":1,"station_name":"Klender"},{"i_lat":-6.215568,"line":1,"station_name":"Buaran","i_long":106.922662,"is_transit":false,"time":2,"distance":3100,"station_id":"BUA","transit":false},{"station_id":"KLDB","i_lat":-6.217455,"is_transit":false,"transit":false,"station_name":"Klenderbaru","distance":1305,"line":1,"time":1,"i_long":106.939679},{"line":1,"station_name":"Cakung","i_lat":-6.219053,"transit":false,"distance":1385,"time":8,"station_id":"CUK","is_transit":false,"i_long":106.951283},{"i_lat":-6.224515,"distance":3097,"transit":false,"station_name":"Kranji","i_long":106.977657,"is_transit":false,"line":1,"station_id":"KRI","time":3},{"distance":2520,"station_name":"Bekasi","station_id":"BKS","is_transit":false,"i_lat":-6.236616,"i_long":106.997013,"line":1,"transit":false,"time":4},{"i_lat":-6.248029,"i_long":107.016735,"distance":2368,"station_name":"Bekasi Timur","transit":false,"station_id":"BKST","time":2,"is_transit":false,"line":1},{"station_id":"TB","transit":false,"time":7,"distance":4460,"station_name":"Tambun","is_transit":false,"i_long":107.055722,"line":1,"i_lat":-6.258864},{"time":3,"i_long":107.083084,"i_lat":-6.261877,"is_transit":false,"distance":3420,"station_name":"Cibitung","line":1,"station_id":"CIT","transit":false}],[{"station_id":"POK","line":11,"i_lat":-6.209188,"time":0,"distance":0,"station_name":"Pondok Jati","i_long":106.861737,"transit":false,"is_transit":false},{"station_name":"Kramat","is_transit":false,"time":2,"station_id":"KMT","transit":false,"i_lat":-6.193792,"i_long":106.855437,"line":11,"distance":1829},{"is_transit":false,"line":11,"time":1,"station_name":"Gang Sentiong","i_long":106.850107,"transit":false,"distance":973,"i_lat":-6.185975,"station_id":"GST"},{"station_name":"Pasar Senen","i_lat":-6.174784,"distance":1567,"is_transit":false,"i_long":106.84368,"station_id":"PSE","line":11,"transit":false,"time":8},{"i_long":106.839204,"transit":false,"line":11,"i_lat":-6.161728,"distance":1436,"is_transit":false,"station_name":"Kemayoran","station_id":"KMO","time":4},{"station_name":"Rajawali","is_transit":false,"time":5,"i_lat":-6.14505,"transit":false,"distance":1901,"i_long":106.836569,"line":11,"station_id":"RJW"},{"distance":1444,"transit":true,"time":3,"line":4,"i_lat":-6.132549,"is_transit":true,"i_long":106.826365,"station_name":"Kampung Bandan","station_id":"KPB"},{"time":9,"i_long":106.79867,"i_lat":-6.144674,"is_transit":false,"distance":4102,"station_name":"Angke","station_id":"AK","line":1,"transit":false},{"i_lat":-6.155215,"station_name":"Duri","time":4,"is_transit":false,"transit":false,"i_long":106.800832,"station_id":"DU","line":1,"distance":1230},{"line":1,"i_lat":-6.185545,"station_name":"Tanah Abang","transit":false,"station_id":"THB","is_transit":false,"i_long":106.811091,"distance":3632,"time":8},{"transit":false,"i_lat":-6.20132,"distance":2029,"station_id":"KAT","i_long":106.816351,"line":1,"time":5,"is_transit":false,"station_name":"Karet"},{"station_id":"SUDB","distance":471,"line":1,"i_lat":-6.201433,"transit":false,"time":1,"station_name":"Sudirman Baru","i_long":106.819881,"is_transit":false},{"is_transit":false,"time":1,"transit":false,"station_name":"Sudirman","i_long":106.822649,"distance":280,"station_id":"SUD","i_lat":-6.202263,"line":1},{"time":4,"is_transit":false,"station_id":"MRI","distance":3186,"i_long":106.84912,"station_name":"Manggarai","transit":false,"i_lat":-6.209883,"line":2},{"time":2,"i_long":106.858896,"line":1,"is_transit":false,"i_lat":-6.212485,"distance":1275,"station_name":"Matraman","transit":false,"station_id":"MTR"},{"transit":false,"time":8,"is_transit":false,"i_lat":-6.215091,"station_name":"Jatinegara","station_id":"JNG","i_long":106.86807400000001,"distance":1377,"line":1},{"i_long":106.899548,"line":1,"station_id":"KLD","transit":false,"time":3,"distance":3395,"station_name":"Klender","is_transit":false,"i_lat":-6.2135},{"distance":3100,"station_name":"Buaran","i_lat":-6.215568,"station_id":"BUA","is_transit":false,"transit":false,"time":2,"i_long":106.922662,"line":1},{"time":1,"distance":1305,"i_long":106.939679,"is_transit":false,"i_lat":-6.217455,"transit":false,"station_id":"KLDB","station_name":"Klenderbaru","line":1},{"distance":1385,"time":8,"i_lat":-6.219053,"i_long":106.951283,"is_transit":false,"transit":false,"station_name":"Cakung","line":1,"station_id":"CUK"},{"line":1,"distance":3097,"transit":false,"is_transit":false,"station_id":"KRI","time":3,"i_lat":-6.224515,"i_long":106.977657,"station_name":"Kranji"},{"transit":false,"station_id":"BKS","distance":2520,"i_lat":-6.236616,"is_transit":false,"time":4,"station_name":"Bekasi","i_long":106.997013,"line":1},{"station_id":"BKST","is_transit":false,"i_lat":-6.248029,"line":1,"i_long":107.016735,"distance":2368,"transit":false,"station_name":"Bekasi Timur","time":2},{"i_long":107.055722,"distance":4460,"i_lat":-6.258864,"station_name":"Tambun","transit":false,"line":1,"station_id":"TB","time":7,"is_transit":false},{"i_long":107.083084,"line":1,"i_lat":-6.261877,"transit":false,"time":3,"station_name":"Cibitung","station_id":"CIT","distance":3420,"is_transit":false}],[{"is_transit":false,"line":11,"i_lat":-6.209188,"time":0,"distance":0,"station_name":"Pondok Jati","transit":false,"i_long":106.861737,"station_id":"POK"},{"transit":false,"line":11,"is_transit":false,"distance":1829,"i_lat":-6.193792,"station_name":"Kramat","station_id":"KMT","time":2,"i_long":106.855437},{"station_name":"Gang Sentiong","transit":false,"i_long":106.850107,"station_id":"GST","time":1,"is_transit":false,"i_lat":-6.185975,"line":11,"distance":973},{"station_id":"PSE","station_name":"Pasar Senen","i_lat":-6.174784,"i_long":106.84368,"time":8,"is_transit":false,"line":11,"transit":false,"distance":1567},{"station_name":"Kemayoran","line":11,"i_lat":-6.161728,"is_transit":false,"i_long":106.839204,"time":4,"transit":false,"distance":1436,"station_id":"KMO"},{"station_name":"Rajawali","line":11,"distance":1901,"time":5,"transit":false,"station_id":"RJW","is_transit":false,"i_long":106.836569,"i_lat":-6.14505},{"line":4,"station_id":"KPB","is_transit":true,"transit":true,"time":3,"i_long":106.826365,"station_name":"Kampung Bandan","distance":1444,"i_lat":-6.132549},{"station_id":"JAKK","distance":1364,"line":2,"i_lat":-6.137569,"transit":true,"i_long":106.812439,"is_transit":true,"station_name":"Jakarta Kota","time":3},{"transit":false,"line":2,"is_transit":false,"i_lat":-6.141205,"time":4,"station_name":"Jayakarta","station_id":"JAY","distance":1264,"i_long":106.820901},{"line":2,"time":2,"station_name":"Manggabesar","i_lat":-6.149769,"distance":1080,"transit":false,"i_long":106.82482,"is_transit":false,"station_id":"MGB"},{"is_transit":false,"station_id":"SW","line":2,"i_lat":-6.160725,"distance":906,"i_long":106.827103,"transit":false,"time":2,"station_name":"Sawah Besar"},{"station_id":"JUA","time":2,"i_lat":-6.166716,"is_transit":false,"distance":1149,"line":2,"i_long":106.828284,"transit":false,"station_name":"Juanda"},{"i_long":106.832183,"line":2,"time":4,"station_name":"Gondangdia","i_lat":-6.186295,"station_id":"GDD","is_transit":false,"transit":false,"distance":2015},{"i_long":106.840169,"distance":1750,"station_name":"Cikini","station_id":"CKI","transit":false,"is_transit":false,"time":3,"i_lat":-6.198556,"line":2},{"is_transit":true,"transit":true,"distance":1590,"station_name":"Manggarai","i_long":106.84912,"station_id":"MRI","time":4,"line":2,"i_lat":-6.209883},{"distance":1275,"line":1,"station_name":"Matraman","i_lat":-6.212485,"station_id":"MTR","time":2,"is_transit":false,"transit":false,"i_long":106.858896},{"station_name":"Jatinegara","line":1,"i_long":106.86807400000001,"transit":false,"distance":1377,"station_id":"JNG","is_transit":false,"i_lat":-6.215091,"time":8},{"is_transit":false,"transit":false,"station_name":"Klender","i_lat":-6.2135,"distance":3395,"line":1,"time":3,"station_id":"KLD","i_long":106.899548},{"distance":3100,"is_transit":false,"transit":false,"line":1,"i_lat":-6.215568,"station_id":"BUA","time":2,"station_name":"Buaran","i_long":106.922662},{"station_id":"KLDB","distance":1305,"is_transit":false,"time":1,"station_name":"Klenderbaru","i_lat":-6.217455,"transit":false,"line":1,"i_long":106.939679},{"is_transit":false,"station_name":"Cakung","i_lat":-6.219053,"station_id":"CUK","transit":false,"distance":1385,"line":1,"i_long":106.951283,"time":8},{"distance":3097,"station_id":"KRI","line":1,"time":3,"transit":false,"station_name":"Kranji","i_long":106.977657,"is_transit":false,"i_lat":-6.224515},{"distance":2520,"time":4,"station_name":"Bekasi","i_long":106.997013,"i_lat":-6.236616,"station_id":"BKS","is_transit":false,"line":1,"transit":false},{"i_long":107.016735,"line":1,"i_lat":-6.248029,"distance":2368,"time":2,"station_name":"Bekasi Timur","is_transit":false,"transit":false,"station_id":"BKST"},{"time":7,"i_long":107.055722,"i_lat":-6.258864,"is_transit":false,"transit":false,"station_id":"TB","distance":4460,"station_name":"Tambun","line":1},{"transit":false,"distance":3420,"station_id":"CIT","is_transit":false,"i_long":107.083084,"time":3,"i_lat":-6.261877,"line":1,"station_name":"Cibitung"}]]}