{"data":[[{"transit":false,"distance":0,"station_name":"Pondok Jati","is_transit":false,"time":0,"line":11,"station_id":"POK","i_lat":-6.209188,"i_long":106.861737},{"i_long":106.86807400000001,"is_transit":true,"distance":1236,"i_lat":-6.215091,"time":9,"station_id":"JNG","line":1,"transit":true,"station_name":"Jatinegara"},{"station_id":"MTR","time":2,"transit":false,"station_name":"Matraman","line":1,"i_long":106.858896,"distance":1377,"is_transit":false,"i_lat":-6.212485},{"i_lat":-6.209883,"line":2,"station_name":"Manggarai","distance":1275,"i_long":106.84912,"is_transit":false,"transit":false,"station_id":"MRI","time":2},{"is_transit":false,"station_name":"Sudirman","line":1,"distance":3186,"i_long":106.822649,"transit":false,"time":4,"i_lat":-6.202263,"station_id":"SUD"},{"station_id":"SUDB","transit":false,"station_name":"Sudirman Baru","i_lat":-6.201433,"line":1,"i_long":106.819881,"is_transit":false,"time":1,"distance":280},{"is_transit":false,"transit":false,"station_name":"Karet","i_long":106.816351,"i_lat":-6.20132,"line":1,"station_id":"KAT","distance":471,"time":1},{"station_name":"Tanah Abang","time":5,"line":1,"transit":true,"is_transit":true,"station_id":"THB","i_lat":-6.185545,"i_long":106.811091,"distance":2029},{"i_lat":-6.207404,"i_long":106.79689,"station_id":"PLM","is_transit":false,"station_name":"Palmerah","distance":3191,"line":6,"transit":false,"time":6},{"i_long":106.780334,"line":6,"station_name":"Kebayoran","transit":false,"distance":3737,"station_id":"KBY","is_transit":false,"time":7,"i_lat":-6.237242},{"time":8,"line":6,"transit":false,"distance":6218,"station_id":"PDJ","i_long":106.74273,"is_transit":false,"station_name":"Pondokranji","i_lat":-6.276362},{"is_transit":false,"station_name":"Jurangmangu","station_id":"JMU","i_lat":-6.288927,"line":6,"time":3,"i_long":106.728916,"distance":2179,"transit":false},{"i_long":106.712277,"time":4,"transit":false,"distance":1994,"is_transit":false,"i_lat":-6.296963,"station_name":"Sudimara","line":6,"station_id":"SDM"},{"i_long":106.675475,"time":6,"transit":false,"i_lat":-6.314823,"line":6,"is_transit":false,"station_id":"RU","distance":4566,"station_name":"Rawa Buntu"}],[{"time":0,"station_id":"POK","is_transit":false,"station_name":"Pondok Jati","distance":0,"i_lat":-6.209188,"i_long":106.861737,"transit":false,"line":11},{"transit":false,"station_id":"KMT","station_name":"Kramat","i_lat":-6.193792,"distance":1829,"i_long":106.855437,"time":2,"is_transit":false,"line":11},{"distance":973,"i_lat":-6.185975,"i_long":106.850107,"station_id":"GST","line":11,"is_transit":false,"time":1,"station_name":"Gang Sentiong","transit":false},{"transit":false,"line":11,"station_id":"PSE","distance":1567,"is_transit":false,"i_lat":-6.174784,"i_long":106.84368,"time":8,"station_name":"Pasar Senen"},{"distance":1436,"is_transit":false,"i_lat":-6.161728,"line":11,"station_id":"KMO","i_long":106.839204,"station_name":"Kemayoran","transit":false,"time":4},{"distance":1901,"i_long":106.836569,"transit":false,"is_transit":false,"station_id":"RJW","line":11,"time":5,"i_lat":-6.14505,"station_name":"Rajawali"},{"line":4,"is_transit":true,"station_name":"Kampung Bandan","time":3,"station_id":"KPB","i_long":106.826365,"transit":true,"i_lat":-6.132549,"distance":1444},{"distance":4102,"i_long":106.79867,"line":1,"i_lat":-6.144674,"station_name":"Angke","time":9,"transit":false,"station_id":"AK","is_transit":false},{"station_name":"Duri","station_id":"DU","is_transit":false,"i_long":106.800832,"time":4,"distance":1230,"line":1,"transit":false,"i_lat":-6.155215},{"station_id":"THB","is_transit":true,"station_name":"Tanah Abang","distance":3632,"i_lat":-6.185545,"line":1,"time":8,"transit":true,"i_long":106.811091},{"line":6,"time":6,"i_lat":-6.207404,"transit":false,"station_name":"Palmerah","is_transit":false,"station_id":"PLM","i_long":106.79689,"distance":3191},{"line":6,"i_long":106.780334,"station_id":"KBY","transit":false,"distance":3737,"time":7,"station_name":"Kebayoran","is_transit":false,"i_lat":-6.237242},{"station_id":"PDJ","time":8,"i_long":106.74273,"is_transit":false,"distance":6218,"i_lat":-6.276362,"station_name":"Pondokranji","line":6,"transit":false},{"i_long":106.728916,"line":6,"i_lat":-6.288927,"transit":false,"distance":2179,"is_transit":false,"station_name":"Jurangmangu","station_id":"JMU","time":3},{"station_id":"SDM","line":6,"time":4,"i_long":106.712277,"transit":false,"is_transit":false,"i_lat":-6.296963,"distance":1994,"station_name":"Sudimara"},{"station_name":"Rawa Buntu","i_long":106.675475,"i_lat":-6.314823,"distance":4566,"transit":false,"time":6,"station_id":"RU","is_transit":false,"line":6}],[{"line":11,"transit":false,"station_name":"Pondok Jati","time":0,"distance":0,"station_id":"POK","is_transit":false,"i_lat":-6.209188,"i_long":106.861737},{"station_name":"Jatinegara","i_lat":-6.215091,"line":1,"is_transit":true,"station_id":"JNG","time":9,"distance":1236,"i_long":106.86807400000001,"transit":true},{"is_transit":false,"line":1,"station_name":"Matraman","transit":false,"i_lat":-6.212485,"distance":1377,"station_id":"MTR","time":2,"i_long":106.858896},{"is_transit":true,"i_lat":-6.209883,"transit":true,"i_long":106.84912,"line":2,"station_name":"Manggarai","station_id":"MRI","time":2,"distance":1275},{"station_id":"CKI","distance":1590,"is_transit":false,"i_long":106.840169,"line":2,"transit":false,"station_name":"Cikini","time":4,"i_lat":-6.198556},{"distance":1750,"transit":false,"line":2,"i_long":106.832183,"time":3,"station_id":"GDD","i_lat":-6.186295,"is_transit":false,"station_name":"Gondangdia"},{"time":4,"station_id":"JUA","distance":2015,"transit":false,"i_lat":-6.166716,"station_name":"Juanda","i_long":106.828284,"line":2,"is_transit":false},{"i_lat":-6.160725,"station_id":"SW","distance":1149,"is_transit":false,"i_long":106.827103,"time":2,"line":2,"station_name":"Sawah Besar","transit":false},{"i_lat":-6.149769,"distance":906,"line":2,"station_id":"MGB","transit":false,"time":2,"i_long":106.82482,"station_name":"Manggabesar","is_transit":false},{"station_name":"Jayakarta","i_long":106.820901,"line":2,"station_id":"JAY","time":2,"transit":false,"i_lat":-6.141205,"distance":1080,"is_transit":false},{"station_name":"Jakarta Kota","i_long":106.812439,"transit":true,"is_transit":true,"time":4,"i_lat":-6.137569,"line":2,"station_id":"JAKK","distance":1264},{"station_name":"Kampung Bandan","distance":1364,"station_id":"KPB","i_long":106.826365,"i_lat":-6.132549,"transit":true,"line":4,"is_transit":true,"time":3},{"i_lat":-6.144674,"transit":false,"time":9,"i_long":106.79867,"station_name":"Angke","station_id":"AK","is_transit":false,"distance":4102,"line":1},{"i_long":106.800832,"line":1,"transit":false,"distance":1230,"i_lat":-6.155215,"is_transit":false,"station_name":"Duri","station_id":"DU","time":4},{"transit":true,"distance":3632,"i_lat":-6.185545,"station_id":"THB","is_transit":true,"time":8,"station_name":"Tanah Abang","line":1,"i_long":106.811091},{"i_long":106.79689,"i_lat":-6.207404,"line":6,"station_id":"PLM","time":6,"station_name":"Palmerah","is_transit":false,"transit":false,"distance":3191},{"i_lat":-6.237242,"time":7,"station_id":"KBY","is_transit":false,"line":6,"distance":3737,"station_name":"Kebayoran","transit":false,"i_long":106.780334},{"transit":false,"i_lat":-6.276362,"time":8,"distance":6218,"is_transit":false,"line":6,"station_id":"PDJ","station_name":"Pondokranji","i_long":106.74273},{"station_id":"JMU","i_lat":-6.288927,"i_long":106.728916,"line":6,"is_transit":false,"transit":false,"time":3,"station_name":"Jurangmangu","distance":2179},{"time":4,"line":6,"station_id":"SDM","transit":false,"distance":1994,"station_name":"Sudimara","is_transit":false,"i_long":106.712277,"i_lat":-6.296963},{"is_transit":false,"i_long":106.675475,"i_lat":-6.314823,"station_id":"RU","distance":4566,"transit":false,"station_name":"Rawa Buntu","line":6,"time":6}],[{"i_long":106.861737,"transit":false,"is_transit":false,"line":11,"station_name":"Pondok Jati","station_id":"POK","time":0,"distance":0,"i_lat":-6.209188},{"transit":false,"i_long":106.855437,"is_transit":false,"i_lat":-6.193792,"distance":1829,"station_name":"Kramat","line":11,"station_id":"KMT","time":2},{"time":1,"i_long":106.850107,"i_lat":-6.185975,"station_name":"Gang Sentiong","transit":false,"station_id":"GST","distance":973,"is_transit":false,"line":11},{"is_transit":false,"line":11,"station_name":"Pasar Senen","transit":false,"station_id":"PSE","time":8,"i_lat":-6.174784,"distance":1567,"i_long":106.84368},{"time":4,"station_id":"KMO","transit":false,"i_long":106.839204,"station_name":"Kemayoran","i_lat":-6.161728,"distance":1436,"line":11,"is_transit":false},{"transit":false,"station_name":"Rajawali","station_id":"RJW","time":5,"line":11,"distance":1901,"i_lat":-6.14505,"is_transit":false,"i_long":106.836569},{"line":4,"is_transit":true,"transit":true,"station_name":"Kampung Bandan","i_lat":-6.132549,"i_long":106.826365,"distance":1444,"station_id":"KPB","time":3},{"station_name":"Jakarta Kota","time":3,"distance":1364,"i_long":106.812439,"transit":true,"station_id":"JAKK","is_transit":true,"i_lat":-6.137569,"line":2},{"i_long":106.820901,"station_id":"JAY","line":2,"time":4,"i_lat":-6.141205,"transit":false,"is_transit":false,"station_name":"Jayakarta","distance":1264},{"station_name":"Manggabesar","distance":1080,"i_long":106.82482,"is_transit":false,"transit":false,"station_id":"MGB","time":2,"i_lat":-6.149769,"line":2},{"station_name":"Sawah Besar","transit":false,"station_id":"SW","time":2,"i_lat":-6.160725,"i_long":106.827103,"distance":906,"line":2,"is_transit":false},{"station_name":"Juanda","is_transit":false,"i_lat":-6.166716,"distance":1149,"line":2,"time":2,"i_long":106.828284,"transit":false,"station_id":"JUA"},{"transit":false,"is_transit":false,"station_name":"Gondangdia","distance":2015,"i_long":106.832183,"time":4,"i_lat":-6.186295,"station_id":"GDD","line":2},{"station_id":"CKI","station_name":"Cikini","transit":false,"i_lat":-6.198556,"distance":1750,"time":3,"i_long":106.840169,"line":2,"is_transit":false},{"distance":1590,"i_lat":-6.209883,"i_long":106.84912,"station_name":"Manggarai","line":2,"transit":true,"station_id":"MRI","is_transit":true,"time":4},{"i_lat":-6.202263,"i_long":106.822649,"transit":false,"is_transit":false,"time":4,"station_id":"SUD","station_name":"Sudirman","distance":3186,"line":1},{"i_lat":-6.201433,"station_name":"Sudirman Baru","i_long":106.819881,"is_transit":false,"distance":280,"line":1,"station_id":"SUDB","transit":false,"time":1},{"line":1,"time":1,"distance":471,"transit":false,"station_name":"Karet","is_transit":false,"i_lat":-6.20132,"i_long":106.816351,"station_id":"KAT"},{"station_name":"Tanah Abang","distance":2029,"station_id":"THB","is_transit":true,"line":1,"i_lat":-6.185545,"time":5,"i_long":106.811091,"transit":true},{"station_name":"Palmerah","i_lat":-6.207404,"station_id":"PLM","is_transit":false,"line":6,"transit":false,"time":6,"distance":3191,"i_long":106.79689},{"transit":false,"i_lat":-6.237242,"i_long":106.780334,"time":7,"is_transit":false,"station_name":"Kebayoran","line":6,"distance":3737,"station_id":"KBY"},{"transit":false,"i_lat":-6.276362,"station_id":"PDJ","i_long":106.74273,"distance":6218,"is_transit":false,"station_name":"Pondokranji","time":8,"line":6},{"transit":false,"distance":2179,"station_name":"Jurangmangu","station_id":"JMU","is_transit":false,"time":3,"i_lat":-6.288927,"i_long":106.728916,"line":6},{"is_transit":false,"i_lat":-6.296963,"station_name":"Sudimara","time":4,"transit":false,"i_long":106.712277,"line":6,"distance":1994,"station_id":"SDM"},{"line":6,"distance":4566,"i_long":106.675475,"transit":false,"station_name":"Rawa Buntu","time":6,"i_lat":-6.314823,"is_transit":false,"station_id":"RU"}]]}