{"data":[[{"time":0,"is_transit":false,"station_id":"POK","i_lat":-6.209188,"station_name":"Pondok Jati","transit":false,"i_long":106.861737,"distance":0,"line":11},{"i_long":106.86807400000001,"line":1,"i_lat":-6.215091,"is_transit":true,"time":9,"station_id":"JNG","transit":true,"distance":1236,"station_name":"Jatinegara"},{"is_transit":false,"station_id":"MTR","i_lat":-6.212485,"distance":1377,"line":1,"transit":false,"station_name":"Matraman","time":2,"i_long":106.858896},{"i_lat":-6.209883,"time":2,"i_long":106.84912,"distance":1275,"station_id":"MRI","is_transit":false,"transit":false,"line":2,"station_name":"Manggarai"},{"i_lat":-6.202263,"station_name":"Sudirman","station_id":"SUD","transit":false,"line":1,"distance":3186,"is_transit":false,"time":4,"i_long":106.822649},{"i_long":106.819881,"line":1,"station_name":"Sudirman Baru","time":1,"distance":280,"i_lat":-6.201433,"station_id":"SUDB","is_transit":false,"transit":false},{"transit":false,"time":1,"station_id":"KAT","station_name":"Karet","is_transit":false,"distance":471,"i_lat":-6.20132,"i_long":106.816351,"line":1},{"distance":2029,"station_name":"Tanah Abang","transit":true,"line":1,"i_lat":-6.185545,"is_transit":true,"i_long":106.811091,"station_id":"THB","time":5},{"station_id":"PLM","i_lat":-6.207404,"station_name":"Palmerah","i_long":106.79689,"time":6,"line":6,"distance":3191,"transit":false,"is_transit":false},{"transit":false,"time":7,"i_long":106.780334,"is_transit":false,"line":6,"station_id":"KBY","i_lat":-6.237242,"distance":3737,"station_name":"Kebayoran"},{"time":8,"line":6,"is_transit":false,"i_long":106.74273,"transit":false,"distance":6218,"i_lat":-6.276362,"station_name":"Pondokranji","station_id":"PDJ"},{"i_lat":-6.288927,"i_long":106.728916,"distance":2179,"is_transit":false,"transit":false,"station_name":"Jurangmangu","line":6,"station_id":"JMU","time":3},{"station_id":"SDM","time":4,"i_lat":-6.296963,"distance":1994,"is_transit":false,"i_long":106.712277,"line":6,"station_name":"Sudimara","transit":false},{"transit":false,"is_transit":false,"distance":4566,"station_name":"Rawa Buntu","time":6,"i_lat":-6.314823,"i_long":106.675475,"station_id":"RU","line":6},{"station_id":"SRP","is_transit":false,"i_lat":-6.319871,"distance":2413,"transit":false,"time":4,"i_long":106.66566,"line":6,"station_name":"Serpong"},{"transit":false,"is_transit":false,"time":4,"line":3,"station_id":"CSK","i_long":106.640411,"distance":1784,"i_lat":-6.32484,"station_name":"Cisauk"},{"station_name":"Cicayur","distance":2519,"is_transit":false,"transit":false,"line":3,"i_long":106.617853,"station_id":"CC","time":4,"i_lat":-6.329547},{"station_id":"PRP","station_name":"Parung Panjang","transit":false,"i_long":106.568863,"line":6,"is_transit":false,"distance":5968,"time":8,"i_lat":-6.3441410000000005},{"station_name":"Cilejit","time":9,"transit":false,"i_lat":-6.354349,"i_long":106.508482,"station_id":"CJT","is_transit":false,"distance":7025,"line":3},{"station_id":"DAR","transit":false,"distance":2675,"station_name":"Daru","i_long":106.491338,"time":6,"i_lat":-6.338021,"line":0,"is_transit":false},{"transit":false,"i_long":106.460812,"station_id":"TEJ","station_name":"Tenjo","time":5,"distance":3902,"i_lat":-6.327251,"is_transit":false,"line":6}],[{"distance":0,"time":0,"station_name":"Pondok Jati","is_transit":false,"i_lat":-6.209188,"i_long":106.861737,"station_id":"POK","line":11,"transit":false},{"distance":1829,"station_id":"KMT","transit":false,"i_lat":-6.193792,"i_long":106.855437,"line":11,"station_name":"Kramat","time":2,"is_transit":false},{"transit":false,"time":1,"is_transit":false,"distance":973,"i_lat":-6.185975,"station_name":"Gang Sentiong","station_id":"GST","i_long":106.850107,"line":11},{"i_lat":-6.174784,"transit":false,"i_long":106.84368,"time":8,"distance":1567,"station_name":"Pasar Senen","line":11,"is_transit":false,"station_id":"PSE"},{"station_name":"Kemayoran","i_lat":-6.161728,"station_id":"KMO","transit":false,"time":4,"distance":1436,"line":11,"is_transit":false,"i_long":106.839204},{"transit":false,"station_id":"RJW","distance":1901,"time":5,"i_lat":-6.14505,"i_long":106.836569,"station_name":"Rajawali","line":11,"is_transit":false},{"transit":true,"i_long":106.826365,"i_lat":-6.132549,"is_transit":true,"distance":1444,"station_name":"Kampung Bandan","station_id":"KPB","line":4,"time":3},{"time":9,"i_lat":-6.144674,"i_long":106.79867,"line":1,"is_transit":false,"distance":4102,"station_name":"Angke","station_id":"AK","transit":false},{"time":4,"is_transit":false,"distance":1230,"i_long":106.800832,"station_id":"DU","i_lat":-6.155215,"station_name":"Duri","line":1,"transit":false},{"transit":true,"station_name":"Tanah Abang","station_id":"THB","is_transit":true,"time":8,"i_lat":-6.185545,"distance":3632,"i_long":106.811091,"line":1},{"distance":3191,"station_id":"PLM","time":6,"line":6,"station_name":"Palmerah","is_transit":false,"transit":false,"i_lat":-6.207404,"i_long":106.79689},{"transit":false,"i_long":106.780334,"i_lat":-6.237242,"is_transit":false,"line":6,"distance":3737,"time":7,"station_name":"Kebayoran","station_id":"KBY"},{"distance":6218,"i_lat":-6.276362,"time":8,"transit":false,"line":6,"station_id":"PDJ","is_transit":false,"i_long":106.74273,"station_name":"Pondokranji"},{"i_lat":-6.288927,"i_long":106.728916,"line":6,"station_id":"JMU","time":3,"transit":false,"is_transit":false,"station_name":"Jurangmangu","distance":2179},{"is_transit":false,"station_name":"Sudimara","station_id":"SDM","i_lat":-6.296963,"transit":false,"time":4,"i_long":106.712277,"distance":1994,"line":6},{"i_lat":-6.314823,"line":6,"station_name":"Rawa Buntu","distance":4566,"station_id":"RU","time":6,"is_transit":false,"i_long":106.675475,"transit":false},{"time":4,"is_transit":false,"station_id":"SRP","i_lat":-6.319871,"i_long":106.66566,"line":6,"distance":2413,"station_name":"Serpong","transit":false},{"distance":1784,"is_transit":false,"station_name":"Cisauk","line":3,"station_id":"CSK","transit":false,"time":4,"i_long":106.640411,"i_lat":-6.32484},{"is_transit":false,"line":3,"distance":2519,"transit":false,"i_long":106.617853,"i_lat":-6.329547,"station_name":"Cicayur","station_id":"CC","time":4},{"time":8,"line":6,"station_id":"PRP","i_lat":-6.3441410000000005,"is_transit":false,"distance":5968,"station_name":"Parung Panjang","transit":false,"i_long":106.568863},{"transit":false,"station_id":"CJT","is_transit":false,"i_long":106.508482,"line":3,"station_name":"Cilejit","time":9,"distance":7025,"i_lat":-6.354349},{"station_name":"Daru","time":6,"i_lat":-6.338021,"distance":2675,"is_transit":false,"station_id":"DAR","i_long":106.491338,"transit":false,"line":0},{"transit":false,"i_lat":-6.327251,"i_long":106.460812,"station_id":"TEJ","is_transit":false,"time":5,"line":6,"distance":3902,"station_name":"Tenjo"}],[{"station_id":"POK","line":11,"i_long":106.861737,"is_transit":false,"time":0,"station_name":"Pondok Jati","transit":false,"i_lat":-6.209188,"distance":0},{"time":9,"distance":1236,"line":1,"station_name":"Jatinegara","station_id":"JNG","transit":true,"i_lat":-6.215091,"i_long":106.86807400000001,"is_transit":true},{"i_long":106.858896,"station_id":"MTR","is_transit":false,"time":2,"i_lat":-6.212485,"distance":1377,"transit":false,"line":1,"station_name":"Matraman"},{"distance":1275,"station_id":"MRI","time":2,"line":2,"i_lat":-6.209883,"i_long":106.84912,"is_transit":true,"transit":true,"station_name":"Manggarai"},{"station_id":"CKI","line":2,"i_lat":-6.198556,"time":4,"transit":false,"station_name":"Cikini","i_long":106.840169,"distance":1590,"is_transit":false},{"line":2,"station_name":"Gondangdia","is_transit":false,"i_lat":-6.186295,"i_long":106.832183,"station_id":"GDD","transit":false,"time":3,"distance":1750},{"i_lat":-6.166716,"station_name":"Juanda","line":2,"is_transit":false,"station_id":"JUA","time":4,"distance":2015,"i_long":106.828284,"transit":false},{"transit":false,"i_long":106.827103,"station_id":"SW","time":2,"line":2,"distance":1149,"i_lat":-6.160725,"station_name":"Sawah Besar","is_transit":false},{"station_name":"Manggabesar","time":2,"is_transit":false,"station_id":"MGB","i_lat":-6.149769,"i_long":106.82482,"line":2,"distance":906,"transit":false},{"time":2,"transit":false,"station_id":"JAY","i_long":106.820901,"station_name":"Jayakarta","line":2,"distance":1080,"is_transit":false,"i_lat":-6.141205},{"line":2,"station_name":"Jakarta Kota","i_long":106.812439,"is_transit":true,"distance":1264,"time":4,"transit":true,"station_id":"JAKK","i_lat":-6.137569},{"station_id":"KPB","time":3,"i_lat":-6.132549,"station_name":"Kampung Bandan","transit":true,"line":4,"distance":1364,"is_transit":true,"i_long":106.826365},{"station_name":"Angke","is_transit":false,"i_lat":-6.144674,"distance":4102,"transit":false,"time":9,"i_long":106.79867,"line":1,"station_id":"AK"},{"station_name":"Duri","line":1,"is_transit":false,"transit":false,"distance":1230,"i_lat":-6.155215,"i_long":106.800832,"time":4,"station_id":"DU"},{"i_long":106.811091,"is_transit":true,"station_name":"Tanah Abang","transit":true,"station_id":"THB","line":1,"distance":3632,"time":8,"i_lat":-6.185545},{"i_long":106.79689,"line":6,"time":6,"distance":3191,"transit":false,"i_lat":-6.207404,"station_name":"Palmerah","station_id":"PLM","is_transit":false},{"i_long":106.780334,"time":7,"transit":false,"is_transit":false,"station_name":"Kebayoran","i_lat":-6.237242,"distance":3737,"station_id":"KBY","line":6},{"transit":false,"time":8,"station_id":"PDJ","i_long":106.74273,"i_lat":-6.276362,"distance":6218,"line":6,"station_name":"Pondokranji","is_transit":false},{"is_transit":false,"distance":2179,"time":3,"station_id":"JMU","station_name":"Jurangmangu","transit":false,"i_lat":-6.288927,"i_long":106.728916,"line":6},{"line":6,"station_name":"Sudimara","time":4,"i_lat":-6.296963,"transit":false,"i_long":106.712277,"is_transit":false,"distance":1994,"station_id":"SDM"},{"is_transit":false,"line":6,"i_lat":-6.314823,"time":6,"i_long":106.675475,"distance":4566,"transit":false,"station_name":"Rawa Buntu","station_id":"RU"},{"i_long":106.66566,"line":6,"station_id":"SRP","is_transit":false,"i_lat":-6.319871,"transit":false,"time":4,"distance":2413,"station_name":"Serpong"},{"station_id":"CSK","transit":false,"i_long":106.640411,"i_lat":-6.32484,"time":4,"distance":1784,"is_transit":false,"station_name":"Cisauk","line":3},{"is_transit":false,"time":4,"i_lat":-6.329547,"station_name":"Cicayur","station_id":"CC","i_long":106.617853,"distance":2519,"transit":false,"line":3},{"i_long":106.568863,"station_id":"PRP","transit":false,"i_lat":-6.3441410000000005,"line":6,"distance":5968,"station_name":"Parung Panjang","is_transit":false,"time":8},{"transit":false,"is_transit":false,"station_name":"Cilejit","station_id":"CJT","i_long":106.508482,"i_lat":-6.354349,"time":9,"line":3,"distance":7025},{"time":6,"i_lat":-6.338021,"is_transit":false,"i_long":106.491338,"station_name":"Daru","station_id":"DAR","distance":2675,"line":0,"transit":false},{"transit":false,"i_long":106.460812,"is_transit":false,"i_lat":-6.327251,"line":6,"time":5,"station_name":"Tenjo","station_id":"TEJ","distance":3902}],[{"i_long":106.861737,"line":11,"station_id":"POK","is_transit":false,"transit":false,"time":0,"station_name":"Pondok Jati","i_lat":-6.209188,"distance":0},{"is_transit":false,"time":2,"i_long":106.855437,"transit":false,"i_lat":-6.193792,"distance":1829,"station_id":"KMT","line":11,"station_name":"Kramat"},{"transit":false,"is_transit":false,"i_lat":-6.185975,"time":1,"station_id":"GST","i_long":106.850107,"station_name":"Gang Sentiong","line":11,"distance":973},{"is_transit":false,"station_name":"Pasar Senen","line":11,"time":8,"station_id":"PSE","transit":false,"i_lat":-6.174784,"distance":1567,"i_long":106.84368},{"is_transit":false,"i_lat":-6.161728,"distance":1436,"transit":false,"i_long":106.839204,"station_name":"Kemayoran","line":11,"time":4,"station_id":"KMO"},{"station_id":"RJW","is_transit":false,"transit":false,"line":11,"distance":1901,"time":5,"station_name":"Rajawali","i_lat":-6.14505,"i_long":106.836569},{"line":4,"station_id":"KPB","transit":true,"i_lat":-6.132549,"i_long":106.826365,"is_transit":true,"station_name":"Kampung Bandan","time":3,"distance":1444},{"is_transit":true,"distance":1364,"station_id":"JAKK","i_long":106.812439,"line":2,"transit":true,"station_name":"Jakarta Kota","time":3,"i_lat":-6.137569},{"i_long":106.820901,"is_transit":false,"distance":1264,"station_name":"Jayakarta","transit":false,"i_lat":-6.141205,"time":4,"station_id":"JAY","line":2},{"station_id":"MGB","station_name":"Manggabesar","distance":1080,"i_long":106.82482,"time":2,"line":2,"transit":false,"i_lat":-6.149769,"is_transit":false},{"is_transit":false,"station_name":"Sawah Besar","station_id":"SW","distance":906,"transit":false,"i_lat":-6.160725,"time":2,"i_long":106.827103,"line":2},{"time":2,"distance":1149,"station_name":"Juanda","is_transit":false,"station_id":"JUA","transit":false,"i_lat":-6.166716,"i_long":106.828284,"line":2},{"is_transit":false,"station_name":"Gondangdia","station_id":"GDD","i_lat":-6.186295,"time":4,"i_long":106.832183,"line":2,"transit":false,"distance":2015},{"station_id":"CKI","station_name":"Cikini","i_long":106.840169,"distance":1750,"transit":false,"time":3,"line":2,"is_transit":false,"i_lat":-6.198556},{"time":4,"station_name":"Manggarai","station_id":"MRI","line":2,"i_lat":-6.209883,"transit":true,"is_transit":true,"distance":1590,"i_long":106.84912},{"i_lat":-6.202263,"transit":false,"is_transit":false,"distance":3186,"i_long":106.822649,"time":4,"station_name":"Sudirman","station_id":"SUD","line":1},{"i_lat":-6.201433,"i_long":106.819881,"time":1,"distance":280,"line":1,"transit":false,"station_name":"Sudirman Baru","is_transit":false,"station_id":"SUDB"},{"is_transit":false,"transit":false,"time":1,"distance":471,"station_name":"Karet","i_lat":-6.20132,"line":1,"station_id":"KAT","i_long":106.816351},{"station_name":"Tanah Abang","distance":2029,"line":1,"i_lat":-6.185545,"station_id":"THB","time":5,"transit":true,"i_long":106.811091,"is_transit":true},{"line":6,"time":6,"transit":false,"station_id":"PLM","distance":3191,"station_name":"Palmerah","is_transit":false,"i_long":106.79689,"i_lat":-6.207404},{"is_transit":false,"station_name":"Kebayoran","transit":false,"i_long":106.780334,"time":7,"station_id":"KBY","line":6,"i_lat":-6.237242,"distance":3737},{"transit":false,"is_transit":false,"station_name":"Pondokranji","distance":6218,"station_id":"PDJ","time":8,"i_lat":-6.276362,"i_long":106.74273,"line":6},{"is_transit":false,"station_id":"JMU","station_name":"Jurangmangu","i_lat":-6.288927,"i_long":106.728916,"line":6,"transit":false,"time":3,"distance":2179},{"i_lat":-6.296963,"time":4,"line":6,"station_name":"Sudimara","distance":1994,"station_id":"SDM","transit":false,"i_long":106.712277,"is_transit":false},{"i_long":106.675475,"is_transit":false,"time":6,"station_name":"Rawa Buntu","i_lat":-6.314823,"line":6,"distance":4566,"transit":false,"station_id":"RU"},{"distance":2413,"line":6,"transit":false,"station_name":"Serpong","i_long":106.66566,"is_transit":false,"time":4,"station_id":"SRP","i_lat":-6.319871},{"i_lat":-6.32484,"distance":1784,"is_transit":false,"station_name":"Cisauk","time":4,"i_long":106.640411,"line":3,"transit":false,"station_id":"CSK"},{"station_id":"CC","i_lat":-6.329547,"i_long":106.617853,"line":3,"station_name":"Cicayur","time":4,"is_transit":false,"distance":2519,"transit":false},{"line":6,"station_id":"PRP","i_lat":-6.3441410000000005,"i_long":106.568863,"transit":false,"distance":5968,"is_transit":false,"time":8,"station_name":"Parung Panjang"},{"distance":7025,"i_long":106.508482,"line":3,"time":9,"i_lat":-6.354349,"station_name":"Cilejit","is_transit":false,"station_id":"CJT","transit":false},{"i_lat":-6.338021,"time":6,"distance":2675,"is_transit":false,"station_name":"Daru","station_id":"DAR","transit":false,"i_long":106.491338,"line":0},{"station_id":"TEJ","transit":false,"time":5,"i_long":106.460812,"distance":3902,"line":6,"i_lat":-6.327251,"is_transit":false,"station_name":"Tenjo"}]]}