{"data":[[{"station_name":"Pondok Jati","station_id":"POK","transit":false,"distance":0,"time":0,"i_lat":-6.209188,"line":11,"i_long":106.861737,"is_transit":false},{"time":9,"station_id":"JNG","distance":1236,"i_long":106.86807400000001,"is_transit":true,"transit":true,"station_name":"Jatinegara","i_lat":-6.215091,"line":0},{"i_lat":-6.212485,"transit":false,"i_long":106.858896,"station_name":"Matraman","line":1,"time":2,"is_transit":false,"station_id":"MTR","distance":1377},{"i_lat":-6.209883,"line":0,"station_name":"Manggarai","transit":true,"i_long":106.84912,"time":2,"distance":1275,"is_transit":true,"station_id":"MRI"},{"distance":2610,"station_name":"Tebet","i_long":106.857948,"line":2,"station_id":"TEB","is_transit":false,"time":4,"transit":false,"i_lat":-6.226659},{"is_transit":false,"i_lat":-6.242512,"distance":1230,"station_name":"Cawang","line":0,"i_long":106.856607,"transit":false,"station_id":"CW","time":2},{"is_transit":false,"transit":false,"time":3,"i_lat":-6.255332,"line":0,"station_name":"Duren Kalibata","i_long":106.85449,"station_id":"DRN","distance":1546},{"transit":false,"line":2,"distance":824,"time":2,"is_transit":false,"station_id":"PSMB","i_long":106.851577,"station_name":"Pasar Minggu Baru","i_lat":-6.263214},{"i_lat":-6.2842400000000005,"is_transit":false,"transit":false,"time":2,"distance":2380,"station_name":"Pasar Minggu","i_long":106.843999,"line":2,"station_id":"PSM"},{"time":4,"distance":2820,"station_id":"TNT","is_transit":false,"station_name":"Tanjung Barat","transit":false,"i_long":106.838896,"line":2,"i_lat":-6.3080680000000005},{"distance":2671,"line":2,"is_transit":false,"station_id":"LNA","station_name":"Lenteng Agung","transit":false,"time":3,"i_lat":-6.330363,"i_long":106.832616},{"distance":1029,"i_long":106.834175,"transit":false,"station_id":"UP","time":2,"is_transit":false,"i_lat":-6.339291,"line":2,"station_name":"Univ. Pancasila"},{"i_lat":-6.360749,"transit":false,"distance":2264,"station_id":"UI","time":3,"i_long":106.831474,"is_transit":false,"line":2,"station_name":"Univ. Indonesia"}],[{"i_lat":-6.209188,"distance":0,"station_id":"POK","is_transit":false,"station_name":"Pondok Jati","line":11,"i_long":106.861737,"transit":false,"time":0},{"station_id":"KMT","i_lat":-6.193792,"distance":1829,"time":2,"transit":false,"is_transit":false,"station_name":"Kramat","i_long":106.855437,"line":11},{"distance":973,"line":11,"i_long":106.850107,"is_transit":false,"station_name":"Gang Sentiong","station_id":"GST","i_lat":-6.185975,"transit":false,"time":1},{"station_name":"Pasar Senen","i_lat":-6.174784,"transit":false,"i_long":106.84368,"line":11,"station_id":"PSE","is_transit":false,"time":8,"distance":1567},{"i_long":106.839204,"time":4,"station_name":"Kemayoran","line":11,"is_transit":false,"station_id":"KMO","distance":1436,"transit":false,"i_lat":-6.161728},{"i_lat":-6.14505,"distance":1901,"i_long":106.836569,"station_name":"Rajawali","is_transit":false,"station_id":"RJW","line":11,"time":5,"transit":false},{"transit":true,"is_transit":true,"station_name":"Kampung Bandan","line":0,"i_lat":-6.132549,"station_id":"KPB","i_long":106.826365,"time":3,"distance":1444},{"station_id":"AK","time":9,"i_lat":-6.144674,"line":0,"is_transit":false,"distance":4102,"station_name":"Angke","transit":false,"i_long":106.79867},{"transit":true,"distance":1230,"time":4,"is_transit":true,"i_lat":-6.155215,"i_long":106.800832,"line":1,"station_id":"DU","station_name":"Duri"},{"i_long":106.811091,"is_transit":true,"distance":3632,"station_name":"Tanah Abang","transit":false,"i_lat":-6.185545,"line":1,"time":8,"station_id":"THB"},{"i_lat":-6.20132,"station_name":"Karet","transit":false,"is_transit":false,"line":1,"time":5,"i_long":106.816351,"station_id":"KAT","distance":2029},{"is_transit":false,"transit":false,"i_long":106.819881,"line":1,"distance":471,"station_id":"SUDB","station_name":"Sudirman Baru","time":1,"i_lat":-6.201433},{"i_lat":-6.202263,"line":1,"station_name":"Sudirman","transit":false,"is_transit":false,"station_id":"SUD","time":1,"i_long":106.822649,"distance":280},{"time":4,"i_lat":-6.209883,"i_long":106.84912,"transit":true,"line":0,"distance":3186,"is_transit":true,"station_id":"MRI","station_name":"Manggarai"},{"transit":false,"time":4,"i_long":106.857948,"is_transit":false,"line":2,"i_lat":-6.226659,"station_id":"TEB","distance":2610,"station_name":"Tebet"},{"station_id":"CW","station_name":"Cawang","time":2,"is_transit":false,"i_long":106.856607,"i_lat":-6.242512,"distance":1230,"transit":false,"line":0},{"i_long":106.85449,"is_transit":false,"i_lat":-6.255332,"station_id":"DRN","line":0,"station_name":"Duren Kalibata","transit":false,"distance":1546,"time":3},{"is_transit":false,"station_id":"PSMB","transit":false,"station_name":"Pasar Minggu Baru","line":2,"time":2,"i_lat":-6.263214,"distance":824,"i_long":106.851577},{"i_long":106.843999,"line":2,"station_name":"Pasar Minggu","is_transit":false,"transit":false,"distance":2380,"time":2,"i_lat":-6.2842400000000005,"station_id":"PSM"},{"station_id":"TNT","distance":2820,"line":2,"transit":false,"time":4,"i_long":106.838896,"station_name":"Tanjung Barat","is_transit":false,"i_lat":-6.3080680000000005},{"station_name":"Lenteng Agung","time":3,"is_transit":false,"i_long":106.832616,"distance":2671,"i_lat":-6.330363,"station_id":"LNA","transit":false,"line":2},{"i_long":106.834175,"distance":1029,"is_transit":false,"time":2,"station_name":"Univ. Pancasila","transit":false,"line":2,"station_id":"UP","i_lat":-6.339291},{"time":3,"i_lat":-6.360749,"transit":false,"is_transit":false,"station_name":"Univ. Indonesia","station_id":"UI","i_long":106.831474,"distance":2264,"line":2}],[{"station_id":"POK","station_name":"Pondok Jati","time":0,"transit":false,"is_transit":false,"i_lat":-6.209188,"i_long":106.861737,"line":11,"distance":0},{"station_id":"KMT","i_lat":-6.193792,"time":2,"is_transit":false,"distance":1829,"transit":false,"station_name":"Kramat","i_long":106.855437,"line":11},{"is_transit":false,"station_name":"Gang Sentiong","distance":973,"station_id":"GST","transit":false,"line":11,"time":1,"i_lat":-6.185975,"i_long":106.850107},{"transit":false,"line":11,"time":8,"station_name":"Pasar Senen","i_lat":-6.174784,"distance":1567,"is_transit":false,"i_long":106.84368,"station_id":"PSE"},{"station_name":"Kemayoran","i_lat":-6.161728,"station_id":"KMO","time":4,"distance":1436,"i_long":106.839204,"line":11,"is_transit":false,"transit":false},{"i_lat":-6.14505,"line":11,"i_long":106.836569,"is_transit":false,"distance":1901,"station_id":"RJW","station_name":"Rajawali","transit":false,"time":5},{"line":0,"time":3,"i_lat":-6.132549,"station_id":"KPB","transit":true,"is_transit":true,"i_long":106.826365,"distance":1444,"station_name":"Kampung Bandan"},{"is_transit":true,"line":0,"i_long":106.812439,"transit":true,"time":3,"i_lat":-6.137569,"distance":1364,"station_id":"JAKK","station_name":"Jakarta Kota"},{"distance":1264,"station_name":"Jayakarta","i_long":106.820901,"is_transit":false,"transit":false,"line":7,"station_id":"JAY","time":4,"i_lat":-6.141205},{"i_lat":-6.149769,"is_transit":false,"transit":false,"station_id":"MGB","time":2,"line":2,"i_long":106.82482,"distance":1080,"station_name":"Manggabesar"},{"distance":906,"station_id":"SW","is_transit":false,"transit":false,"time":2,"i_lat":-6.160725,"line":2,"station_name":"Sawah Besar","i_long":106.827103},{"is_transit":false,"i_long":106.828284,"distance":1149,"station_id":"JUA","i_lat":-6.166716,"line":2,"station_name":"Juanda","time":2,"transit":false},{"distance":2015,"station_name":"Gondangdia","line":2,"is_transit":false,"i_lat":-6.186295,"i_long":106.832183,"time":4,"transit":false,"station_id":"GDD"},{"time":3,"i_lat":-6.198556,"distance":1750,"station_id":"CKI","is_transit":false,"station_name":"Cikini","transit":false,"i_long":106.840169,"line":0},{"station_id":"MRI","i_lat":-6.209883,"line":0,"distance":1590,"is_transit":true,"station_name":"Manggarai","time":4,"i_long":106.84912,"transit":true},{"is_transit":false,"transit":false,"time":4,"i_lat":-6.226659,"line":2,"station_name":"Tebet","i_long":106.857948,"station_id":"TEB","distance":2610},{"time":2,"station_id":"CW","distance":1230,"transit":false,"is_transit":false,"line":0,"station_name":"Cawang","i_lat":-6.242512,"i_long":106.856607},{"line":0,"station_id":"DRN","distance":1546,"time":3,"is_transit":false,"i_lat":-6.255332,"transit":false,"i_long":106.85449,"station_name":"Duren Kalibata"},{"line":2,"station_name":"Pasar Minggu Baru","distance":824,"is_transit":false,"station_id":"PSMB","transit":false,"time":2,"i_lat":-6.263214,"i_long":106.851577},{"i_lat":-6.2842400000000005,"station_id":"PSM","is_transit":false,"station_name":"Pasar Minggu","transit":false,"distance":2380,"i_long":106.843999,"time":2,"line":2},{"is_transit":false,"time":4,"i_long":106.838896,"i_lat":-6.3080680000000005,"distance":2820,"line":2,"station_name":"Tanjung Barat","station_id":"TNT","transit":false},{"i_lat":-6.330363,"station_id":"LNA","i_long":106.832616,"is_transit":false,"distance":2671,"transit":false,"station_name":"Lenteng Agung","time":3,"line":2},{"distance":1029,"station_name":"Univ. Pancasila","line":2,"transit":false,"i_long":106.834175,"is_transit":false,"station_id":"UP","time":2,"i_lat":-6.339291},{"station_name":"Univ. Indonesia","station_id":"UI","i_lat":-6.360749,"line":2,"distance":2264,"is_transit":false,"time":3,"transit":false,"i_long":106.831474}]]}