{"data":[[{"transit":false,"distance":0,"i_lat":-6.209188,"line":11,"is_transit":false,"time":0,"i_long":106.861737,"station_id":"POK","station_name":"Pondok Jati"},{"i_long":106.86807400000001,"transit":true,"time":9,"station_id":"JNG","is_transit":true,"line":1,"station_name":"Jatinegara","i_lat":-6.215091,"distance":1236},{"distance":1377,"i_long":106.858896,"i_lat":-6.212485,"station_name":"Matraman","transit":false,"is_transit":false,"line":1,"station_id":"MTR","time":2},{"line":2,"transit":true,"distance":1275,"i_lat":-6.209883,"time":2,"i_long":106.84912,"is_transit":true,"station_name":"Manggarai","station_id":"MRI"},{"is_transit":false,"time":4,"i_lat":-6.198556,"transit":false,"line":2,"i_long":106.840169,"station_name":"Cikini","distance":1590,"station_id":"CKI"},{"line":2,"transit":false,"is_transit":false,"time":3,"distance":1750,"i_lat":-6.186295,"station_name":"Gondangdia","i_long":106.832183,"station_id":"GDD"},{"is_transit":false,"distance":2015,"i_lat":-6.166716,"time":4,"station_name":"Juanda","station_id":"JUA","i_long":106.828284,"line":2,"transit":false},{"time":2,"is_transit":false,"transit":false,"distance":1149,"i_lat":-6.160725,"station_id":"SW","i_long":106.827103,"station_name":"Sawah Besar","line":2}],[{"i_lat":-6.209188,"is_transit":false,"time":0,"line":11,"station_name":"Pondok Jati","station_id":"POK","i_long":106.861737,"distance":0,"transit":false},{"is_transit":false,"distance":1829,"i_lat":-6.193792,"station_id":"KMT","time":2,"transit":false,"i_long":106.855437,"line":11,"station_name":"Kramat"},{"station_id":"GST","distance":973,"line":11,"i_long":106.850107,"is_transit":false,"transit":false,"i_lat":-6.185975,"station_name":"Gang Sentiong","time":1},{"line":11,"station_id":"PSE","is_transit":false,"station_name":"Pasar Senen","i_long":106.84368,"transit":false,"distance":1567,"i_lat":-6.174784,"time":8},{"i_lat":-6.161728,"station_name":"Kemayoran","is_transit":false,"transit":false,"distance":1436,"line":11,"time":4,"i_long":106.839204,"station_id":"KMO"},{"line":11,"station_name":"Rajawali","distance":1901,"station_id":"RJW","transit":false,"i_lat":-6.14505,"time":5,"i_long":106.836569,"is_transit":false},{"distance":1444,"i_long":106.826365,"line":4,"station_id":"KPB","transit":true,"station_name":"Kampung Bandan","i_lat":-6.132549,"time":3,"is_transit":true},{"time":3,"is_transit":true,"transit":true,"distance":1364,"station_id":"JAKK","station_name":"Jakarta Kota","line":2,"i_long":106.812439,"i_lat":-6.137569},{"transit":false,"distance":1264,"station_id":"JAY","i_lat":-6.141205,"i_long":106.820901,"is_transit":false,"line":2,"time":4,"station_name":"Jayakarta"},{"line":2,"is_transit":false,"station_name":"Manggabesar","station_id":"MGB","time":2,"distance":1080,"transit":false,"i_lat":-6.149769,"i_long":106.82482},{"i_long":106.827103,"distance":906,"i_lat":-6.160725,"station_name":"Sawah Besar","transit":false,"station_id":"SW","line":2,"is_transit":false,"time":2}],[{"time":0,"distance":0,"i_lat":-6.209188,"station_name":"Pondok Jati","station_id":"POK","i_long":106.861737,"line":11,"is_transit":false,"transit":false},{"distance":1236,"i_lat":-6.215091,"i_long":106.86807400000001,"station_id":"JNG","transit":true,"station_name":"Jatinegara","line":1,"is_transit":true,"time":9},{"i_long":106.858896,"i_lat":-6.212485,"distance":1377,"is_transit":false,"transit":false,"station_name":"Matraman","time":2,"line":1,"station_id":"MTR"},{"distance":1275,"is_transit":false,"time":2,"i_lat":-6.209883,"transit":false,"line":2,"station_id":"MRI","station_name":"Manggarai","i_long":106.84912},{"time":4,"station_id":"SUD","i_long":106.822649,"line":1,"i_lat":-6.202263,"station_name":"Sudirman","is_transit":false,"distance":3186,"transit":false},{"distance":280,"i_lat":-6.201433,"time":1,"transit":false,"station_id":"SUDB","i_long":106.819881,"line":1,"is_transit":false,"station_name":"Sudirman Baru"},{"line":1,"station_name":"Karet","transit":false,"i_long":106.816351,"station_id":"KAT","is_transit":false,"distance":471,"time":1,"i_lat":-6.20132},{"transit":false,"station_name":"Tanah Abang","is_transit":false,"time":5,"distance":2029,"station_id":"THB","i_lat":-6.185545,"i_long":106.811091,"line":1},{"i_long":106.800832,"is_transit":false,"i_lat":-6.155215,"distance":3632,"time":8,"line":1,"transit":false,"station_name":"Duri","station_id":"DU"},{"station_name":"Angke","is_transit":false,"i_lat":-6.144674,"line":1,"time":4,"distance":1230,"station_id":"AK","i_long":106.79867,"transit":false},{"time":9,"i_long":106.826365,"station_name":"Kampung Bandan","transit":true,"line":4,"is_transit":true,"station_id":"KPB","i_lat":-6.132549,"distance":4102},{"is_transit":true,"transit":true,"station_name":"Jakarta Kota","line":2,"distance":1364,"station_id":"JAKK","i_lat":-6.137569,"i_long":106.812439,"time":3},{"line":2,"station_name":"Jayakarta","time":4,"distance":1264,"transit":false,"station_id":"JAY","is_transit":false,"i_lat":-6.141205,"i_long":106.820901},{"station_name":"Manggabesar","is_transit":false,"transit":false,"time":2,"i_long":106.82482,"distance":1080,"i_lat":-6.149769,"line":2,"station_id":"MGB"},{"station_id":"SW","is_transit":false,"i_lat":-6.160725,"line":2,"time":2,"distance":906,"i_long":106.827103,"transit":false,"station_name":"Sawah Besar"}],[{"is_transit":false,"station_name":"Pondok Jati","line":11,"distance":0,"transit":false,"time":0,"station_id":"POK","i_lat":-6.209188,"i_long":106.861737},{"distance":1829,"i_long":106.855437,"station_id":"KMT","transit":false,"i_lat":-6.193792,"is_transit":false,"time":2,"station_name":"Kramat","line":11},{"line":11,"station_id":"GST","distance":973,"station_name":"Gang Sentiong","i_long":106.850107,"transit":false,"time":1,"is_transit":false,"i_lat":-6.185975},{"station_id":"PSE","time":8,"is_transit":false,"transit":false,"distance":1567,"station_name":"Pasar Senen","i_long":106.84368,"line":11,"i_lat":-6.174784},{"transit":false,"distance":1436,"line":11,"station_id":"KMO","time":4,"i_lat":-6.161728,"is_transit":false,"i_long":106.839204,"station_name":"Kemayoran"},{"transit":false,"station_id":"RJW","time":5,"i_long":106.836569,"is_transit":false,"distance":1901,"station_name":"Rajawali","i_lat":-6.14505,"line":11},{"station_name":"Kampung Bandan","line":4,"i_lat":-6.132549,"i_long":106.826365,"time":3,"distance":1444,"station_id":"KPB","is_transit":true,"transit":true},{"station_name":"Angke","time":9,"line":1,"station_id":"AK","is_transit":false,"transit":false,"distance":4102,"i_lat":-6.144674,"i_long":106.79867},{"station_id":"DU","line":1,"distance":1230,"station_name":"Duri","is_transit":false,"time":4,"transit":false,"i_lat":-6.155215,"i_long":106.800832},{"station_name":"Tanah Abang","time":8,"transit":false,"i_long":106.811091,"line":1,"i_lat":-6.185545,"distance":3632,"station_id":"THB","is_transit":false},{"line":1,"station_id":"KAT","station_name":"Karet","distance":2029,"i_lat":-6.20132,"transit":false,"time":5,"i_long":106.816351,"is_transit":false},{"line":1,"i_lat":-6.201433,"i_long":106.819881,"time":1,"distance":471,"transit":false,"station_id":"SUDB","is_transit":false,"station_name":"Sudirman Baru"},{"line":1,"is_transit":false,"transit":false,"distance":280,"time":1,"i_lat":-6.202263,"station_id":"SUD","station_name":"Sudirman","i_long":106.822649},{"i_lat":-6.209883,"time":4,"i_long":106.84912,"line":2,"is_transit":true,"distance":3186,"station_name":"Manggarai","station_id":"MRI","transit":true},{"station_id":"CKI","distance":1590,"is_transit":false,"station_name":"Cikini","i_lat":-6.198556,"i_long":106.840169,"line":2,"transit":false,"time":4},{"i_lat":-6.186295,"station_name":"Gondangdia","transit":false,"line":2,"is_transit":false,"time":3,"distance":1750,"i_long":106.832183,"station_id":"GDD"},{"transit":false,"is_transit":false,"line":2,"time":4,"station_id":"JUA","distance":2015,"station_name":"Juanda","i_lat":-6.166716,"i_long":106.828284},{"distance":1149,"line":2,"station_name":"Sawah Besar","time":2,"is_transit":false,"station_id":"SW","i_long":106.827103,"i_lat":-6.160725,"transit":false}]]}