{"data":[[{"station_name":"Pondok Jati","i_long":106.861737,"distance":0,"is_transit":false,"i_lat":-6.209188,"transit":false,"line":11,"station_id":"POK","time":0},{"transit":true,"distance":1236,"time":9,"is_transit":true,"station_id":"JNG","i_lat":-6.215091,"station_name":"Jatinegara","i_long":106.86807400000001,"line":1},{"station_name":"Matraman","line":1,"i_lat":-6.212485,"transit":false,"time":2,"i_long":106.858896,"station_id":"MTR","is_transit":false,"distance":1377},{"transit":false,"distance":1275,"i_long":106.84912,"i_lat":-6.209883,"station_id":"MRI","station_name":"Manggarai","time":2,"is_transit":false,"line":2},{"line":1,"transit":false,"is_transit":false,"distance":3186,"station_id":"SUD","i_lat":-6.202263,"station_name":"Sudirman","i_long":106.822649,"time":4},{"i_long":106.819881,"transit":false,"is_transit":false,"time":1,"distance":280,"station_name":"Sudirman Baru","line":1,"i_lat":-6.201433,"station_id":"SUDB"},{"station_id":"KAT","distance":471,"time":1,"is_transit":false,"i_long":106.816351,"station_name":"Karet","transit":false,"line":1,"i_lat":-6.20132},{"transit":false,"is_transit":false,"i_lat":-6.185545,"i_long":106.811091,"station_name":"Tanah Abang","line":1,"station_id":"THB","time":5,"distance":2029},{"i_lat":-6.155215,"transit":true,"i_long":106.800832,"distance":3632,"time":8,"is_transit":true,"station_name":"Duri","station_id":"DU","line":1},{"station_id":"GGL","time":3,"transit":false,"station_name":"Grogol","i_lat":-6.162021,"is_transit":false,"distance":1700,"i_long":106.788277,"line":5},{"transit":false,"station_name":"Pesing","i_lat":-6.161433,"station_id":"PSG","distance":2036,"i_long":106.771379,"is_transit":false,"time":2,"line":5},{"station_name":"Taman Kota","line":5,"i_long":106.756522,"is_transit":false,"transit":false,"time":2,"i_lat":-6.1587309999999995,"distance":1614,"station_id":"TKO"},{"transit":false,"i_long":106.737035,"station_name":"Bojongindah","station_id":"BOI","is_transit":false,"line":5,"time":2,"distance":2334,"i_lat":-6.159876},{"is_transit":false,"transit":false,"i_long":106.723064,"line":5,"station_name":"Rawa Buaya","time":4,"distance":1152,"station_id":"RW","i_lat":-6.162758},{"is_transit":false,"line":5,"station_name":"Kalideres","time":3,"transit":false,"distance":2504,"i_long":106.701612,"station_id":"KDS","i_lat":-6.166068},{"time":3,"i_long":106.679458,"is_transit":false,"line":5,"i_lat":-6.169933,"station_name":"Poris","station_id":"PI","transit":false,"distance":2548},{"i_lat":-6.171811,"line":5,"is_transit":false,"time":3,"i_long":106.665036,"transit":false,"station_name":"Batuceper","station_id":"BPR","distance":1834},{"distance":2028,"line":5,"station_id":"TTI","is_transit":false,"station_name":"Tanah Tinggi","i_long":106.64657,"i_lat":-6.17331,"transit":false,"time":3}],[{"i_long":106.861737,"time":0,"is_transit":false,"line":11,"transit":false,"station_name":"Pondok Jati","i_lat":-6.209188,"station_id":"POK","distance":0},{"line":11,"i_long":106.855437,"is_transit":false,"distance":1829,"time":2,"transit":false,"station_name":"Kramat","station_id":"KMT","i_lat":-6.193792},{"time":1,"distance":973,"station_name":"Gang Sentiong","i_long":106.850107,"station_id":"GST","line":11,"transit":false,"i_lat":-6.185975,"is_transit":false},{"station_name":"Pasar Senen","i_long":106.84368,"is_transit":false,"distance":1567,"transit":false,"line":11,"i_lat":-6.174784,"station_id":"PSE","time":8},{"time":4,"i_lat":-6.161728,"distance":1436,"i_long":106.839204,"line":11,"station_name":"Kemayoran","station_id":"KMO","transit":false,"is_transit":false},{"line":11,"time":5,"station_id":"RJW","i_long":106.836569,"transit":false,"station_name":"Rajawali","is_transit":false,"distance":1901,"i_lat":-6.14505},{"station_id":"KPB","transit":true,"is_transit":true,"time":3,"distance":1444,"i_long":106.826365,"i_lat":-6.132549,"line":4,"station_name":"Kampung Bandan"},{"i_long":106.79867,"station_name":"Angke","distance":4102,"time":9,"i_lat":-6.144674,"line":1,"station_id":"AK","transit":false,"is_transit":false},{"is_transit":true,"i_lat":-6.155215,"transit":true,"station_name":"Duri","station_id":"DU","distance":1230,"time":4,"i_long":106.800832,"line":1},{"transit":false,"time":3,"i_long":106.788277,"distance":1700,"is_transit":false,"i_lat":-6.162021,"line":5,"station_name":"Grogol","station_id":"GGL"},{"is_transit":false,"time":2,"station_id":"PSG","i_long":106.771379,"line":5,"i_lat":-6.161433,"transit":false,"station_name":"Pesing","distance":2036},{"transit":false,"station_id":"TKO","is_transit":false,"station_name":"Taman Kota","distance":1614,"i_long":106.756522,"time":2,"line":5,"i_lat":-6.1587309999999995},{"station_name":"Bojongindah","i_lat":-6.159876,"is_transit":false,"transit":false,"i_long":106.737035,"station_id":"BOI","distance":2334,"time":2,"line":5},{"station_id":"RW","line":5,"transit":false,"i_lat":-6.162758,"station_name":"Rawa Buaya","time":4,"distance":1152,"i_long":106.723064,"is_transit":false},{"distance":2504,"line":5,"i_lat":-6.166068,"i_long":106.701612,"time":3,"station_name":"Kalideres","station_id":"KDS","transit":false,"is_transit":false},{"i_long":106.679458,"transit":false,"station_name":"Poris","i_lat":-6.169933,"station_id":"PI","is_transit":false,"distance":2548,"line":5,"time":3},{"distance":1834,"transit":false,"time":3,"line":5,"station_id":"BPR","i_lat":-6.171811,"i_long":106.665036,"is_transit":false,"station_name":"Batuceper"},{"i_lat":-6.17331,"transit":false,"distance":2028,"time":3,"is_transit":false,"line":5,"i_long":106.64657,"station_name":"Tanah Tinggi","station_id":"TTI"}],[{"station_id":"POK","station_name":"Pondok Jati","time":0,"distance":0,"transit":false,"i_long":106.861737,"line":11,"i_lat":-6.209188,"is_transit":false},{"line":1,"is_transit":true,"transit":true,"station_id":"JNG","i_lat":-6.215091,"time":9,"i_long":106.86807400000001,"station_name":"Jatinegara","distance":1236},{"station_id":"MTR","line":1,"distance":1377,"time":2,"station_name":"Matraman","i_long":106.858896,"transit":false,"i_lat":-6.212485,"is_transit":false},{"station_name":"Manggarai","station_id":"MRI","time":2,"transit":true,"is_transit":true,"distance":1275,"i_lat":-6.209883,"line":2,"i_long":106.84912},{"i_lat":-6.198556,"station_name":"Cikini","station_id":"CKI","transit":false,"time":4,"is_transit":false,"i_long":106.840169,"line":2,"distance":1590},{"is_transit":false,"i_long":106.832183,"station_name":"Gondangdia","station_id":"GDD","i_lat":-6.186295,"distance":1750,"line":2,"time":3,"transit":false},{"i_long":106.828284,"line":2,"i_lat":-6.166716,"station_name":"Juanda","is_transit":false,"distance":2015,"station_id":"JUA","transit":false,"time":4},{"is_transit":false,"station_id":"SW","time":2,"line":2,"station_name":"Sawah Besar","i_lat":-6.160725,"distance":1149,"i_long":106.827103,"transit":false},{"transit":false,"station_id":"MGB","line":2,"distance":906,"time":2,"i_long":106.82482,"station_name":"Manggabesar","i_lat":-6.149769,"is_transit":false},{"distance":1080,"time":2,"transit":false,"station_name":"Jayakarta","i_long":106.820901,"station_id":"JAY","line":2,"i_lat":-6.141205,"is_transit":false},{"line":2,"i_lat":-6.137569,"is_transit":true,"distance":1264,"i_long":106.812439,"station_id":"JAKK","station_name":"Jakarta Kota","transit":true,"time":4},{"distance":1364,"station_name":"Kampung Bandan","i_lat":-6.132549,"i_long":106.826365,"transit":true,"line":4,"time":3,"is_transit":true,"station_id":"KPB"},{"transit":false,"line":1,"station_id":"AK","time":9,"i_long":106.79867,"station_name":"Angke","i_lat":-6.144674,"distance":4102,"is_transit":false},{"transit":true,"time":4,"line":1,"i_lat":-6.155215,"distance":1230,"station_id":"DU","is_transit":true,"station_name":"Duri","i_long":106.800832},{"station_name":"Grogol","is_transit":false,"station_id":"GGL","time":3,"line":5,"transit":false,"distance":1700,"i_long":106.788277,"i_lat":-6.162021},{"distance":2036,"transit":false,"i_long":106.771379,"line":5,"i_lat":-6.161433,"station_id":"PSG","station_name":"Pesing","is_transit":false,"time":2},{"station_name":"Taman Kota","time":2,"is_transit":false,"i_lat":-6.1587309999999995,"transit":false,"station_id":"TKO","distance":1614,"i_long":106.756522,"line":5},{"transit":false,"station_id":"BOI","i_long":106.737035,"is_transit":false,"station_name":"Bojongindah","time":2,"distance":2334,"line":5,"i_lat":-6.159876},{"transit":false,"station_name":"Rawa Buaya","i_lat":-6.162758,"is_transit":false,"distance":1152,"i_long":106.723064,"line":5,"station_id":"RW","time":4},{"i_long":106.701612,"station_name":"Kalideres","is_transit":false,"distance":2504,"line":5,"time":3,"i_lat":-6.166068,"transit":false,"station_id":"KDS"},{"station_id":"PI","transit":false,"is_transit":false,"station_name":"Poris","line":5,"i_lat":-6.169933,"time":3,"i_long":106.679458,"distance":2548},{"distance":1834,"is_transit":false,"transit":false,"time":3,"i_lat":-6.171811,"i_long":106.665036,"line":5,"station_id":"BPR","station_name":"Batuceper"},{"transit":false,"time":3,"distance":2028,"i_lat":-6.17331,"line":5,"station_name":"Tanah Tinggi","station_id":"TTI","is_transit":false,"i_long":106.64657}],[{"station_name":"Pondok Jati","distance":0,"transit":false,"time":0,"is_transit":false,"station_id":"POK","i_lat":-6.209188,"i_long":106.861737,"line":11},{"station_id":"KMT","transit":false,"is_transit":false,"time":2,"distance":1829,"i_lat":-6.193792,"station_name":"Kramat","i_long":106.855437,"line":11},{"station_name":"Gang Sentiong","time":1,"is_transit":false,"transit":false,"station_id":"GST","i_lat":-6.185975,"i_long":106.850107,"line":11,"distance":973},{"i_long":106.84368,"station_name":"Pasar Senen","transit":false,"station_id":"PSE","line":11,"time":8,"is_transit":false,"i_lat":-6.174784,"distance":1567},{"i_lat":-6.161728,"time":4,"is_transit":false,"distance":1436,"station_name":"Kemayoran","station_id":"KMO","line":11,"i_long":106.839204,"transit":false},{"station_name":"Rajawali","i_long":106.836569,"transit":false,"line":11,"i_lat":-6.14505,"station_id":"RJW","is_transit":false,"time":5,"distance":1901},{"i_lat":-6.132549,"line":4,"station_name":"Kampung Bandan","station_id":"KPB","distance":1444,"i_long":106.826365,"transit":true,"time":3,"is_transit":true},{"i_lat":-6.137569,"i_long":106.812439,"station_name":"Jakarta Kota","station_id":"JAKK","time":3,"line":2,"transit":true,"is_transit":true,"distance":1364},{"station_id":"JAY","line":2,"station_name":"Jayakarta","time":4,"distance":1264,"transit":false,"i_lat":-6.141205,"is_transit":false,"i_long":106.820901},{"line":2,"i_long":106.82482,"station_id":"MGB","station_name":"Manggabesar","is_transit":false,"time":2,"distance":1080,"i_lat":-6.149769,"transit":false},{"i_lat":-6.160725,"line":2,"station_name":"Sawah Besar","i_long":106.827103,"time":2,"is_transit":false,"transit":false,"distance":906,"station_id":"SW"},{"station_name":"Juanda","line":2,"transit":false,"is_transit":false,"i_lat":-6.166716,"time":2,"distance":1149,"i_long":106.828284,"station_id":"JUA"},{"time":4,"station_id":"GDD","is_transit":false,"distance":2015,"i_lat":-6.186295,"line":2,"i_long":106.832183,"transit":false,"station_name":"Gondangdia"},{"i_long":106.840169,"station_id":"CKI","transit":false,"time":3,"station_name":"Cikini","line":2,"is_transit":false,"distance":1750,"i_lat":-6.198556},{"station_name":"Manggarai","transit":true,"is_transit":true,"time":4,"distance":1590,"line":2,"i_lat":-6.209883,"i_long":106.84912,"station_id":"MRI"},{"distance":3186,"i_lat":-6.202263,"station_name":"Sudirman","is_transit":false,"transit":false,"i_long":106.822649,"line":1,"station_id":"SUD","time":4},{"i_lat":-6.201433,"time":1,"distance":280,"transit":false,"station_name":"Sudirman Baru","is_transit":false,"station_id":"SUDB","i_long":106.819881,"line":1},{"i_long":106.816351,"is_transit":false,"line":1,"station_name":"Karet","station_id":"KAT","transit":false,"time":1,"distance":471,"i_lat":-6.20132},{"station_id":"THB","distance":2029,"i_long":106.811091,"time":5,"is_transit":false,"transit":false,"i_lat":-6.185545,"station_name":"Tanah Abang","line":1},{"transit":true,"i_long":106.800832,"station_name":"Duri","is_transit":true,"distance":3632,"line":1,"station_id":"DU","time":8,"i_lat":-6.155215},{"is_transit":false,"time":3,"station_id":"GGL","i_lat":-6.162021,"i_long":106.788277,"station_name":"Grogol","transit":false,"distance":1700,"line":5},{"station_name":"Pesing","i_lat":-6.161433,"transit":false,"time":2,"station_id":"PSG","line":5,"i_long":106.771379,"is_transit":false,"distance":2036},{"line":5,"station_name":"Taman Kota","station_id":"TKO","is_transit":false,"distance":1614,"time":2,"transit":false,"i_long":106.756522,"i_lat":-6.1587309999999995},{"is_transit":false,"transit":false,"time":2,"distance":2334,"i_lat":-6.159876,"station_name":"Bojongindah","line":5,"i_long":106.737035,"station_id":"BOI"},{"i_lat":-6.162758,"station_name":"Rawa Buaya","is_transit":false,"distance":1152,"transit":false,"i_long":106.723064,"station_id":"RW","time":4,"line":5},{"station_name":"Kalideres","distance":2504,"transit":false,"station_id":"KDS","i_lat":-6.166068,"line":5,"i_long":106.701612,"time":3,"is_transit":false},{"i_lat":-6.169933,"line":5,"station_name":"Poris","i_long":106.679458,"time":3,"transit":false,"station_id":"PI","is_transit":false,"distance":2548},{"time":3,"is_transit":false,"transit":false,"i_long":106.665036,"station_id":"BPR","i_lat":-6.171811,"station_name":"Batuceper","line":5,"distance":1834},{"station_name":"Tanah Tinggi","line":5,"i_long":106.64657,"time":3,"i_lat":-6.17331,"station_id":"TTI","distance":2028,"is_transit":false,"transit":false}]]}