{"data":[[{"station_name":"Pondok Jati","time":0,"station_id":"POK","line":11,"distance":0,"i_long":106.861737,"transit":false,"i_lat":-6.209188,"is_transit":false},{"i_lat":-6.215091,"distance":1236,"transit":true,"is_transit":true,"station_id":"JNG","station_name":"Jatinegara","i_long":106.86807400000001,"line":1,"time":9},{"is_transit":false,"transit":false,"station_id":"MTR","time":2,"station_name":"Matraman","i_long":106.858896,"line":1,"distance":1377,"i_lat":-6.212485},{"is_transit":false,"line":2,"i_long":106.84912,"station_id":"MRI","i_lat":-6.209883,"station_name":"Manggarai","time":2,"distance":1275,"transit":false},{"time":4,"i_lat":-6.202263,"i_long":106.822649,"line":1,"distance":3186,"station_id":"SUD","is_transit":false,"transit":false,"station_name":"Sudirman"},{"transit":false,"i_lat":-6.201433,"distance":280,"line":1,"time":1,"i_long":106.819881,"station_id":"SUDB","station_name":"Sudirman Baru","is_transit":false},{"i_long":106.816351,"transit":false,"time":1,"line":1,"i_lat":-6.20132,"station_id":"KAT","distance":471,"is_transit":false,"station_name":"Karet"},{"i_lat":-6.185545,"time":5,"distance":2029,"station_name":"Tanah Abang","is_transit":true,"i_long":106.811091,"transit":true,"line":1,"station_id":"THB"},{"distance":3191,"station_id":"PLM","transit":false,"i_lat":-6.207404,"i_long":106.79689,"time":6,"is_transit":false,"line":6,"station_name":"Palmerah"},{"distance":3737,"time":7,"station_name":"Kebayoran","is_transit":false,"i_lat":-6.237242,"i_long":106.780334,"line":6,"station_id":"KBY","transit":false},{"transit":false,"station_name":"Pondokranji","station_id":"PDJ","line":6,"is_transit":false,"time":8,"i_long":106.74273,"i_lat":-6.276362,"distance":6218},{"i_long":106.728916,"distance":2179,"i_lat":-6.288927,"station_id":"JMU","transit":false,"line":6,"station_name":"Jurangmangu","time":3,"is_transit":false},{"line":6,"i_lat":-6.296963,"transit":false,"is_transit":false,"time":4,"station_name":"Sudimara","distance":1994,"station_id":"SDM","i_long":106.712277},{"is_transit":false,"i_long":106.675475,"station_name":"Rawa Buntu","distance":4566,"i_lat":-6.314823,"line":6,"station_id":"RU","transit":false,"time":6}],[{"is_transit":false,"time":0,"transit":false,"i_lat":-6.209188,"station_id":"POK","distance":0,"i_long":106.861737,"line":11,"station_name":"Pondok Jati"},{"transit":false,"station_id":"KMT","line":11,"is_transit":false,"distance":1829,"i_long":106.855437,"station_name":"Kramat","i_lat":-6.193792,"time":2},{"line":11,"is_transit":false,"station_id":"GST","time":1,"station_name":"Gang Sentiong","distance":973,"i_lat":-6.185975,"transit":false,"i_long":106.850107},{"station_id":"PSE","line":11,"station_name":"Pasar Senen","i_long":106.84368,"transit":false,"i_lat":-6.174784,"is_transit":false,"distance":1567,"time":8},{"station_name":"Kemayoran","line":11,"transit":false,"station_id":"KMO","time":4,"distance":1436,"i_lat":-6.161728,"i_long":106.839204,"is_transit":false},{"station_name":"Rajawali","station_id":"RJW","is_transit":false,"time":5,"distance":1901,"i_long":106.836569,"line":11,"transit":false,"i_lat":-6.14505},{"station_id":"KPB","i_lat":-6.132549,"transit":true,"station_name":"Kampung Bandan","distance":1444,"line":4,"is_transit":true,"i_long":106.826365,"time":3},{"i_long":106.79867,"transit":false,"is_transit":false,"station_id":"AK","station_name":"Angke","distance":4102,"i_lat":-6.144674,"time":9,"line":1},{"line":1,"i_long":106.800832,"station_name":"Duri","transit":false,"is_transit":false,"distance":1230,"i_lat":-6.155215,"time":4,"station_id":"DU"},{"line":1,"is_transit":true,"station_name":"Tanah Abang","i_long":106.811091,"station_id":"THB","distance":3632,"i_lat":-6.185545,"transit":true,"time":8},{"line":6,"is_transit":false,"station_name":"Palmerah","time":6,"station_id":"PLM","i_long":106.79689,"distance":3191,"i_lat":-6.207404,"transit":false},{"is_transit":false,"i_lat":-6.237242,"i_long":106.780334,"time":7,"station_id":"KBY","distance":3737,"transit":false,"station_name":"Kebayoran","line":6},{"station_name":"Pondokranji","transit":false,"is_transit":false,"station_id":"PDJ","time":8,"i_lat":-6.276362,"i_long":106.74273,"line":6,"distance":6218},{"i_lat":-6.288927,"station_id":"JMU","i_long":106.728916,"time":3,"station_name":"Jurangmangu","line":6,"transit":false,"is_transit":false,"distance":2179},{"time":4,"is_transit":false,"station_id":"SDM","i_long":106.712277,"distance":1994,"line":6,"transit":false,"i_lat":-6.296963,"station_name":"Sudimara"},{"distance":4566,"i_lat":-6.314823,"time":6,"i_long":106.675475,"is_transit":false,"station_id":"RU","station_name":"Rawa Buntu","line":6,"transit":false}],[{"time":0,"i_lat":-6.209188,"distance":0,"station_name":"Pondok Jati","i_long":106.861737,"station_id":"POK","is_transit":false,"transit":false,"line":11},{"station_name":"Jatinegara","station_id":"JNG","distance":1236,"i_lat":-6.215091,"transit":true,"line":1,"i_long":106.86807400000001,"time":9,"is_transit":true},{"station_id":"MTR","is_transit":false,"line":1,"time":2,"station_name":"Matraman","distance":1377,"i_lat":-6.212485,"i_long":106.858896,"transit":false},{"station_name":"Manggarai","line":2,"station_id":"MRI","distance":1275,"is_transit":true,"i_lat":-6.209883,"i_long":106.84912,"time":2,"transit":true},{"i_lat":-6.198556,"station_name":"Cikini","i_long":106.840169,"distance":1590,"station_id":"CKI","transit":false,"time":4,"is_transit":false,"line":2},{"transit":false,"i_long":106.832183,"station_id":"GDD","line":2,"station_name":"Gondangdia","is_transit":false,"time":3,"distance":1750,"i_lat":-6.186295},{"is_transit":false,"station_name":"Juanda","time":4,"distance":2015,"i_lat":-6.166716,"station_id":"JUA","i_long":106.828284,"line":2,"transit":false},{"station_id":"SW","station_name":"Sawah Besar","is_transit":false,"distance":1149,"line":2,"transit":false,"i_long":106.827103,"i_lat":-6.160725,"time":2},{"station_id":"MGB","station_name":"Manggabesar","transit":false,"i_long":106.82482,"i_lat":-6.149769,"line":2,"time":2,"distance":906,"is_transit":false},{"station_id":"JAY","is_transit":false,"time":2,"transit":false,"station_name":"Jayakarta","i_long":106.820901,"distance":1080,"line":2,"i_lat":-6.141205},{"is_transit":true,"time":4,"i_lat":-6.137569,"i_long":106.812439,"transit":true,"line":2,"station_name":"Jakarta Kota","distance":1264,"station_id":"JAKK"},{"line":4,"time":3,"is_transit":true,"transit":true,"i_long":106.826365,"distance":1364,"station_name":"Kampung Bandan","station_id":"KPB","i_lat":-6.132549},{"station_name":"Angke","transit":false,"distance":4102,"i_long":106.79867,"i_lat":-6.144674,"time":9,"station_id":"AK","line":1,"is_transit":false},{"station_name":"Duri","i_long":106.800832,"distance":1230,"station_id":"DU","transit":false,"i_lat":-6.155215,"line":1,"is_transit":false,"time":4},{"station_name":"Tanah Abang","is_transit":true,"transit":true,"distance":3632,"i_long":106.811091,"i_lat":-6.185545,"station_id":"THB","time":8,"line":1},{"i_long":106.79689,"transit":false,"station_name":"Palmerah","time":6,"station_id":"PLM","i_lat":-6.207404,"distance":3191,"line":6,"is_transit":false},{"i_long":106.780334,"line":6,"transit":false,"station_id":"KBY","i_lat":-6.237242,"station_name":"Kebayoran","distance":3737,"is_transit":false,"time":7},{"time":8,"line":6,"transit":false,"distance":6218,"station_id":"PDJ","station_name":"Pondokranji","i_long":106.74273,"is_transit":false,"i_lat":-6.276362},{"station_id":"JMU","transit":false,"is_transit":false,"station_name":"Jurangmangu","i_lat":-6.288927,"line":6,"distance":2179,"i_long":106.728916,"time":3},{"station_id":"SDM","distance":1994,"i_long":106.712277,"i_lat":-6.296963,"line":6,"transit":false,"station_name":"Sudimara","time":4,"is_transit":false},{"i_long":106.675475,"station_id":"RU","transit":false,"line":6,"is_transit":false,"station_name":"Rawa Buntu","i_lat":-6.314823,"distance":4566,"time":6}],[{"distance":0,"transit":false,"is_transit":false,"time":0,"i_long":106.861737,"station_id":"POK","i_lat":-6.209188,"station_name":"Pondok Jati","line":11},{"i_lat":-6.193792,"line":11,"i_long":106.855437,"station_name":"Kramat","time":2,"distance":1829,"is_transit":false,"transit":false,"station_id":"KMT"},{"i_long":106.850107,"time":1,"station_name":"Gang Sentiong","line":11,"station_id":"GST","is_transit":false,"transit":false,"distance":973,"i_lat":-6.185975},{"line":11,"transit":false,"is_transit":false,"distance":1567,"i_lat":-6.174784,"i_long":106.84368,"station_id":"PSE","time":8,"station_name":"Pasar Senen"},{"station_name":"Kemayoran","station_id":"KMO","time":4,"i_lat":-6.161728,"is_transit":false,"distance":1436,"i_long":106.839204,"line":11,"transit":false},{"i_lat":-6.14505,"time":5,"transit":false,"station_id":"RJW","line":11,"station_name":"Rajawali","distance":1901,"i_long":106.836569,"is_transit":false},{"station_id":"KPB","transit":true,"time":3,"i_long":106.826365,"line":4,"is_transit":true,"station_name":"Kampung Bandan","distance":1444,"i_lat":-6.132549},{"station_id":"JAKK","i_long":106.812439,"station_name":"Jakarta Kota","is_transit":true,"line":2,"i_lat":-6.137569,"time":3,"distance":1364,"transit":true},{"i_lat":-6.141205,"station_name":"Jayakarta","is_transit":false,"line":2,"time":4,"station_id":"JAY","i_long":106.820901,"distance":1264,"transit":false},{"i_lat":-6.149769,"station_name":"Manggabesar","distance":1080,"time":2,"station_id":"MGB","i_long":106.82482,"is_transit":false,"transit":false,"line":2},{"station_id":"SW","time":2,"line":2,"is_transit":false,"i_lat":-6.160725,"transit":false,"i_long":106.827103,"station_name":"Sawah Besar","distance":906},{"transit":false,"i_lat":-6.166716,"is_transit":false,"time":2,"station_name":"Juanda","station_id":"JUA","distance":1149,"i_long":106.828284,"line":2},{"station_id":"GDD","distance":2015,"line":2,"time":4,"transit":false,"is_transit":false,"station_name":"Gondangdia","i_lat":-6.186295,"i_long":106.832183},{"i_long":106.840169,"line":2,"distance":1750,"time":3,"station_id":"CKI","is_transit":false,"transit":false,"station_name":"Cikini","i_lat":-6.198556},{"i_lat":-6.209883,"line":2,"distance":1590,"station_id":"MRI","time":4,"i_long":106.84912,"station_name":"Manggarai","transit":true,"is_transit":true},{"transit":false,"time":4,"is_transit":false,"i_long":106.822649,"line":1,"i_lat":-6.202263,"distance":3186,"station_id":"SUD","station_name":"Sudirman"},{"i_lat":-6.201433,"is_transit":false,"i_long":106.819881,"line":1,"station_id":"SUDB","distance":280,"station_name":"Sudirman Baru","transit":false,"time":1},{"time":1,"i_long":106.816351,"line":1,"station_name":"Karet","distance":471,"i_lat":-6.20132,"transit":false,"is_transit":false,"station_id":"KAT"},{"time":5,"distance":2029,"station_name":"Tanah Abang","i_lat":-6.185545,"line":1,"is_transit":true,"station_id":"THB","i_long":106.811091,"transit":true},{"transit":false,"station_id":"PLM","i_long":106.79689,"is_transit":false,"station_name":"Palmerah","line":6,"time":6,"distance":3191,"i_lat":-6.207404},{"i_lat":-6.237242,"i_long":106.780334,"line":6,"distance":3737,"transit":false,"is_transit":false,"station_id":"KBY","time":7,"station_name":"Kebayoran"},{"station_id":"PDJ","i_long":106.74273,"i_lat":-6.276362,"line":6,"time":8,"transit":false,"is_transit":false,"station_name":"Pondokranji","distance":6218},{"station_name":"Jurangmangu","station_id":"JMU","i_lat":-6.288927,"i_long":106.728916,"is_transit":false,"line":6,"time":3,"distance":2179,"transit":false},{"time":4,"station_id":"SDM","i_lat":-6.296963,"transit":false,"station_name":"Sudimara","i_long":106.712277,"distance":1994,"line":6,"is_transit":false},{"line":6,"station_id":"RU","station_name":"Rawa Buntu","distance":4566,"i_lat":-6.314823,"is_transit":false,"i_long":106.675475,"time":6,"transit":false}]]}