{"data":[[{"i_long":106.861737,"station_name":"Pondok Jati","i_lat":-6.209188,"line":11,"transit":false,"distance":0,"station_id":"POK","time":0,"is_transit":false},{"transit":true,"is_transit":true,"distance":1236,"line":1,"i_lat":-6.215091,"time":9,"station_id":"JNG","i_long":106.86807400000001,"station_name":"Jatinegara"},{"station_id":"MTR","transit":false,"time":2,"i_lat":-6.212485,"is_transit":false,"line":1,"i_long":106.858896,"distance":1377,"station_name":"Matraman"},{"station_name":"Manggarai","transit":false,"time":2,"station_id":"MRI","is_transit":false,"i_lat":-6.209883,"i_long":106.84912,"distance":1275,"line":2},{"transit":false,"time":4,"station_id":"SUD","is_transit":false,"i_long":106.822649,"i_lat":-6.202263,"line":1,"station_name":"Sudirman","distance":3186},{"station_id":"SUDB","transit":false,"line":1,"station_name":"Sudirman Baru","time":1,"i_lat":-6.201433,"is_transit":false,"i_long":106.819881,"distance":280},{"line":1,"i_lat":-6.20132,"i_long":106.816351,"station_name":"Karet","transit":false,"distance":471,"time":1,"station_id":"KAT","is_transit":false},{"distance":2029,"time":5,"transit":false,"station_name":"Tanah Abang","line":1,"is_transit":false,"i_lat":-6.185545,"i_long":106.811091,"station_id":"THB"},{"time":8,"is_transit":true,"i_lat":-6.155215,"line":1,"i_long":106.800832,"station_name":"Duri","transit":true,"distance":3632,"station_id":"DU"},{"station_id":"GGL","i_lat":-6.162021,"station_name":"Grogol","is_transit":false,"transit":false,"i_long":106.788277,"distance":1700,"line":5,"time":3},{"distance":2036,"time":2,"station_id":"PSG","station_name":"Pesing","is_transit":false,"transit":false,"i_long":106.771379,"i_lat":-6.161433,"line":5},{"i_long":106.756522,"distance":1614,"transit":false,"line":5,"i_lat":-6.1587309999999995,"is_transit":false,"station_id":"TKO","time":2,"station_name":"Taman Kota"},{"station_name":"Bojongindah","transit":false,"time":2,"i_lat":-6.159876,"line":5,"distance":2334,"station_id":"BOI","i_long":106.737035,"is_transit":false},{"station_name":"Rawa Buaya","time":4,"is_transit":false,"distance":1152,"i_long":106.723064,"transit":false,"station_id":"RW","line":5,"i_lat":-6.162758}],[{"time":0,"is_transit":false,"station_id":"POK","i_lat":-6.209188,"distance":0,"line":11,"station_name":"Pondok Jati","transit":false,"i_long":106.861737},{"is_transit":false,"station_name":"Kramat","i_lat":-6.193792,"i_long":106.855437,"transit":false,"distance":1829,"time":2,"station_id":"KMT","line":11},{"time":1,"station_id":"GST","line":11,"station_name":"Gang Sentiong","i_long":106.850107,"is_transit":false,"i_lat":-6.185975,"transit":false,"distance":973},{"station_id":"PSE","station_name":"Pasar Senen","transit":false,"time":8,"distance":1567,"i_lat":-6.174784,"line":11,"i_long":106.84368,"is_transit":false},{"station_name":"Kemayoran","transit":false,"time":4,"i_lat":-6.161728,"line":11,"i_long":106.839204,"distance":1436,"is_transit":false,"station_id":"KMO"},{"station_id":"RJW","is_transit":false,"transit":false,"distance":1901,"station_name":"Rajawali","i_lat":-6.14505,"line":11,"time":5,"i_long":106.836569},{"is_transit":true,"i_long":106.826365,"time":3,"line":4,"station_id":"KPB","transit":true,"distance":1444,"station_name":"Kampung Bandan","i_lat":-6.132549},{"station_id":"AK","i_lat":-6.144674,"distance":4102,"is_transit":false,"line":1,"station_name":"Angke","time":9,"transit":false,"i_long":106.79867},{"station_id":"DU","transit":true,"i_long":106.800832,"i_lat":-6.155215,"time":4,"station_name":"Duri","distance":1230,"is_transit":true,"line":1},{"time":3,"station_name":"Grogol","line":5,"transit":false,"i_long":106.788277,"is_transit":false,"i_lat":-6.162021,"distance":1700,"station_id":"GGL"},{"is_transit":false,"i_long":106.771379,"transit":false,"i_lat":-6.161433,"line":5,"distance":2036,"station_name":"Pesing","station_id":"PSG","time":2},{"i_long":106.756522,"transit":false,"time":2,"line":5,"is_transit":false,"distance":1614,"station_name":"Taman Kota","station_id":"TKO","i_lat":-6.1587309999999995},{"line":5,"time":2,"i_long":106.737035,"distance":2334,"station_name":"Bojongindah","transit":false,"station_id":"BOI","i_lat":-6.159876,"is_transit":false},{"distance":1152,"time":4,"station_name":"Rawa Buaya","station_id":"RW","is_transit":false,"line":5,"transit":false,"i_lat":-6.162758,"i_long":106.723064}],[{"station_name":"Pondok Jati","time":0,"is_transit":false,"station_id":"POK","transit":false,"i_lat":-6.209188,"line":11,"i_long":106.861737,"distance":0},{"distance":1236,"is_transit":true,"i_lat":-6.215091,"station_id":"JNG","line":1,"station_name":"Jatinegara","transit":true,"i_long":106.86807400000001,"time":9},{"station_id":"MTR","transit":false,"is_transit":false,"distance":1377,"time":2,"i_lat":-6.212485,"i_long":106.858896,"line":1,"station_name":"Matraman"},{"i_lat":-6.209883,"station_name":"Manggarai","distance":1275,"i_long":106.84912,"transit":true,"time":2,"line":2,"station_id":"MRI","is_transit":true},{"station_name":"Cikini","transit":false,"time":4,"station_id":"CKI","is_transit":false,"distance":1590,"i_lat":-6.198556,"line":2,"i_long":106.840169},{"station_name":"Gondangdia","is_transit":false,"time":3,"transit":false,"i_lat":-6.186295,"i_long":106.832183,"station_id":"GDD","line":2,"distance":1750},{"time":4,"i_long":106.828284,"line":2,"transit":false,"distance":2015,"is_transit":false,"station_id":"JUA","i_lat":-6.166716,"station_name":"Juanda"},{"i_long":106.827103,"station_name":"Sawah Besar","station_id":"SW","line":2,"time":2,"i_lat":-6.160725,"distance":1149,"transit":false,"is_transit":false},{"station_id":"MGB","line":2,"i_lat":-6.149769,"transit":false,"station_name":"Manggabesar","distance":906,"is_transit":false,"time":2,"i_long":106.82482},{"is_transit":false,"line":2,"time":2,"distance":1080,"i_long":106.820901,"station_name":"Jayakarta","transit":false,"station_id":"JAY","i_lat":-6.141205},{"line":2,"distance":1264,"station_id":"JAKK","i_lat":-6.137569,"transit":true,"station_name":"Jakarta Kota","time":4,"is_transit":true,"i_long":106.812439},{"station_name":"Kampung Bandan","station_id":"KPB","is_transit":true,"distance":1364,"i_long":106.826365,"time":3,"i_lat":-6.132549,"transit":true,"line":4},{"i_long":106.79867,"transit":false,"i_lat":-6.144674,"is_transit":false,"distance":4102,"line":1,"station_name":"Angke","time":9,"station_id":"AK"},{"station_id":"DU","line":1,"i_lat":-6.155215,"transit":true,"i_long":106.800832,"distance":1230,"station_name":"Duri","time":4,"is_transit":true},{"time":3,"line":5,"transit":false,"i_lat":-6.162021,"i_long":106.788277,"distance":1700,"station_name":"Grogol","station_id":"GGL","is_transit":false},{"line":5,"station_name":"Pesing","time":2,"distance":2036,"station_id":"PSG","is_transit":false,"transit":false,"i_lat":-6.161433,"i_long":106.771379},{"i_lat":-6.1587309999999995,"station_id":"TKO","time":2,"distance":1614,"station_name":"Taman Kota","i_long":106.756522,"is_transit":false,"line":5,"transit":false},{"is_transit":false,"time":2,"i_long":106.737035,"station_name":"Bojongindah","distance":2334,"transit":false,"station_id":"BOI","i_lat":-6.159876,"line":5},{"station_id":"RW","i_lat":-6.162758,"line":5,"distance":1152,"time":4,"station_name":"Rawa Buaya","is_transit":false,"i_long":106.723064,"transit":false}],[{"time":0,"distance":0,"station_id":"POK","transit":false,"is_transit":false,"station_name":"Pondok Jati","i_long":106.861737,"i_lat":-6.209188,"line":11},{"station_id":"KMT","i_long":106.855437,"transit":false,"is_transit":false,"line":11,"distance":1829,"time":2,"i_lat":-6.193792,"station_name":"Kramat"},{"i_lat":-6.185975,"time":1,"i_long":106.850107,"station_id":"GST","line":11,"transit":false,"station_name":"Gang Sentiong","is_transit":false,"distance":973},{"line":11,"station_name":"Pasar Senen","station_id":"PSE","i_lat":-6.174784,"is_transit":false,"i_long":106.84368,"distance":1567,"transit":false,"time":8},{"i_lat":-6.161728,"station_id":"KMO","line":11,"is_transit":false,"distance":1436,"station_name":"Kemayoran","transit":false,"i_long":106.839204,"time":4},{"time":5,"is_transit":false,"distance":1901,"station_name":"Rajawali","transit":false,"i_long":106.836569,"station_id":"RJW","line":11,"i_lat":-6.14505},{"distance":1444,"line":4,"is_transit":true,"time":3,"transit":true,"i_long":106.826365,"station_id":"KPB","station_name":"Kampung Bandan","i_lat":-6.132549},{"station_name":"Jakarta Kota","transit":true,"distance":1364,"i_lat":-6.137569,"station_id":"JAKK","i_long":106.812439,"time":3,"line":2,"is_transit":true},{"transit":false,"i_long":106.820901,"station_name":"Jayakarta","i_lat":-6.141205,"station_id":"JAY","is_transit":false,"distance":1264,"line":2,"time":4},{"station_id":"MGB","line":2,"i_lat":-6.149769,"i_long":106.82482,"is_transit":false,"station_name":"Manggabesar","time":2,"distance":1080,"transit":false},{"transit":false,"distance":906,"station_name":"Sawah Besar","i_lat":-6.160725,"is_transit":false,"time":2,"i_long":106.827103,"line":2,"station_id":"SW"},{"station_id":"JUA","line":2,"i_long":106.828284,"i_lat":-6.166716,"is_transit":false,"distance":1149,"station_name":"Juanda","time":2,"transit":false},{"time":4,"i_long":106.832183,"station_name":"Gondangdia","line":2,"i_lat":-6.186295,"transit":false,"station_id":"GDD","is_transit":false,"distance":2015},{"line":2,"time":3,"i_lat":-6.198556,"transit":false,"station_id":"CKI","distance":1750,"station_name":"Cikini","i_long":106.840169,"is_transit":false},{"transit":true,"station_name":"Manggarai","time":4,"i_lat":-6.209883,"i_long":106.84912,"line":2,"distance":1590,"station_id":"MRI","is_transit":true},{"distance":3186,"station_name":"Sudirman","i_lat":-6.202263,"line":1,"station_id":"SUD","i_long":106.822649,"is_transit":false,"transit":false,"time":4},{"distance":280,"i_long":106.819881,"i_lat":-6.201433,"transit":false,"time":1,"is_transit":false,"station_name":"Sudirman Baru","line":1,"station_id":"SUDB"},{"station_name":"Karet","station_id":"KAT","i_lat":-6.20132,"distance":471,"transit":false,"is_transit":false,"i_long":106.816351,"time":1,"line":1},{"i_lat":-6.185545,"line":1,"station_id":"THB","transit":false,"i_long":106.811091,"station_name":"Tanah Abang","distance":2029,"is_transit":false,"time":5},{"station_name":"Duri","time":8,"i_lat":-6.155215,"transit":true,"is_transit":true,"station_id":"DU","distance":3632,"i_long":106.800832,"line":1},{"distance":1700,"time":3,"i_lat":-6.162021,"station_name":"Grogol","station_id":"GGL","is_transit":false,"i_long":106.788277,"line":5,"transit":false},{"station_id":"PSG","distance":2036,"i_long":106.771379,"line":5,"transit":false,"i_lat":-6.161433,"is_transit":false,"time":2,"station_name":"Pesing"},{"i_long":106.756522,"time":2,"station_id":"TKO","distance":1614,"i_lat":-6.1587309999999995,"line":5,"is_transit":false,"station_name":"Taman Kota","transit":false},{"i_long":106.737035,"i_lat":-6.159876,"line":5,"station_name":"Bojongindah","transit":false,"station_id":"BOI","distance":2334,"time":2,"is_transit":false},{"line":5,"station_id":"RW","distance":1152,"i_long":106.723064,"time":4,"transit":false,"is_transit":false,"i_lat":-6.162758,"station_name":"Rawa Buaya"}]]}