{"data":[[{"i_lat":-6.209188,"time":0,"line":11,"transit":false,"is_transit":false,"i_long":106.861737,"station_id":"POK","distance":0,"station_name":"Pondok Jati"},{"station_name":"Jatinegara","i_long":106.86807400000001,"time":9,"station_id":"JNG","transit":true,"distance":1236,"i_lat":-6.215091,"line":1,"is_transit":true},{"i_lat":-6.212485,"distance":1377,"time":2,"i_long":106.858896,"is_transit":false,"station_name":"Matraman","station_id":"MTR","transit":false,"line":1},{"i_long":106.84912,"line":2,"is_transit":true,"i_lat":-6.209883,"distance":1275,"transit":true,"station_name":"Manggarai","time":2,"station_id":"MRI"},{"i_long":106.840169,"transit":false,"is_transit":false,"distance":1590,"line":2,"station_id":"CKI","station_name":"Cikini","time":4,"i_lat":-6.198556},{"i_long":106.832183,"time":3,"line":2,"station_name":"Gondangdia","is_transit":false,"station_id":"GDD","transit":false,"distance":1750,"i_lat":-6.186295},{"station_id":"JUA","time":4,"station_name":"Juanda","i_lat":-6.166716,"distance":2015,"line":2,"i_long":106.828284,"is_transit":false,"transit":false},{"distance":1149,"station_name":"Sawah Besar","is_transit":false,"i_lat":-6.160725,"i_long":106.827103,"line":2,"time":2,"station_id":"SW","transit":false}],[{"station_id":"POK","station_name":"Pondok Jati","is_transit":false,"transit":false,"time":0,"distance":0,"i_lat":-6.209188,"line":11,"i_long":106.861737},{"transit":false,"time":2,"station_name":"Kramat","i_long":106.855437,"i_lat":-6.193792,"line":11,"is_transit":false,"distance":1829,"station_id":"KMT"},{"time":1,"line":11,"i_long":106.850107,"distance":973,"station_id":"GST","transit":false,"i_lat":-6.185975,"is_transit":false,"station_name":"Gang Sentiong"},{"transit":false,"is_transit":false,"station_name":"Pasar Senen","i_long":106.84368,"line":11,"time":8,"station_id":"PSE","distance":1567,"i_lat":-6.174784},{"i_lat":-6.161728,"line":11,"station_id":"KMO","is_transit":false,"transit":false,"distance":1436,"i_long":106.839204,"station_name":"Kemayoran","time":4},{"i_lat":-6.14505,"station_id":"RJW","station_name":"Rajawali","distance":1901,"i_long":106.836569,"is_transit":false,"time":5,"line":11,"transit":false},{"is_transit":true,"line":4,"time":3,"transit":true,"station_name":"Kampung Bandan","distance":1444,"station_id":"KPB","i_lat":-6.132549,"i_long":106.826365},{"transit":true,"station_name":"Jakarta Kota","is_transit":true,"time":3,"line":2,"distance":1364,"i_lat":-6.137569,"i_long":106.812439,"station_id":"JAKK"},{"i_lat":-6.141205,"time":4,"line":2,"i_long":106.820901,"station_name":"Jayakarta","transit":false,"is_transit":false,"distance":1264,"station_id":"JAY"},{"transit":false,"is_transit":false,"distance":1080,"station_id":"MGB","time":2,"i_long":106.82482,"line":2,"i_lat":-6.149769,"station_name":"Manggabesar"},{"is_transit":false,"station_id":"SW","i_long":106.827103,"line":2,"station_name":"Sawah Besar","distance":906,"transit":false,"time":2,"i_lat":-6.160725}],[{"i_lat":-6.209188,"time":0,"distance":0,"station_name":"Pondok Jati","transit":false,"i_long":106.861737,"is_transit":false,"line":11,"station_id":"POK"},{"distance":1236,"i_long":106.86807400000001,"line":1,"transit":true,"time":9,"i_lat":-6.215091,"station_id":"JNG","station_name":"Jatinegara","is_transit":true},{"i_long":106.858896,"time":2,"distance":1377,"line":1,"is_transit":false,"i_lat":-6.212485,"station_name":"Matraman","transit":false,"station_id":"MTR"},{"station_name":"Manggarai","is_transit":false,"time":2,"distance":1275,"line":2,"i_lat":-6.209883,"transit":false,"station_id":"MRI","i_long":106.84912},{"i_lat":-6.202263,"transit":false,"time":4,"is_transit":false,"i_long":106.822649,"station_id":"SUD","distance":3186,"line":1,"station_name":"Sudirman"},{"station_id":"SUDB","is_transit":false,"i_lat":-6.201433,"station_name":"Sudirman Baru","i_long":106.819881,"distance":280,"time":1,"transit":false,"line":1},{"transit":false,"line":1,"distance":471,"time":1,"i_lat":-6.20132,"station_id":"KAT","is_transit":false,"i_long":106.816351,"station_name":"Karet"},{"transit":false,"line":1,"i_lat":-6.185545,"distance":2029,"station_name":"Tanah Abang","station_id":"THB","time":5,"is_transit":false,"i_long":106.811091},{"station_name":"Duri","distance":3632,"time":8,"i_long":106.800832,"line":1,"is_transit":false,"i_lat":-6.155215,"station_id":"DU","transit":false},{"i_long":106.79867,"transit":false,"is_transit":false,"station_id":"AK","distance":1230,"station_name":"Angke","i_lat":-6.144674,"line":1,"time":4},{"station_name":"Kampung Bandan","transit":true,"line":4,"i_lat":-6.132549,"time":9,"i_long":106.826365,"is_transit":true,"station_id":"KPB","distance":4102},{"distance":1364,"i_long":106.812439,"time":3,"station_name":"Jakarta Kota","i_lat":-6.137569,"station_id":"JAKK","transit":true,"is_transit":true,"line":2},{"station_id":"JAY","is_transit":false,"i_long":106.820901,"line":2,"transit":false,"station_name":"Jayakarta","i_lat":-6.141205,"time":4,"distance":1264},{"is_transit":false,"distance":1080,"i_long":106.82482,"transit":false,"i_lat":-6.149769,"station_name":"Manggabesar","time":2,"line":2,"station_id":"MGB"},{"distance":906,"is_transit":false,"station_name":"Sawah Besar","time":2,"i_lat":-6.160725,"transit":false,"station_id":"SW","i_long":106.827103,"line":2}],[{"station_id":"POK","i_long":106.861737,"i_lat":-6.209188,"time":0,"line":11,"is_transit":false,"transit":false,"station_name":"Pondok Jati","distance":0},{"station_id":"KMT","station_name":"Kramat","i_long":106.855437,"line":11,"is_transit":false,"distance":1829,"transit":false,"i_lat":-6.193792,"time":2},{"station_id":"GST","line":11,"distance":973,"station_name":"Gang Sentiong","is_transit":false,"i_long":106.850107,"time":1,"i_lat":-6.185975,"transit":false},{"station_id":"PSE","is_transit":false,"station_name":"Pasar Senen","transit":false,"distance":1567,"i_lat":-6.174784,"time":8,"i_long":106.84368,"line":11},{"line":11,"station_name":"Kemayoran","station_id":"KMO","i_long":106.839204,"distance":1436,"time":4,"is_transit":false,"i_lat":-6.161728,"transit":false},{"station_name":"Rajawali","i_lat":-6.14505,"i_long":106.836569,"line":11,"distance":1901,"time":5,"transit":false,"station_id":"RJW","is_transit":false},{"i_long":106.826365,"transit":true,"line":4,"station_name":"Kampung Bandan","distance":1444,"is_transit":true,"time":3,"i_lat":-6.132549,"station_id":"KPB"},{"time":9,"station_name":"Angke","is_transit":false,"i_long":106.79867,"i_lat":-6.144674,"transit":false,"station_id":"AK","distance":4102,"line":1},{"line":1,"station_id":"DU","i_lat":-6.155215,"distance":1230,"station_name":"Duri","is_transit":false,"transit":false,"time":4,"i_long":106.800832},{"line":1,"time":8,"i_long":106.811091,"is_transit":false,"station_id":"THB","distance":3632,"i_lat":-6.185545,"transit":false,"station_name":"Tanah Abang"},{"is_transit":false,"transit":false,"line":1,"station_id":"KAT","i_lat":-6.20132,"i_long":106.816351,"distance":2029,"station_name":"Karet","time":5},{"time":1,"line":1,"i_lat":-6.201433,"i_long":106.819881,"transit":false,"is_transit":false,"distance":471,"station_id":"SUDB","station_name":"Sudirman Baru"},{"i_lat":-6.202263,"is_transit":false,"distance":280,"time":1,"station_name":"Sudirman","i_long":106.822649,"station_id":"SUD","line":1,"transit":false},{"station_name":"Manggarai","station_id":"MRI","time":4,"is_transit":true,"distance":3186,"i_lat":-6.209883,"line":2,"transit":true,"i_long":106.84912},{"distance":1590,"i_lat":-6.198556,"is_transit":false,"station_id":"CKI","line":2,"station_name":"Cikini","time":4,"i_long":106.840169,"transit":false},{"distance":1750,"station_name":"Gondangdia","is_transit":false,"i_long":106.832183,"line":2,"station_id":"GDD","time":3,"i_lat":-6.186295,"transit":false},{"distance":2015,"station_id":"JUA","transit":false,"line":2,"i_lat":-6.166716,"i_long":106.828284,"station_name":"Juanda","is_transit":false,"time":4},{"distance":1149,"transit":false,"station_id":"SW","i_lat":-6.160725,"station_name":"Sawah Besar","is_transit":false,"i_long":106.827103,"line":2,"time":2}]]}