{"data":[[{"time":0,"transit":false,"station_name":"Pondok Jati","distance":0,"is_transit":false,"i_lat":-6.209188,"station_id":"POK","line":11,"i_long":106.861737},{"transit":true,"line":0,"i_long":106.86807400000001,"distance":1236,"station_id":"JNG","time":9,"i_lat":-6.215091,"is_transit":true,"station_name":"Jatinegara"},{"distance":1377,"station_id":"MTR","i_lat":-6.212485,"transit":false,"time":2,"i_long":106.858896,"line":1,"station_name":"Matraman","is_transit":false},{"time":2,"distance":1275,"transit":false,"i_lat":-6.209883,"line":0,"station_id":"MRI","is_transit":true,"station_name":"Manggarai","i_long":106.84912},{"line":1,"i_lat":-6.202263,"time":4,"is_transit":false,"station_name":"Sudirman","distance":3186,"station_id":"SUD","transit":false,"i_long":106.822649},{"distance":280,"station_name":"Sudirman Baru","is_transit":false,"transit":false,"i_lat":-6.201433,"i_long":106.819881,"time":1,"line":1,"station_id":"SUDB"},{"i_lat":-6.20132,"distance":471,"line":1,"i_long":106.816351,"station_name":"Karet","time":1,"station_id":"KAT","is_transit":false,"transit":false},{"is_transit":true,"transit":false,"line":1,"time":5,"distance":2029,"i_lat":-6.185545,"station_name":"Tanah Abang","station_id":"THB","i_long":106.811091},{"time":8,"distance":3632,"is_transit":true,"line":1,"station_id":"DU","i_long":106.800832,"station_name":"Duri","transit":false,"i_lat":-6.155215}],[{"distance":0,"transit":false,"station_name":"Pondok Jati","i_lat":-6.209188,"time":0,"i_long":106.861737,"line":11,"is_transit":false,"station_id":"POK"},{"station_name":"Kramat","is_transit":false,"transit":false,"i_long":106.855437,"distance":1829,"line":11,"i_lat":-6.193792,"time":2,"station_id":"KMT"},{"station_name":"Gang Sentiong","i_lat":-6.185975,"time":1,"is_transit":false,"i_long":106.850107,"station_id":"GST","transit":false,"distance":973,"line":11},{"transit":false,"line":11,"time":8,"i_lat":-6.174784,"i_long":106.84368,"station_id":"PSE","distance":1567,"is_transit":false,"station_name":"Pasar Senen"},{"station_name":"Kemayoran","station_id":"KMO","i_long":106.839204,"transit":false,"is_transit":false,"i_lat":-6.161728,"distance":1436,"time":4,"line":11},{"time":5,"line":11,"distance":1901,"is_transit":false,"i_lat":-6.14505,"transit":false,"station_id":"RJW","station_name":"Rajawali","i_long":106.836569},{"station_id":"KPB","station_name":"Kampung Bandan","transit":true,"distance":1444,"i_lat":-6.132549,"time":3,"i_long":106.826365,"is_transit":true,"line":0},{"i_long":106.79867,"time":9,"transit":false,"i_lat":-6.144674,"distance":4102,"line":0,"station_id":"AK","station_name":"Angke","is_transit":false},{"line":1,"station_name":"Duri","i_lat":-6.155215,"time":4,"transit":false,"distance":1230,"is_transit":true,"station_id":"DU","i_long":106.800832}],[{"i_long":106.861737,"station_name":"Pondok Jati","line":11,"is_transit":false,"time":0,"distance":0,"station_id":"POK","transit":false,"i_lat":-6.209188},{"distance":1236,"time":9,"line":0,"i_long":106.86807400000001,"station_name":"Jatinegara","transit":true,"is_transit":true,"i_lat":-6.215091,"station_id":"JNG"},{"is_transit":false,"i_lat":-6.212485,"distance":1377,"station_id":"MTR","transit":false,"time":2,"line":1,"i_long":106.858896,"station_name":"Matraman"},{"time":2,"i_long":106.84912,"is_transit":true,"distance":1275,"station_id":"MRI","station_name":"Manggarai","transit":true,"line":0,"i_lat":-6.209883},{"i_lat":-6.198556,"i_long":106.840169,"line":0,"station_id":"CKI","station_name":"Cikini","transit":false,"is_transit":false,"distance":1590,"time":4},{"i_long":106.832183,"distance":1750,"station_id":"GDD","time":3,"i_lat":-6.186295,"line":2,"is_transit":false,"transit":false,"station_name":"Gondangdia"},{"station_name":"Juanda","time":4,"distance":2015,"station_id":"JUA","transit":false,"i_long":106.828284,"is_transit":false,"i_lat":-6.166716,"line":2},{"distance":1149,"line":2,"time":2,"station_id":"SW","is_transit":false,"station_name":"Sawah Besar","i_lat":-6.160725,"transit":false,"i_long":106.827103},{"distance":906,"i_long":106.82482,"transit":false,"is_transit":false,"line":2,"station_id":"MGB","station_name":"Manggabesar","time":2,"i_lat":-6.149769},{"distance":1080,"station_name":"Jayakarta","line":7,"i_long":106.820901,"transit":false,"is_transit":false,"station_id":"JAY","time":2,"i_lat":-6.141205},{"i_long":106.812439,"station_name":"Jakarta Kota","distance":1264,"transit":true,"time":4,"i_lat":-6.137569,"is_transit":true,"station_id":"JAKK","line":0},{"distance":1364,"station_id":"KPB","transit":false,"time":3,"i_long":106.826365,"is_transit":true,"line":0,"i_lat":-6.132549,"station_name":"Kampung Bandan"},{"distance":4102,"station_name":"Angke","i_long":106.79867,"is_transit":false,"i_lat":-6.144674,"station_id":"AK","line":0,"transit":false,"time":9},{"station_id":"DU","line":1,"distance":1230,"is_transit":true,"station_name":"Duri","transit":false,"time":4,"i_long":106.800832,"i_lat":-6.155215}],[{"i_lat":-6.209188,"station_id":"POK","station_name":"Pondok Jati","transit":false,"i_long":106.861737,"is_transit":false,"time":0,"distance":0,"line":11},{"is_transit":false,"station_name":"Kramat","i_long":106.855437,"station_id":"KMT","transit":false,"time":2,"i_lat":-6.193792,"line":11,"distance":1829},{"line":11,"i_lat":-6.185975,"distance":973,"i_long":106.850107,"time":1,"station_id":"GST","transit":false,"station_name":"Gang Sentiong","is_transit":false},{"station_id":"PSE","is_transit":false,"i_lat":-6.174784,"time":8,"transit":false,"line":11,"station_name":"Pasar Senen","i_long":106.84368,"distance":1567},{"is_transit":false,"transit":false,"i_lat":-6.161728,"line":11,"time":4,"station_name":"Kemayoran","i_long":106.839204,"station_id":"KMO","distance":1436},{"is_transit":false,"distance":1901,"transit":false,"station_name":"Rajawali","station_id":"RJW","time":5,"line":11,"i_long":106.836569,"i_lat":-6.14505},{"station_id":"KPB","line":0,"station_name":"Kampung Bandan","distance":1444,"i_long":106.826365,"i_lat":-6.132549,"is_transit":true,"time":3,"transit":true},{"time":3,"station_name":"Jakarta Kota","line":0,"distance":1364,"transit":true,"i_long":106.812439,"i_lat":-6.137569,"is_transit":true,"station_id":"JAKK"},{"is_transit":false,"station_name":"Jayakarta","i_lat":-6.141205,"station_id":"JAY","distance":1264,"time":4,"line":7,"i_long":106.820901,"transit":false},{"station_id":"MGB","i_lat":-6.149769,"transit":false,"i_long":106.82482,"time":2,"is_transit":false,"station_name":"Manggabesar","distance":1080,"line":2},{"distance":906,"line":2,"station_name":"Sawah Besar","time":2,"i_lat":-6.160725,"is_transit":false,"station_id":"SW","transit":false,"i_long":106.827103},{"line":2,"station_id":"JUA","distance":1149,"i_lat":-6.166716,"transit":false,"station_name":"Juanda","time":2,"is_transit":false,"i_long":106.828284},{"transit":false,"distance":2015,"is_transit":false,"i_long":106.832183,"station_id":"GDD","time":4,"i_lat":-6.186295,"line":2,"station_name":"Gondangdia"},{"line":0,"station_name":"Cikini","time":3,"transit":false,"i_long":106.840169,"i_lat":-6.198556,"distance":1750,"station_id":"CKI","is_transit":false},{"i_lat":-6.209883,"transit":true,"is_transit":true,"station_name":"Manggarai","i_long":106.84912,"line":0,"distance":1590,"station_id":"MRI","time":4},{"time":4,"distance":3186,"is_transit":false,"station_name":"Sudirman","i_lat":-6.202263,"line":1,"i_long":106.822649,"station_id":"SUD","transit":false},{"i_long":106.819881,"i_lat":-6.201433,"transit":false,"is_transit":false,"station_name":"Sudirman Baru","station_id":"SUDB","time":1,"line":1,"distance":280},{"i_long":106.816351,"time":1,"distance":471,"transit":false,"i_lat":-6.20132,"line":1,"is_transit":false,"station_name":"Karet","station_id":"KAT"},{"station_id":"THB","i_long":106.811091,"distance":2029,"station_name":"Tanah Abang","transit":false,"is_transit":true,"time":5,"i_lat":-6.185545,"line":1},{"i_lat":-6.155215,"transit":false,"time":8,"line":1,"distance":3632,"is_transit":true,"station_id":"DU","i_long":106.800832,"station_name":"Duri"}]]}