{"data":[[{"station_name":"Pondok Jati","is_transit":false,"i_lat":-6.209188,"distance":0,"line":11,"transit":false,"time":0,"station_id":"POK","i_long":106.861737},{"station_name":"Jatinegara","i_long":106.86807400000001,"time":9,"line":1,"i_lat":-6.215091,"is_transit":true,"distance":1236,"station_id":"JNG","transit":true},{"is_transit":false,"line":1,"i_lat":-6.212485,"transit":false,"station_id":"MTR","time":2,"station_name":"Matraman","distance":1377,"i_long":106.858896},{"time":2,"distance":1275,"is_transit":false,"transit":false,"i_lat":-6.209883,"line":2,"i_long":106.84912,"station_name":"Manggarai","station_id":"MRI"},{"station_name":"Sudirman","is_transit":false,"distance":3186,"i_long":106.822649,"time":4,"i_lat":-6.202263,"station_id":"SUD","transit":false,"line":1},{"i_long":106.819881,"transit":false,"time":1,"station_name":"Sudirman Baru","i_lat":-6.201433,"is_transit":false,"line":1,"station_id":"SUDB","distance":280},{"distance":471,"i_long":106.816351,"line":1,"station_name":"Karet","is_transit":false,"transit":false,"time":1,"station_id":"KAT","i_lat":-6.20132},{"distance":2029,"i_lat":-6.185545,"line":1,"station_id":"THB","is_transit":true,"i_long":106.811091,"station_name":"Tanah Abang","transit":true,"time":5},{"transit":false,"is_transit":false,"time":6,"station_id":"PLM","line":6,"i_lat":-6.207404,"distance":3191,"i_long":106.79689,"station_name":"Palmerah"},{"time":7,"line":6,"station_name":"Kebayoran","transit":false,"is_transit":false,"station_id":"KBY","i_lat":-6.237242,"distance":3737,"i_long":106.780334}],[{"is_transit":false,"i_lat":-6.209188,"time":0,"i_long":106.861737,"station_name":"Pondok Jati","line":11,"transit":false,"station_id":"POK","distance":0},{"i_lat":-6.193792,"transit":false,"is_transit":false,"line":11,"station_name":"Kramat","distance":1829,"station_id":"KMT","time":2,"i_long":106.855437},{"distance":973,"is_transit":false,"line":11,"time":1,"transit":false,"station_name":"Gang Sentiong","station_id":"GST","i_lat":-6.185975,"i_long":106.850107},{"time":8,"distance":1567,"i_lat":-6.174784,"i_long":106.84368,"station_id":"PSE","line":11,"station_name":"Pasar Senen","transit":false,"is_transit":false},{"i_lat":-6.161728,"station_id":"KMO","line":11,"i_long":106.839204,"transit":false,"station_name":"Kemayoran","time":4,"is_transit":false,"distance":1436},{"station_id":"RJW","i_lat":-6.14505,"transit":false,"is_transit":false,"time":5,"distance":1901,"i_long":106.836569,"station_name":"Rajawali","line":11},{"station_name":"Kampung Bandan","time":3,"is_transit":true,"i_lat":-6.132549,"transit":true,"line":4,"i_long":106.826365,"station_id":"KPB","distance":1444},{"station_name":"Angke","time":9,"transit":false,"i_lat":-6.144674,"i_long":106.79867,"distance":4102,"line":1,"is_transit":false,"station_id":"AK"},{"i_long":106.800832,"station_name":"Duri","is_transit":false,"station_id":"DU","transit":false,"time":4,"i_lat":-6.155215,"line":1,"distance":1230},{"i_lat":-6.185545,"time":8,"i_long":106.811091,"is_transit":true,"transit":true,"distance":3632,"station_id":"THB","line":1,"station_name":"Tanah Abang"},{"distance":3191,"i_long":106.79689,"transit":false,"i_lat":-6.207404,"station_name":"Palmerah","is_transit":false,"time":6,"station_id":"PLM","line":6},{"i_long":106.780334,"station_name":"Kebayoran","transit":false,"time":7,"distance":3737,"station_id":"KBY","i_lat":-6.237242,"line":6,"is_transit":false}],[{"station_id":"POK","time":0,"is_transit":false,"i_lat":-6.209188,"i_long":106.861737,"line":11,"transit":false,"distance":0,"station_name":"Pondok Jati"},{"is_transit":true,"i_long":106.86807400000001,"distance":1236,"i_lat":-6.215091,"station_name":"Jatinegara","line":1,"station_id":"JNG","transit":true,"time":9},{"station_name":"Matraman","time":2,"is_transit":false,"i_long":106.858896,"transit":false,"station_id":"MTR","line":1,"distance":1377,"i_lat":-6.212485},{"station_name":"Manggarai","transit":true,"i_long":106.84912,"distance":1275,"station_id":"MRI","i_lat":-6.209883,"is_transit":true,"time":2,"line":2},{"station_name":"Cikini","i_lat":-6.198556,"transit":false,"is_transit":false,"time":4,"i_long":106.840169,"station_id":"CKI","distance":1590,"line":2},{"line":2,"transit":false,"distance":1750,"time":3,"i_long":106.832183,"station_name":"Gondangdia","i_lat":-6.186295,"is_transit":false,"station_id":"GDD"},{"line":2,"transit":false,"station_id":"JUA","i_long":106.828284,"distance":2015,"i_lat":-6.166716,"time":4,"station_name":"Juanda","is_transit":false},{"transit":false,"i_lat":-6.160725,"station_id":"SW","i_long":106.827103,"station_name":"Sawah Besar","line":2,"is_transit":false,"distance":1149,"time":2},{"i_lat":-6.149769,"is_transit":false,"transit":false,"station_id":"MGB","distance":906,"station_name":"Manggabesar","time":2,"line":2,"i_long":106.82482},{"i_lat":-6.141205,"transit":false,"station_name":"Jayakarta","is_transit":false,"time":2,"i_long":106.820901,"distance":1080,"station_id":"JAY","line":2},{"time":4,"is_transit":true,"distance":1264,"i_long":106.812439,"line":2,"i_lat":-6.137569,"station_id":"JAKK","transit":true,"station_name":"Jakarta Kota"},{"distance":1364,"is_transit":true,"station_name":"Kampung Bandan","transit":true,"station_id":"KPB","i_long":106.826365,"line":4,"time":3,"i_lat":-6.132549},{"i_long":106.79867,"line":1,"is_transit":false,"transit":false,"time":9,"station_name":"Angke","distance":4102,"i_lat":-6.144674,"station_id":"AK"},{"station_name":"Duri","is_transit":false,"line":1,"i_long":106.800832,"station_id":"DU","transit":false,"distance":1230,"i_lat":-6.155215,"time":4},{"station_name":"Tanah Abang","transit":true,"station_id":"THB","time":8,"distance":3632,"i_lat":-6.185545,"i_long":106.811091,"line":1,"is_transit":true},{"station_name":"Palmerah","distance":3191,"is_transit":false,"time":6,"station_id":"PLM","transit":false,"line":6,"i_lat":-6.207404,"i_long":106.79689},{"is_transit":false,"time":7,"transit":false,"station_id":"KBY","distance":3737,"i_lat":-6.237242,"line":6,"i_long":106.780334,"station_name":"Kebayoran"}],[{"i_long":106.861737,"distance":0,"line":11,"station_name":"Pondok Jati","transit":false,"station_id":"POK","is_transit":false,"i_lat":-6.209188,"time":0},{"is_transit":false,"time":2,"line":11,"station_id":"KMT","station_name":"Kramat","transit":false,"i_lat":-6.193792,"distance":1829,"i_long":106.855437},{"station_id":"GST","transit":false,"i_long":106.850107,"distance":973,"line":11,"station_name":"Gang Sentiong","time":1,"i_lat":-6.185975,"is_transit":false},{"is_transit":false,"station_id":"PSE","station_name":"Pasar Senen","line":11,"transit":false,"time":8,"i_long":106.84368,"distance":1567,"i_lat":-6.174784},{"is_transit":false,"transit":false,"time":4,"distance":1436,"station_name":"Kemayoran","line":11,"station_id":"KMO","i_lat":-6.161728,"i_long":106.839204},{"station_id":"RJW","i_lat":-6.14505,"line":11,"is_transit":false,"time":5,"station_name":"Rajawali","distance":1901,"i_long":106.836569,"transit":false},{"line":4,"i_lat":-6.132549,"is_transit":true,"station_id":"KPB","time":3,"transit":true,"station_name":"Kampung Bandan","i_long":106.826365,"distance":1444},{"is_transit":true,"station_name":"Jakarta Kota","line":2,"station_id":"JAKK","i_lat":-6.137569,"transit":true,"distance":1364,"i_long":106.812439,"time":3},{"transit":false,"i_lat":-6.141205,"station_id":"JAY","time":4,"distance":1264,"station_name":"Jayakarta","i_long":106.820901,"line":2,"is_transit":false},{"transit":false,"station_name":"Manggabesar","station_id":"MGB","i_long":106.82482,"time":2,"line":2,"i_lat":-6.149769,"distance":1080,"is_transit":false},{"station_name":"Sawah Besar","is_transit":false,"time":2,"line":2,"station_id":"SW","i_lat":-6.160725,"i_long":106.827103,"distance":906,"transit":false},{"line":2,"is_transit":false,"time":2,"i_long":106.828284,"station_name":"Juanda","distance":1149,"station_id":"JUA","i_lat":-6.166716,"transit":false},{"line":2,"station_name":"Gondangdia","is_transit":false,"time":4,"distance":2015,"i_lat":-6.186295,"transit":false,"station_id":"GDD","i_long":106.832183},{"i_long":106.840169,"line":2,"transit":false,"distance":1750,"i_lat":-6.198556,"station_name":"Cikini","is_transit":false,"time":3,"station_id":"CKI"},{"distance":1590,"line":2,"time":4,"i_lat":-6.209883,"is_transit":true,"i_long":106.84912,"station_id":"MRI","transit":true,"station_name":"Manggarai"},{"is_transit":false,"distance":3186,"i_long":106.822649,"transit":false,"time":4,"station_name":"Sudirman","i_lat":-6.202263,"station_id":"SUD","line":1},{"distance":280,"station_name":"Sudirman Baru","station_id":"SUDB","line":1,"i_lat":-6.201433,"time":1,"transit":false,"is_transit":false,"i_long":106.819881},{"station_name":"Karet","is_transit":false,"time":1,"i_lat":-6.20132,"i_long":106.816351,"station_id":"KAT","distance":471,"transit":false,"line":1},{"is_transit":true,"distance":2029,"time":5,"i_lat":-6.185545,"i_long":106.811091,"transit":true,"station_name":"Tanah Abang","station_id":"THB","line":1},{"station_id":"PLM","time":6,"i_long":106.79689,"distance":3191,"is_transit":false,"station_name":"Palmerah","i_lat":-6.207404,"line":6,"transit":false},{"is_transit":false,"station_id":"KBY","distance":3737,"i_long":106.780334,"i_lat":-6.237242,"transit":false,"station_name":"Kebayoran","time":7,"line":6}]]}