{"data":[[{"distance":0,"station_id":"POK","station_name":"Pondok Jati","i_long":106.861737,"line":11,"is_transit":false,"transit":false,"time":0,"i_lat":-6.209188},{"station_name":"Jatinegara","i_lat":-6.215091,"line":1,"distance":1236,"is_transit":true,"transit":true,"station_id":"JNG","time":9,"i_long":106.86807400000001},{"is_transit":false,"distance":1377,"i_long":106.858896,"time":2,"line":1,"i_lat":-6.212485,"station_id":"MTR","transit":false,"station_name":"Matraman"},{"distance":1275,"i_lat":-6.209883,"transit":false,"i_long":106.84912,"time":2,"station_name":"Manggarai","station_id":"MRI","line":2,"is_transit":false},{"station_name":"Sudirman","time":4,"i_lat":-6.202263,"i_long":106.822649,"station_id":"SUD","is_transit":false,"transit":false,"distance":3186,"line":1},{"line":1,"distance":280,"transit":false,"station_id":"SUDB","time":1,"station_name":"Sudirman Baru","i_long":106.819881,"is_transit":false,"i_lat":-6.201433},{"station_name":"Karet","transit":false,"time":1,"station_id":"KAT","i_lat":-6.20132,"i_long":106.816351,"is_transit":false,"distance":471,"line":1},{"i_lat":-6.185545,"transit":true,"distance":2029,"station_id":"THB","time":5,"i_long":106.811091,"station_name":"Tanah Abang","line":1,"is_transit":true},{"station_name":"Palmerah","transit":false,"is_transit":false,"time":6,"i_long":106.79689,"distance":3191,"line":6,"i_lat":-6.207404,"station_id":"PLM"},{"line":6,"station_id":"KBY","distance":3737,"is_transit":false,"transit":false,"i_long":106.780334,"time":7,"station_name":"Kebayoran","i_lat":-6.237242},{"station_id":"PDJ","transit":false,"is_transit":false,"distance":6218,"i_long":106.74273,"i_lat":-6.276362,"time":8,"station_name":"Pondokranji","line":6},{"line":6,"station_id":"JMU","distance":2179,"transit":false,"time":3,"i_lat":-6.288927,"i_long":106.728916,"is_transit":false,"station_name":"Jurangmangu"}],[{"time":0,"distance":0,"transit":false,"is_transit":false,"i_lat":-6.209188,"i_long":106.861737,"line":11,"station_id":"POK","station_name":"Pondok Jati"},{"i_long":106.855437,"station_name":"Kramat","transit":false,"station_id":"KMT","distance":1829,"is_transit":false,"i_lat":-6.193792,"line":11,"time":2},{"is_transit":false,"i_long":106.850107,"time":1,"transit":false,"station_name":"Gang Sentiong","station_id":"GST","i_lat":-6.185975,"line":11,"distance":973},{"time":8,"transit":false,"is_transit":false,"station_id":"PSE","i_lat":-6.174784,"station_name":"Pasar Senen","i_long":106.84368,"line":11,"distance":1567},{"i_lat":-6.161728,"i_long":106.839204,"is_transit":false,"transit":false,"time":4,"distance":1436,"station_name":"Kemayoran","station_id":"KMO","line":11},{"time":5,"i_lat":-6.14505,"i_long":106.836569,"transit":false,"station_name":"Rajawali","line":11,"station_id":"RJW","distance":1901,"is_transit":false},{"line":4,"station_name":"Kampung Bandan","i_long":106.826365,"is_transit":true,"transit":true,"time":3,"i_lat":-6.132549,"station_id":"KPB","distance":1444},{"station_id":"AK","time":9,"i_long":106.79867,"line":1,"i_lat":-6.144674,"station_name":"Angke","distance":4102,"transit":false,"is_transit":false},{"transit":false,"i_lat":-6.155215,"station_name":"Duri","distance":1230,"line":1,"is_transit":false,"time":4,"i_long":106.800832,"station_id":"DU"},{"is_transit":true,"line":1,"transit":true,"station_name":"Tanah Abang","station_id":"THB","i_lat":-6.185545,"distance":3632,"time":8,"i_long":106.811091},{"transit":false,"station_id":"PLM","station_name":"Palmerah","time":6,"i_long":106.79689,"i_lat":-6.207404,"distance":3191,"is_transit":false,"line":6},{"station_id":"KBY","i_lat":-6.237242,"is_transit":false,"i_long":106.780334,"line":6,"time":7,"transit":false,"station_name":"Kebayoran","distance":3737},{"distance":6218,"i_long":106.74273,"station_name":"Pondokranji","line":6,"is_transit":false,"i_lat":-6.276362,"transit":false,"station_id":"PDJ","time":8},{"transit":false,"is_transit":false,"time":3,"distance":2179,"station_name":"Jurangmangu","station_id":"JMU","i_lat":-6.288927,"i_long":106.728916,"line":6}],[{"station_id":"POK","is_transit":false,"time":0,"distance":0,"i_lat":-6.209188,"transit":false,"line":11,"i_long":106.861737,"station_name":"Pondok Jati"},{"line":1,"station_id":"JNG","distance":1236,"i_lat":-6.215091,"i_long":106.86807400000001,"station_name":"Jatinegara","transit":true,"is_transit":true,"time":9},{"i_long":106.858896,"station_name":"Matraman","line":1,"i_lat":-6.212485,"time":2,"distance":1377,"is_transit":false,"transit":false,"station_id":"MTR"},{"time":2,"station_id":"MRI","station_name":"Manggarai","distance":1275,"line":2,"is_transit":true,"transit":true,"i_lat":-6.209883,"i_long":106.84912},{"i_long":106.840169,"is_transit":false,"time":4,"distance":1590,"transit":false,"i_lat":-6.198556,"line":2,"station_name":"Cikini","station_id":"CKI"},{"i_long":106.832183,"distance":1750,"line":2,"transit":false,"station_name":"Gondangdia","i_lat":-6.186295,"is_transit":false,"station_id":"GDD","time":3},{"i_long":106.828284,"line":2,"is_transit":false,"i_lat":-6.166716,"transit":false,"station_name":"Juanda","station_id":"JUA","distance":2015,"time":4},{"line":2,"station_id":"SW","i_long":106.827103,"transit":false,"i_lat":-6.160725,"station_name":"Sawah Besar","time":2,"is_transit":false,"distance":1149},{"distance":906,"time":2,"station_name":"Manggabesar","line":2,"transit":false,"i_long":106.82482,"i_lat":-6.149769,"station_id":"MGB","is_transit":false},{"i_long":106.820901,"time":2,"distance":1080,"i_lat":-6.141205,"transit":false,"station_id":"JAY","is_transit":false,"line":2,"station_name":"Jayakarta"},{"i_lat":-6.137569,"time":4,"transit":true,"i_long":106.812439,"station_id":"JAKK","distance":1264,"line":2,"station_name":"Jakarta Kota","is_transit":true},{"station_id":"KPB","station_name":"Kampung Bandan","is_transit":true,"line":4,"i_long":106.826365,"distance":1364,"transit":true,"time":3,"i_lat":-6.132549},{"distance":4102,"station_id":"AK","i_lat":-6.144674,"station_name":"Angke","transit":false,"i_long":106.79867,"is_transit":false,"time":9,"line":1},{"transit":false,"station_id":"DU","time":4,"i_lat":-6.155215,"distance":1230,"line":1,"station_name":"Duri","is_transit":false,"i_long":106.800832},{"is_transit":true,"station_name":"Tanah Abang","distance":3632,"time":8,"station_id":"THB","i_long":106.811091,"transit":true,"i_lat":-6.185545,"line":1},{"i_lat":-6.207404,"station_name":"Palmerah","station_id":"PLM","i_long":106.79689,"transit":false,"time":6,"distance":3191,"line":6,"is_transit":false},{"is_transit":false,"time":7,"i_long":106.780334,"line":6,"station_id":"KBY","i_lat":-6.237242,"transit":false,"station_name":"Kebayoran","distance":3737},{"time":8,"distance":6218,"transit":false,"line":6,"station_id":"PDJ","i_long":106.74273,"station_name":"Pondokranji","i_lat":-6.276362,"is_transit":false},{"station_name":"Jurangmangu","is_transit":false,"time":3,"i_lat":-6.288927,"transit":false,"station_id":"JMU","i_long":106.728916,"distance":2179,"line":6}],[{"time":0,"station_name":"Pondok Jati","distance":0,"line":11,"station_id":"POK","transit":false,"is_transit":false,"i_long":106.861737,"i_lat":-6.209188},{"transit":false,"time":2,"distance":1829,"i_lat":-6.193792,"line":11,"i_long":106.855437,"station_id":"KMT","station_name":"Kramat","is_transit":false},{"distance":973,"line":11,"is_transit":false,"i_lat":-6.185975,"station_name":"Gang Sentiong","i_long":106.850107,"station_id":"GST","transit":false,"time":1},{"station_id":"PSE","transit":false,"i_lat":-6.174784,"distance":1567,"time":8,"line":11,"station_name":"Pasar Senen","i_long":106.84368,"is_transit":false},{"i_lat":-6.161728,"station_name":"Kemayoran","transit":false,"station_id":"KMO","is_transit":false,"time":4,"distance":1436,"i_long":106.839204,"line":11},{"station_name":"Rajawali","distance":1901,"i_lat":-6.14505,"station_id":"RJW","i_long":106.836569,"time":5,"transit":false,"line":11,"is_transit":false},{"transit":true,"distance":1444,"time":3,"is_transit":true,"line":4,"station_id":"KPB","i_lat":-6.132549,"station_name":"Kampung Bandan","i_long":106.826365},{"line":2,"i_long":106.812439,"station_id":"JAKK","time":3,"is_transit":true,"transit":true,"station_name":"Jakarta Kota","distance":1364,"i_lat":-6.137569},{"distance":1264,"station_id":"JAY","time":4,"is_transit":false,"i_long":106.820901,"station_name":"Jayakarta","i_lat":-6.141205,"line":2,"transit":false},{"i_lat":-6.149769,"station_id":"MGB","time":2,"transit":false,"i_long":106.82482,"line":2,"station_name":"Manggabesar","is_transit":false,"distance":1080},{"transit":false,"station_name":"Sawah Besar","station_id":"SW","distance":906,"is_transit":false,"time":2,"line":2,"i_lat":-6.160725,"i_long":106.827103},{"distance":1149,"transit":false,"line":2,"station_name":"Juanda","i_long":106.828284,"i_lat":-6.166716,"station_id":"JUA","is_transit":false,"time":2},{"i_long":106.832183,"i_lat":-6.186295,"is_transit":false,"station_name":"Gondangdia","station_id":"GDD","time":4,"distance":2015,"line":2,"transit":false},{"transit":false,"i_lat":-6.198556,"time":3,"is_transit":false,"station_name":"Cikini","distance":1750,"station_id":"CKI","line":2,"i_long":106.840169},{"station_id":"MRI","i_lat":-6.209883,"transit":true,"distance":1590,"line":2,"i_long":106.84912,"time":4,"is_transit":true,"station_name":"Manggarai"},{"line":1,"distance":3186,"transit":false,"station_id":"SUD","is_transit":false,"i_lat":-6.202263,"station_name":"Sudirman","time":4,"i_long":106.822649},{"time":1,"station_name":"Sudirman Baru","is_transit":false,"distance":280,"line":1,"transit":false,"i_long":106.819881,"i_lat":-6.201433,"station_id":"SUDB"},{"is_transit":false,"time":1,"i_long":106.816351,"line":1,"station_id":"KAT","distance":471,"i_lat":-6.20132,"transit":false,"station_name":"Karet"},{"is_transit":true,"i_lat":-6.185545,"i_long":106.811091,"station_id":"THB","time":5,"distance":2029,"transit":true,"line":1,"station_name":"Tanah Abang"},{"is_transit":false,"i_long":106.79689,"station_name":"Palmerah","i_lat":-6.207404,"station_id":"PLM","transit":false,"time":6,"line":6,"distance":3191},{"line":6,"transit":false,"station_id":"KBY","is_transit":false,"time":7,"i_lat":-6.237242,"station_name":"Kebayoran","distance":3737,"i_long":106.780334},{"distance":6218,"transit":false,"time":8,"i_lat":-6.276362,"line":6,"is_transit":false,"station_id":"PDJ","i_long":106.74273,"station_name":"Pondokranji"},{"station_name":"Jurangmangu","distance":2179,"i_lat":-6.288927,"is_transit":false,"transit":false,"station_id":"JMU","time":3,"i_long":106.728916,"line":6}]]}