{"data":[[{"transit":false,"distance":0,"time":0,"line":11,"station_id":"POK","station_name":"Pondok Jati","i_lat":-6.209188,"is_transit":false,"i_long":106.861737},{"station_id":"JNG","station_name":"Jatinegara","time":9,"transit":true,"is_transit":true,"distance":1236,"line":1,"i_long":106.86807400000001,"i_lat":-6.215091},{"line":1,"time":2,"station_name":"Matraman","station_id":"MTR","is_transit":false,"transit":false,"distance":1377,"i_lat":-6.212485,"i_long":106.858896},{"i_long":106.84912,"is_transit":true,"line":2,"i_lat":-6.209883,"station_id":"MRI","time":2,"transit":true,"station_name":"Manggarai","distance":1275},{"station_name":"Tebet","time":4,"i_lat":-6.226659,"station_id":"TEB","line":2,"is_transit":false,"distance":2610,"transit":false,"i_long":106.857948},{"distance":1230,"i_lat":-6.242512,"station_id":"CW","station_name":"Cawang","line":2,"i_long":106.856607,"is_transit":false,"time":2,"transit":false},{"i_lat":-6.255332,"i_long":106.85449,"station_name":"Duren Kalibata","line":2,"transit":false,"is_transit":false,"distance":1546,"station_id":"DRN","time":3},{"i_lat":-6.263214,"is_transit":false,"line":2,"transit":false,"time":2,"i_long":106.851577,"station_id":"PSMB","distance":824,"station_name":"Pasar Minggu Baru"},{"distance":2380,"is_transit":false,"line":2,"station_name":"Pasar Minggu","transit":false,"time":2,"station_id":"PSM","i_lat":-6.2842400000000005,"i_long":106.843999},{"i_long":106.838896,"time":4,"transit":false,"line":2,"station_id":"TNT","station_name":"Tanjung Barat","i_lat":-6.3080680000000005,"distance":2820,"is_transit":false},{"is_transit":false,"i_long":106.832616,"station_id":"LNA","transit":false,"i_lat":-6.330363,"line":2,"distance":2671,"time":3,"station_name":"Lenteng Agung"},{"station_id":"UP","station_name":"Univ. Pancasila","transit":false,"i_lat":-6.339291,"is_transit":false,"line":2,"distance":1029,"i_long":106.834175,"time":2},{"time":3,"i_lat":-6.360749,"i_long":106.831474,"is_transit":false,"distance":2264,"transit":false,"line":2,"station_name":"Univ. Indonesia","station_id":"UI"},{"transit":false,"time":2,"line":2,"station_name":"Pondok Cina","station_id":"POC","distance":1109,"i_lat":-6.369073,"is_transit":false,"i_long":106.831114},{"i_long":106.819451,"i_lat":-6.391065,"line":2,"station_name":"Depokbaru","station_id":"DPB","is_transit":false,"time":4,"transit":false,"distance":2727},{"station_id":"DP","transit":false,"is_transit":false,"time":3,"distance":1584,"i_long":106.816926,"line":2,"i_lat":-6.405256,"station_name":"Depok"},{"distance":5084,"is_transit":false,"i_lat":-6.448811,"station_id":"CTA","time":6,"transit":false,"station_name":"Citayam","i_long":106.800298,"line":2},{"station_id":"BJD","time":5,"station_name":"Bojonggede","i_lat":-6.493243,"is_transit":false,"transit":false,"distance":5197,"line":2,"i_long":106.792719},{"station_id":"CLT","time":5,"is_transit":false,"i_lat":-6.530544,"line":2,"distance":4331,"station_name":"Cilebut","i_long":106.800016,"transit":false}],[{"line":11,"transit":false,"time":0,"station_name":"Pondok Jati","distance":0,"is_transit":false,"i_long":106.861737,"station_id":"POK","i_lat":-6.209188},{"station_name":"Kramat","distance":1829,"is_transit":false,"transit":false,"i_long":106.855437,"time":2,"station_id":"KMT","i_lat":-6.193792,"line":11},{"time":1,"distance":973,"i_long":106.850107,"is_transit":false,"line":11,"transit":false,"station_name":"Gang Sentiong","i_lat":-6.185975,"station_id":"GST"},{"station_id":"PSE","transit":false,"time":8,"station_name":"Pasar Senen","is_transit":false,"i_lat":-6.174784,"i_long":106.84368,"line":11,"distance":1567},{"station_name":"Kemayoran","is_transit":false,"distance":1436,"transit":false,"station_id":"KMO","time":4,"i_lat":-6.161728,"line":11,"i_long":106.839204},{"is_transit":false,"time":5,"distance":1901,"i_long":106.836569,"station_name":"Rajawali","i_lat":-6.14505,"line":11,"transit":false,"station_id":"RJW"},{"time":3,"i_long":106.826365,"station_name":"Kampung Bandan","transit":true,"is_transit":true,"distance":1444,"i_lat":-6.132549,"line":4,"station_id":"KPB"},{"line":1,"i_lat":-6.144674,"transit":false,"is_transit":false,"station_id":"AK","station_name":"Angke","distance":4102,"time":9,"i_long":106.79867},{"i_long":106.800832,"transit":false,"station_name":"Duri","i_lat":-6.155215,"is_transit":false,"station_id":"DU","distance":1230,"time":4,"line":1},{"is_transit":false,"i_lat":-6.185545,"transit":false,"station_name":"Tanah Abang","station_id":"THB","i_long":106.811091,"line":1,"distance":3632,"time":8},{"station_id":"KAT","is_transit":false,"transit":false,"line":1,"i_lat":-6.20132,"time":5,"distance":2029,"station_name":"Karet","i_long":106.816351},{"transit":false,"station_name":"Sudirman Baru","i_long":106.819881,"line":1,"is_transit":false,"distance":471,"i_lat":-6.201433,"time":1,"station_id":"SUDB"},{"i_long":106.822649,"station_id":"SUD","station_name":"Sudirman","i_lat":-6.202263,"line":1,"time":1,"distance":280,"transit":false,"is_transit":false},{"station_id":"MRI","line":2,"i_long":106.84912,"i_lat":-6.209883,"distance":3186,"is_transit":true,"transit":true,"station_name":"Manggarai","time":4},{"station_name":"Tebet","transit":false,"distance":2610,"i_long":106.857948,"line":2,"time":4,"is_transit":false,"station_id":"TEB","i_lat":-6.226659},{"i_long":106.856607,"i_lat":-6.242512,"is_transit":false,"station_id":"CW","transit":false,"time":2,"distance":1230,"line":2,"station_name":"Cawang"},{"line":2,"i_lat":-6.255332,"i_long":106.85449,"station_id":"DRN","time":3,"transit":false,"is_transit":false,"station_name":"Duren Kalibata","distance":1546},{"i_lat":-6.263214,"line":2,"transit":false,"station_id":"PSMB","is_transit":false,"i_long":106.851577,"time":2,"station_name":"Pasar Minggu Baru","distance":824},{"station_id":"PSM","line":2,"transit":false,"is_transit":false,"time":2,"station_name":"Pasar Minggu","distance":2380,"i_long":106.843999,"i_lat":-6.2842400000000005},{"transit":false,"is_transit":false,"i_lat":-6.3080680000000005,"line":2,"time":4,"i_long":106.838896,"distance":2820,"station_name":"Tanjung Barat","station_id":"TNT"},{"i_long":106.832616,"is_transit":false,"distance":2671,"station_name":"Lenteng Agung","transit":false,"time":3,"line":2,"i_lat":-6.330363,"station_id":"LNA"},{"is_transit":false,"station_name":"Univ. Pancasila","station_id":"UP","time":2,"distance":1029,"i_lat":-6.339291,"i_long":106.834175,"line":2,"transit":false},{"line":2,"station_id":"UI","transit":false,"station_name":"Univ. Indonesia","distance":2264,"i_long":106.831474,"time":3,"is_transit":false,"i_lat":-6.360749},{"i_lat":-6.369073,"is_transit":false,"line":2,"distance":1109,"station_id":"POC","station_name":"Pondok Cina","i_long":106.831114,"time":2,"transit":false},{"time":4,"station_name":"Depokbaru","i_long":106.819451,"transit":false,"distance":2727,"station_id":"DPB","is_transit":false,"line":2,"i_lat":-6.391065},{"station_name":"Depok","distance":1584,"transit":false,"time":3,"is_transit":false,"i_long":106.816926,"station_id":"DP","i_lat":-6.405256,"line":2},{"i_long":106.800298,"station_name":"Citayam","transit":false,"is_transit":false,"line":2,"time":6,"distance":5084,"i_lat":-6.448811,"station_id":"CTA"},{"i_long":106.792719,"is_transit":false,"line":2,"i_lat":-6.493243,"transit":false,"distance":5197,"station_name":"Bojonggede","station_id":"BJD","time":5},{"station_name":"Cilebut","station_id":"CLT","i_lat":-6.530544,"is_transit":false,"distance":4331,"i_long":106.800016,"line":2,"time":5,"transit":false}],[{"time":0,"station_id":"POK","i_lat":-6.209188,"is_transit":false,"transit":false,"distance":0,"line":11,"station_name":"Pondok Jati","i_long":106.861737},{"station_name":"Kramat","is_transit":false,"time":2,"i_long":106.855437,"line":11,"transit":false,"distance":1829,"station_id":"KMT","i_lat":-6.193792},{"i_long":106.850107,"distance":973,"transit":false,"time":1,"station_name":"Gang Sentiong","i_lat":-6.185975,"line":11,"is_transit":false,"station_id":"GST"},{"transit":false,"station_name":"Pasar Senen","time":8,"distance":1567,"i_lat":-6.174784,"station_id":"PSE","i_long":106.84368,"is_transit":false,"line":11},{"i_long":106.839204,"line":11,"distance":1436,"station_id":"KMO","i_lat":-6.161728,"station_name":"Kemayoran","time":4,"transit":false,"is_transit":false},{"time":5,"transit":false,"i_long":106.836569,"station_name":"Rajawali","station_id":"RJW","is_transit":false,"line":11,"distance":1901,"i_lat":-6.14505},{"station_id":"KPB","is_transit":true,"station_name":"Kampung Bandan","distance":1444,"time":3,"line":4,"transit":true,"i_long":106.826365,"i_lat":-6.132549},{"station_name":"Jakarta Kota","i_lat":-6.137569,"time":3,"line":2,"is_transit":true,"transit":true,"station_id":"JAKK","i_long":106.812439,"distance":1364},{"distance":1264,"station_id":"JAY","is_transit":false,"i_lat":-6.141205,"line":2,"transit":false,"time":4,"i_long":106.820901,"station_name":"Jayakarta"},{"transit":false,"i_lat":-6.149769,"is_transit":false,"i_long":106.82482,"station_name":"Manggabesar","time":2,"distance":1080,"station_id":"MGB","line":2},{"is_transit":false,"i_lat":-6.160725,"transit":false,"station_name":"Sawah Besar","i_long":106.827103,"line":2,"time":2,"distance":906,"station_id":"SW"},{"is_transit":false,"time":2,"i_long":106.828284,"station_id":"JUA","transit":false,"station_name":"Juanda","distance":1149,"i_lat":-6.166716,"line":2},{"distance":2015,"station_id":"GDD","transit":false,"is_transit":false,"station_name":"Gondangdia","line":2,"i_lat":-6.186295,"i_long":106.832183,"time":4},{"distance":1750,"transit":false,"station_name":"Cikini","i_lat":-6.198556,"station_id":"CKI","is_transit":false,"line":2,"time":3,"i_long":106.840169},{"is_transit":false,"line":2,"i_long":106.84912,"station_name":"Manggarai","time":4,"i_lat":-6.209883,"transit":false,"distance":1590,"station_id":"MRI"},{"i_lat":-6.226659,"line":2,"is_transit":false,"transit":false,"i_long":106.857948,"distance":2610,"time":4,"station_id":"TEB","station_name":"Tebet"},{"distance":1230,"i_lat":-6.242512,"i_long":106.856607,"station_name":"Cawang","is_transit":false,"line":2,"station_id":"CW","transit":false,"time":2},{"is_transit":false,"i_long":106.85449,"transit":false,"distance":1546,"line":2,"time":3,"station_id":"DRN","i_lat":-6.255332,"station_name":"Duren Kalibata"},{"station_id":"PSMB","line":2,"i_long":106.851577,"transit":false,"distance":824,"i_lat":-6.263214,"is_transit":false,"time":2,"station_name":"Pasar Minggu Baru"},{"transit":false,"time":2,"station_name":"Pasar Minggu","i_lat":-6.2842400000000005,"is_transit":false,"line":2,"i_long":106.843999,"distance":2380,"station_id":"PSM"},{"transit":false,"time":4,"is_transit":false,"i_long":106.838896,"i_lat":-6.3080680000000005,"station_id":"TNT","distance":2820,"line":2,"station_name":"Tanjung Barat"},{"distance":2671,"station_id":"LNA","i_long":106.832616,"transit":false,"line":2,"station_name":"Lenteng Agung","is_transit":false,"i_lat":-6.330363,"time":3},{"station_name":"Univ. Pancasila","i_lat":-6.339291,"i_long":106.834175,"transit":false,"distance":1029,"is_transit":false,"time":2,"station_id":"UP","line":2},{"time":3,"distance":2264,"i_lat":-6.360749,"is_transit":false,"transit":false,"line":2,"station_id":"UI","station_name":"Univ. Indonesia","i_long":106.831474},{"transit":false,"i_long":106.831114,"line":2,"station_name":"Pondok Cina","station_id":"POC","i_lat":-6.369073,"is_transit":false,"time":2,"distance":1109},{"station_id":"DPB","is_transit":false,"time":4,"i_long":106.819451,"station_name":"Depokbaru","distance":2727,"line":2,"transit":false,"i_lat":-6.391065},{"line":2,"is_transit":false,"distance":1584,"transit":false,"i_lat":-6.405256,"time":3,"station_name":"Depok","station_id":"DP","i_long":106.816926},{"time":6,"is_transit":false,"line":2,"station_id":"CTA","distance":5084,"i_long":106.800298,"i_lat":-6.448811,"station_name":"Citayam","transit":false},{"station_id":"BJD","distance":5197,"is_transit":false,"i_long":106.792719,"line":2,"transit":false,"i_lat":-6.493243,"station_name":"Bojonggede","time":5},{"distance":4331,"station_id":"CLT","transit":false,"time":5,"i_long":106.800016,"is_transit":false,"line":2,"station_name":"Cilebut","i_lat":-6.530544}]]}