{"data":[[{"transit":false,"station_id":"POK","i_long":106.861737,"distance":0,"line":11,"i_lat":-6.209188,"time":0,"station_name":"Pondok Jati","is_transit":false},{"station_name":"Jatinegara","i_lat":-6.215091,"time":9,"station_id":"JNG","transit":true,"distance":1236,"line":0,"i_long":106.86807400000001,"is_transit":true},{"time":2,"i_lat":-6.212485,"transit":false,"station_name":"Matraman","station_id":"MTR","is_transit":false,"i_long":106.858896,"line":1,"distance":1377},{"distance":1275,"station_id":"MRI","transit":true,"i_lat":-6.209883,"line":0,"station_name":"Manggarai","i_long":106.84912,"time":2,"is_transit":true},{"station_id":"TEB","is_transit":false,"i_long":106.857948,"i_lat":-6.226659,"time":4,"transit":false,"distance":2610,"station_name":"Tebet","line":2},{"transit":false,"station_id":"CW","line":0,"i_long":106.856607,"i_lat":-6.242512,"time":2,"station_name":"Cawang","distance":1230,"is_transit":false},{"line":0,"transit":false,"is_transit":false,"time":3,"distance":1546,"station_name":"Duren Kalibata","i_long":106.85449,"i_lat":-6.255332,"station_id":"DRN"},{"is_transit":false,"station_name":"Pasar Minggu Baru","time":2,"transit":false,"line":2,"i_lat":-6.263214,"i_long":106.851577,"station_id":"PSMB","distance":824},{"station_name":"Pasar Minggu","station_id":"PSM","distance":2380,"time":2,"line":2,"is_transit":false,"i_lat":-6.2842400000000005,"i_long":106.843999,"transit":false},{"station_id":"TNT","time":4,"is_transit":false,"distance":2820,"station_name":"Tanjung Barat","i_lat":-6.3080680000000005,"transit":false,"i_long":106.838896,"line":2},{"time":3,"distance":2671,"i_lat":-6.330363,"station_name":"Lenteng Agung","is_transit":false,"station_id":"LNA","transit":false,"line":2,"i_long":106.832616},{"line":2,"station_id":"UP","time":2,"transit":false,"station_name":"Univ. Pancasila","distance":1029,"i_lat":-6.339291,"is_transit":false,"i_long":106.834175},{"line":2,"station_name":"Univ. Indonesia","time":3,"station_id":"UI","is_transit":false,"transit":false,"distance":2264,"i_lat":-6.360749,"i_long":106.831474},{"time":2,"station_name":"Pondok Cina","station_id":"POC","line":2,"transit":false,"i_lat":-6.369073,"is_transit":false,"distance":1109,"i_long":106.831114},{"station_id":"DPB","time":4,"i_lat":-6.391065,"i_long":106.819451,"distance":2727,"transit":false,"station_name":"Depokbaru","line":0,"is_transit":false},{"line":0,"time":3,"station_name":"Depok","is_transit":false,"i_lat":-6.405256,"i_long":106.816926,"distance":1584,"station_id":"DP","transit":false},{"distance":5084,"is_transit":true,"time":6,"transit":false,"station_name":"Citayam","i_long":106.800298,"station_id":"CTA","i_lat":-6.448811,"line":1},{"time":5,"transit":false,"is_transit":false,"distance":5197,"station_id":"BJD","i_lat":-6.493243,"line":0,"station_name":"Bojonggede","i_long":106.792719},{"i_lat":-6.530544,"is_transit":false,"time":5,"distance":4331,"station_name":"Cilebut","station_id":"CLT","i_long":106.800016,"transit":false,"line":0}],[{"i_lat":-6.209188,"is_transit":false,"distance":0,"transit":false,"i_long":106.861737,"line":11,"station_id":"POK","station_name":"Pondok Jati","time":0},{"station_name":"Kramat","distance":1829,"line":11,"transit":false,"i_long":106.855437,"is_transit":false,"i_lat":-6.193792,"time":2,"station_id":"KMT"},{"i_lat":-6.185975,"distance":973,"i_long":106.850107,"line":11,"station_id":"GST","station_name":"Gang Sentiong","is_transit":false,"transit":false,"time":1},{"station_id":"PSE","time":8,"transit":false,"station_name":"Pasar Senen","is_transit":false,"distance":1567,"i_lat":-6.174784,"line":11,"i_long":106.84368},{"transit":false,"distance":1436,"i_long":106.839204,"i_lat":-6.161728,"is_transit":false,"time":4,"station_id":"KMO","station_name":"Kemayoran","line":11},{"is_transit":false,"station_name":"Rajawali","station_id":"RJW","distance":1901,"i_long":106.836569,"line":11,"time":5,"transit":false,"i_lat":-6.14505},{"line":0,"i_lat":-6.132549,"is_transit":true,"station_id":"KPB","station_name":"Kampung Bandan","i_long":106.826365,"distance":1444,"time":3,"transit":true},{"station_id":"AK","distance":4102,"transit":false,"i_lat":-6.144674,"line":0,"time":9,"station_name":"Angke","is_transit":false,"i_long":106.79867},{"station_id":"DU","station_name":"Duri","time":4,"transit":true,"distance":1230,"i_lat":-6.155215,"is_transit":true,"i_long":106.800832,"line":1},{"station_name":"Tanah Abang","i_lat":-6.185545,"time":8,"distance":3632,"station_id":"THB","transit":false,"i_long":106.811091,"line":1,"is_transit":true},{"is_transit":false,"transit":false,"station_id":"KAT","station_name":"Karet","i_lat":-6.20132,"distance":2029,"i_long":106.816351,"time":5,"line":1},{"is_transit":false,"i_lat":-6.201433,"distance":471,"time":1,"line":1,"station_id":"SUDB","i_long":106.819881,"station_name":"Sudirman Baru","transit":false},{"line":1,"i_lat":-6.202263,"transit":false,"station_name":"Sudirman","i_long":106.822649,"station_id":"SUD","is_transit":false,"time":1,"distance":280},{"station_id":"MRI","transit":true,"i_lat":-6.209883,"distance":3186,"is_transit":true,"station_name":"Manggarai","line":0,"i_long":106.84912,"time":4},{"station_id":"TEB","transit":false,"station_name":"Tebet","i_lat":-6.226659,"i_long":106.857948,"line":2,"distance":2610,"time":4,"is_transit":false},{"transit":false,"i_long":106.856607,"line":0,"station_id":"CW","time":2,"i_lat":-6.242512,"is_transit":false,"distance":1230,"station_name":"Cawang"},{"is_transit":false,"i_lat":-6.255332,"line":0,"station_id":"DRN","transit":false,"time":3,"station_name":"Duren Kalibata","distance":1546,"i_long":106.85449},{"i_long":106.851577,"is_transit":false,"time":2,"station_id":"PSMB","transit":false,"station_name":"Pasar Minggu Baru","i_lat":-6.263214,"line":2,"distance":824},{"station_name":"Pasar Minggu","i_long":106.843999,"is_transit":false,"station_id":"PSM","i_lat":-6.2842400000000005,"time":2,"transit":false,"line":2,"distance":2380},{"distance":2820,"transit":false,"station_id":"TNT","station_name":"Tanjung Barat","time":4,"line":2,"i_long":106.838896,"is_transit":false,"i_lat":-6.3080680000000005},{"is_transit":false,"time":3,"distance":2671,"station_name":"Lenteng Agung","station_id":"LNA","i_long":106.832616,"transit":false,"i_lat":-6.330363,"line":2},{"line":2,"i_lat":-6.339291,"station_name":"Univ. Pancasila","distance":1029,"station_id":"UP","time":2,"i_long":106.834175,"transit":false,"is_transit":false},{"station_id":"UI","is_transit":false,"time":3,"i_lat":-6.360749,"i_long":106.831474,"distance":2264,"transit":false,"station_name":"Univ. Indonesia","line":2},{"line":2,"transit":false,"distance":1109,"is_transit":false,"station_id":"POC","station_name":"Pondok Cina","i_long":106.831114,"time":2,"i_lat":-6.369073},{"line":0,"time":4,"station_name":"Depokbaru","station_id":"DPB","i_long":106.819451,"transit":false,"is_transit":false,"i_lat":-6.391065,"distance":2727},{"distance":1584,"time":3,"i_long":106.816926,"station_id":"DP","i_lat":-6.405256,"is_transit":false,"transit":false,"line":0,"station_name":"Depok"},{"i_long":106.800298,"line":1,"transit":false,"i_lat":-6.448811,"time":6,"distance":5084,"is_transit":true,"station_id":"CTA","station_name":"Citayam"},{"station_name":"Bojonggede","i_lat":-6.493243,"distance":5197,"is_transit":false,"station_id":"BJD","transit":false,"line":0,"i_long":106.792719,"time":5},{"distance":4331,"i_lat":-6.530544,"time":5,"is_transit":false,"line":0,"station_name":"Cilebut","i_long":106.800016,"station_id":"CLT","transit":false}],[{"i_long":106.861737,"time":0,"line":11,"transit":false,"is_transit":false,"i_lat":-6.209188,"distance":0,"station_id":"POK","station_name":"Pondok Jati"},{"station_id":"KMT","station_name":"Kramat","is_transit":false,"distance":1829,"i_long":106.855437,"transit":false,"i_lat":-6.193792,"time":2,"line":11},{"line":11,"distance":973,"time":1,"transit":false,"is_transit":false,"station_id":"GST","i_lat":-6.185975,"station_name":"Gang Sentiong","i_long":106.850107},{"time":8,"distance":1567,"transit":false,"station_id":"PSE","i_long":106.84368,"is_transit":false,"i_lat":-6.174784,"line":11,"station_name":"Pasar Senen"},{"line":11,"is_transit":false,"time":4,"distance":1436,"station_id":"KMO","station_name":"Kemayoran","i_lat":-6.161728,"transit":false,"i_long":106.839204},{"station_name":"Rajawali","i_lat":-6.14505,"is_transit":false,"distance":1901,"transit":false,"line":11,"time":5,"i_long":106.836569,"station_id":"RJW"},{"line":0,"station_name":"Kampung Bandan","is_transit":true,"station_id":"KPB","i_lat":-6.132549,"time":3,"transit":true,"distance":1444,"i_long":106.826365},{"distance":1364,"is_transit":true,"station_id":"JAKK","station_name":"Jakarta Kota","transit":true,"time":3,"i_lat":-6.137569,"line":0,"i_long":106.812439},{"time":4,"distance":1264,"station_id":"JAY","station_name":"Jayakarta","transit":false,"line":7,"i_long":106.820901,"is_transit":false,"i_lat":-6.141205},{"is_transit":false,"distance":1080,"station_id":"MGB","station_name":"Manggabesar","i_lat":-6.149769,"line":2,"i_long":106.82482,"time":2,"transit":false},{"transit":false,"distance":906,"station_name":"Sawah Besar","i_lat":-6.160725,"time":2,"i_long":106.827103,"line":2,"station_id":"SW","is_transit":false},{"time":2,"is_transit":false,"station_id":"JUA","transit":false,"station_name":"Juanda","i_long":106.828284,"i_lat":-6.166716,"line":2,"distance":1149},{"station_name":"Gondangdia","transit":false,"i_long":106.832183,"is_transit":false,"distance":2015,"i_lat":-6.186295,"station_id":"GDD","line":2,"time":4},{"i_lat":-6.198556,"i_long":106.840169,"transit":false,"line":0,"station_id":"CKI","is_transit":false,"distance":1750,"station_name":"Cikini","time":3},{"distance":1590,"station_name":"Manggarai","transit":true,"line":0,"is_transit":true,"i_lat":-6.209883,"station_id":"MRI","i_long":106.84912,"time":4},{"i_lat":-6.226659,"i_long":106.857948,"station_id":"TEB","line":2,"station_name":"Tebet","distance":2610,"is_transit":false,"time":4,"transit":false},{"station_id":"CW","station_name":"Cawang","is_transit":false,"time":2,"distance":1230,"transit":false,"i_lat":-6.242512,"i_long":106.856607,"line":0},{"i_long":106.85449,"line":0,"transit":false,"station_name":"Duren Kalibata","station_id":"DRN","time":3,"i_lat":-6.255332,"distance":1546,"is_transit":false},{"i_long":106.851577,"is_transit":false,"transit":false,"time":2,"distance":824,"line":2,"station_id":"PSMB","i_lat":-6.263214,"station_name":"Pasar Minggu Baru"},{"time":2,"is_transit":false,"i_lat":-6.2842400000000005,"line":2,"distance":2380,"station_id":"PSM","i_long":106.843999,"station_name":"Pasar Minggu","transit":false},{"is_transit":false,"transit":false,"i_lat":-6.3080680000000005,"time":4,"distance":2820,"station_id":"TNT","i_long":106.838896,"station_name":"Tanjung Barat","line":2},{"is_transit":false,"time":3,"station_id":"LNA","station_name":"Lenteng Agung","transit":false,"distance":2671,"line":2,"i_lat":-6.330363,"i_long":106.832616},{"i_lat":-6.339291,"transit":false,"time":2,"is_transit":false,"line":2,"distance":1029,"station_name":"Univ. Pancasila","station_id":"UP","i_long":106.834175},{"transit":false,"station_id":"UI","is_transit":false,"time":3,"station_name":"Univ. Indonesia","i_lat":-6.360749,"i_long":106.831474,"line":2,"distance":2264},{"is_transit":false,"time":2,"station_id":"POC","i_lat":-6.369073,"i_long":106.831114,"line":2,"station_name":"Pondok Cina","distance":1109,"transit":false},{"station_name":"Depokbaru","i_lat":-6.391065,"line":0,"is_transit":false,"station_id":"DPB","i_long":106.819451,"transit":false,"time":4,"distance":2727},{"station_id":"DP","is_transit":false,"distance":1584,"station_name":"Depok","line":0,"time":3,"i_lat":-6.405256,"transit":false,"i_long":106.816926},{"transit":false,"distance":5084,"i_long":106.800298,"time":6,"is_transit":true,"station_id":"CTA","station_name":"Citayam","line":1,"i_lat":-6.448811},{"time":5,"i_long":106.792719,"i_lat":-6.493243,"station_id":"BJD","distance":5197,"transit":false,"station_name":"Bojonggede","line":0,"is_transit":false},{"i_long":106.800016,"is_transit":false,"line":0,"i_lat":-6.530544,"time":5,"distance":4331,"station_id":"CLT","transit":false,"station_name":"Cilebut"}]]}