{"data":[[{"distance":0,"time":0,"i_lat":-6.209188,"station_name":"Pondok Jati","line":11,"station_id":"POK","i_long":106.861737,"transit":false,"is_transit":false},{"line":1,"transit":true,"time":9,"distance":1236,"station_id":"JNG","station_name":"Jatinegara","is_transit":true,"i_lat":-6.215091,"i_long":106.86807400000001},{"station_id":"MTR","time":2,"distance":1377,"station_name":"Matraman","transit":false,"i_long":106.858896,"i_lat":-6.212485,"line":1,"is_transit":false},{"is_transit":true,"i_long":106.84912,"distance":1275,"station_id":"MRI","station_name":"Manggarai","transit":true,"line":2,"time":2,"i_lat":-6.209883},{"station_id":"TEB","time":4,"is_transit":false,"distance":2610,"transit":false,"i_long":106.857948,"i_lat":-6.226659,"station_name":"Tebet","line":2},{"transit":false,"station_id":"CW","i_lat":-6.242512,"time":2,"distance":1230,"station_name":"Cawang","line":2,"i_long":106.856607,"is_transit":false},{"time":3,"station_name":"Duren Kalibata","is_transit":false,"i_long":106.85449,"i_lat":-6.255332,"line":2,"transit":false,"distance":1546,"station_id":"DRN"},{"station_name":"Pasar Minggu Baru","time":2,"is_transit":false,"i_lat":-6.263214,"i_long":106.851577,"line":2,"distance":824,"station_id":"PSMB","transit":false},{"time":2,"station_id":"PSM","is_transit":false,"i_lat":-6.2842400000000005,"distance":2380,"transit":false,"station_name":"Pasar Minggu","i_long":106.843999,"line":2},{"time":4,"station_name":"Tanjung Barat","station_id":"TNT","distance":2820,"transit":false,"is_transit":false,"line":2,"i_long":106.838896,"i_lat":-6.3080680000000005},{"time":3,"i_long":106.832616,"line":2,"station_name":"Lenteng Agung","station_id":"LNA","transit":false,"distance":2671,"i_lat":-6.330363,"is_transit":false},{"station_id":"UP","line":2,"i_long":106.834175,"transit":false,"distance":1029,"time":2,"is_transit":false,"station_name":"Univ. Pancasila","i_lat":-6.339291},{"transit":false,"is_transit":false,"distance":2264,"time":3,"i_long":106.831474,"line":2,"station_id":"UI","station_name":"Univ. Indonesia","i_lat":-6.360749}],[{"line":11,"time":0,"distance":0,"station_id":"POK","transit":false,"i_lat":-6.209188,"i_long":106.861737,"station_name":"Pondok Jati","is_transit":false},{"i_lat":-6.193792,"distance":1829,"i_long":106.855437,"line":11,"station_id":"KMT","time":2,"transit":false,"station_name":"Kramat","is_transit":false},{"station_name":"Gang Sentiong","is_transit":false,"time":1,"distance":973,"station_id":"GST","i_long":106.850107,"line":11,"transit":false,"i_lat":-6.185975},{"i_lat":-6.174784,"station_id":"PSE","time":8,"distance":1567,"transit":false,"line":11,"is_transit":false,"i_long":106.84368,"station_name":"Pasar Senen"},{"station_id":"KMO","is_transit":false,"distance":1436,"line":11,"time":4,"i_lat":-6.161728,"transit":false,"station_name":"Kemayoran","i_long":106.839204},{"i_long":106.836569,"transit":false,"time":5,"station_name":"Rajawali","distance":1901,"station_id":"RJW","is_transit":false,"line":11,"i_lat":-6.14505},{"time":3,"is_transit":true,"distance":1444,"line":4,"transit":true,"i_lat":-6.132549,"station_name":"Kampung Bandan","i_long":106.826365,"station_id":"KPB"},{"time":9,"distance":4102,"transit":false,"i_lat":-6.144674,"station_id":"AK","is_transit":false,"i_long":106.79867,"line":1,"station_name":"Angke"},{"station_id":"DU","i_long":106.800832,"station_name":"Duri","line":1,"time":4,"distance":1230,"transit":false,"i_lat":-6.155215,"is_transit":false},{"line":1,"i_lat":-6.185545,"i_long":106.811091,"station_name":"Tanah Abang","is_transit":false,"time":8,"station_id":"THB","transit":false,"distance":3632},{"i_lat":-6.20132,"line":1,"time":5,"i_long":106.816351,"station_name":"Karet","is_transit":false,"distance":2029,"station_id":"KAT","transit":false},{"distance":471,"station_id":"SUDB","i_long":106.819881,"station_name":"Sudirman Baru","transit":false,"i_lat":-6.201433,"is_transit":false,"time":1,"line":1},{"transit":false,"line":1,"i_long":106.822649,"distance":280,"time":1,"station_id":"SUD","station_name":"Sudirman","is_transit":false,"i_lat":-6.202263},{"time":4,"transit":true,"i_lat":-6.209883,"is_transit":true,"i_long":106.84912,"line":2,"distance":3186,"station_id":"MRI","station_name":"Manggarai"},{"i_long":106.857948,"time":4,"distance":2610,"station_name":"Tebet","line":2,"station_id":"TEB","is_transit":false,"transit":false,"i_lat":-6.226659},{"station_id":"CW","transit":false,"i_lat":-6.242512,"distance":1230,"time":2,"is_transit":false,"i_long":106.856607,"line":2,"station_name":"Cawang"},{"i_lat":-6.255332,"is_transit":false,"transit":false,"line":2,"time":3,"station_name":"Duren Kalibata","station_id":"DRN","distance":1546,"i_long":106.85449},{"time":2,"station_name":"Pasar Minggu Baru","station_id":"PSMB","i_lat":-6.263214,"is_transit":false,"line":2,"i_long":106.851577,"transit":false,"distance":824},{"station_name":"Pasar Minggu","station_id":"PSM","distance":2380,"i_long":106.843999,"i_lat":-6.2842400000000005,"is_transit":false,"line":2,"time":2,"transit":false},{"station_name":"Tanjung Barat","line":2,"i_lat":-6.3080680000000005,"i_long":106.838896,"station_id":"TNT","is_transit":false,"distance":2820,"transit":false,"time":4},{"station_name":"Lenteng Agung","transit":false,"time":3,"is_transit":false,"i_lat":-6.330363,"i_long":106.832616,"station_id":"LNA","line":2,"distance":2671},{"i_lat":-6.339291,"line":2,"transit":false,"is_transit":false,"time":2,"i_long":106.834175,"distance":1029,"station_name":"Univ. Pancasila","station_id":"UP"},{"line":2,"i_lat":-6.360749,"distance":2264,"transit":false,"station_name":"Univ. Indonesia","time":3,"station_id":"UI","i_long":106.831474,"is_transit":false}],[{"transit":false,"time":0,"line":11,"is_transit":false,"station_id":"POK","i_lat":-6.209188,"station_name":"Pondok Jati","distance":0,"i_long":106.861737},{"time":2,"is_transit":false,"i_long":106.855437,"station_name":"Kramat","station_id":"KMT","line":11,"transit":false,"i_lat":-6.193792,"distance":1829},{"is_transit":false,"line":11,"distance":973,"i_long":106.850107,"transit":false,"station_name":"Gang Sentiong","station_id":"GST","time":1,"i_lat":-6.185975},{"transit":false,"is_transit":false,"i_long":106.84368,"distance":1567,"station_name":"Pasar Senen","station_id":"PSE","time":8,"line":11,"i_lat":-6.174784},{"line":11,"distance":1436,"i_long":106.839204,"station_name":"Kemayoran","transit":false,"station_id":"KMO","i_lat":-6.161728,"time":4,"is_transit":false},{"distance":1901,"i_lat":-6.14505,"transit":false,"i_long":106.836569,"line":11,"station_id":"RJW","station_name":"Rajawali","is_transit":false,"time":5},{"time":3,"i_lat":-6.132549,"i_long":106.826365,"distance":1444,"station_id":"KPB","transit":true,"station_name":"Kampung Bandan","is_transit":true,"line":4},{"station_id":"JAKK","station_name":"Jakarta Kota","time":3,"transit":true,"i_lat":-6.137569,"is_transit":true,"i_long":106.812439,"distance":1364,"line":2},{"is_transit":false,"i_long":106.820901,"line":2,"station_id":"JAY","time":4,"i_lat":-6.141205,"station_name":"Jayakarta","distance":1264,"transit":false},{"i_lat":-6.149769,"line":2,"is_transit":false,"station_id":"MGB","transit":false,"time":2,"distance":1080,"station_name":"Manggabesar","i_long":106.82482},{"i_lat":-6.160725,"station_name":"Sawah Besar","is_transit":false,"i_long":106.827103,"line":2,"time":2,"distance":906,"transit":false,"station_id":"SW"},{"time":2,"is_transit":false,"i_long":106.828284,"line":2,"station_name":"Juanda","distance":1149,"transit":false,"station_id":"JUA","i_lat":-6.166716},{"i_lat":-6.186295,"station_name":"Gondangdia","is_transit":false,"transit":false,"line":2,"time":4,"distance":2015,"station_id":"GDD","i_long":106.832183},{"transit":false,"line":2,"station_name":"Cikini","station_id":"CKI","i_lat":-6.198556,"time":3,"is_transit":false,"distance":1750,"i_long":106.840169},{"time":4,"i_lat":-6.209883,"distance":1590,"station_name":"Manggarai","station_id":"MRI","i_long":106.84912,"is_transit":false,"transit":false,"line":2},{"is_transit":false,"time":4,"line":2,"station_id":"TEB","distance":2610,"transit":false,"i_lat":-6.226659,"station_name":"Tebet","i_long":106.857948},{"transit":false,"i_lat":-6.242512,"station_id":"CW","is_transit":false,"time":2,"i_long":106.856607,"station_name":"Cawang","distance":1230,"line":2},{"station_id":"DRN","station_name":"Duren Kalibata","is_transit":false,"i_lat":-6.255332,"time":3,"distance":1546,"transit":false,"line":2,"i_long":106.85449},{"time":2,"station_name":"Pasar Minggu Baru","distance":824,"station_id":"PSMB","i_lat":-6.263214,"line":2,"transit":false,"is_transit":false,"i_long":106.851577},{"station_id":"PSM","is_transit":false,"distance":2380,"i_lat":-6.2842400000000005,"line":2,"transit":false,"time":2,"i_long":106.843999,"station_name":"Pasar Minggu"},{"line":2,"i_long":106.838896,"time":4,"is_transit":false,"station_id":"TNT","distance":2820,"station_name":"Tanjung Barat","i_lat":-6.3080680000000005,"transit":false},{"time":3,"station_name":"Lenteng Agung","station_id":"LNA","i_lat":-6.330363,"is_transit":false,"distance":2671,"i_long":106.832616,"line":2,"transit":false},{"station_id":"UP","distance":1029,"transit":false,"time":2,"i_lat":-6.339291,"is_transit":false,"i_long":106.834175,"line":2,"station_name":"Univ. Pancasila"},{"i_lat":-6.360749,"station_id":"UI","is_transit":false,"distance":2264,"station_name":"Univ. Indonesia","time":3,"i_long":106.831474,"line":2,"transit":false}]]}