{"data":[[{"time":0,"is_transit":false,"station_name":"Pondok Jati","distance":0,"station_id":"POK","i_lat":-6.209188,"line":11,"i_long":106.861737,"transit":false},{"is_transit":true,"station_name":"Jatinegara","station_id":"JNG","i_lat":-6.215091,"transit":true,"distance":1236,"time":9,"line":1,"i_long":106.86807400000001},{"time":2,"is_transit":false,"distance":1377,"i_long":106.858896,"transit":false,"station_name":"Matraman","i_lat":-6.212485,"line":1,"station_id":"MTR"},{"i_long":106.84912,"distance":1275,"station_id":"MRI","i_lat":-6.209883,"line":2,"station_name":"Manggarai","transit":true,"time":2,"is_transit":true},{"transit":false,"i_lat":-6.198556,"line":2,"station_id":"CKI","time":4,"distance":1590,"station_name":"Cikini","is_transit":false,"i_long":106.840169},{"station_id":"GDD","i_long":106.832183,"time":3,"distance":1750,"transit":false,"is_transit":false,"i_lat":-6.186295,"line":2,"station_name":"Gondangdia"},{"station_id":"JUA","is_transit":false,"time":4,"i_lat":-6.166716,"i_long":106.828284,"station_name":"Juanda","distance":2015,"line":2,"transit":false},{"i_long":106.827103,"transit":false,"line":2,"time":2,"station_name":"Sawah Besar","i_lat":-6.160725,"station_id":"SW","is_transit":false,"distance":1149}],[{"transit":false,"i_long":106.861737,"station_name":"Pondok Jati","time":0,"is_transit":false,"distance":0,"i_lat":-6.209188,"station_id":"POK","line":11},{"is_transit":false,"i_lat":-6.193792,"line":11,"i_long":106.855437,"time":2,"station_name":"Kramat","station_id":"KMT","distance":1829,"transit":false},{"station_name":"Gang Sentiong","is_transit":false,"time":1,"transit":false,"station_id":"GST","distance":973,"i_long":106.850107,"line":11,"i_lat":-6.185975},{"station_name":"Pasar Senen","time":8,"distance":1567,"station_id":"PSE","line":11,"i_lat":-6.174784,"transit":false,"is_transit":false,"i_long":106.84368},{"i_lat":-6.161728,"line":11,"is_transit":false,"time":4,"i_long":106.839204,"station_name":"Kemayoran","transit":false,"station_id":"KMO","distance":1436},{"distance":1901,"station_name":"Rajawali","i_long":106.836569,"line":11,"is_transit":false,"station_id":"RJW","i_lat":-6.14505,"transit":false,"time":5},{"is_transit":true,"i_lat":-6.132549,"station_name":"Kampung Bandan","distance":1444,"line":4,"station_id":"KPB","i_long":106.826365,"transit":true,"time":3},{"station_id":"JAKK","i_lat":-6.137569,"i_long":106.812439,"transit":true,"line":2,"time":3,"is_transit":true,"distance":1364,"station_name":"Jakarta Kota"},{"station_name":"Jayakarta","line":2,"is_transit":false,"time":4,"station_id":"JAY","distance":1264,"i_long":106.820901,"i_lat":-6.141205,"transit":false},{"distance":1080,"is_transit":false,"time":2,"station_id":"MGB","station_name":"Manggabesar","i_lat":-6.149769,"i_long":106.82482,"line":2,"transit":false},{"time":2,"is_transit":false,"i_long":106.827103,"station_name":"Sawah Besar","line":2,"i_lat":-6.160725,"distance":906,"transit":false,"station_id":"SW"}],[{"time":0,"transit":false,"station_id":"POK","i_long":106.861737,"line":11,"i_lat":-6.209188,"is_transit":false,"station_name":"Pondok Jati","distance":0},{"station_id":"JNG","transit":true,"line":1,"i_lat":-6.215091,"i_long":106.86807400000001,"station_name":"Jatinegara","time":9,"is_transit":true,"distance":1236},{"time":2,"distance":1377,"i_long":106.858896,"line":1,"station_id":"MTR","i_lat":-6.212485,"station_name":"Matraman","transit":false,"is_transit":false},{"i_lat":-6.209883,"station_id":"MRI","station_name":"Manggarai","transit":false,"is_transit":false,"time":2,"distance":1275,"i_long":106.84912,"line":2},{"station_name":"Sudirman","i_long":106.822649,"time":4,"transit":false,"i_lat":-6.202263,"is_transit":false,"distance":3186,"line":1,"station_id":"SUD"},{"station_name":"Sudirman Baru","line":1,"is_transit":false,"station_id":"SUDB","distance":280,"i_lat":-6.201433,"time":1,"i_long":106.819881,"transit":false},{"time":1,"line":1,"transit":false,"i_lat":-6.20132,"i_long":106.816351,"station_name":"Karet","distance":471,"is_transit":false,"station_id":"KAT"},{"is_transit":false,"line":1,"station_name":"Tanah Abang","distance":2029,"station_id":"THB","i_lat":-6.185545,"i_long":106.811091,"time":5,"transit":false},{"distance":3632,"i_lat":-6.155215,"station_id":"DU","time":8,"is_transit":false,"station_name":"Duri","transit":false,"i_long":106.800832,"line":1},{"line":1,"transit":false,"i_lat":-6.144674,"station_name":"Angke","station_id":"AK","time":4,"distance":1230,"i_long":106.79867,"is_transit":false},{"line":4,"is_transit":true,"transit":true,"station_id":"KPB","i_long":106.826365,"time":9,"distance":4102,"i_lat":-6.132549,"station_name":"Kampung Bandan"},{"station_id":"JAKK","station_name":"Jakarta Kota","time":3,"i_lat":-6.137569,"i_long":106.812439,"transit":true,"is_transit":true,"distance":1364,"line":2},{"station_name":"Jayakarta","time":4,"line":2,"distance":1264,"station_id":"JAY","is_transit":false,"i_long":106.820901,"i_lat":-6.141205,"transit":false},{"time":2,"i_long":106.82482,"station_name":"Manggabesar","transit":false,"station_id":"MGB","line":2,"distance":1080,"is_transit":false,"i_lat":-6.149769},{"i_long":106.827103,"station_id":"SW","transit":false,"time":2,"is_transit":false,"line":2,"distance":906,"station_name":"Sawah Besar","i_lat":-6.160725}],[{"is_transit":false,"i_lat":-6.209188,"station_id":"POK","time":0,"line":11,"i_long":106.861737,"distance":0,"transit":false,"station_name":"Pondok Jati"},{"line":11,"transit":false,"station_name":"Kramat","time":2,"distance":1829,"i_lat":-6.193792,"i_long":106.855437,"is_transit":false,"station_id":"KMT"},{"distance":973,"i_lat":-6.185975,"station_name":"Gang Sentiong","is_transit":false,"i_long":106.850107,"transit":false,"station_id":"GST","line":11,"time":1},{"line":11,"i_lat":-6.174784,"i_long":106.84368,"station_id":"PSE","is_transit":false,"station_name":"Pasar Senen","transit":false,"time":8,"distance":1567},{"time":4,"station_name":"Kemayoran","i_long":106.839204,"distance":1436,"i_lat":-6.161728,"line":11,"station_id":"KMO","transit":false,"is_transit":false},{"station_id":"RJW","station_name":"Rajawali","is_transit":false,"i_long":106.836569,"time":5,"distance":1901,"transit":false,"i_lat":-6.14505,"line":11},{"time":3,"is_transit":true,"station_name":"Kampung Bandan","transit":true,"i_lat":-6.132549,"distance":1444,"line":4,"i_long":106.826365,"station_id":"KPB"},{"station_id":"AK","i_long":106.79867,"i_lat":-6.144674,"time":9,"line":1,"station_name":"Angke","distance":4102,"is_transit":false,"transit":false},{"i_lat":-6.155215,"time":4,"distance":1230,"station_name":"Duri","i_long":106.800832,"transit":false,"station_id":"DU","line":1,"is_transit":false},{"transit":false,"is_transit":false,"station_name":"Tanah Abang","time":8,"station_id":"THB","distance":3632,"i_lat":-6.185545,"i_long":106.811091,"line":1},{"transit":false,"station_id":"KAT","i_long":106.816351,"line":1,"time":5,"is_transit":false,"distance":2029,"station_name":"Karet","i_lat":-6.20132},{"time":1,"distance":471,"i_long":106.819881,"line":1,"i_lat":-6.201433,"is_transit":false,"station_id":"SUDB","transit":false,"station_name":"Sudirman Baru"},{"station_id":"SUD","distance":280,"line":1,"is_transit":false,"i_lat":-6.202263,"transit":false,"i_long":106.822649,"station_name":"Sudirman","time":1},{"line":2,"i_long":106.84912,"station_id":"MRI","transit":true,"is_transit":true,"station_name":"Manggarai","distance":3186,"i_lat":-6.209883,"time":4},{"time":4,"transit":false,"distance":1590,"i_long":106.840169,"is_transit":false,"station_name":"Cikini","station_id":"CKI","line":2,"i_lat":-6.198556},{"station_name":"Gondangdia","is_transit":false,"transit":false,"line":2,"i_long":106.832183,"time":3,"distance":1750,"station_id":"GDD","i_lat":-6.186295},{"station_name":"Juanda","is_transit":false,"i_lat":-6.166716,"i_long":106.828284,"transit":false,"station_id":"JUA","distance":2015,"time":4,"line":2},{"transit":false,"is_transit":false,"distance":1149,"line":2,"station_name":"Sawah Besar","station_id":"SW","i_lat":-6.160725,"time":2,"i_long":106.827103}]]}