{"data":[[{"is_transit":false,"station_name":"Pondok Jati","station_id":"POK","time":0,"distance":0,"i_long":106.861737,"transit":false,"i_lat":-6.209188,"line":11},{"transit":true,"i_long":106.86807400000001,"is_transit":true,"station_name":"Jatinegara","i_lat":-6.215091,"line":0,"time":9,"station_id":"JNG","distance":1236},{"i_lat":-6.212485,"time":2,"station_name":"Matraman","distance":1377,"i_long":106.858896,"line":1,"is_transit":false,"transit":false,"station_id":"MTR"},{"i_lat":-6.209883,"distance":1275,"station_name":"Manggarai","line":0,"is_transit":true,"transit":false,"station_id":"MRI","time":2,"i_long":106.84912},{"time":4,"station_name":"Sudirman","distance":3186,"i_lat":-6.202263,"transit":false,"i_long":106.822649,"line":1,"is_transit":false,"station_id":"SUD"},{"transit":false,"distance":280,"line":1,"station_name":"Sudirman Baru","is_transit":false,"i_lat":-6.201433,"i_long":106.819881,"time":1,"station_id":"SUDB"},{"i_long":106.816351,"line":1,"distance":471,"is_transit":false,"station_id":"KAT","station_name":"Karet","i_lat":-6.20132,"time":1,"transit":false},{"transit":true,"is_transit":true,"i_lat":-6.185545,"i_long":106.811091,"line":1,"station_name":"Tanah Abang","time":5,"station_id":"THB","distance":2029},{"line":6,"distance":3191,"is_transit":false,"transit":false,"station_name":"Palmerah","i_long":106.79689,"station_id":"PLM","i_lat":-6.207404,"time":6},{"line":6,"distance":3737,"station_id":"KBY","i_lat":-6.237242,"station_name":"Kebayoran","transit":false,"time":7,"i_long":106.780334,"is_transit":false},{"distance":6218,"transit":false,"station_name":"Pondokranji","i_lat":-6.276362,"i_long":106.74273,"time":8,"is_transit":false,"line":6,"station_id":"PDJ"},{"station_name":"Jurangmangu","line":6,"is_transit":false,"i_lat":-6.288927,"time":3,"distance":2179,"station_id":"JMU","transit":false,"i_long":106.728916},{"station_name":"Sudimara","line":6,"distance":1994,"i_lat":-6.296963,"transit":false,"station_id":"SDM","time":4,"is_transit":false,"i_long":106.712277},{"distance":4566,"transit":false,"line":6,"is_transit":false,"time":6,"station_id":"RU","station_name":"Rawa Buntu","i_lat":-6.314823,"i_long":106.675475},{"i_lat":-6.319871,"station_id":"SRP","is_transit":false,"i_long":106.66566,"distance":2413,"transit":false,"line":6,"time":4,"station_name":"Serpong"},{"i_lat":-6.32484,"i_long":106.640411,"station_name":"Cisauk","station_id":"CSK","distance":1784,"is_transit":false,"transit":false,"time":4,"line":0},{"station_id":"CC","is_transit":false,"transit":false,"station_name":"Cicayur","i_lat":-6.329547,"line":0,"time":4,"distance":2519,"i_long":106.617853},{"is_transit":false,"distance":5968,"time":8,"i_long":106.568863,"i_lat":-6.3441410000000005,"transit":false,"line":6,"station_id":"PRP","station_name":"Parung Panjang"},{"time":9,"i_lat":-6.354349,"line":0,"is_transit":false,"station_name":"Cilejit","distance":7025,"transit":false,"station_id":"CJT","i_long":106.508482},{"i_long":106.491338,"line":0,"is_transit":false,"station_name":"Daru","transit":false,"i_lat":-6.338021,"distance":2675,"station_id":"DAR","time":6},{"distance":3902,"station_name":"Tenjo","time":5,"i_long":106.460812,"transit":false,"line":6,"station_id":"TEJ","is_transit":false,"i_lat":-6.327251}],[{"is_transit":false,"i_lat":-6.209188,"time":0,"station_id":"POK","distance":0,"station_name":"Pondok Jati","i_long":106.861737,"transit":false,"line":11},{"i_lat":-6.193792,"time":2,"distance":1829,"station_name":"Kramat","line":11,"is_transit":false,"transit":false,"station_id":"KMT","i_long":106.855437},{"time":1,"transit":false,"i_long":106.850107,"is_transit":false,"station_id":"GST","line":11,"i_lat":-6.185975,"station_name":"Gang Sentiong","distance":973},{"i_lat":-6.174784,"transit":false,"time":8,"distance":1567,"i_long":106.84368,"station_name":"Pasar Senen","station_id":"PSE","is_transit":false,"line":11},{"is_transit":false,"transit":false,"i_lat":-6.161728,"distance":1436,"i_long":106.839204,"station_id":"KMO","line":11,"time":4,"station_name":"Kemayoran"},{"is_transit":false,"transit":false,"station_name":"Rajawali","line":11,"distance":1901,"i_lat":-6.14505,"time":5,"station_id":"RJW","i_long":106.836569},{"line":0,"is_transit":true,"station_id":"KPB","station_name":"Kampung Bandan","i_lat":-6.132549,"transit":true,"time":3,"i_long":106.826365,"distance":1444},{"i_long":106.79867,"transit":false,"distance":4102,"is_transit":false,"time":9,"station_id":"AK","line":0,"i_lat":-6.144674,"station_name":"Angke"},{"transit":true,"distance":1230,"is_transit":true,"time":4,"station_name":"Duri","i_lat":-6.155215,"i_long":106.800832,"line":1,"station_id":"DU"},{"distance":3632,"is_transit":true,"station_id":"THB","station_name":"Tanah Abang","i_long":106.811091,"line":1,"time":8,"i_lat":-6.185545,"transit":true},{"station_name":"Palmerah","transit":false,"i_lat":-6.207404,"distance":3191,"station_id":"PLM","i_long":106.79689,"is_transit":false,"time":6,"line":6},{"distance":3737,"line":6,"transit":false,"time":7,"is_transit":false,"i_lat":-6.237242,"station_id":"KBY","station_name":"Kebayoran","i_long":106.780334},{"is_transit":false,"distance":6218,"station_name":"Pondokranji","transit":false,"time":8,"station_id":"PDJ","i_long":106.74273,"line":6,"i_lat":-6.276362},{"station_id":"JMU","line":6,"i_long":106.728916,"distance":2179,"time":3,"i_lat":-6.288927,"transit":false,"station_name":"Jurangmangu","is_transit":false},{"is_transit":false,"distance":1994,"station_name":"Sudimara","i_lat":-6.296963,"transit":false,"i_long":106.712277,"line":6,"time":4,"station_id":"SDM"},{"station_name":"Rawa Buntu","i_long":106.675475,"is_transit":false,"line":6,"distance":4566,"transit":false,"time":6,"station_id":"RU","i_lat":-6.314823},{"distance":2413,"station_name":"Serpong","line":6,"i_lat":-6.319871,"station_id":"SRP","is_transit":false,"time":4,"transit":false,"i_long":106.66566},{"i_long":106.640411,"station_name":"Cisauk","transit":false,"line":0,"distance":1784,"time":4,"is_transit":false,"station_id":"CSK","i_lat":-6.32484},{"transit":false,"station_name":"Cicayur","i_lat":-6.329547,"i_long":106.617853,"line":0,"station_id":"CC","is_transit":false,"time":4,"distance":2519},{"station_name":"Parung Panjang","transit":false,"distance":5968,"is_transit":false,"i_lat":-6.3441410000000005,"line":6,"i_long":106.568863,"time":8,"station_id":"PRP"},{"time":9,"station_id":"CJT","i_long":106.508482,"line":0,"station_name":"Cilejit","transit":false,"is_transit":false,"distance":7025,"i_lat":-6.354349},{"distance":2675,"time":6,"i_lat":-6.338021,"transit":false,"i_long":106.491338,"is_transit":false,"station_name":"Daru","line":0,"station_id":"DAR"},{"station_name":"Tenjo","station_id":"TEJ","transit":false,"distance":3902,"i_long":106.460812,"line":6,"time":5,"is_transit":false,"i_lat":-6.327251}],[{"i_lat":-6.209188,"station_name":"Pondok Jati","distance":0,"time":0,"station_id":"POK","line":11,"transit":false,"i_long":106.861737,"is_transit":false},{"time":9,"station_id":"JNG","is_transit":true,"transit":true,"distance":1236,"i_lat":-6.215091,"i_long":106.86807400000001,"line":0,"station_name":"Jatinegara"},{"i_lat":-6.212485,"i_long":106.858896,"distance":1377,"station_id":"MTR","is_transit":false,"line":1,"transit":false,"station_name":"Matraman","time":2},{"i_long":106.84912,"transit":true,"is_transit":true,"station_name":"Manggarai","time":2,"distance":1275,"i_lat":-6.209883,"station_id":"MRI","line":0},{"is_transit":false,"station_name":"Cikini","distance":1590,"station_id":"CKI","transit":false,"line":0,"time":4,"i_lat":-6.198556,"i_long":106.840169},{"transit":false,"line":2,"time":3,"station_name":"Gondangdia","i_lat":-6.186295,"distance":1750,"is_transit":false,"i_long":106.832183,"station_id":"GDD"},{"station_name":"Juanda","i_lat":-6.166716,"station_id":"JUA","time":4,"distance":2015,"i_long":106.828284,"line":2,"is_transit":false,"transit":false},{"i_lat":-6.160725,"line":2,"i_long":106.827103,"is_transit":false,"distance":1149,"station_id":"SW","station_name":"Sawah Besar","transit":false,"time":2},{"line":2,"time":2,"i_lat":-6.149769,"station_id":"MGB","transit":false,"is_transit":false,"i_long":106.82482,"distance":906,"station_name":"Manggabesar"},{"is_transit":false,"line":7,"i_long":106.820901,"transit":false,"time":2,"i_lat":-6.141205,"distance":1080,"station_id":"JAY","station_name":"Jayakarta"},{"distance":1264,"station_name":"Jakarta Kota","i_long":106.812439,"is_transit":true,"transit":true,"line":0,"station_id":"JAKK","time":4,"i_lat":-6.137569},{"i_lat":-6.132549,"is_transit":true,"transit":false,"station_id":"KPB","time":3,"line":0,"i_long":106.826365,"distance":1364,"station_name":"Kampung Bandan"},{"distance":4102,"station_id":"AK","is_transit":false,"transit":false,"time":9,"i_lat":-6.144674,"line":0,"station_name":"Angke","i_long":106.79867},{"is_transit":true,"i_long":106.800832,"distance":1230,"station_id":"DU","i_lat":-6.155215,"line":1,"station_name":"Duri","time":4,"transit":true},{"distance":3632,"station_name":"Tanah Abang","line":1,"is_transit":true,"i_lat":-6.185545,"i_long":106.811091,"time":8,"transit":true,"station_id":"THB"},{"time":6,"i_lat":-6.207404,"distance":3191,"station_id":"PLM","is_transit":false,"station_name":"Palmerah","transit":false,"i_long":106.79689,"line":6},{"station_id":"KBY","i_lat":-6.237242,"line":6,"distance":3737,"is_transit":false,"station_name":"Kebayoran","time":7,"i_long":106.780334,"transit":false},{"is_transit":false,"transit":false,"time":8,"i_lat":-6.276362,"line":6,"station_name":"Pondokranji","i_long":106.74273,"station_id":"PDJ","distance":6218},{"time":3,"station_id":"JMU","distance":2179,"transit":false,"is_transit":false,"line":6,"station_name":"Jurangmangu","i_lat":-6.288927,"i_long":106.728916},{"line":6,"station_id":"SDM","distance":1994,"time":4,"is_transit":false,"i_lat":-6.296963,"transit":false,"i_long":106.712277,"station_name":"Sudimara"},{"line":6,"station_name":"Rawa Buntu","distance":4566,"is_transit":false,"station_id":"RU","transit":false,"time":6,"i_lat":-6.314823,"i_long":106.675475},{"i_lat":-6.319871,"station_id":"SRP","is_transit":false,"station_name":"Serpong","transit":false,"distance":2413,"i_long":106.66566,"time":4,"line":6},{"is_transit":false,"time":4,"i_long":106.640411,"i_lat":-6.32484,"distance":1784,"line":0,"station_name":"Cisauk","station_id":"CSK","transit":false},{"i_lat":-6.329547,"station_id":"CC","i_long":106.617853,"is_transit":false,"distance":2519,"transit":false,"station_name":"Cicayur","time":4,"line":0},{"distance":5968,"station_name":"Parung Panjang","line":6,"transit":false,"i_long":106.568863,"is_transit":false,"station_id":"PRP","time":8,"i_lat":-6.3441410000000005},{"station_name":"Cilejit","station_id":"CJT","i_lat":-6.354349,"line":0,"distance":7025,"is_transit":false,"time":9,"transit":false,"i_long":106.508482},{"line":0,"time":6,"i_lat":-6.338021,"is_transit":false,"distance":2675,"transit":false,"station_id":"DAR","i_long":106.491338,"station_name":"Daru"},{"station_id":"TEJ","is_transit":false,"i_lat":-6.327251,"line":6,"transit":false,"time":5,"i_long":106.460812,"station_name":"Tenjo","distance":3902}],[{"time":0,"is_transit":false,"line":11,"transit":false,"i_long":106.861737,"distance":0,"station_id":"POK","station_name":"Pondok Jati","i_lat":-6.209188},{"station_name":"Kramat","time":2,"i_lat":-6.193792,"transit":false,"line":11,"i_long":106.855437,"is_transit":false,"station_id":"KMT","distance":1829},{"is_transit":false,"distance":973,"station_name":"Gang Sentiong","transit":false,"line":11,"station_id":"GST","i_lat":-6.185975,"time":1,"i_long":106.850107},{"is_transit":false,"i_lat":-6.174784,"distance":1567,"station_id":"PSE","i_long":106.84368,"station_name":"Pasar Senen","time":8,"transit":false,"line":11},{"i_lat":-6.161728,"i_long":106.839204,"time":4,"station_name":"Kemayoran","line":11,"is_transit":false,"station_id":"KMO","distance":1436,"transit":false},{"time":5,"is_transit":false,"i_long":106.836569,"line":11,"i_lat":-6.14505,"station_id":"RJW","transit":false,"station_name":"Rajawali","distance":1901},{"time":3,"i_lat":-6.132549,"station_id":"KPB","is_transit":true,"i_long":106.826365,"line":0,"station_name":"Kampung Bandan","transit":true,"distance":1444},{"station_name":"Jakarta Kota","station_id":"JAKK","distance":1364,"is_transit":true,"time":3,"transit":true,"i_long":106.812439,"i_lat":-6.137569,"line":0},{"is_transit":false,"time":4,"transit":false,"line":7,"i_long":106.820901,"station_name":"Jayakarta","station_id":"JAY","i_lat":-6.141205,"distance":1264},{"transit":false,"i_long":106.82482,"is_transit":false,"time":2,"i_lat":-6.149769,"station_id":"MGB","line":2,"station_name":"Manggabesar","distance":1080},{"line":2,"i_lat":-6.160725,"time":2,"distance":906,"station_name":"Sawah Besar","station_id":"SW","i_long":106.827103,"transit":false,"is_transit":false},{"distance":1149,"transit":false,"station_id":"JUA","station_name":"Juanda","time":2,"i_lat":-6.166716,"i_long":106.828284,"line":2,"is_transit":false},{"is_transit":false,"i_lat":-6.186295,"distance":2015,"station_id":"GDD","transit":false,"line":2,"station_name":"Gondangdia","i_long":106.832183,"time":4},{"station_id":"CKI","i_long":106.840169,"line":0,"transit":false,"station_name":"Cikini","is_transit":false,"distance":1750,"i_lat":-6.198556,"time":3},{"station_id":"MRI","distance":1590,"station_name":"Manggarai","i_lat":-6.209883,"time":4,"is_transit":true,"transit":true,"line":0,"i_long":106.84912},{"time":4,"station_id":"SUD","i_lat":-6.202263,"station_name":"Sudirman","distance":3186,"is_transit":false,"transit":false,"i_long":106.822649,"line":1},{"i_long":106.819881,"station_name":"Sudirman Baru","is_transit":false,"transit":false,"time":1,"i_lat":-6.201433,"line":1,"distance":280,"station_id":"SUDB"},{"distance":471,"time":1,"station_name":"Karet","i_long":106.816351,"is_transit":false,"transit":false,"station_id":"KAT","i_lat":-6.20132,"line":1},{"transit":true,"station_name":"Tanah Abang","i_lat":-6.185545,"line":1,"i_long":106.811091,"distance":2029,"is_transit":true,"station_id":"THB","time":5},{"station_id":"PLM","i_lat":-6.207404,"i_long":106.79689,"time":6,"is_transit":false,"line":6,"transit":false,"distance":3191,"station_name":"Palmerah"},{"i_lat":-6.237242,"line":6,"time":7,"is_transit":false,"i_long":106.780334,"station_id":"KBY","station_name":"Kebayoran","transit":false,"distance":3737},{"is_transit":false,"i_long":106.74273,"i_lat":-6.276362,"transit":false,"station_id":"PDJ","line":6,"station_name":"Pondokranji","distance":6218,"time":8},{"station_id":"JMU","station_name":"Jurangmangu","i_long":106.728916,"line":6,"transit":false,"is_transit":false,"distance":2179,"i_lat":-6.288927,"time":3},{"distance":1994,"i_lat":-6.296963,"is_transit":false,"station_id":"SDM","station_name":"Sudimara","transit":false,"i_long":106.712277,"line":6,"time":4},{"distance":4566,"line":6,"is_transit":false,"i_long":106.675475,"station_name":"Rawa Buntu","station_id":"RU","time":6,"transit":false,"i_lat":-6.314823},{"i_long":106.66566,"distance":2413,"station_name":"Serpong","time":4,"i_lat":-6.319871,"is_transit":false,"station_id":"SRP","line":6,"transit":false},{"i_long":106.640411,"station_id":"CSK","is_transit":false,"station_name":"Cisauk","line":0,"distance":1784,"time":4,"i_lat":-6.32484,"transit":false},{"is_transit":false,"station_name":"Cicayur","time":4,"i_long":106.617853,"station_id":"CC","distance":2519,"transit":false,"i_lat":-6.329547,"line":0},{"station_name":"Parung Panjang","i_lat":-6.3441410000000005,"time":8,"distance":5968,"station_id":"PRP","line":6,"is_transit":false,"transit":false,"i_long":106.568863},{"line":0,"is_transit":false,"station_id":"CJT","time":9,"transit":false,"i_long":106.508482,"distance":7025,"station_name":"Cilejit","i_lat":-6.354349},{"transit":false,"i_lat":-6.338021,"i_long":106.491338,"is_transit":false,"station_name":"Daru","time":6,"station_id":"DAR","distance":2675,"line":0},{"distance":3902,"transit":false,"i_lat":-6.327251,"station_id":"TEJ","i_long":106.460812,"line":6,"is_transit":false,"station_name":"Tenjo","time":5}]]}