{"data":[[{"station_name":"Pondok Jati","line":11,"distance":0,"is_transit":false,"station_id":"POK","transit":false,"time":0,"i_lat":-6.209188,"i_long":106.861737},{"line":1,"station_id":"JNG","is_transit":true,"transit":true,"distance":1236,"i_long":106.86807400000001,"i_lat":-6.215091,"station_name":"Jatinegara","time":9},{"transit":false,"station_name":"Matraman","is_transit":false,"station_id":"MTR","i_lat":-6.212485,"line":1,"distance":1377,"time":2,"i_long":106.858896},{"time":2,"station_name":"Manggarai","transit":false,"station_id":"MRI","line":2,"i_lat":-6.209883,"distance":1275,"is_transit":false,"i_long":106.84912},{"transit":false,"station_name":"Sudirman","station_id":"SUD","is_transit":false,"time":4,"i_long":106.822649,"distance":3186,"i_lat":-6.202263,"line":1},{"line":1,"i_long":106.819881,"station_name":"Sudirman Baru","is_transit":false,"transit":false,"station_id":"SUDB","time":1,"distance":280,"i_lat":-6.201433},{"i_long":106.816351,"station_name":"Karet","line":1,"i_lat":-6.20132,"distance":471,"station_id":"KAT","time":1,"transit":false,"is_transit":false},{"is_transit":true,"i_lat":-6.185545,"i_long":106.811091,"transit":true,"station_name":"Tanah Abang","distance":2029,"time":5,"line":1,"station_id":"THB"},{"station_name":"Palmerah","transit":false,"distance":3191,"is_transit":false,"time":6,"station_id":"PLM","line":6,"i_long":106.79689,"i_lat":-6.207404},{"distance":3737,"station_name":"Kebayoran","i_long":106.780334,"transit":false,"time":7,"line":6,"station_id":"KBY","i_lat":-6.237242,"is_transit":false},{"distance":6218,"station_name":"Pondokranji","line":6,"is_transit":false,"time":8,"transit":false,"i_lat":-6.276362,"i_long":106.74273,"station_id":"PDJ"},{"i_long":106.728916,"is_transit":false,"line":6,"time":3,"distance":2179,"station_id":"JMU","transit":false,"station_name":"Jurangmangu","i_lat":-6.288927},{"i_lat":-6.296963,"i_long":106.712277,"station_name":"Sudimara","station_id":"SDM","line":6,"is_transit":false,"time":4,"distance":1994,"transit":false},{"distance":4566,"is_transit":false,"time":6,"station_name":"Rawa Buntu","transit":false,"station_id":"RU","i_long":106.675475,"line":6,"i_lat":-6.314823},{"distance":2413,"transit":false,"is_transit":false,"i_lat":-6.319871,"line":6,"i_long":106.66566,"time":4,"station_id":"SRP","station_name":"Serpong"},{"station_name":"Cisauk","station_id":"CSK","transit":false,"time":4,"is_transit":false,"distance":1784,"line":3,"i_lat":-6.32484,"i_long":106.640411},{"transit":false,"distance":2519,"i_lat":-6.329547,"line":3,"time":4,"station_id":"CC","i_long":106.617853,"station_name":"Cicayur","is_transit":false},{"station_id":"PRP","time":8,"i_long":106.568863,"station_name":"Parung Panjang","is_transit":false,"line":6,"transit":false,"distance":5968,"i_lat":-6.3441410000000005},{"transit":false,"is_transit":false,"time":9,"i_long":106.508482,"station_id":"CJT","i_lat":-6.354349,"line":3,"distance":7025,"station_name":"Cilejit"},{"i_lat":-6.338021,"i_long":106.491338,"station_id":"DAR","distance":2675,"station_name":"Daru","line":0,"time":6,"transit":false,"is_transit":false},{"i_lat":-6.327251,"i_long":106.460812,"distance":3902,"transit":false,"station_id":"TEJ","is_transit":false,"time":5,"line":6,"station_name":"Tenjo"}],[{"is_transit":false,"i_lat":-6.209188,"i_long":106.861737,"station_name":"Pondok Jati","time":0,"transit":false,"distance":0,"line":11,"station_id":"POK"},{"time":2,"i_lat":-6.193792,"i_long":106.855437,"station_id":"KMT","transit":false,"is_transit":false,"distance":1829,"station_name":"Kramat","line":11},{"line":11,"i_long":106.850107,"transit":false,"station_name":"Gang Sentiong","station_id":"GST","time":1,"distance":973,"i_lat":-6.185975,"is_transit":false},{"is_transit":false,"transit":false,"station_name":"Pasar Senen","line":11,"time":8,"i_long":106.84368,"i_lat":-6.174784,"distance":1567,"station_id":"PSE"},{"transit":false,"station_id":"KMO","is_transit":false,"station_name":"Kemayoran","time":4,"line":11,"i_long":106.839204,"distance":1436,"i_lat":-6.161728},{"distance":1901,"line":11,"station_id":"RJW","i_long":106.836569,"is_transit":false,"time":5,"i_lat":-6.14505,"transit":false,"station_name":"Rajawali"},{"station_name":"Kampung Bandan","is_transit":true,"line":4,"i_lat":-6.132549,"station_id":"KPB","time":3,"transit":true,"distance":1444,"i_long":106.826365},{"station_name":"Angke","i_lat":-6.144674,"i_long":106.79867,"time":9,"is_transit":false,"transit":false,"line":1,"station_id":"AK","distance":4102},{"transit":false,"is_transit":false,"distance":1230,"station_id":"DU","i_long":106.800832,"station_name":"Duri","i_lat":-6.155215,"time":4,"line":1},{"line":1,"i_lat":-6.185545,"i_long":106.811091,"station_id":"THB","time":8,"station_name":"Tanah Abang","distance":3632,"transit":true,"is_transit":true},{"i_long":106.79689,"is_transit":false,"time":6,"line":6,"station_name":"Palmerah","transit":false,"station_id":"PLM","i_lat":-6.207404,"distance":3191},{"distance":3737,"transit":false,"line":6,"station_id":"KBY","time":7,"i_long":106.780334,"station_name":"Kebayoran","i_lat":-6.237242,"is_transit":false},{"station_name":"Pondokranji","is_transit":false,"station_id":"PDJ","line":6,"transit":false,"i_lat":-6.276362,"time":8,"distance":6218,"i_long":106.74273},{"i_lat":-6.288927,"transit":false,"station_name":"Jurangmangu","station_id":"JMU","is_transit":false,"distance":2179,"i_long":106.728916,"line":6,"time":3},{"station_name":"Sudimara","is_transit":false,"transit":false,"station_id":"SDM","distance":1994,"time":4,"i_lat":-6.296963,"i_long":106.712277,"line":6},{"station_name":"Rawa Buntu","i_long":106.675475,"line":6,"transit":false,"station_id":"RU","distance":4566,"i_lat":-6.314823,"time":6,"is_transit":false},{"transit":false,"station_id":"SRP","is_transit":false,"line":6,"distance":2413,"time":4,"i_long":106.66566,"i_lat":-6.319871,"station_name":"Serpong"},{"is_transit":false,"station_name":"Cisauk","transit":false,"station_id":"CSK","i_lat":-6.32484,"i_long":106.640411,"line":3,"time":4,"distance":1784},{"station_id":"CC","i_long":106.617853,"is_transit":false,"i_lat":-6.329547,"line":3,"station_name":"Cicayur","transit":false,"distance":2519,"time":4},{"station_name":"Parung Panjang","station_id":"PRP","is_transit":false,"distance":5968,"transit":false,"i_long":106.568863,"line":6,"time":8,"i_lat":-6.3441410000000005},{"transit":false,"time":9,"i_lat":-6.354349,"station_name":"Cilejit","distance":7025,"is_transit":false,"i_long":106.508482,"station_id":"CJT","line":3},{"station_name":"Daru","is_transit":false,"distance":2675,"station_id":"DAR","time":6,"transit":false,"i_long":106.491338,"line":0,"i_lat":-6.338021},{"i_long":106.460812,"line":6,"transit":false,"station_name":"Tenjo","i_lat":-6.327251,"station_id":"TEJ","time":5,"distance":3902,"is_transit":false}],[{"time":0,"is_transit":false,"distance":0,"i_long":106.861737,"line":11,"i_lat":-6.209188,"station_name":"Pondok Jati","station_id":"POK","transit":false},{"station_id":"JNG","distance":1236,"i_lat":-6.215091,"i_long":106.86807400000001,"line":1,"time":9,"station_name":"Jatinegara","is_transit":true,"transit":true},{"i_lat":-6.212485,"transit":false,"station_id":"MTR","station_name":"Matraman","time":2,"i_long":106.858896,"distance":1377,"line":1,"is_transit":false},{"i_lat":-6.209883,"station_name":"Manggarai","station_id":"MRI","line":2,"distance":1275,"i_long":106.84912,"transit":true,"time":2,"is_transit":true},{"line":2,"station_id":"CKI","i_lat":-6.198556,"distance":1590,"station_name":"Cikini","time":4,"i_long":106.840169,"is_transit":false,"transit":false},{"i_long":106.832183,"line":2,"time":3,"station_id":"GDD","station_name":"Gondangdia","is_transit":false,"distance":1750,"transit":false,"i_lat":-6.186295},{"time":4,"station_name":"Juanda","distance":2015,"transit":false,"i_lat":-6.166716,"i_long":106.828284,"is_transit":false,"line":2,"station_id":"JUA"},{"time":2,"station_id":"SW","is_transit":false,"i_lat":-6.160725,"i_long":106.827103,"distance":1149,"transit":false,"line":2,"station_name":"Sawah Besar"},{"time":2,"i_long":106.82482,"transit":false,"station_name":"Manggabesar","line":2,"distance":906,"station_id":"MGB","is_transit":false,"i_lat":-6.149769},{"station_id":"JAY","line":2,"transit":false,"is_transit":false,"i_lat":-6.141205,"time":2,"i_long":106.820901,"distance":1080,"station_name":"Jayakarta"},{"time":4,"i_lat":-6.137569,"station_name":"Jakarta Kota","i_long":106.812439,"is_transit":true,"station_id":"JAKK","transit":true,"distance":1264,"line":2},{"is_transit":true,"time":3,"distance":1364,"line":4,"transit":true,"i_long":106.826365,"station_id":"KPB","station_name":"Kampung Bandan","i_lat":-6.132549},{"line":1,"i_lat":-6.144674,"transit":false,"distance":4102,"station_id":"AK","time":9,"i_long":106.79867,"station_name":"Angke","is_transit":false},{"distance":1230,"i_long":106.800832,"i_lat":-6.155215,"station_id":"DU","line":1,"is_transit":false,"station_name":"Duri","transit":false,"time":4},{"transit":true,"i_long":106.811091,"is_transit":true,"distance":3632,"station_id":"THB","i_lat":-6.185545,"line":1,"time":8,"station_name":"Tanah Abang"},{"station_name":"Palmerah","station_id":"PLM","line":6,"i_lat":-6.207404,"transit":false,"time":6,"i_long":106.79689,"is_transit":false,"distance":3191},{"is_transit":false,"i_lat":-6.237242,"transit":false,"station_id":"KBY","distance":3737,"station_name":"Kebayoran","time":7,"i_long":106.780334,"line":6},{"station_id":"PDJ","i_long":106.74273,"line":6,"distance":6218,"is_transit":false,"station_name":"Pondokranji","transit":false,"i_lat":-6.276362,"time":8},{"distance":2179,"i_long":106.728916,"station_id":"JMU","station_name":"Jurangmangu","i_lat":-6.288927,"is_transit":false,"transit":false,"line":6,"time":3},{"station_id":"SDM","station_name":"Sudimara","time":4,"distance":1994,"i_lat":-6.296963,"line":6,"is_transit":false,"transit":false,"i_long":106.712277},{"i_lat":-6.314823,"time":6,"station_id":"RU","station_name":"Rawa Buntu","distance":4566,"is_transit":false,"i_long":106.675475,"transit":false,"line":6},{"i_lat":-6.319871,"is_transit":false,"station_id":"SRP","line":6,"time":4,"distance":2413,"transit":false,"i_long":106.66566,"station_name":"Serpong"},{"station_id":"CSK","transit":false,"is_transit":false,"station_name":"Cisauk","line":3,"i_lat":-6.32484,"time":4,"i_long":106.640411,"distance":1784},{"distance":2519,"is_transit":false,"transit":false,"time":4,"i_lat":-6.329547,"i_long":106.617853,"line":3,"station_id":"CC","station_name":"Cicayur"},{"transit":false,"time":8,"distance":5968,"i_lat":-6.3441410000000005,"line":6,"station_name":"Parung Panjang","station_id":"PRP","is_transit":false,"i_long":106.568863},{"station_name":"Cilejit","distance":7025,"transit":false,"time":9,"is_transit":false,"station_id":"CJT","i_lat":-6.354349,"i_long":106.508482,"line":3},{"station_id":"DAR","transit":false,"is_transit":false,"time":6,"distance":2675,"i_lat":-6.338021,"station_name":"Daru","i_long":106.491338,"line":0},{"station_name":"Tenjo","time":5,"is_transit":false,"transit":false,"station_id":"TEJ","i_lat":-6.327251,"i_long":106.460812,"line":6,"distance":3902}],[{"i_long":106.861737,"station_name":"Pondok Jati","transit":false,"station_id":"POK","line":11,"time":0,"is_transit":false,"i_lat":-6.209188,"distance":0},{"i_lat":-6.193792,"time":2,"is_transit":false,"distance":1829,"station_name":"Kramat","station_id":"KMT","line":11,"i_long":106.855437,"transit":false},{"station_name":"Gang Sentiong","i_long":106.850107,"transit":false,"line":11,"i_lat":-6.185975,"station_id":"GST","is_transit":false,"time":1,"distance":973},{"i_lat":-6.174784,"line":11,"station_name":"Pasar Senen","station_id":"PSE","distance":1567,"i_long":106.84368,"transit":false,"time":8,"is_transit":false},{"i_lat":-6.161728,"i_long":106.839204,"station_name":"Kemayoran","station_id":"KMO","time":4,"line":11,"transit":false,"is_transit":false,"distance":1436},{"station_id":"RJW","line":11,"station_name":"Rajawali","time":5,"distance":1901,"transit":false,"i_lat":-6.14505,"is_transit":false,"i_long":106.836569},{"line":4,"i_long":106.826365,"station_id":"KPB","station_name":"Kampung Bandan","is_transit":true,"time":3,"distance":1444,"i_lat":-6.132549,"transit":true},{"i_lat":-6.137569,"line":2,"station_name":"Jakarta Kota","i_long":106.812439,"time":3,"is_transit":true,"transit":true,"distance":1364,"station_id":"JAKK"},{"station_name":"Jayakarta","line":2,"transit":false,"is_transit":false,"i_lat":-6.141205,"time":4,"distance":1264,"i_long":106.820901,"station_id":"JAY"},{"time":2,"station_id":"MGB","is_transit":false,"distance":1080,"i_lat":-6.149769,"line":2,"i_long":106.82482,"transit":false,"station_name":"Manggabesar"},{"i_long":106.827103,"station_id":"SW","transit":false,"time":2,"station_name":"Sawah Besar","line":2,"is_transit":false,"distance":906,"i_lat":-6.160725},{"station_name":"Juanda","transit":false,"is_transit":false,"time":2,"distance":1149,"line":2,"i_lat":-6.166716,"i_long":106.828284,"station_id":"JUA"},{"distance":2015,"i_lat":-6.186295,"station_name":"Gondangdia","is_transit":false,"transit":false,"i_long":106.832183,"line":2,"station_id":"GDD","time":4},{"i_lat":-6.198556,"time":3,"distance":1750,"transit":false,"station_name":"Cikini","is_transit":false,"station_id":"CKI","i_long":106.840169,"line":2},{"is_transit":true,"station_name":"Manggarai","i_long":106.84912,"station_id":"MRI","distance":1590,"line":2,"time":4,"transit":true,"i_lat":-6.209883},{"time":4,"transit":false,"station_name":"Sudirman","station_id":"SUD","line":1,"i_long":106.822649,"is_transit":false,"distance":3186,"i_lat":-6.202263},{"station_id":"SUDB","station_name":"Sudirman Baru","is_transit":false,"i_lat":-6.201433,"i_long":106.819881,"time":1,"distance":280,"transit":false,"line":1},{"i_long":106.816351,"line":1,"i_lat":-6.20132,"station_id":"KAT","is_transit":false,"distance":471,"time":1,"station_name":"Karet","transit":false},{"distance":2029,"line":1,"is_transit":true,"transit":true,"station_id":"THB","i_long":106.811091,"station_name":"Tanah Abang","i_lat":-6.185545,"time":5},{"transit":false,"line":6,"time":6,"is_transit":false,"station_name":"Palmerah","i_lat":-6.207404,"i_long":106.79689,"station_id":"PLM","distance":3191},{"i_lat":-6.237242,"station_name":"Kebayoran","distance":3737,"time":7,"transit":false,"i_long":106.780334,"line":6,"station_id":"KBY","is_transit":false},{"station_name":"Pondokranji","distance":6218,"time":8,"i_long":106.74273,"line":6,"station_id":"PDJ","transit":false,"is_transit":false,"i_lat":-6.276362},{"station_id":"JMU","i_long":106.728916,"time":3,"is_transit":false,"i_lat":-6.288927,"station_name":"Jurangmangu","line":6,"transit":false,"distance":2179},{"time":4,"distance":1994,"i_lat":-6.296963,"station_name":"Sudimara","is_transit":false,"line":6,"transit":false,"station_id":"SDM","i_long":106.712277},{"distance":4566,"line":6,"station_id":"RU","transit":false,"station_name":"Rawa Buntu","i_lat":-6.314823,"is_transit":false,"i_long":106.675475,"time":6},{"line":6,"distance":2413,"time":4,"transit":false,"i_lat":-6.319871,"station_name":"Serpong","i_long":106.66566,"station_id":"SRP","is_transit":false},{"line":3,"station_id":"CSK","transit":false,"station_name":"Cisauk","is_transit":false,"time":4,"distance":1784,"i_lat":-6.32484,"i_long":106.640411},{"is_transit":false,"i_lat":-6.329547,"station_id":"CC","distance":2519,"station_name":"Cicayur","time":4,"i_long":106.617853,"transit":false,"line":3},{"station_name":"Parung Panjang","line":6,"transit":false,"time":8,"i_lat":-6.3441410000000005,"station_id":"PRP","is_transit":false,"distance":5968,"i_long":106.568863},{"time":9,"i_lat":-6.354349,"is_transit":false,"i_long":106.508482,"distance":7025,"transit":false,"station_name":"Cilejit","station_id":"CJT","line":3},{"i_long":106.491338,"time":6,"distance":2675,"transit":false,"station_id":"DAR","line":0,"station_name":"Daru","i_lat":-6.338021,"is_transit":false},{"station_id":"TEJ","time":5,"i_long":106.460812,"station_name":"Tenjo","line":6,"transit":false,"is_transit":false,"i_lat":-6.327251,"distance":3902}]]}