{"data":[[{"distance":0,"line":11,"i_long":106.861737,"time":0,"station_id":"POK","i_lat":-6.209188,"station_name":"Pondok Jati","is_transit":false,"transit":false},{"station_name":"Jatinegara","time":9,"is_transit":true,"i_lat":-6.215091,"line":1,"station_id":"JNG","distance":1236,"transit":true,"i_long":106.86807400000001},{"is_transit":false,"i_long":106.858896,"transit":false,"station_id":"MTR","distance":1377,"time":2,"station_name":"Matraman","line":1,"i_lat":-6.212485},{"line":2,"i_long":106.84912,"transit":false,"time":2,"distance":1275,"station_id":"MRI","is_transit":false,"i_lat":-6.209883,"station_name":"Manggarai"},{"distance":3186,"station_id":"SUD","i_long":106.822649,"i_lat":-6.202263,"line":1,"station_name":"Sudirman","transit":false,"is_transit":false,"time":4},{"i_lat":-6.201433,"station_name":"Sudirman Baru","distance":280,"time":1,"station_id":"SUDB","is_transit":false,"transit":false,"i_long":106.819881,"line":1}],[{"distance":0,"i_lat":-6.209188,"line":11,"time":0,"transit":false,"station_name":"Pondok Jati","is_transit":false,"station_id":"POK","i_long":106.861737},{"time":2,"distance":1829,"station_id":"KMT","i_long":106.855437,"transit":false,"i_lat":-6.193792,"line":11,"station_name":"Kramat","is_transit":false},{"i_lat":-6.185975,"station_id":"GST","transit":false,"station_name":"Gang Sentiong","is_transit":false,"line":11,"distance":973,"i_long":106.850107,"time":1},{"station_id":"PSE","is_transit":false,"transit":false,"i_lat":-6.174784,"time":8,"distance":1567,"line":11,"station_name":"Pasar Senen","i_long":106.84368},{"i_lat":-6.161728,"time":4,"is_transit":false,"distance":1436,"station_id":"KMO","transit":false,"station_name":"Kemayoran","line":11,"i_long":106.839204},{"station_name":"Rajawali","i_lat":-6.14505,"line":11,"time":5,"distance":1901,"transit":false,"i_long":106.836569,"station_id":"RJW","is_transit":false},{"i_lat":-6.132549,"is_transit":true,"time":3,"station_name":"Kampung Bandan","transit":true,"distance":1444,"i_long":106.826365,"line":4,"station_id":"KPB"},{"i_long":106.79867,"time":9,"station_name":"Angke","is_transit":false,"transit":false,"i_lat":-6.144674,"distance":4102,"station_id":"AK","line":1},{"station_id":"DU","i_long":106.800832,"distance":1230,"station_name":"Duri","is_transit":false,"time":4,"transit":false,"i_lat":-6.155215,"line":1},{"transit":false,"i_lat":-6.185545,"line":1,"station_id":"THB","i_long":106.811091,"distance":3632,"station_name":"Tanah Abang","is_transit":false,"time":8},{"i_lat":-6.20132,"station_name":"Karet","i_long":106.816351,"time":5,"station_id":"KAT","is_transit":false,"transit":false,"distance":2029,"line":1},{"distance":471,"line":1,"is_transit":false,"i_long":106.819881,"station_name":"Sudirman Baru","i_lat":-6.201433,"time":1,"station_id":"SUDB","transit":false}],[{"time":0,"distance":0,"transit":false,"line":11,"station_name":"Pondok Jati","i_lat":-6.209188,"is_transit":false,"station_id":"POK","i_long":106.861737},{"transit":true,"i_long":106.86807400000001,"station_id":"JNG","line":1,"time":9,"distance":1236,"station_name":"Jatinegara","is_transit":true,"i_lat":-6.215091},{"transit":false,"station_id":"MTR","i_long":106.858896,"is_transit":false,"station_name":"Matraman","i_lat":-6.212485,"line":1,"time":2,"distance":1377},{"i_long":106.84912,"time":2,"station_id":"MRI","i_lat":-6.209883,"line":2,"is_transit":true,"distance":1275,"station_name":"Manggarai","transit":true},{"transit":false,"station_id":"CKI","time":4,"i_long":106.840169,"line":2,"station_name":"Cikini","distance":1590,"i_lat":-6.198556,"is_transit":false},{"i_lat":-6.186295,"transit":false,"distance":1750,"line":2,"station_id":"GDD","i_long":106.832183,"station_name":"Gondangdia","time":3,"is_transit":false},{"transit":false,"station_id":"JUA","station_name":"Juanda","is_transit":false,"distance":2015,"i_lat":-6.166716,"i_long":106.828284,"line":2,"time":4},{"transit":false,"distance":1149,"station_id":"SW","i_lat":-6.160725,"line":2,"station_name":"Sawah Besar","is_transit":false,"time":2,"i_long":106.827103},{"line":2,"distance":906,"i_lat":-6.149769,"is_transit":false,"i_long":106.82482,"station_id":"MGB","transit":false,"station_name":"Manggabesar","time":2},{"i_long":106.820901,"time":2,"station_name":"Jayakarta","line":2,"is_transit":false,"distance":1080,"station_id":"JAY","transit":false,"i_lat":-6.141205},{"time":4,"station_id":"JAKK","i_lat":-6.137569,"is_transit":true,"i_long":106.812439,"distance":1264,"transit":true,"line":2,"station_name":"Jakarta Kota"},{"i_lat":-6.132549,"transit":true,"line":4,"station_id":"KPB","distance":1364,"i_long":106.826365,"is_transit":true,"time":3,"station_name":"Kampung Bandan"},{"i_long":106.79867,"distance":4102,"station_name":"Angke","i_lat":-6.144674,"transit":false,"line":1,"is_transit":false,"time":9,"station_id":"AK"},{"i_lat":-6.155215,"transit":false,"line":1,"i_long":106.800832,"station_name":"Duri","time":4,"distance":1230,"station_id":"DU","is_transit":false},{"i_lat":-6.185545,"time":8,"line":1,"station_name":"Tanah Abang","transit":false,"station_id":"THB","distance":3632,"i_long":106.811091,"is_transit":false},{"i_long":106.816351,"line":1,"distance":2029,"station_id":"KAT","station_name":"Karet","is_transit":false,"transit":false,"i_lat":-6.20132,"time":5},{"distance":471,"station_id":"SUDB","is_transit":false,"station_name":"Sudirman Baru","time":1,"i_long":106.819881,"line":1,"transit":false,"i_lat":-6.201433}],[{"i_lat":-6.209188,"station_name":"Pondok Jati","is_transit":false,"i_long":106.861737,"time":0,"line":11,"transit":false,"distance":0,"station_id":"POK"},{"distance":1829,"is_transit":false,"i_lat":-6.193792,"time":2,"station_name":"Kramat","transit":false,"station_id":"KMT","i_long":106.855437,"line":11},{"line":11,"time":1,"transit":false,"is_transit":false,"distance":973,"i_long":106.850107,"i_lat":-6.185975,"station_id":"GST","station_name":"Gang Sentiong"},{"distance":1567,"station_id":"PSE","time":8,"i_lat":-6.174784,"station_name":"Pasar Senen","is_transit":false,"transit":false,"i_long":106.84368,"line":11},{"i_lat":-6.161728,"station_id":"KMO","transit":false,"line":11,"i_long":106.839204,"is_transit":false,"distance":1436,"time":4,"station_name":"Kemayoran"},{"is_transit":false,"line":11,"station_name":"Rajawali","distance":1901,"station_id":"RJW","time":5,"i_long":106.836569,"transit":false,"i_lat":-6.14505},{"time":3,"station_name":"Kampung Bandan","line":4,"is_transit":true,"transit":true,"distance":1444,"i_lat":-6.132549,"station_id":"KPB","i_long":106.826365},{"i_lat":-6.137569,"time":3,"station_name":"Jakarta Kota","station_id":"JAKK","is_transit":true,"distance":1364,"transit":true,"i_long":106.812439,"line":2},{"i_long":106.820901,"distance":1264,"transit":false,"time":4,"station_name":"Jayakarta","station_id":"JAY","line":2,"i_lat":-6.141205,"is_transit":false},{"is_transit":false,"line":2,"distance":1080,"station_name":"Manggabesar","i_long":106.82482,"i_lat":-6.149769,"time":2,"station_id":"MGB","transit":false},{"i_long":106.827103,"is_transit":false,"transit":false,"time":2,"distance":906,"station_name":"Sawah Besar","i_lat":-6.160725,"line":2,"station_id":"SW"},{"time":2,"i_long":106.828284,"is_transit":false,"station_id":"JUA","i_lat":-6.166716,"station_name":"Juanda","line":2,"distance":1149,"transit":false},{"station_id":"GDD","line":2,"distance":2015,"transit":false,"i_lat":-6.186295,"time":4,"is_transit":false,"i_long":106.832183,"station_name":"Gondangdia"},{"station_id":"CKI","time":3,"station_name":"Cikini","transit":false,"i_long":106.840169,"line":2,"is_transit":false,"i_lat":-6.198556,"distance":1750},{"i_lat":-6.209883,"i_long":106.84912,"is_transit":true,"time":4,"distance":1590,"line":2,"transit":true,"station_name":"Manggarai","station_id":"MRI"},{"time":4,"distance":3186,"is_transit":false,"station_name":"Sudirman","station_id":"SUD","i_lat":-6.202263,"i_long":106.822649,"line":1,"transit":false},{"station_id":"SUDB","station_name":"Sudirman Baru","i_lat":-6.201433,"time":1,"is_transit":false,"transit":false,"i_long":106.819881,"distance":280,"line":1}]]}