{"data":[[{"station_name":"Pondok Jati","is_transit":false,"transit":false,"i_long":106.861737,"line":11,"distance":0,"time":0,"station_id":"POK","i_lat":-6.209188},{"distance":1236,"station_id":"JNG","transit":true,"station_name":"Jatinegara","is_transit":true,"line":0,"i_long":106.86807400000001,"time":9,"i_lat":-6.215091},{"i_long":106.858896,"transit":false,"station_id":"MTR","station_name":"Matraman","distance":1377,"time":2,"is_transit":false,"i_lat":-6.212485,"line":1},{"transit":false,"distance":1275,"time":2,"line":0,"station_name":"Manggarai","i_long":106.84912,"i_lat":-6.209883,"station_id":"MRI","is_transit":true},{"station_name":"Sudirman","distance":3186,"i_lat":-6.202263,"line":1,"station_id":"SUD","time":4,"transit":false,"is_transit":false,"i_long":106.822649},{"distance":280,"station_name":"Sudirman Baru","transit":false,"is_transit":false,"time":1,"i_lat":-6.201433,"i_long":106.819881,"line":1,"station_id":"SUDB"},{"is_transit":false,"distance":471,"station_id":"KAT","station_name":"Karet","time":1,"i_long":106.816351,"i_lat":-6.20132,"transit":false,"line":1},{"line":1,"i_long":106.811091,"station_name":"Tanah Abang","transit":true,"time":5,"i_lat":-6.185545,"distance":2029,"is_transit":true,"station_id":"THB"},{"distance":3191,"transit":false,"time":6,"station_name":"Palmerah","line":6,"station_id":"PLM","is_transit":false,"i_lat":-6.207404,"i_long":106.79689},{"distance":3737,"is_transit":false,"time":7,"line":6,"station_id":"KBY","station_name":"Kebayoran","i_long":106.780334,"i_lat":-6.237242,"transit":false},{"station_id":"PDJ","transit":false,"distance":6218,"is_transit":false,"i_lat":-6.276362,"i_long":106.74273,"time":8,"station_name":"Pondokranji","line":6},{"is_transit":false,"line":6,"distance":2179,"station_name":"Jurangmangu","transit":false,"station_id":"JMU","time":3,"i_lat":-6.288927,"i_long":106.728916},{"station_id":"SDM","station_name":"Sudimara","time":4,"is_transit":false,"transit":false,"i_lat":-6.296963,"distance":1994,"line":6,"i_long":106.712277},{"station_id":"RU","distance":4566,"transit":false,"time":6,"i_lat":-6.314823,"station_name":"Rawa Buntu","is_transit":false,"i_long":106.675475,"line":6},{"station_name":"Serpong","line":6,"distance":2413,"i_long":106.66566,"time":4,"station_id":"SRP","i_lat":-6.319871,"is_transit":false,"transit":false},{"transit":false,"i_long":106.640411,"is_transit":false,"station_id":"CSK","i_lat":-6.32484,"time":4,"distance":1784,"station_name":"Cisauk","line":0},{"line":0,"distance":2519,"transit":false,"time":4,"i_long":106.617853,"station_id":"CC","station_name":"Cicayur","is_transit":false,"i_lat":-6.329547},{"station_id":"PRP","transit":false,"is_transit":false,"line":6,"distance":5968,"i_lat":-6.3441410000000005,"time":8,"i_long":106.568863,"station_name":"Parung Panjang"},{"i_long":106.508482,"time":9,"is_transit":false,"i_lat":-6.354349,"line":0,"station_name":"Cilejit","distance":7025,"station_id":"CJT","transit":false},{"time":6,"line":0,"station_id":"DAR","i_lat":-6.338021,"i_long":106.491338,"distance":2675,"is_transit":false,"station_name":"Daru","transit":false},{"station_id":"TEJ","i_long":106.460812,"station_name":"Tenjo","distance":3902,"time":5,"transit":false,"line":6,"i_lat":-6.327251,"is_transit":false},{"i_long":106.425991,"station_id":"TGS","is_transit":false,"i_lat":-6.328533,"line":6,"transit":false,"time":5,"distance":2974,"station_name":"Tigaraksa"}],[{"distance":0,"i_lat":-6.209188,"line":11,"transit":false,"station_name":"Pondok Jati","station_id":"POK","time":0,"is_transit":false,"i_long":106.861737},{"is_transit":false,"line":11,"time":2,"distance":1829,"station_name":"Kramat","i_lat":-6.193792,"i_long":106.855437,"transit":false,"station_id":"KMT"},{"time":1,"i_long":106.850107,"is_transit":false,"station_name":"Gang Sentiong","transit":false,"i_lat":-6.185975,"line":11,"station_id":"GST","distance":973},{"line":11,"i_long":106.84368,"time":8,"distance":1567,"transit":false,"i_lat":-6.174784,"is_transit":false,"station_id":"PSE","station_name":"Pasar Senen"},{"station_name":"Kemayoran","distance":1436,"time":4,"station_id":"KMO","transit":false,"line":11,"i_long":106.839204,"is_transit":false,"i_lat":-6.161728},{"station_name":"Rajawali","is_transit":false,"station_id":"RJW","i_long":106.836569,"line":11,"distance":1901,"i_lat":-6.14505,"transit":false,"time":5},{"time":3,"station_name":"Kampung Bandan","distance":1444,"is_transit":true,"station_id":"KPB","line":0,"transit":true,"i_lat":-6.132549,"i_long":106.826365},{"distance":4102,"station_id":"AK","station_name":"Angke","is_transit":false,"i_lat":-6.144674,"i_long":106.79867,"line":0,"transit":false,"time":9},{"is_transit":true,"station_name":"Duri","time":4,"line":1,"distance":1230,"station_id":"DU","transit":true,"i_lat":-6.155215,"i_long":106.800832},{"is_transit":true,"transit":true,"time":8,"line":1,"distance":3632,"station_name":"Tanah Abang","station_id":"THB","i_lat":-6.185545,"i_long":106.811091},{"station_id":"PLM","i_lat":-6.207404,"time":6,"transit":false,"distance":3191,"line":6,"is_transit":false,"i_long":106.79689,"station_name":"Palmerah"},{"station_id":"KBY","distance":3737,"i_long":106.780334,"is_transit":false,"i_lat":-6.237242,"line":6,"time":7,"transit":false,"station_name":"Kebayoran"},{"i_long":106.74273,"time":8,"i_lat":-6.276362,"transit":false,"station_name":"Pondokranji","is_transit":false,"distance":6218,"station_id":"PDJ","line":6},{"station_name":"Jurangmangu","line":6,"distance":2179,"i_lat":-6.288927,"station_id":"JMU","is_transit":false,"transit":false,"i_long":106.728916,"time":3},{"station_id":"SDM","station_name":"Sudimara","transit":false,"time":4,"is_transit":false,"i_long":106.712277,"distance":1994,"i_lat":-6.296963,"line":6},{"is_transit":false,"time":6,"transit":false,"i_long":106.675475,"station_name":"Rawa Buntu","station_id":"RU","distance":4566,"i_lat":-6.314823,"line":6},{"station_name":"Serpong","time":4,"i_lat":-6.319871,"transit":false,"line":6,"i_long":106.66566,"distance":2413,"station_id":"SRP","is_transit":false},{"i_long":106.640411,"station_id":"CSK","transit":false,"time":4,"distance":1784,"is_transit":false,"station_name":"Cisauk","i_lat":-6.32484,"line":0},{"is_transit":false,"i_lat":-6.329547,"i_long":106.617853,"station_id":"CC","time":4,"station_name":"Cicayur","line":0,"transit":false,"distance":2519},{"i_lat":-6.3441410000000005,"transit":false,"is_transit":false,"line":6,"station_id":"PRP","station_name":"Parung Panjang","time":8,"i_long":106.568863,"distance":5968},{"transit":false,"station_name":"Cilejit","i_lat":-6.354349,"station_id":"CJT","time":9,"i_long":106.508482,"distance":7025,"line":0,"is_transit":false},{"is_transit":false,"i_long":106.491338,"distance":2675,"line":0,"time":6,"i_lat":-6.338021,"station_id":"DAR","station_name":"Daru","transit":false},{"is_transit":false,"station_name":"Tenjo","station_id":"TEJ","distance":3902,"time":5,"transit":false,"i_long":106.460812,"i_lat":-6.327251,"line":6},{"distance":2974,"station_name":"Tigaraksa","i_lat":-6.328533,"is_transit":false,"transit":false,"station_id":"TGS","time":5,"line":6,"i_long":106.425991}],[{"transit":false,"i_lat":-6.209188,"line":11,"station_id":"POK","station_name":"Pondok Jati","i_long":106.861737,"is_transit":false,"distance":0,"time":0},{"is_transit":true,"station_name":"Jatinegara","distance":1236,"station_id":"JNG","transit":true,"line":0,"time":9,"i_lat":-6.215091,"i_long":106.86807400000001},{"transit":false,"line":1,"time":2,"station_name":"Matraman","i_lat":-6.212485,"distance":1377,"is_transit":false,"i_long":106.858896,"station_id":"MTR"},{"station_name":"Manggarai","i_lat":-6.209883,"station_id":"MRI","time":2,"distance":1275,"i_long":106.84912,"line":0,"is_transit":true,"transit":true},{"i_lat":-6.198556,"line":0,"i_long":106.840169,"is_transit":false,"distance":1590,"station_id":"CKI","station_name":"Cikini","transit":false,"time":4},{"line":2,"time":3,"i_lat":-6.186295,"station_id":"GDD","transit":false,"is_transit":false,"i_long":106.832183,"distance":1750,"station_name":"Gondangdia"},{"is_transit":false,"line":2,"i_long":106.828284,"transit":false,"time":4,"i_lat":-6.166716,"distance":2015,"station_id":"JUA","station_name":"Juanda"},{"distance":1149,"station_name":"Sawah Besar","i_long":106.827103,"is_transit":false,"transit":false,"line":2,"station_id":"SW","time":2,"i_lat":-6.160725},{"i_lat":-6.149769,"is_transit":false,"transit":false,"station_id":"MGB","time":2,"line":2,"i_long":106.82482,"distance":906,"station_name":"Manggabesar"},{"distance":1080,"station_id":"JAY","is_transit":false,"transit":false,"time":2,"i_lat":-6.141205,"line":7,"station_name":"Jayakarta","i_long":106.820901},{"is_transit":true,"i_long":106.812439,"distance":1264,"station_id":"JAKK","i_lat":-6.137569,"line":0,"station_name":"Jakarta Kota","time":4,"transit":true},{"distance":1364,"station_name":"Kampung Bandan","line":0,"is_transit":true,"i_lat":-6.132549,"i_long":106.826365,"time":3,"transit":false,"station_id":"KPB"},{"time":9,"i_lat":-6.144674,"distance":4102,"station_id":"AK","is_transit":false,"station_name":"Angke","transit":false,"i_long":106.79867,"line":0},{"station_id":"DU","i_lat":-6.155215,"line":1,"distance":1230,"is_transit":true,"station_name":"Duri","time":4,"i_long":106.800832,"transit":true},{"is_transit":true,"transit":true,"time":8,"i_lat":-6.185545,"line":1,"station_name":"Tanah Abang","i_long":106.811091,"station_id":"THB","distance":3632},{"time":6,"station_id":"PLM","distance":3191,"transit":false,"is_transit":false,"line":6,"station_name":"Palmerah","i_lat":-6.207404,"i_long":106.79689},{"line":6,"station_id":"KBY","distance":3737,"time":7,"is_transit":false,"i_lat":-6.237242,"transit":false,"i_long":106.780334,"station_name":"Kebayoran"},{"line":6,"i_long":106.74273,"is_transit":false,"transit":false,"distance":6218,"station_id":"PDJ","time":8,"station_name":"Pondokranji","i_lat":-6.276362},{"station_id":"JMU","i_long":106.728916,"line":6,"station_name":"Jurangmangu","distance":2179,"transit":false,"i_lat":-6.288927,"time":3,"is_transit":false},{"distance":1994,"is_transit":false,"i_lat":-6.296963,"i_long":106.712277,"transit":false,"line":6,"station_id":"SDM","time":4,"station_name":"Sudimara"},{"i_lat":-6.314823,"i_long":106.675475,"is_transit":false,"station_id":"RU","distance":4566,"station_name":"Rawa Buntu","time":6,"transit":false,"line":6},{"is_transit":false,"station_id":"SRP","i_lat":-6.319871,"line":6,"distance":2413,"transit":false,"station_name":"Serpong","i_long":106.66566,"time":4},{"station_id":"CSK","time":4,"i_lat":-6.32484,"distance":1784,"transit":false,"station_name":"Cisauk","is_transit":false,"i_long":106.640411,"line":0},{"line":0,"i_lat":-6.329547,"station_name":"Cicayur","distance":2519,"is_transit":false,"i_long":106.617853,"time":4,"transit":false,"station_id":"CC"},{"i_lat":-6.3441410000000005,"i_long":106.568863,"distance":5968,"station_id":"PRP","is_transit":false,"transit":false,"time":8,"line":6,"station_name":"Parung Panjang"},{"line":0,"time":9,"i_lat":-6.354349,"is_transit":false,"transit":false,"i_long":106.508482,"distance":7025,"station_id":"CJT","station_name":"Cilejit"},{"station_id":"DAR","time":6,"is_transit":false,"distance":2675,"line":0,"transit":false,"station_name":"Daru","i_lat":-6.338021,"i_long":106.491338},{"is_transit":false,"station_name":"Tenjo","distance":3902,"i_long":106.460812,"i_lat":-6.327251,"time":5,"line":6,"station_id":"TEJ","transit":false},{"i_long":106.425991,"line":6,"i_lat":-6.328533,"time":5,"is_transit":false,"station_id":"TGS","station_name":"Tigaraksa","transit":false,"distance":2974}],[{"time":0,"station_name":"Pondok Jati","transit":false,"station_id":"POK","i_lat":-6.209188,"i_long":106.861737,"distance":0,"is_transit":false,"line":11},{"time":2,"line":11,"distance":1829,"is_transit":false,"transit":false,"i_lat":-6.193792,"i_long":106.855437,"station_id":"KMT","station_name":"Kramat"},{"station_name":"Gang Sentiong","line":11,"is_transit":false,"station_id":"GST","i_lat":-6.185975,"transit":false,"distance":973,"time":1,"i_long":106.850107},{"is_transit":false,"i_lat":-6.174784,"station_name":"Pasar Senen","station_id":"PSE","distance":1567,"transit":false,"time":8,"line":11,"i_long":106.84368},{"transit":false,"distance":1436,"station_name":"Kemayoran","line":11,"time":4,"i_long":106.839204,"i_lat":-6.161728,"is_transit":false,"station_id":"KMO"},{"station_name":"Rajawali","station_id":"RJW","i_long":106.836569,"distance":1901,"line":11,"transit":false,"time":5,"is_transit":false,"i_lat":-6.14505},{"time":3,"station_name":"Kampung Bandan","station_id":"KPB","transit":true,"distance":1444,"i_long":106.826365,"i_lat":-6.132549,"line":0,"is_transit":true},{"distance":1364,"transit":true,"time":3,"line":0,"i_lat":-6.137569,"station_id":"JAKK","i_long":106.812439,"is_transit":true,"station_name":"Jakarta Kota"},{"line":7,"i_lat":-6.141205,"station_name":"Jayakarta","is_transit":false,"i_long":106.820901,"station_id":"JAY","time":4,"transit":false,"distance":1264},{"i_long":106.82482,"i_lat":-6.149769,"is_transit":false,"time":2,"station_name":"Manggabesar","line":2,"station_id":"MGB","transit":false,"distance":1080},{"i_long":106.827103,"is_transit":false,"station_name":"Sawah Besar","distance":906,"i_lat":-6.160725,"station_id":"SW","time":2,"line":2,"transit":false},{"time":2,"i_long":106.828284,"distance":1149,"station_name":"Juanda","station_id":"JUA","is_transit":false,"transit":false,"i_lat":-6.166716,"line":2},{"i_long":106.832183,"transit":false,"distance":2015,"i_lat":-6.186295,"line":2,"is_transit":false,"station_id":"GDD","station_name":"Gondangdia","time":4},{"distance":1750,"time":3,"station_name":"Cikini","i_long":106.840169,"is_transit":false,"transit":false,"station_id":"CKI","i_lat":-6.198556,"line":0},{"transit":true,"station_name":"Manggarai","i_lat":-6.209883,"line":0,"i_long":106.84912,"distance":1590,"is_transit":true,"station_id":"MRI","time":4},{"station_id":"SUD","i_lat":-6.202263,"i_long":106.822649,"time":4,"is_transit":false,"line":1,"transit":false,"distance":3186,"station_name":"Sudirman"},{"i_lat":-6.201433,"line":1,"time":1,"is_transit":false,"i_long":106.819881,"station_id":"SUDB","station_name":"Sudirman Baru","transit":false,"distance":280},{"station_id":"KAT","station_name":"Karet","line":1,"i_lat":-6.20132,"transit":false,"time":1,"is_transit":false,"i_long":106.816351,"distance":471},{"i_lat":-6.185545,"is_transit":true,"station_name":"Tanah Abang","distance":2029,"time":5,"i_long":106.811091,"station_id":"THB","line":1,"transit":true},{"line":6,"station_id":"PLM","transit":false,"time":6,"distance":3191,"is_transit":false,"station_name":"Palmerah","i_lat":-6.207404,"i_long":106.79689},{"station_name":"Kebayoran","line":6,"distance":3737,"i_long":106.780334,"is_transit":false,"station_id":"KBY","i_lat":-6.237242,"time":7,"transit":false},{"distance":6218,"station_id":"PDJ","time":8,"transit":false,"station_name":"Pondokranji","is_transit":false,"i_long":106.74273,"line":6,"i_lat":-6.276362},{"i_long":106.728916,"transit":false,"is_transit":false,"line":6,"station_name":"Jurangmangu","station_id":"JMU","time":3,"i_lat":-6.288927,"distance":2179},{"distance":1994,"station_name":"Sudimara","i_lat":-6.296963,"station_id":"SDM","time":4,"i_long":106.712277,"line":6,"is_transit":false,"transit":false},{"is_transit":false,"station_name":"Rawa Buntu","station_id":"RU","i_lat":-6.314823,"line":6,"transit":false,"distance":4566,"time":6,"i_long":106.675475},{"time":4,"i_lat":-6.319871,"line":6,"transit":false,"is_transit":false,"station_id":"SRP","i_long":106.66566,"station_name":"Serpong","distance":2413},{"time":4,"station_name":"Cisauk","distance":1784,"is_transit":false,"transit":false,"i_lat":-6.32484,"station_id":"CSK","i_long":106.640411,"line":0},{"transit":false,"distance":2519,"i_lat":-6.329547,"i_long":106.617853,"station_name":"Cicayur","is_transit":false,"line":0,"time":4,"station_id":"CC"},{"time":8,"distance":5968,"i_lat":-6.3441410000000005,"line":6,"transit":false,"is_transit":false,"station_id":"PRP","station_name":"Parung Panjang","i_long":106.568863},{"time":9,"distance":7025,"station_id":"CJT","line":0,"is_transit":false,"station_name":"Cilejit","i_lat":-6.354349,"transit":false,"i_long":106.508482},{"i_long":106.491338,"line":0,"station_id":"DAR","is_transit":false,"station_name":"Daru","transit":false,"time":6,"distance":2675,"i_lat":-6.338021},{"i_lat":-6.327251,"line":6,"is_transit":false,"i_long":106.460812,"station_name":"Tenjo","station_id":"TEJ","distance":3902,"transit":false,"time":5},{"distance":2974,"is_transit":false,"station_id":"TGS","station_name":"Tigaraksa","time":5,"line":6,"i_long":106.425991,"i_lat":-6.328533,"transit":false}]]}