{"data":[[{"line":11,"transit":false,"distance":0,"i_long":106.861737,"time":0,"station_id":"POK","i_lat":-6.209188,"is_transit":false,"station_name":"Pondok Jati"},{"station_name":"Jatinegara","transit":true,"time":9,"is_transit":true,"line":1,"i_long":106.86807400000001,"station_id":"JNG","distance":1236,"i_lat":-6.215091},{"time":2,"transit":false,"distance":1377,"station_name":"Matraman","i_lat":-6.212485,"i_long":106.858896,"is_transit":false,"station_id":"MTR","line":1},{"transit":false,"i_lat":-6.209883,"i_long":106.84912,"is_transit":false,"time":2,"station_id":"MRI","distance":1275,"line":2,"station_name":"Manggarai"},{"time":4,"distance":3186,"line":1,"i_lat":-6.202263,"station_name":"Sudirman","transit":false,"station_id":"SUD","is_transit":false,"i_long":106.822649},{"time":1,"transit":false,"distance":280,"i_lat":-6.201433,"i_long":106.819881,"line":1,"station_name":"Sudirman Baru","station_id":"SUDB","is_transit":false},{"station_id":"KAT","station_name":"Karet","time":1,"i_lat":-6.20132,"is_transit":false,"line":1,"i_long":106.816351,"transit":false,"distance":471},{"transit":false,"i_lat":-6.185545,"station_id":"THB","distance":2029,"station_name":"Tanah Abang","is_transit":false,"time":5,"line":1,"i_long":106.811091},{"distance":3632,"station_id":"DU","is_transit":false,"i_lat":-6.155215,"station_name":"Duri","time":8,"i_long":106.800832,"transit":false,"line":1}],[{"is_transit":false,"distance":0,"i_lat":-6.209188,"transit":false,"line":11,"i_long":106.861737,"station_id":"POK","time":0,"station_name":"Pondok Jati"},{"is_transit":false,"distance":1829,"transit":false,"i_long":106.855437,"station_name":"Kramat","i_lat":-6.193792,"line":11,"station_id":"KMT","time":2},{"transit":false,"time":1,"station_name":"Gang Sentiong","i_long":106.850107,"distance":973,"i_lat":-6.185975,"line":11,"is_transit":false,"station_id":"GST"},{"i_lat":-6.174784,"is_transit":false,"time":8,"distance":1567,"line":11,"station_id":"PSE","i_long":106.84368,"transit":false,"station_name":"Pasar Senen"},{"time":4,"station_name":"Kemayoran","i_long":106.839204,"is_transit":false,"i_lat":-6.161728,"transit":false,"distance":1436,"line":11,"station_id":"KMO"},{"station_id":"RJW","i_lat":-6.14505,"is_transit":false,"time":5,"line":11,"station_name":"Rajawali","transit":false,"distance":1901,"i_long":106.836569},{"station_name":"Kampung Bandan","distance":1444,"i_long":106.826365,"line":4,"time":3,"station_id":"KPB","is_transit":true,"i_lat":-6.132549,"transit":true},{"time":9,"is_transit":false,"station_id":"AK","station_name":"Angke","i_long":106.79867,"transit":false,"i_lat":-6.144674,"line":1,"distance":4102},{"station_id":"DU","is_transit":false,"transit":false,"distance":1230,"line":1,"station_name":"Duri","time":4,"i_lat":-6.155215,"i_long":106.800832}],[{"time":0,"is_transit":false,"i_lat":-6.209188,"distance":0,"i_long":106.861737,"transit":false,"station_name":"Pondok Jati","line":11,"station_id":"POK"},{"time":9,"i_lat":-6.215091,"transit":true,"i_long":106.86807400000001,"line":1,"station_name":"Jatinegara","station_id":"JNG","is_transit":true,"distance":1236},{"line":1,"distance":1377,"station_id":"MTR","transit":false,"i_lat":-6.212485,"i_long":106.858896,"is_transit":false,"time":2,"station_name":"Matraman"},{"is_transit":true,"i_lat":-6.209883,"transit":true,"distance":1275,"i_long":106.84912,"station_name":"Manggarai","time":2,"line":2,"station_id":"MRI"},{"is_transit":false,"station_id":"CKI","i_lat":-6.198556,"i_long":106.840169,"line":2,"time":4,"station_name":"Cikini","transit":false,"distance":1590},{"distance":1750,"station_name":"Gondangdia","transit":false,"i_long":106.832183,"station_id":"GDD","time":3,"is_transit":false,"i_lat":-6.186295,"line":2},{"station_name":"Juanda","station_id":"JUA","transit":false,"i_lat":-6.166716,"time":4,"is_transit":false,"distance":2015,"i_long":106.828284,"line":2},{"station_id":"SW","distance":1149,"i_lat":-6.160725,"i_long":106.827103,"line":2,"time":2,"is_transit":false,"station_name":"Sawah Besar","transit":false},{"distance":906,"time":2,"station_name":"Manggabesar","transit":false,"i_lat":-6.149769,"is_transit":false,"i_long":106.82482,"line":2,"station_id":"MGB"},{"time":2,"is_transit":false,"station_id":"JAY","transit":false,"i_lat":-6.141205,"i_long":106.820901,"distance":1080,"line":2,"station_name":"Jayakarta"},{"distance":1264,"i_long":106.812439,"transit":true,"i_lat":-6.137569,"line":2,"time":4,"station_id":"JAKK","is_transit":true,"station_name":"Jakarta Kota"},{"distance":1364,"time":3,"line":4,"i_lat":-6.132549,"station_name":"Kampung Bandan","station_id":"KPB","transit":true,"is_transit":true,"i_long":106.826365},{"distance":4102,"i_lat":-6.144674,"line":1,"station_name":"Angke","station_id":"AK","is_transit":false,"i_long":106.79867,"time":9,"transit":false},{"is_transit":false,"distance":1230,"i_lat":-6.155215,"station_name":"Duri","time":4,"transit":false,"i_long":106.800832,"line":1,"station_id":"DU"}],[{"station_name":"Pondok Jati","station_id":"POK","is_transit":false,"transit":false,"time":0,"distance":0,"i_long":106.861737,"line":11,"i_lat":-6.209188},{"time":2,"station_id":"KMT","i_long":106.855437,"transit":false,"is_transit":false,"station_name":"Kramat","i_lat":-6.193792,"distance":1829,"line":11},{"line":11,"is_transit":false,"station_id":"GST","distance":973,"time":1,"transit":false,"i_lat":-6.185975,"i_long":106.850107,"station_name":"Gang Sentiong"},{"i_lat":-6.174784,"line":11,"station_id":"PSE","is_transit":false,"distance":1567,"i_long":106.84368,"transit":false,"station_name":"Pasar Senen","time":8},{"transit":false,"distance":1436,"i_long":106.839204,"line":11,"time":4,"is_transit":false,"station_name":"Kemayoran","i_lat":-6.161728,"station_id":"KMO"},{"transit":false,"i_lat":-6.14505,"is_transit":false,"station_name":"Rajawali","station_id":"RJW","time":5,"line":11,"distance":1901,"i_long":106.836569},{"is_transit":true,"line":4,"transit":true,"station_name":"Kampung Bandan","station_id":"KPB","distance":1444,"i_lat":-6.132549,"i_long":106.826365,"time":3},{"i_long":106.812439,"line":2,"time":3,"i_lat":-6.137569,"station_name":"Jakarta Kota","station_id":"JAKK","transit":true,"is_transit":true,"distance":1364},{"line":2,"station_name":"Jayakarta","time":4,"is_transit":false,"transit":false,"distance":1264,"i_lat":-6.141205,"station_id":"JAY","i_long":106.820901},{"station_id":"MGB","time":2,"distance":1080,"line":2,"station_name":"Manggabesar","is_transit":false,"i_long":106.82482,"i_lat":-6.149769,"transit":false},{"transit":false,"line":2,"station_id":"SW","is_transit":false,"distance":906,"station_name":"Sawah Besar","i_long":106.827103,"i_lat":-6.160725,"time":2},{"time":2,"i_long":106.828284,"station_id":"JUA","station_name":"Juanda","is_transit":false,"transit":false,"i_lat":-6.166716,"distance":1149,"line":2},{"distance":2015,"station_id":"GDD","i_long":106.832183,"transit":false,"time":4,"station_name":"Gondangdia","is_transit":false,"i_lat":-6.186295,"line":2},{"i_long":106.840169,"time":3,"distance":1750,"is_transit":false,"station_id":"CKI","station_name":"Cikini","transit":false,"i_lat":-6.198556,"line":2},{"line":2,"time":4,"distance":1590,"transit":true,"i_lat":-6.209883,"station_id":"MRI","station_name":"Manggarai","is_transit":true,"i_long":106.84912},{"station_name":"Sudirman","i_long":106.822649,"transit":false,"time":4,"station_id":"SUD","is_transit":false,"i_lat":-6.202263,"line":1,"distance":3186},{"i_lat":-6.201433,"is_transit":false,"station_id":"SUDB","i_long":106.819881,"transit":false,"station_name":"Sudirman Baru","line":1,"distance":280,"time":1},{"distance":471,"is_transit":false,"station_name":"Karet","transit":false,"station_id":"KAT","i_long":106.816351,"line":1,"time":1,"i_lat":-6.20132},{"line":1,"distance":2029,"station_name":"Tanah Abang","station_id":"THB","transit":false,"i_lat":-6.185545,"time":5,"is_transit":false,"i_long":106.811091},{"station_name":"Duri","is_transit":false,"station_id":"DU","line":1,"time":8,"i_lat":-6.155215,"transit":false,"i_long":106.800832,"distance":3632}]]}