{"data":[[{"transit":false,"time":0,"i_lat":-6.209188,"i_long":106.861737,"distance":0,"is_transit":false,"station_id":"POK","station_name":"Pondok Jati","line":11},{"i_lat":-6.215091,"transit":true,"i_long":106.86807400000001,"is_transit":true,"station_id":"JNG","line":1,"time":9,"station_name":"Jatinegara","distance":1236},{"transit":false,"time":2,"i_long":106.858896,"station_id":"MTR","station_name":"Matraman","is_transit":false,"line":1,"distance":1377,"i_lat":-6.212485},{"station_name":"Manggarai","i_lat":-6.209883,"line":2,"transit":false,"time":2,"is_transit":false,"distance":1275,"i_long":106.84912,"station_id":"MRI"},{"is_transit":false,"transit":false,"time":4,"distance":3186,"i_lat":-6.202263,"i_long":106.822649,"station_id":"SUD","station_name":"Sudirman","line":1},{"distance":280,"line":1,"station_id":"SUDB","time":1,"i_long":106.819881,"station_name":"Sudirman Baru","i_lat":-6.201433,"is_transit":false,"transit":false},{"transit":false,"time":1,"is_transit":false,"i_lat":-6.20132,"i_long":106.816351,"station_name":"Karet","station_id":"KAT","distance":471,"line":1},{"time":5,"station_name":"Tanah Abang","distance":2029,"i_lat":-6.185545,"station_id":"THB","line":1,"is_transit":true,"i_long":106.811091,"transit":true},{"transit":false,"time":6,"station_name":"Palmerah","station_id":"PLM","distance":3191,"i_lat":-6.207404,"i_long":106.79689,"line":6,"is_transit":false},{"distance":3737,"is_transit":false,"line":6,"i_lat":-6.237242,"station_name":"Kebayoran","station_id":"KBY","time":7,"i_long":106.780334,"transit":false},{"i_long":106.74273,"line":6,"transit":false,"distance":6218,"i_lat":-6.276362,"station_id":"PDJ","station_name":"Pondokranji","time":8,"is_transit":false},{"time":3,"is_transit":false,"distance":2179,"transit":false,"i_lat":-6.288927,"line":6,"station_id":"JMU","station_name":"Jurangmangu","i_long":106.728916},{"distance":1994,"station_id":"SDM","station_name":"Sudimara","time":4,"is_transit":false,"i_long":106.712277,"i_lat":-6.296963,"transit":false,"line":6},{"i_lat":-6.314823,"station_id":"RU","is_transit":false,"distance":4566,"time":6,"i_long":106.675475,"line":6,"station_name":"Rawa Buntu","transit":false},{"transit":false,"is_transit":false,"station_name":"Serpong","distance":2413,"i_long":106.66566,"station_id":"SRP","time":4,"line":6,"i_lat":-6.319871},{"time":4,"station_id":"CSK","i_long":106.640411,"distance":1784,"station_name":"Cisauk","transit":false,"i_lat":-6.32484,"is_transit":false,"line":3},{"time":4,"transit":false,"distance":2519,"i_long":106.617853,"i_lat":-6.329547,"line":3,"station_id":"CC","is_transit":false,"station_name":"Cicayur"},{"time":8,"i_lat":-6.3441410000000005,"distance":5968,"station_name":"Parung Panjang","i_long":106.568863,"station_id":"PRP","is_transit":false,"transit":false,"line":6},{"station_name":"Cilejit","distance":7025,"station_id":"CJT","i_lat":-6.354349,"transit":false,"line":3,"i_long":106.508482,"time":9,"is_transit":false},{"station_id":"DAR","is_transit":false,"line":0,"time":6,"station_name":"Daru","distance":2675,"i_lat":-6.338021,"i_long":106.491338,"transit":false},{"station_name":"Tenjo","line":6,"station_id":"TEJ","distance":3902,"is_transit":false,"i_lat":-6.327251,"i_long":106.460812,"time":5,"transit":false}],[{"i_lat":-6.209188,"station_name":"Pondok Jati","i_long":106.861737,"distance":0,"station_id":"POK","transit":false,"time":0,"is_transit":false,"line":11},{"transit":false,"i_long":106.855437,"station_id":"KMT","line":11,"station_name":"Kramat","is_transit":false,"time":2,"distance":1829,"i_lat":-6.193792},{"is_transit":false,"station_name":"Gang Sentiong","time":1,"distance":973,"i_lat":-6.185975,"station_id":"GST","i_long":106.850107,"line":11,"transit":false},{"station_name":"Pasar Senen","station_id":"PSE","is_transit":false,"distance":1567,"line":11,"transit":false,"i_long":106.84368,"i_lat":-6.174784,"time":8},{"station_name":"Kemayoran","station_id":"KMO","transit":false,"i_long":106.839204,"i_lat":-6.161728,"line":11,"time":4,"distance":1436,"is_transit":false},{"station_id":"RJW","is_transit":false,"time":5,"transit":false,"station_name":"Rajawali","i_long":106.836569,"distance":1901,"line":11,"i_lat":-6.14505},{"time":3,"is_transit":true,"i_lat":-6.132549,"i_long":106.826365,"transit":true,"line":4,"station_name":"Kampung Bandan","distance":1444,"station_id":"KPB"},{"line":1,"time":9,"is_transit":false,"transit":false,"i_long":106.79867,"distance":4102,"station_name":"Angke","station_id":"AK","i_lat":-6.144674},{"distance":1230,"station_name":"Duri","transit":false,"i_long":106.800832,"i_lat":-6.155215,"time":4,"station_id":"DU","line":1,"is_transit":false},{"station_name":"Tanah Abang","i_long":106.811091,"distance":3632,"station_id":"THB","transit":true,"i_lat":-6.185545,"line":1,"is_transit":true,"time":8},{"station_name":"Palmerah","is_transit":false,"transit":false,"distance":3191,"i_long":106.79689,"i_lat":-6.207404,"time":6,"station_id":"PLM","line":6},{"i_long":106.780334,"transit":false,"station_name":"Kebayoran","time":7,"station_id":"KBY","i_lat":-6.237242,"distance":3737,"line":6,"is_transit":false},{"i_long":106.74273,"line":6,"transit":false,"station_id":"PDJ","i_lat":-6.276362,"station_name":"Pondokranji","distance":6218,"is_transit":false,"time":8},{"line":6,"transit":false,"is_transit":false,"distance":2179,"station_name":"Jurangmangu","time":3,"i_lat":-6.288927,"station_id":"JMU","i_long":106.728916},{"transit":false,"station_id":"SDM","is_transit":false,"time":4,"i_long":106.712277,"i_lat":-6.296963,"line":6,"station_name":"Sudimara","distance":1994},{"i_long":106.675475,"station_id":"RU","station_name":"Rawa Buntu","i_lat":-6.314823,"line":6,"distance":4566,"is_transit":false,"time":6,"transit":false},{"time":4,"i_long":106.66566,"distance":2413,"transit":false,"is_transit":false,"i_lat":-6.319871,"line":6,"station_id":"SRP","station_name":"Serpong"},{"time":4,"line":3,"i_long":106.640411,"i_lat":-6.32484,"distance":1784,"station_name":"Cisauk","transit":false,"station_id":"CSK","is_transit":false},{"station_id":"CC","is_transit":false,"i_long":106.617853,"i_lat":-6.329547,"transit":false,"distance":2519,"station_name":"Cicayur","time":4,"line":3},{"i_long":106.568863,"is_transit":false,"distance":5968,"line":6,"transit":false,"station_id":"PRP","i_lat":-6.3441410000000005,"station_name":"Parung Panjang","time":8},{"line":3,"distance":7025,"i_long":106.508482,"time":9,"i_lat":-6.354349,"is_transit":false,"transit":false,"station_id":"CJT","station_name":"Cilejit"},{"i_lat":-6.338021,"station_id":"DAR","station_name":"Daru","distance":2675,"line":0,"is_transit":false,"transit":false,"time":6,"i_long":106.491338},{"transit":false,"time":5,"station_id":"TEJ","is_transit":false,"i_long":106.460812,"line":6,"station_name":"Tenjo","i_lat":-6.327251,"distance":3902}],[{"time":0,"distance":0,"i_long":106.861737,"transit":false,"is_transit":false,"line":11,"station_id":"POK","station_name":"Pondok Jati","i_lat":-6.209188},{"i_lat":-6.215091,"station_id":"JNG","is_transit":true,"transit":true,"station_name":"Jatinegara","line":1,"i_long":106.86807400000001,"distance":1236,"time":9},{"transit":false,"line":1,"station_name":"Matraman","time":2,"is_transit":false,"station_id":"MTR","i_lat":-6.212485,"i_long":106.858896,"distance":1377},{"is_transit":true,"i_lat":-6.209883,"transit":true,"station_name":"Manggarai","station_id":"MRI","line":2,"distance":1275,"i_long":106.84912,"time":2},{"is_transit":false,"station_id":"CKI","time":4,"station_name":"Cikini","i_lat":-6.198556,"transit":false,"i_long":106.840169,"distance":1590,"line":2},{"station_id":"GDD","i_long":106.832183,"distance":1750,"transit":false,"is_transit":false,"station_name":"Gondangdia","time":3,"i_lat":-6.186295,"line":2},{"i_lat":-6.166716,"time":4,"station_name":"Juanda","distance":2015,"station_id":"JUA","is_transit":false,"i_long":106.828284,"line":2,"transit":false},{"is_transit":false,"station_name":"Sawah Besar","transit":false,"time":2,"i_lat":-6.160725,"line":2,"i_long":106.827103,"distance":1149,"station_id":"SW"},{"line":2,"station_name":"Manggabesar","i_long":106.82482,"distance":906,"i_lat":-6.149769,"station_id":"MGB","is_transit":false,"transit":false,"time":2},{"station_id":"JAY","i_long":106.820901,"station_name":"Jayakarta","time":2,"distance":1080,"transit":false,"i_lat":-6.141205,"line":2,"is_transit":false},{"i_long":106.812439,"line":2,"time":4,"is_transit":true,"i_lat":-6.137569,"station_id":"JAKK","transit":true,"distance":1264,"station_name":"Jakarta Kota"},{"distance":1364,"transit":true,"station_name":"Kampung Bandan","time":3,"i_lat":-6.132549,"is_transit":true,"line":4,"i_long":106.826365,"station_id":"KPB"},{"i_long":106.79867,"station_name":"Angke","transit":false,"time":9,"i_lat":-6.144674,"distance":4102,"station_id":"AK","is_transit":false,"line":1},{"i_lat":-6.155215,"line":1,"station_id":"DU","is_transit":false,"time":4,"i_long":106.800832,"distance":1230,"station_name":"Duri","transit":false},{"station_id":"THB","line":1,"transit":true,"distance":3632,"is_transit":true,"time":8,"i_lat":-6.185545,"station_name":"Tanah Abang","i_long":106.811091},{"time":6,"is_transit":false,"station_name":"Palmerah","distance":3191,"transit":false,"line":6,"i_lat":-6.207404,"i_long":106.79689,"station_id":"PLM"},{"i_long":106.780334,"line":6,"i_lat":-6.237242,"transit":false,"distance":3737,"station_name":"Kebayoran","station_id":"KBY","time":7,"is_transit":false},{"station_id":"PDJ","i_long":106.74273,"line":6,"i_lat":-6.276362,"distance":6218,"transit":false,"station_name":"Pondokranji","time":8,"is_transit":false},{"station_name":"Jurangmangu","line":6,"station_id":"JMU","is_transit":false,"i_lat":-6.288927,"transit":false,"time":3,"i_long":106.728916,"distance":2179},{"station_id":"SDM","i_long":106.712277,"is_transit":false,"i_lat":-6.296963,"transit":false,"line":6,"time":4,"distance":1994,"station_name":"Sudimara"},{"station_name":"Rawa Buntu","is_transit":false,"i_lat":-6.314823,"distance":4566,"i_long":106.675475,"transit":false,"line":6,"time":6,"station_id":"RU"},{"station_name":"Serpong","transit":false,"i_long":106.66566,"line":6,"distance":2413,"is_transit":false,"station_id":"SRP","time":4,"i_lat":-6.319871},{"i_long":106.640411,"is_transit":false,"line":3,"i_lat":-6.32484,"station_name":"Cisauk","distance":1784,"station_id":"CSK","transit":false,"time":4},{"transit":false,"line":3,"station_id":"CC","station_name":"Cicayur","time":4,"is_transit":false,"i_lat":-6.329547,"distance":2519,"i_long":106.617853},{"station_id":"PRP","distance":5968,"i_long":106.568863,"time":8,"line":6,"transit":false,"station_name":"Parung Panjang","is_transit":false,"i_lat":-6.3441410000000005},{"line":3,"i_lat":-6.354349,"transit":false,"station_name":"Cilejit","station_id":"CJT","time":9,"is_transit":false,"distance":7025,"i_long":106.508482},{"i_long":106.491338,"time":6,"is_transit":false,"station_name":"Daru","station_id":"DAR","line":0,"distance":2675,"transit":false,"i_lat":-6.338021},{"station_name":"Tenjo","line":6,"is_transit":false,"i_lat":-6.327251,"time":5,"transit":false,"station_id":"TEJ","i_long":106.460812,"distance":3902}],[{"time":0,"station_id":"POK","line":11,"distance":0,"station_name":"Pondok Jati","transit":false,"is_transit":false,"i_lat":-6.209188,"i_long":106.861737},{"transit":false,"station_name":"Kramat","is_transit":false,"i_long":106.855437,"distance":1829,"time":2,"line":11,"i_lat":-6.193792,"station_id":"KMT"},{"i_long":106.850107,"line":11,"transit":false,"station_id":"GST","distance":973,"is_transit":false,"i_lat":-6.185975,"station_name":"Gang Sentiong","time":1},{"time":8,"line":11,"distance":1567,"station_name":"Pasar Senen","station_id":"PSE","i_lat":-6.174784,"transit":false,"i_long":106.84368,"is_transit":false},{"line":11,"distance":1436,"station_id":"KMO","is_transit":false,"i_lat":-6.161728,"station_name":"Kemayoran","time":4,"transit":false,"i_long":106.839204},{"distance":1901,"i_long":106.836569,"is_transit":false,"time":5,"station_id":"RJW","i_lat":-6.14505,"line":11,"station_name":"Rajawali","transit":false},{"is_transit":true,"time":3,"line":4,"distance":1444,"transit":true,"i_lat":-6.132549,"station_name":"Kampung Bandan","i_long":106.826365,"station_id":"KPB"},{"station_id":"JAKK","i_long":106.812439,"line":2,"i_lat":-6.137569,"time":3,"station_name":"Jakarta Kota","distance":1364,"is_transit":true,"transit":true},{"distance":1264,"line":2,"i_long":106.820901,"transit":false,"station_name":"Jayakarta","time":4,"station_id":"JAY","is_transit":false,"i_lat":-6.141205},{"i_long":106.82482,"time":2,"station_name":"Manggabesar","distance":1080,"transit":false,"line":2,"station_id":"MGB","i_lat":-6.149769,"is_transit":false},{"time":2,"transit":false,"station_id":"SW","distance":906,"is_transit":false,"i_lat":-6.160725,"i_long":106.827103,"line":2,"station_name":"Sawah Besar"},{"line":2,"transit":false,"station_name":"Juanda","time":2,"station_id":"JUA","distance":1149,"i_lat":-6.166716,"i_long":106.828284,"is_transit":false},{"line":2,"station_id":"GDD","transit":false,"i_long":106.832183,"distance":2015,"i_lat":-6.186295,"station_name":"Gondangdia","time":4,"is_transit":false},{"is_transit":false,"transit":false,"time":3,"line":2,"i_long":106.840169,"distance":1750,"station_name":"Cikini","station_id":"CKI","i_lat":-6.198556},{"time":4,"line":2,"distance":1590,"station_name":"Manggarai","i_lat":-6.209883,"i_long":106.84912,"transit":true,"station_id":"MRI","is_transit":true},{"time":4,"is_transit":false,"station_id":"SUD","transit":false,"distance":3186,"i_lat":-6.202263,"i_long":106.822649,"line":1,"station_name":"Sudirman"},{"is_transit":false,"station_name":"Sudirman Baru","i_long":106.819881,"time":1,"station_id":"SUDB","transit":false,"distance":280,"i_lat":-6.201433,"line":1},{"distance":471,"station_name":"Karet","i_lat":-6.20132,"station_id":"KAT","transit":false,"time":1,"i_long":106.816351,"is_transit":false,"line":1},{"time":5,"station_id":"THB","station_name":"Tanah Abang","distance":2029,"line":1,"is_transit":true,"transit":true,"i_long":106.811091,"i_lat":-6.185545},{"distance":3191,"transit":false,"station_id":"PLM","i_lat":-6.207404,"i_long":106.79689,"line":6,"station_name":"Palmerah","time":6,"is_transit":false},{"station_id":"KBY","distance":3737,"station_name":"Kebayoran","is_transit":false,"line":6,"time":7,"i_lat":-6.237242,"i_long":106.780334,"transit":false},{"transit":false,"is_transit":false,"station_id":"PDJ","time":8,"i_long":106.74273,"station_name":"Pondokranji","i_lat":-6.276362,"line":6,"distance":6218},{"i_lat":-6.288927,"distance":2179,"transit":false,"station_id":"JMU","line":6,"is_transit":false,"time":3,"station_name":"Jurangmangu","i_long":106.728916},{"i_lat":-6.296963,"i_long":106.712277,"station_name":"Sudimara","is_transit":false,"time":4,"line":6,"distance":1994,"station_id":"SDM","transit":false},{"time":6,"transit":false,"is_transit":false,"station_name":"Rawa Buntu","i_lat":-6.314823,"station_id":"RU","i_long":106.675475,"distance":4566,"line":6},{"i_lat":-6.319871,"distance":2413,"transit":false,"line":6,"station_name":"Serpong","is_transit":false,"time":4,"i_long":106.66566,"station_id":"SRP"},{"time":4,"is_transit":false,"distance":1784,"i_lat":-6.32484,"station_name":"Cisauk","i_long":106.640411,"line":3,"transit":false,"station_id":"CSK"},{"transit":false,"is_transit":false,"station_name":"Cicayur","station_id":"CC","line":3,"i_long":106.617853,"i_lat":-6.329547,"time":4,"distance":2519},{"station_name":"Parung Panjang","transit":false,"time":8,"station_id":"PRP","is_transit":false,"distance":5968,"i_lat":-6.3441410000000005,"i_long":106.568863,"line":6},{"is_transit":false,"time":9,"station_id":"CJT","i_long":106.508482,"distance":7025,"i_lat":-6.354349,"station_name":"Cilejit","transit":false,"line":3},{"line":0,"time":6,"distance":2675,"station_id":"DAR","transit":false,"is_transit":false,"i_lat":-6.338021,"station_name":"Daru","i_long":106.491338},{"station_name":"Tenjo","time":5,"i_long":106.460812,"station_id":"TEJ","i_lat":-6.327251,"is_transit":false,"transit":false,"distance":3902,"line":6}]]}