{"data":[[{"time":0,"station_name":"Pondok Jati","transit":false,"distance":0,"is_transit":false,"i_long":106.861737,"line":11,"i_lat":-6.209188,"station_id":"POK"},{"station_id":"JNG","distance":1236,"i_lat":-6.215091,"transit":true,"line":1,"time":9,"is_transit":true,"i_long":106.86807400000001,"station_name":"Jatinegara"},{"station_name":"Matraman","station_id":"MTR","distance":1377,"i_lat":-6.212485,"i_long":106.858896,"time":2,"line":1,"is_transit":false,"transit":false},{"station_name":"Manggarai","i_lat":-6.209883,"line":2,"i_long":106.84912,"distance":1275,"is_transit":false,"transit":false,"station_id":"MRI","time":2},{"is_transit":false,"i_lat":-6.202263,"station_id":"SUD","time":4,"transit":false,"station_name":"Sudirman","line":1,"i_long":106.822649,"distance":3186},{"i_lat":-6.201433,"line":1,"time":1,"is_transit":false,"transit":false,"i_long":106.819881,"station_id":"SUDB","station_name":"Sudirman Baru","distance":280}],[{"station_id":"POK","station_name":"Pondok Jati","time":0,"is_transit":false,"transit":false,"line":11,"i_lat":-6.209188,"distance":0,"i_long":106.861737},{"transit":false,"line":11,"station_id":"KMT","i_lat":-6.193792,"station_name":"Kramat","time":2,"is_transit":false,"distance":1829,"i_long":106.855437},{"is_transit":false,"station_name":"Gang Sentiong","i_long":106.850107,"time":1,"line":11,"i_lat":-6.185975,"transit":false,"station_id":"GST","distance":973},{"i_lat":-6.174784,"station_name":"Pasar Senen","is_transit":false,"i_long":106.84368,"time":8,"station_id":"PSE","line":11,"distance":1567,"transit":false},{"is_transit":false,"station_name":"Kemayoran","i_long":106.839204,"time":4,"transit":false,"i_lat":-6.161728,"line":11,"station_id":"KMO","distance":1436},{"transit":false,"distance":1901,"station_id":"RJW","station_name":"Rajawali","i_long":106.836569,"is_transit":false,"time":5,"line":11,"i_lat":-6.14505},{"transit":true,"time":3,"station_id":"KPB","station_name":"Kampung Bandan","i_lat":-6.132549,"distance":1444,"is_transit":true,"i_long":106.826365,"line":4},{"i_lat":-6.144674,"station_id":"AK","distance":4102,"transit":false,"time":9,"station_name":"Angke","is_transit":false,"i_long":106.79867,"line":1},{"line":1,"i_long":106.800832,"is_transit":false,"time":4,"station_name":"Duri","distance":1230,"transit":false,"station_id":"DU","i_lat":-6.155215},{"i_long":106.811091,"station_id":"THB","distance":3632,"is_transit":false,"station_name":"Tanah Abang","i_lat":-6.185545,"time":8,"transit":false,"line":1},{"i_lat":-6.20132,"i_long":106.816351,"station_id":"KAT","transit":false,"distance":2029,"time":5,"line":1,"is_transit":false,"station_name":"Karet"},{"is_transit":false,"time":1,"station_id":"SUDB","transit":false,"i_long":106.819881,"station_name":"Sudirman Baru","distance":471,"i_lat":-6.201433,"line":1}],[{"is_transit":false,"station_id":"POK","time":0,"i_lat":-6.209188,"i_long":106.861737,"transit":false,"station_name":"Pondok Jati","distance":0,"line":11},{"i_lat":-6.215091,"transit":true,"station_name":"Jatinegara","i_long":106.86807400000001,"station_id":"JNG","is_transit":true,"distance":1236,"line":1,"time":9},{"distance":1377,"i_lat":-6.212485,"line":1,"is_transit":false,"station_name":"Matraman","time":2,"transit":false,"i_long":106.858896,"station_id":"MTR"},{"is_transit":true,"time":2,"distance":1275,"i_lat":-6.209883,"line":2,"i_long":106.84912,"station_id":"MRI","station_name":"Manggarai","transit":true},{"distance":1590,"i_lat":-6.198556,"is_transit":false,"time":4,"station_id":"CKI","station_name":"Cikini","transit":false,"i_long":106.840169,"line":2},{"i_lat":-6.186295,"i_long":106.832183,"transit":false,"line":2,"station_id":"GDD","is_transit":false,"time":3,"distance":1750,"station_name":"Gondangdia"},{"i_lat":-6.166716,"is_transit":false,"station_id":"JUA","i_long":106.828284,"line":2,"distance":2015,"station_name":"Juanda","transit":false,"time":4},{"i_lat":-6.160725,"i_long":106.827103,"station_id":"SW","is_transit":false,"station_name":"Sawah Besar","line":2,"time":2,"transit":false,"distance":1149},{"distance":906,"i_lat":-6.149769,"i_long":106.82482,"time":2,"station_id":"MGB","transit":false,"station_name":"Manggabesar","line":2,"is_transit":false},{"distance":1080,"i_lat":-6.141205,"station_id":"JAY","is_transit":false,"transit":false,"time":2,"station_name":"Jayakarta","i_long":106.820901,"line":2},{"line":2,"time":4,"i_long":106.812439,"station_name":"Jakarta Kota","transit":true,"distance":1264,"is_transit":true,"station_id":"JAKK","i_lat":-6.137569},{"time":3,"station_name":"Kampung Bandan","station_id":"KPB","transit":true,"i_lat":-6.132549,"i_long":106.826365,"is_transit":true,"line":4,"distance":1364},{"i_lat":-6.144674,"line":1,"is_transit":false,"time":9,"station_id":"AK","i_long":106.79867,"transit":false,"distance":4102,"station_name":"Angke"},{"i_lat":-6.155215,"i_long":106.800832,"time":4,"transit":false,"line":1,"station_name":"Duri","station_id":"DU","distance":1230,"is_transit":false},{"station_name":"Tanah Abang","distance":3632,"i_lat":-6.185545,"is_transit":false,"time":8,"transit":false,"i_long":106.811091,"line":1,"station_id":"THB"},{"station_id":"KAT","i_lat":-6.20132,"time":5,"is_transit":false,"station_name":"Karet","transit":false,"i_long":106.816351,"line":1,"distance":2029},{"i_long":106.819881,"station_name":"Sudirman Baru","line":1,"distance":471,"i_lat":-6.201433,"time":1,"station_id":"SUDB","is_transit":false,"transit":false}],[{"is_transit":false,"station_name":"Pondok Jati","distance":0,"station_id":"POK","line":11,"time":0,"transit":false,"i_lat":-6.209188,"i_long":106.861737},{"time":2,"line":11,"i_long":106.855437,"distance":1829,"is_transit":false,"transit":false,"i_lat":-6.193792,"station_id":"KMT","station_name":"Kramat"},{"is_transit":false,"station_name":"Gang Sentiong","line":11,"i_long":106.850107,"time":1,"distance":973,"i_lat":-6.185975,"station_id":"GST","transit":false},{"i_long":106.84368,"time":8,"station_name":"Pasar Senen","distance":1567,"i_lat":-6.174784,"is_transit":false,"transit":false,"line":11,"station_id":"PSE"},{"line":11,"i_long":106.839204,"transit":false,"is_transit":false,"station_id":"KMO","distance":1436,"i_lat":-6.161728,"station_name":"Kemayoran","time":4},{"station_id":"RJW","distance":1901,"i_long":106.836569,"line":11,"transit":false,"is_transit":false,"station_name":"Rajawali","time":5,"i_lat":-6.14505},{"i_long":106.826365,"station_id":"KPB","is_transit":true,"time":3,"station_name":"Kampung Bandan","distance":1444,"i_lat":-6.132549,"line":4,"transit":true},{"station_id":"JAKK","transit":true,"line":2,"station_name":"Jakarta Kota","i_long":106.812439,"distance":1364,"is_transit":true,"i_lat":-6.137569,"time":3},{"distance":1264,"station_name":"Jayakarta","transit":false,"line":2,"i_lat":-6.141205,"station_id":"JAY","time":4,"i_long":106.820901,"is_transit":false},{"i_long":106.82482,"is_transit":false,"transit":false,"station_name":"Manggabesar","i_lat":-6.149769,"line":2,"time":2,"station_id":"MGB","distance":1080},{"station_id":"SW","station_name":"Sawah Besar","i_long":106.827103,"line":2,"distance":906,"time":2,"i_lat":-6.160725,"is_transit":false,"transit":false},{"is_transit":false,"i_long":106.828284,"line":2,"station_id":"JUA","time":2,"station_name":"Juanda","transit":false,"distance":1149,"i_lat":-6.166716},{"i_long":106.832183,"i_lat":-6.186295,"time":4,"station_name":"Gondangdia","is_transit":false,"transit":false,"distance":2015,"line":2,"station_id":"GDD"},{"i_long":106.840169,"is_transit":false,"time":3,"line":2,"transit":false,"station_id":"CKI","distance":1750,"station_name":"Cikini","i_lat":-6.198556},{"station_id":"MRI","i_long":106.84912,"line":2,"time":4,"station_name":"Manggarai","i_lat":-6.209883,"is_transit":true,"distance":1590,"transit":true},{"is_transit":false,"station_id":"SUD","i_long":106.822649,"station_name":"Sudirman","transit":false,"time":4,"line":1,"distance":3186,"i_lat":-6.202263},{"i_long":106.819881,"station_name":"Sudirman Baru","transit":false,"distance":280,"line":1,"station_id":"SUDB","time":1,"is_transit":false,"i_lat":-6.201433}]]}