{"data":[[{"station_name":"Pondok Jati","i_long":106.861737,"station_id":"POK","time":0,"is_transit":false,"transit":false,"distance":0,"i_lat":-6.209188,"line":11},{"distance":1236,"transit":true,"is_transit":true,"time":9,"station_id":"JNG","station_name":"Jatinegara","line":1,"i_long":106.86807400000001,"i_lat":-6.215091},{"i_lat":-6.212485,"i_long":106.858896,"time":2,"transit":false,"distance":1377,"line":1,"is_transit":false,"station_name":"Matraman","station_id":"MTR"},{"i_lat":-6.209883,"i_long":106.84912,"distance":1275,"is_transit":true,"time":2,"transit":true,"line":2,"station_name":"Manggarai","station_id":"MRI"},{"is_transit":false,"distance":2610,"line":2,"time":4,"i_long":106.857948,"i_lat":-6.226659,"station_name":"Tebet","station_id":"TEB","transit":false},{"i_long":106.856607,"station_id":"CW","station_name":"Cawang","time":2,"distance":1230,"line":2,"transit":false,"i_lat":-6.242512,"is_transit":false},{"is_transit":false,"station_name":"Duren Kalibata","line":2,"i_long":106.85449,"time":3,"i_lat":-6.255332,"station_id":"DRN","distance":1546,"transit":false},{"time":2,"i_long":106.851577,"station_name":"Pasar Minggu Baru","distance":824,"station_id":"PSMB","transit":false,"i_lat":-6.263214,"line":2,"is_transit":false},{"station_name":"Pasar Minggu","transit":false,"time":2,"i_lat":-6.2842400000000005,"is_transit":false,"distance":2380,"i_long":106.843999,"line":2,"station_id":"PSM"},{"station_id":"TNT","i_long":106.838896,"line":2,"station_name":"Tanjung Barat","time":4,"transit":false,"distance":2820,"is_transit":false,"i_lat":-6.3080680000000005},{"station_id":"LNA","distance":2671,"line":2,"time":3,"i_lat":-6.330363,"i_long":106.832616,"is_transit":false,"station_name":"Lenteng Agung","transit":false},{"station_id":"UP","transit":false,"is_transit":false,"i_lat":-6.339291,"time":2,"distance":1029,"i_long":106.834175,"station_name":"Univ. Pancasila","line":2},{"station_id":"UI","i_long":106.831474,"distance":2264,"line":2,"transit":false,"station_name":"Univ. Indonesia","is_transit":false,"time":3,"i_lat":-6.360749}],[{"i_lat":-6.209188,"transit":false,"station_id":"POK","station_name":"Pondok Jati","distance":0,"is_transit":false,"i_long":106.861737,"time":0,"line":11},{"transit":false,"station_id":"KMT","is_transit":false,"i_long":106.855437,"distance":1829,"i_lat":-6.193792,"line":11,"station_name":"Kramat","time":2},{"i_lat":-6.185975,"transit":false,"station_name":"Gang Sentiong","is_transit":false,"line":11,"time":1,"i_long":106.850107,"distance":973,"station_id":"GST"},{"is_transit":false,"transit":false,"distance":1567,"station_id":"PSE","i_lat":-6.174784,"line":11,"station_name":"Pasar Senen","time":8,"i_long":106.84368},{"is_transit":false,"i_lat":-6.161728,"time":4,"station_id":"KMO","distance":1436,"i_long":106.839204,"line":11,"transit":false,"station_name":"Kemayoran"},{"transit":false,"i_lat":-6.14505,"station_id":"RJW","is_transit":false,"distance":1901,"station_name":"Rajawali","line":11,"time":5,"i_long":106.836569},{"time":3,"distance":1444,"station_id":"KPB","transit":true,"station_name":"Kampung Bandan","is_transit":true,"i_long":106.826365,"i_lat":-6.132549,"line":4},{"distance":4102,"station_name":"Angke","i_lat":-6.144674,"i_long":106.79867,"time":9,"station_id":"AK","transit":false,"line":1,"is_transit":false},{"time":4,"station_id":"DU","line":1,"station_name":"Duri","distance":1230,"transit":false,"i_lat":-6.155215,"i_long":106.800832,"is_transit":false},{"station_id":"THB","i_lat":-6.185545,"station_name":"Tanah Abang","is_transit":false,"distance":3632,"transit":false,"time":8,"i_long":106.811091,"line":1},{"i_lat":-6.20132,"station_id":"KAT","transit":false,"is_transit":false,"i_long":106.816351,"distance":2029,"time":5,"station_name":"Karet","line":1},{"i_lat":-6.201433,"line":1,"distance":471,"station_id":"SUDB","station_name":"Sudirman Baru","time":1,"i_long":106.819881,"is_transit":false,"transit":false},{"distance":280,"line":1,"time":1,"is_transit":false,"station_name":"Sudirman","i_lat":-6.202263,"i_long":106.822649,"station_id":"SUD","transit":false},{"is_transit":true,"line":2,"distance":3186,"station_name":"Manggarai","i_long":106.84912,"station_id":"MRI","time":4,"i_lat":-6.209883,"transit":true},{"transit":false,"station_name":"Tebet","i_lat":-6.226659,"i_long":106.857948,"line":2,"time":4,"station_id":"TEB","distance":2610,"is_transit":false},{"station_id":"CW","distance":1230,"station_name":"Cawang","i_long":106.856607,"is_transit":false,"transit":false,"i_lat":-6.242512,"time":2,"line":2},{"i_lat":-6.255332,"line":2,"station_id":"DRN","transit":false,"station_name":"Duren Kalibata","i_long":106.85449,"is_transit":false,"distance":1546,"time":3},{"station_name":"Pasar Minggu Baru","distance":824,"transit":false,"is_transit":false,"station_id":"PSMB","time":2,"i_long":106.851577,"i_lat":-6.263214,"line":2},{"i_long":106.843999,"station_name":"Pasar Minggu","transit":false,"i_lat":-6.2842400000000005,"station_id":"PSM","time":2,"line":2,"is_transit":false,"distance":2380},{"transit":false,"station_name":"Tanjung Barat","time":4,"is_transit":false,"i_long":106.838896,"line":2,"station_id":"TNT","distance":2820,"i_lat":-6.3080680000000005},{"transit":false,"time":3,"station_id":"LNA","i_lat":-6.330363,"station_name":"Lenteng Agung","distance":2671,"is_transit":false,"i_long":106.832616,"line":2},{"distance":1029,"time":2,"station_id":"UP","i_lat":-6.339291,"transit":false,"i_long":106.834175,"is_transit":false,"line":2,"station_name":"Univ. Pancasila"},{"i_lat":-6.360749,"time":3,"is_transit":false,"station_id":"UI","distance":2264,"station_name":"Univ. Indonesia","i_long":106.831474,"line":2,"transit":false}],[{"is_transit":false,"i_lat":-6.209188,"distance":0,"station_id":"POK","transit":false,"time":0,"station_name":"Pondok Jati","i_long":106.861737,"line":11},{"station_name":"Kramat","i_lat":-6.193792,"line":11,"is_transit":false,"distance":1829,"transit":false,"i_long":106.855437,"time":2,"station_id":"KMT"},{"is_transit":false,"i_long":106.850107,"time":1,"station_name":"Gang Sentiong","i_lat":-6.185975,"transit":false,"distance":973,"line":11,"station_id":"GST"},{"distance":1567,"time":8,"line":11,"i_lat":-6.174784,"is_transit":false,"transit":false,"station_name":"Pasar Senen","station_id":"PSE","i_long":106.84368},{"is_transit":false,"time":4,"station_id":"KMO","line":11,"i_lat":-6.161728,"transit":false,"station_name":"Kemayoran","i_long":106.839204,"distance":1436},{"station_name":"Rajawali","transit":false,"i_lat":-6.14505,"i_long":106.836569,"station_id":"RJW","line":11,"time":5,"is_transit":false,"distance":1901},{"time":3,"line":4,"distance":1444,"i_long":106.826365,"station_id":"KPB","is_transit":true,"i_lat":-6.132549,"station_name":"Kampung Bandan","transit":true},{"line":2,"station_name":"Jakarta Kota","time":3,"i_long":106.812439,"i_lat":-6.137569,"distance":1364,"transit":true,"station_id":"JAKK","is_transit":true},{"station_name":"Jayakarta","distance":1264,"is_transit":false,"transit":false,"i_long":106.820901,"station_id":"JAY","i_lat":-6.141205,"time":4,"line":2},{"transit":false,"i_long":106.82482,"line":2,"distance":1080,"i_lat":-6.149769,"station_id":"MGB","time":2,"station_name":"Manggabesar","is_transit":false},{"transit":false,"station_name":"Sawah Besar","line":2,"station_id":"SW","i_long":106.827103,"distance":906,"is_transit":false,"i_lat":-6.160725,"time":2},{"station_id":"JUA","is_transit":false,"distance":1149,"i_lat":-6.166716,"time":2,"station_name":"Juanda","line":2,"transit":false,"i_long":106.828284},{"i_lat":-6.186295,"is_transit":false,"station_name":"Gondangdia","i_long":106.832183,"line":2,"distance":2015,"transit":false,"station_id":"GDD","time":4},{"distance":1750,"line":2,"station_name":"Cikini","transit":false,"station_id":"CKI","time":3,"i_lat":-6.198556,"is_transit":false,"i_long":106.840169},{"is_transit":false,"line":2,"transit":false,"distance":1590,"time":4,"i_lat":-6.209883,"i_long":106.84912,"station_id":"MRI","station_name":"Manggarai"},{"distance":2610,"is_transit":false,"transit":false,"time":4,"line":2,"station_name":"Tebet","i_lat":-6.226659,"station_id":"TEB","i_long":106.857948},{"line":2,"i_lat":-6.242512,"station_name":"Cawang","distance":1230,"i_long":106.856607,"transit":false,"time":2,"station_id":"CW","is_transit":false},{"distance":1546,"time":3,"station_name":"Duren Kalibata","line":2,"transit":false,"i_lat":-6.255332,"i_long":106.85449,"is_transit":false,"station_id":"DRN"},{"distance":824,"station_id":"PSMB","transit":false,"is_transit":false,"i_lat":-6.263214,"time":2,"station_name":"Pasar Minggu Baru","i_long":106.851577,"line":2},{"line":2,"time":2,"station_name":"Pasar Minggu","i_lat":-6.2842400000000005,"is_transit":false,"distance":2380,"station_id":"PSM","i_long":106.843999,"transit":false},{"station_name":"Tanjung Barat","line":2,"i_lat":-6.3080680000000005,"is_transit":false,"i_long":106.838896,"distance":2820,"transit":false,"time":4,"station_id":"TNT"},{"distance":2671,"i_long":106.832616,"i_lat":-6.330363,"transit":false,"station_name":"Lenteng Agung","station_id":"LNA","time":3,"is_transit":false,"line":2},{"station_name":"Univ. Pancasila","distance":1029,"i_lat":-6.339291,"is_transit":false,"i_long":106.834175,"station_id":"UP","time":2,"transit":false,"line":2},{"station_name":"Univ. Indonesia","i_lat":-6.360749,"time":3,"line":2,"i_long":106.831474,"distance":2264,"is_transit":false,"station_id":"UI","transit":false}]]}