{"data":[[{"line":11,"is_transit":false,"station_id":"POK","transit":false,"station_name":"Pondok Jati","i_lat":-6.209188,"time":0,"distance":0,"i_long":106.861737},{"i_long":106.86807400000001,"station_name":"Jatinegara","is_transit":false,"line":1,"i_lat":-6.215091,"time":9,"distance":1236,"station_id":"JNG","transit":false}],[{"station_name":"Pondok Jati","time":0,"distance":0,"is_transit":false,"transit":false,"i_long":106.861737,"line":11,"station_id":"POK","i_lat":-6.209188},{"time":2,"station_name":"Kramat","line":11,"is_transit":false,"i_long":106.855437,"distance":1829,"i_lat":-6.193792,"station_id":"KMT","transit":false},{"line":11,"transit":false,"station_id":"GST","station_name":"Gang Sentiong","is_transit":false,"distance":973,"time":1,"i_long":106.850107,"i_lat":-6.185975},{"i_long":106.84368,"time":8,"distance":1567,"is_transit":false,"line":11,"transit":false,"i_lat":-6.174784,"station_id":"PSE","station_name":"Pasar Senen"},{"station_id":"KMO","distance":1436,"i_long":106.839204,"line":11,"is_transit":false,"transit":false,"i_lat":-6.161728,"time":4,"station_name":"Kemayoran"},{"station_id":"RJW","station_name":"Rajawali","is_transit":false,"transit":false,"distance":1901,"time":5,"line":11,"i_long":106.836569,"i_lat":-6.14505},{"line":4,"station_name":"Kampung Bandan","station_id":"KPB","is_transit":true,"transit":true,"i_lat":-6.132549,"i_long":106.826365,"distance":1444,"time":3},{"is_transit":false,"station_id":"AK","transit":false,"time":9,"distance":4102,"i_lat":-6.144674,"i_long":106.79867,"station_name":"Angke","line":1},{"distance":1230,"time":4,"i_long":106.800832,"station_id":"DU","is_transit":false,"line":1,"station_name":"Duri","transit":false,"i_lat":-6.155215},{"is_transit":false,"station_id":"THB","distance":3632,"station_name":"Tanah Abang","i_lat":-6.185545,"transit":false,"time":8,"i_long":106.811091,"line":1},{"station_id":"KAT","time":5,"is_transit":false,"line":1,"transit":false,"distance":2029,"i_lat":-6.20132,"station_name":"Karet","i_long":106.816351},{"line":1,"transit":false,"time":1,"station_id":"SUDB","station_name":"Sudirman Baru","distance":471,"is_transit":false,"i_lat":-6.201433,"i_long":106.819881},{"line":1,"distance":280,"station_name":"Sudirman","station_id":"SUD","i_lat":-6.202263,"is_transit":false,"transit":false,"i_long":106.822649,"time":1},{"station_name":"Manggarai","i_lat":-6.209883,"is_transit":false,"line":2,"station_id":"MRI","distance":3186,"i_long":106.84912,"transit":false,"time":4},{"time":2,"transit":false,"station_id":"MTR","distance":1275,"station_name":"Matraman","i_lat":-6.212485,"line":1,"i_long":106.858896,"is_transit":false},{"transit":false,"station_name":"Jatinegara","is_transit":false,"distance":1377,"i_lat":-6.215091,"i_long":106.86807400000001,"time":8,"station_id":"JNG","line":1}],[{"i_lat":-6.209188,"i_long":106.861737,"transit":false,"is_transit":false,"station_name":"Pondok Jati","station_id":"POK","distance":0,"time":0,"line":11},{"transit":false,"i_long":106.855437,"time":2,"is_transit":false,"line":11,"station_id":"KMT","station_name":"Kramat","i_lat":-6.193792,"distance":1829},{"transit":false,"station_name":"Gang Sentiong","is_transit":false,"line":11,"time":1,"station_id":"GST","i_long":106.850107,"i_lat":-6.185975,"distance":973},{"transit":false,"station_name":"Pasar Senen","distance":1567,"i_lat":-6.174784,"i_long":106.84368,"line":11,"time":8,"station_id":"PSE","is_transit":false},{"station_name":"Kemayoran","line":11,"time":4,"i_lat":-6.161728,"i_long":106.839204,"is_transit":false,"transit":false,"station_id":"KMO","distance":1436},{"transit":false,"station_name":"Rajawali","i_lat":-6.14505,"i_long":106.836569,"line":11,"distance":1901,"station_id":"RJW","time":5,"is_transit":false},{"station_name":"Kampung Bandan","is_transit":true,"transit":true,"distance":1444,"line":4,"i_long":106.826365,"station_id":"KPB","i_lat":-6.132549,"time":3},{"is_transit":true,"i_long":106.812439,"station_id":"JAKK","time":3,"i_lat":-6.137569,"station_name":"Jakarta Kota","transit":true,"distance":1364,"line":2},{"time":4,"distance":1264,"transit":false,"station_id":"JAY","station_name":"Jayakarta","is_transit":false,"i_long":106.820901,"i_lat":-6.141205,"line":2},{"is_transit":false,"i_lat":-6.149769,"i_long":106.82482,"transit":false,"time":2,"station_id":"MGB","station_name":"Manggabesar","distance":1080,"line":2},{"i_long":106.827103,"transit":false,"line":2,"i_lat":-6.160725,"station_name":"Sawah Besar","time":2,"distance":906,"station_id":"SW","is_transit":false},{"i_lat":-6.166716,"i_long":106.828284,"transit":false,"is_transit":false,"line":2,"distance":1149,"station_id":"JUA","time":2,"station_name":"Juanda"},{"station_id":"GDD","distance":2015,"i_lat":-6.186295,"i_long":106.832183,"is_transit":false,"line":2,"time":4,"station_name":"Gondangdia","transit":false},{"line":2,"i_lat":-6.198556,"i_long":106.840169,"transit":false,"time":3,"distance":1750,"station_id":"CKI","station_name":"Cikini","is_transit":false},{"transit":true,"i_lat":-6.209883,"station_name":"Manggarai","time":4,"distance":1590,"station_id":"MRI","is_transit":true,"line":2,"i_long":106.84912},{"station_name":"Matraman","is_transit":false,"station_id":"MTR","i_lat":-6.212485,"time":2,"line":1,"i_long":106.858896,"transit":false,"distance":1275},{"distance":1377,"time":8,"i_long":106.86807400000001,"station_name":"Jatinegara","is_transit":false,"station_id":"JNG","line":1,"transit":false,"i_lat":-6.215091}]]}