{"data":[[{"station_id":"POK","transit":false,"time":0,"distance":0,"is_transit":false,"i_long":106.861737,"line":11,"station_name":"Pondok Jati","i_lat":-6.209188},{"station_name":"Jatinegara","time":9,"is_transit":true,"distance":1236,"station_id":"JNG","i_lat":-6.215091,"transit":true,"i_long":106.86807400000001,"line":0},{"time":2,"line":1,"distance":1377,"station_id":"MTR","station_name":"Matraman","i_lat":-6.212485,"i_long":106.858896,"is_transit":false,"transit":false},{"line":0,"distance":1275,"time":2,"is_transit":true,"i_lat":-6.209883,"station_id":"MRI","i_long":106.84912,"station_name":"Manggarai","transit":true},{"line":2,"i_long":106.857948,"is_transit":false,"distance":2610,"time":4,"station_name":"Tebet","station_id":"TEB","transit":false,"i_lat":-6.226659},{"is_transit":false,"station_name":"Cawang","time":2,"i_long":106.856607,"line":0,"distance":1230,"transit":false,"station_id":"CW","i_lat":-6.242512},{"station_id":"DRN","i_lat":-6.255332,"line":0,"station_name":"Duren Kalibata","i_long":106.85449,"transit":false,"is_transit":false,"time":3,"distance":1546},{"transit":false,"distance":824,"i_long":106.851577,"time":2,"line":2,"station_id":"PSMB","i_lat":-6.263214,"is_transit":false,"station_name":"Pasar Minggu Baru"},{"i_long":106.843999,"transit":false,"station_id":"PSM","distance":2380,"line":2,"time":2,"i_lat":-6.2842400000000005,"station_name":"Pasar Minggu","is_transit":false},{"time":4,"i_long":106.838896,"station_name":"Tanjung Barat","line":2,"is_transit":false,"station_id":"TNT","distance":2820,"transit":false,"i_lat":-6.3080680000000005},{"line":2,"distance":2671,"time":3,"transit":false,"i_long":106.832616,"i_lat":-6.330363,"is_transit":false,"station_id":"LNA","station_name":"Lenteng Agung"},{"is_transit":false,"time":2,"station_name":"Univ. Pancasila","station_id":"UP","i_long":106.834175,"transit":false,"i_lat":-6.339291,"distance":1029,"line":2},{"line":2,"time":3,"is_transit":false,"i_long":106.831474,"distance":2264,"station_name":"Univ. Indonesia","transit":false,"station_id":"UI","i_lat":-6.360749},{"is_transit":false,"time":2,"station_id":"POC","station_name":"Pondok Cina","transit":false,"i_long":106.831114,"line":2,"i_lat":-6.369073,"distance":1109},{"line":0,"i_long":106.819451,"transit":false,"distance":2727,"is_transit":false,"station_name":"Depokbaru","station_id":"DPB","time":4,"i_lat":-6.391065}],[{"station_name":"Pondok Jati","station_id":"POK","i_long":106.861737,"transit":false,"line":11,"is_transit":false,"distance":0,"i_lat":-6.209188,"time":0},{"i_long":106.855437,"is_transit":false,"station_id":"KMT","time":2,"i_lat":-6.193792,"distance":1829,"line":11,"transit":false,"station_name":"Kramat"},{"transit":false,"station_id":"GST","i_lat":-6.185975,"i_long":106.850107,"station_name":"Gang Sentiong","distance":973,"time":1,"is_transit":false,"line":11},{"transit":false,"station_name":"Pasar Senen","is_transit":false,"i_lat":-6.174784,"station_id":"PSE","distance":1567,"line":11,"time":8,"i_long":106.84368},{"station_id":"KMO","station_name":"Kemayoran","transit":false,"distance":1436,"time":4,"i_long":106.839204,"i_lat":-6.161728,"line":11,"is_transit":false},{"is_transit":false,"transit":false,"i_long":106.836569,"line":11,"distance":1901,"station_name":"Rajawali","time":5,"i_lat":-6.14505,"station_id":"RJW"},{"time":3,"station_id":"KPB","station_name":"Kampung Bandan","i_lat":-6.132549,"line":0,"transit":true,"i_long":106.826365,"distance":1444,"is_transit":true},{"time":9,"distance":4102,"station_name":"Angke","i_lat":-6.144674,"i_long":106.79867,"line":0,"station_id":"AK","is_transit":false,"transit":false},{"time":4,"distance":1230,"station_id":"DU","i_long":106.800832,"i_lat":-6.155215,"is_transit":true,"transit":true,"line":1,"station_name":"Duri"},{"is_transit":true,"station_id":"THB","distance":3632,"station_name":"Tanah Abang","transit":false,"i_long":106.811091,"line":1,"time":8,"i_lat":-6.185545},{"distance":2029,"is_transit":false,"i_long":106.816351,"station_name":"Karet","time":5,"i_lat":-6.20132,"line":1,"station_id":"KAT","transit":false},{"distance":471,"station_name":"Sudirman Baru","time":1,"is_transit":false,"i_lat":-6.201433,"line":1,"station_id":"SUDB","transit":false,"i_long":106.819881},{"transit":false,"line":1,"is_transit":false,"station_name":"Sudirman","i_long":106.822649,"time":1,"i_lat":-6.202263,"distance":280,"station_id":"SUD"},{"i_lat":-6.209883,"station_id":"MRI","time":4,"is_transit":true,"i_long":106.84912,"distance":3186,"station_name":"Manggarai","transit":true,"line":0},{"transit":false,"i_long":106.857948,"line":2,"distance":2610,"time":4,"is_transit":false,"i_lat":-6.226659,"station_name":"Tebet","station_id":"TEB"},{"station_id":"CW","time":2,"is_transit":false,"distance":1230,"transit":false,"i_lat":-6.242512,"i_long":106.856607,"line":0,"station_name":"Cawang"},{"distance":1546,"line":0,"transit":false,"station_id":"DRN","time":3,"i_long":106.85449,"i_lat":-6.255332,"is_transit":false,"station_name":"Duren Kalibata"},{"station_id":"PSMB","i_long":106.851577,"i_lat":-6.263214,"station_name":"Pasar Minggu Baru","is_transit":false,"transit":false,"time":2,"distance":824,"line":2},{"is_transit":false,"distance":2380,"transit":false,"station_id":"PSM","i_long":106.843999,"station_name":"Pasar Minggu","line":2,"time":2,"i_lat":-6.2842400000000005},{"line":2,"is_transit":false,"i_lat":-6.3080680000000005,"distance":2820,"transit":false,"time":4,"i_long":106.838896,"station_name":"Tanjung Barat","station_id":"TNT"},{"time":3,"station_id":"LNA","i_long":106.832616,"i_lat":-6.330363,"transit":false,"line":2,"distance":2671,"station_name":"Lenteng Agung","is_transit":false},{"transit":false,"is_transit":false,"time":2,"distance":1029,"i_lat":-6.339291,"line":2,"i_long":106.834175,"station_id":"UP","station_name":"Univ. Pancasila"},{"station_id":"UI","i_lat":-6.360749,"i_long":106.831474,"distance":2264,"station_name":"Univ. Indonesia","time":3,"line":2,"is_transit":false,"transit":false},{"station_id":"POC","distance":1109,"time":2,"i_long":106.831114,"line":2,"is_transit":false,"station_name":"Pondok Cina","transit":false,"i_lat":-6.369073},{"i_lat":-6.391065,"station_id":"DPB","is_transit":false,"distance":2727,"time":4,"line":0,"station_name":"Depokbaru","transit":false,"i_long":106.819451}],[{"station_name":"Pondok Jati","station_id":"POK","is_transit":false,"distance":0,"i_long":106.861737,"line":11,"transit":false,"time":0,"i_lat":-6.209188},{"station_name":"Kramat","i_lat":-6.193792,"time":2,"i_long":106.855437,"line":11,"transit":false,"station_id":"KMT","distance":1829,"is_transit":false},{"i_long":106.850107,"time":1,"transit":false,"line":11,"station_id":"GST","distance":973,"i_lat":-6.185975,"is_transit":false,"station_name":"Gang Sentiong"},{"i_lat":-6.174784,"transit":false,"line":11,"distance":1567,"is_transit":false,"station_id":"PSE","station_name":"Pasar Senen","time":8,"i_long":106.84368},{"is_transit":false,"station_name":"Kemayoran","transit":false,"time":4,"i_lat":-6.161728,"station_id":"KMO","i_long":106.839204,"distance":1436,"line":11},{"i_lat":-6.14505,"line":11,"transit":false,"time":5,"i_long":106.836569,"is_transit":false,"station_id":"RJW","distance":1901,"station_name":"Rajawali"},{"i_lat":-6.132549,"i_long":106.826365,"station_name":"Kampung Bandan","time":3,"transit":true,"is_transit":true,"line":0,"distance":1444,"station_id":"KPB"},{"time":3,"i_long":106.812439,"station_name":"Jakarta Kota","transit":true,"station_id":"JAKK","line":0,"distance":1364,"is_transit":true,"i_lat":-6.137569},{"time":4,"is_transit":false,"station_name":"Jayakarta","station_id":"JAY","transit":false,"distance":1264,"i_lat":-6.141205,"i_long":106.820901,"line":7},{"i_lat":-6.149769,"distance":1080,"station_name":"Manggabesar","i_long":106.82482,"line":2,"time":2,"station_id":"MGB","transit":false,"is_transit":false},{"station_name":"Sawah Besar","station_id":"SW","i_lat":-6.160725,"i_long":106.827103,"line":2,"is_transit":false,"time":2,"distance":906,"transit":false},{"is_transit":false,"station_name":"Juanda","line":2,"station_id":"JUA","time":2,"i_lat":-6.166716,"distance":1149,"i_long":106.828284,"transit":false},{"station_id":"GDD","is_transit":false,"transit":false,"distance":2015,"time":4,"i_lat":-6.186295,"station_name":"Gondangdia","line":2,"i_long":106.832183},{"station_id":"CKI","is_transit":false,"transit":false,"i_long":106.840169,"distance":1750,"i_lat":-6.198556,"line":0,"station_name":"Cikini","time":3},{"station_name":"Manggarai","is_transit":true,"time":4,"station_id":"MRI","transit":true,"line":0,"distance":1590,"i_long":106.84912,"i_lat":-6.209883},{"i_lat":-6.226659,"station_id":"TEB","transit":false,"is_transit":false,"station_name":"Tebet","distance":2610,"i_long":106.857948,"line":2,"time":4},{"station_id":"CW","distance":1230,"i_lat":-6.242512,"time":2,"i_long":106.856607,"station_name":"Cawang","is_transit":false,"transit":false,"line":0},{"time":3,"transit":false,"line":0,"distance":1546,"station_id":"DRN","station_name":"Duren Kalibata","i_lat":-6.255332,"i_long":106.85449,"is_transit":false},{"station_id":"PSMB","station_name":"Pasar Minggu Baru","i_long":106.851577,"i_lat":-6.263214,"transit":false,"distance":824,"line":2,"is_transit":false,"time":2},{"distance":2380,"i_lat":-6.2842400000000005,"line":2,"is_transit":false,"transit":false,"i_long":106.843999,"time":2,"station_name":"Pasar Minggu","station_id":"PSM"},{"time":4,"distance":2820,"station_name":"Tanjung Barat","i_long":106.838896,"is_transit":false,"line":2,"transit":false,"station_id":"TNT","i_lat":-6.3080680000000005},{"time":3,"i_long":106.832616,"distance":2671,"i_lat":-6.330363,"line":2,"is_transit":false,"station_id":"LNA","station_name":"Lenteng Agung","transit":false},{"i_lat":-6.339291,"is_transit":false,"distance":1029,"transit":false,"station_name":"Univ. Pancasila","time":2,"i_long":106.834175,"station_id":"UP","line":2},{"is_transit":false,"transit":false,"i_long":106.831474,"distance":2264,"line":2,"time":3,"i_lat":-6.360749,"station_name":"Univ. Indonesia","station_id":"UI"},{"i_long":106.831114,"time":2,"i_lat":-6.369073,"station_name":"Pondok Cina","station_id":"POC","transit":false,"distance":1109,"is_transit":false,"line":2},{"station_name":"Depokbaru","transit":false,"i_lat":-6.391065,"i_long":106.819451,"distance":2727,"time":4,"is_transit":false,"station_id":"DPB","line":0}]]}