{"data":[[{"i_long":106.861737,"station_name":"Pondok Jati","distance":0,"i_lat":-6.209188,"station_id":"POK","transit":false,"is_transit":false,"time":0,"line":11},{"is_transit":true,"distance":1236,"i_lat":-6.215091,"time":9,"i_long":106.86807400000001,"station_name":"Jatinegara","transit":true,"station_id":"JNG","line":1},{"line":1,"i_lat":-6.212485,"i_long":106.858896,"station_id":"MTR","station_name":"Matraman","is_transit":false,"time":2,"distance":1377,"transit":false},{"line":2,"station_id":"MRI","station_name":"Manggarai","i_lat":-6.209883,"distance":1275,"transit":false,"is_transit":false,"time":2,"i_long":106.84912},{"line":1,"i_long":106.822649,"time":4,"station_name":"Sudirman","transit":false,"station_id":"SUD","is_transit":false,"distance":3186,"i_lat":-6.202263},{"time":1,"transit":false,"distance":280,"i_lat":-6.201433,"line":1,"station_name":"Sudirman Baru","is_transit":false,"station_id":"SUDB","i_long":106.819881},{"station_id":"KAT","line":1,"transit":false,"is_transit":false,"time":1,"i_lat":-6.20132,"i_long":106.816351,"distance":471,"station_name":"Karet"},{"is_transit":false,"transit":false,"i_lat":-6.185545,"time":5,"i_long":106.811091,"station_name":"Tanah Abang","line":1,"station_id":"THB","distance":2029},{"i_lat":-6.155215,"station_id":"DU","i_long":106.800832,"time":8,"distance":3632,"is_transit":true,"line":1,"station_name":"Duri","transit":true},{"station_id":"GGL","time":3,"is_transit":false,"i_lat":-6.162021,"line":5,"i_long":106.788277,"station_name":"Grogol","distance":1700,"transit":false},{"i_lat":-6.161433,"station_id":"PSG","distance":2036,"transit":false,"is_transit":false,"i_long":106.771379,"station_name":"Pesing","line":5,"time":2},{"distance":1614,"time":2,"station_id":"TKO","i_lat":-6.1587309999999995,"line":5,"i_long":106.756522,"transit":false,"station_name":"Taman Kota","is_transit":false}],[{"transit":false,"station_id":"POK","distance":0,"i_long":106.861737,"i_lat":-6.209188,"time":0,"line":11,"station_name":"Pondok Jati","is_transit":false},{"i_long":106.855437,"station_name":"Kramat","is_transit":false,"line":11,"transit":false,"distance":1829,"station_id":"KMT","i_lat":-6.193792,"time":2},{"i_lat":-6.185975,"i_long":106.850107,"distance":973,"transit":false,"station_name":"Gang Sentiong","line":11,"time":1,"station_id":"GST","is_transit":false},{"i_long":106.84368,"station_name":"Pasar Senen","transit":false,"is_transit":false,"time":8,"station_id":"PSE","line":11,"i_lat":-6.174784,"distance":1567},{"distance":1436,"line":11,"is_transit":false,"transit":false,"time":4,"i_lat":-6.161728,"station_name":"Kemayoran","station_id":"KMO","i_long":106.839204},{"station_name":"Rajawali","i_long":106.836569,"line":11,"i_lat":-6.14505,"distance":1901,"is_transit":false,"station_id":"RJW","time":5,"transit":false},{"is_transit":true,"line":4,"i_lat":-6.132549,"transit":true,"i_long":106.826365,"distance":1444,"time":3,"station_name":"Kampung Bandan","station_id":"KPB"},{"time":9,"i_lat":-6.144674,"transit":false,"distance":4102,"line":1,"station_id":"AK","is_transit":false,"i_long":106.79867,"station_name":"Angke"},{"i_long":106.800832,"transit":true,"distance":1230,"line":1,"i_lat":-6.155215,"station_name":"Duri","station_id":"DU","time":4,"is_transit":true},{"i_lat":-6.162021,"distance":1700,"time":3,"is_transit":false,"transit":false,"station_id":"GGL","line":5,"i_long":106.788277,"station_name":"Grogol"},{"i_lat":-6.161433,"i_long":106.771379,"line":5,"station_name":"Pesing","time":2,"distance":2036,"is_transit":false,"transit":false,"station_id":"PSG"},{"station_id":"TKO","i_long":106.756522,"station_name":"Taman Kota","distance":1614,"time":2,"is_transit":false,"transit":false,"i_lat":-6.1587309999999995,"line":5}],[{"i_lat":-6.209188,"time":0,"station_id":"POK","i_long":106.861737,"transit":false,"line":11,"station_name":"Pondok Jati","is_transit":false,"distance":0},{"transit":true,"station_name":"Jatinegara","time":9,"station_id":"JNG","i_lat":-6.215091,"is_transit":true,"line":1,"i_long":106.86807400000001,"distance":1236},{"i_lat":-6.212485,"station_id":"MTR","i_long":106.858896,"transit":false,"distance":1377,"station_name":"Matraman","is_transit":false,"time":2,"line":1},{"distance":1275,"i_long":106.84912,"i_lat":-6.209883,"transit":true,"time":2,"station_id":"MRI","line":2,"is_transit":true,"station_name":"Manggarai"},{"i_long":106.840169,"transit":false,"time":4,"station_id":"CKI","i_lat":-6.198556,"station_name":"Cikini","is_transit":false,"distance":1590,"line":2},{"transit":false,"is_transit":false,"i_long":106.832183,"line":2,"distance":1750,"station_id":"GDD","time":3,"i_lat":-6.186295,"station_name":"Gondangdia"},{"distance":2015,"station_id":"JUA","i_lat":-6.166716,"time":4,"is_transit":false,"i_long":106.828284,"station_name":"Juanda","line":2,"transit":false},{"distance":1149,"i_long":106.827103,"line":2,"transit":false,"station_name":"Sawah Besar","i_lat":-6.160725,"station_id":"SW","is_transit":false,"time":2},{"station_id":"MGB","station_name":"Manggabesar","transit":false,"is_transit":false,"time":2,"i_lat":-6.149769,"distance":906,"i_long":106.82482,"line":2},{"distance":1080,"line":2,"station_name":"Jayakarta","time":2,"transit":false,"i_long":106.820901,"station_id":"JAY","is_transit":false,"i_lat":-6.141205},{"time":4,"transit":true,"distance":1264,"i_lat":-6.137569,"line":2,"is_transit":true,"station_id":"JAKK","i_long":106.812439,"station_name":"Jakarta Kota"},{"station_id":"KPB","is_transit":true,"i_lat":-6.132549,"station_name":"Kampung Bandan","i_long":106.826365,"time":3,"line":4,"transit":true,"distance":1364},{"i_long":106.79867,"station_name":"Angke","transit":false,"distance":4102,"station_id":"AK","i_lat":-6.144674,"line":1,"is_transit":false,"time":9},{"time":4,"line":1,"station_id":"DU","is_transit":true,"transit":true,"i_long":106.800832,"station_name":"Duri","i_lat":-6.155215,"distance":1230},{"i_lat":-6.162021,"is_transit":false,"time":3,"transit":false,"station_id":"GGL","distance":1700,"i_long":106.788277,"station_name":"Grogol","line":5},{"distance":2036,"station_name":"Pesing","transit":false,"station_id":"PSG","time":2,"i_lat":-6.161433,"i_long":106.771379,"is_transit":false,"line":5},{"time":2,"distance":1614,"is_transit":false,"station_id":"TKO","i_long":106.756522,"transit":false,"i_lat":-6.1587309999999995,"line":5,"station_name":"Taman Kota"}],[{"station_name":"Pondok Jati","station_id":"POK","i_long":106.861737,"is_transit":false,"distance":0,"i_lat":-6.209188,"time":0,"line":11,"transit":false},{"station_id":"KMT","distance":1829,"i_long":106.855437,"is_transit":false,"time":2,"line":11,"station_name":"Kramat","transit":false,"i_lat":-6.193792},{"i_lat":-6.185975,"line":11,"station_name":"Gang Sentiong","is_transit":false,"distance":973,"station_id":"GST","i_long":106.850107,"time":1,"transit":false},{"line":11,"is_transit":false,"station_id":"PSE","time":8,"i_lat":-6.174784,"transit":false,"station_name":"Pasar Senen","distance":1567,"i_long":106.84368},{"distance":1436,"station_name":"Kemayoran","station_id":"KMO","is_transit":false,"line":11,"i_lat":-6.161728,"time":4,"i_long":106.839204,"transit":false},{"line":11,"transit":false,"station_id":"RJW","i_long":106.836569,"time":5,"is_transit":false,"station_name":"Rajawali","distance":1901,"i_lat":-6.14505},{"i_lat":-6.132549,"distance":1444,"station_id":"KPB","is_transit":true,"time":3,"transit":true,"line":4,"i_long":106.826365,"station_name":"Kampung Bandan"},{"i_lat":-6.137569,"i_long":106.812439,"time":3,"line":2,"is_transit":true,"distance":1364,"station_name":"Jakarta Kota","transit":true,"station_id":"JAKK"},{"transit":false,"i_long":106.820901,"is_transit":false,"distance":1264,"station_id":"JAY","i_lat":-6.141205,"line":2,"time":4,"station_name":"Jayakarta"},{"is_transit":false,"time":2,"i_long":106.82482,"station_id":"MGB","transit":false,"i_lat":-6.149769,"station_name":"Manggabesar","line":2,"distance":1080},{"station_name":"Sawah Besar","i_long":106.827103,"distance":906,"station_id":"SW","is_transit":false,"line":2,"time":2,"transit":false,"i_lat":-6.160725},{"station_name":"Juanda","transit":false,"station_id":"JUA","distance":1149,"i_long":106.828284,"i_lat":-6.166716,"line":2,"is_transit":false,"time":2},{"station_name":"Gondangdia","i_long":106.832183,"line":2,"time":4,"station_id":"GDD","i_lat":-6.186295,"distance":2015,"is_transit":false,"transit":false},{"i_lat":-6.198556,"station_id":"CKI","distance":1750,"transit":false,"station_name":"Cikini","i_long":106.840169,"line":2,"is_transit":false,"time":3},{"is_transit":true,"i_lat":-6.209883,"station_name":"Manggarai","line":2,"transit":true,"distance":1590,"time":4,"i_long":106.84912,"station_id":"MRI"},{"station_id":"SUD","line":1,"time":4,"station_name":"Sudirman","is_transit":false,"transit":false,"distance":3186,"i_lat":-6.202263,"i_long":106.822649},{"i_lat":-6.201433,"line":1,"distance":280,"i_long":106.819881,"transit":false,"station_id":"SUDB","is_transit":false,"station_name":"Sudirman Baru","time":1},{"line":1,"i_lat":-6.20132,"i_long":106.816351,"station_name":"Karet","is_transit":false,"distance":471,"station_id":"KAT","time":1,"transit":false},{"transit":false,"station_id":"THB","line":1,"time":5,"i_lat":-6.185545,"is_transit":false,"station_name":"Tanah Abang","i_long":106.811091,"distance":2029},{"transit":true,"is_transit":true,"i_lat":-6.155215,"time":8,"i_long":106.800832,"distance":3632,"line":1,"station_name":"Duri","station_id":"DU"},{"transit":false,"station_id":"GGL","time":3,"distance":1700,"is_transit":false,"i_long":106.788277,"i_lat":-6.162021,"station_name":"Grogol","line":5},{"station_id":"PSG","transit":false,"is_transit":false,"station_name":"Pesing","line":5,"i_lat":-6.161433,"time":2,"i_long":106.771379,"distance":2036},{"distance":1614,"is_transit":false,"transit":false,"time":2,"i_lat":-6.1587309999999995,"i_long":106.756522,"line":5,"station_id":"TKO","station_name":"Taman Kota"}]]}