{"data":[[{"time":0,"transit":false,"station_id":"POK","line":11,"is_transit":false,"i_lat":-6.209188,"distance":0,"station_name":"Pondok Jati","i_long":106.861737},{"station_name":"Jatinegara","is_transit":true,"line":1,"transit":true,"station_id":"JNG","distance":1236,"i_long":106.86807400000001,"i_lat":-6.215091,"time":9},{"is_transit":false,"i_long":106.858896,"station_name":"Matraman","station_id":"MTR","time":2,"distance":1377,"line":1,"transit":false,"i_lat":-6.212485},{"time":2,"distance":1275,"is_transit":false,"station_name":"Manggarai","station_id":"MRI","i_lat":-6.209883,"i_long":106.84912,"transit":false,"line":2},{"line":1,"i_long":106.822649,"station_id":"SUD","transit":false,"is_transit":false,"station_name":"Sudirman","time":4,"distance":3186,"i_lat":-6.202263},{"station_id":"SUDB","line":1,"distance":280,"station_name":"Sudirman Baru","i_long":106.819881,"transit":false,"is_transit":false,"i_lat":-6.201433,"time":1},{"is_transit":false,"i_long":106.816351,"transit":false,"station_name":"Karet","distance":471,"station_id":"KAT","time":1,"i_lat":-6.20132,"line":1},{"line":1,"station_name":"Tanah Abang","distance":2029,"station_id":"THB","time":5,"i_long":106.811091,"transit":true,"i_lat":-6.185545,"is_transit":true},{"station_id":"PLM","is_transit":false,"i_lat":-6.207404,"i_long":106.79689,"time":6,"distance":3191,"line":6,"transit":false,"station_name":"Palmerah"},{"is_transit":false,"time":7,"station_id":"KBY","i_long":106.780334,"distance":3737,"transit":false,"i_lat":-6.237242,"station_name":"Kebayoran","line":6},{"i_lat":-6.276362,"distance":6218,"i_long":106.74273,"station_name":"Pondokranji","is_transit":false,"time":8,"line":6,"station_id":"PDJ","transit":false},{"distance":2179,"i_lat":-6.288927,"station_name":"Jurangmangu","transit":false,"station_id":"JMU","is_transit":false,"time":3,"line":6,"i_long":106.728916},{"station_id":"SDM","i_lat":-6.296963,"i_long":106.712277,"line":6,"station_name":"Sudimara","is_transit":false,"time":4,"transit":false,"distance":1994},{"time":6,"i_lat":-6.314823,"station_name":"Rawa Buntu","i_long":106.675475,"line":6,"distance":4566,"is_transit":false,"transit":false,"station_id":"RU"},{"i_long":106.66566,"time":4,"is_transit":false,"line":6,"station_name":"Serpong","station_id":"SRP","transit":false,"distance":2413,"i_lat":-6.319871},{"station_id":"CSK","time":4,"station_name":"Cisauk","transit":false,"distance":1784,"i_long":106.640411,"is_transit":false,"line":3,"i_lat":-6.32484},{"distance":2519,"station_id":"CC","i_lat":-6.329547,"i_long":106.617853,"line":3,"station_name":"Cicayur","is_transit":false,"transit":false,"time":4},{"i_long":106.568863,"station_name":"Parung Panjang","time":8,"transit":false,"distance":5968,"line":6,"is_transit":false,"i_lat":-6.3441410000000005,"station_id":"PRP"},{"i_long":106.508482,"station_name":"Cilejit","distance":7025,"i_lat":-6.354349,"station_id":"CJT","transit":false,"is_transit":false,"time":9,"line":3},{"is_transit":false,"distance":2675,"i_lat":-6.338021,"time":6,"i_long":106.491338,"station_name":"Daru","transit":false,"station_id":"DAR","line":0},{"line":6,"i_lat":-6.327251,"i_long":106.460812,"station_id":"TEJ","station_name":"Tenjo","is_transit":false,"time":5,"distance":3902,"transit":false},{"line":6,"station_id":"TGS","station_name":"Tigaraksa","i_lat":-6.328533,"distance":2974,"transit":false,"is_transit":false,"time":5,"i_long":106.425991},{"line":3,"i_long":106.411216,"time":3,"station_name":"Cikoya","transit":false,"station_id":"CKY","is_transit":false,"distance":2651,"i_lat":-6.33561},{"time":4,"transit":false,"distance":1853,"i_lat":-6.332307,"line":6,"station_name":"Maja","is_transit":false,"station_id":"MJ","i_long":106.394373},{"station_id":"CTR","line":3,"transit":false,"is_transit":false,"time":10,"i_lat":-6.334892,"i_long":106.332092,"distance":7293,"station_name":"Citeras"},{"is_transit":false,"transit":false,"i_lat":-6.352675,"time":13,"i_long":106.250396,"station_name":"Rangkasbitung","line":3,"station_id":"RK","distance":9847}],[{"i_lat":-6.209188,"station_id":"POK","i_long":106.861737,"time":0,"distance":0,"is_transit":false,"line":11,"station_name":"Pondok Jati","transit":false},{"station_id":"KMT","time":2,"is_transit":false,"i_lat":-6.193792,"line":11,"i_long":106.855437,"station_name":"Kramat","distance":1829,"transit":false},{"i_lat":-6.185975,"station_id":"GST","distance":973,"transit":false,"is_transit":false,"i_long":106.850107,"station_name":"Gang Sentiong","line":11,"time":1},{"distance":1567,"time":8,"station_id":"PSE","i_lat":-6.174784,"line":11,"i_long":106.84368,"transit":false,"station_name":"Pasar Senen","is_transit":false},{"transit":false,"station_id":"KMO","distance":1436,"i_long":106.839204,"i_lat":-6.161728,"time":4,"line":11,"station_name":"Kemayoran","is_transit":false},{"i_long":106.836569,"station_name":"Rajawali","is_transit":false,"line":11,"transit":false,"distance":1901,"station_id":"RJW","i_lat":-6.14505,"time":5},{"i_lat":-6.132549,"i_long":106.826365,"distance":1444,"transit":true,"station_name":"Kampung Bandan","line":4,"time":3,"station_id":"KPB","is_transit":true},{"i_long":106.79867,"station_name":"Angke","transit":false,"is_transit":false,"time":9,"station_id":"AK","line":1,"i_lat":-6.144674,"distance":4102},{"distance":1230,"line":1,"is_transit":false,"transit":false,"time":4,"i_lat":-6.155215,"station_name":"Duri","station_id":"DU","i_long":106.800832},{"station_name":"Tanah Abang","i_long":106.811091,"line":1,"i_lat":-6.185545,"distance":3632,"is_transit":true,"station_id":"THB","time":8,"transit":true},{"is_transit":false,"line":6,"i_lat":-6.207404,"transit":false,"i_long":106.79689,"distance":3191,"time":6,"station_name":"Palmerah","station_id":"PLM"},{"time":7,"i_lat":-6.237242,"transit":false,"distance":3737,"line":6,"station_id":"KBY","is_transit":false,"i_long":106.780334,"station_name":"Kebayoran"},{"i_long":106.74273,"transit":false,"distance":6218,"line":6,"i_lat":-6.276362,"station_name":"Pondokranji","station_id":"PDJ","time":8,"is_transit":false},{"i_lat":-6.288927,"distance":2179,"time":3,"is_transit":false,"transit":false,"station_id":"JMU","line":6,"i_long":106.728916,"station_name":"Jurangmangu"},{"i_lat":-6.296963,"i_long":106.712277,"line":6,"station_name":"Sudimara","time":4,"distance":1994,"is_transit":false,"transit":false,"station_id":"SDM"},{"station_id":"RU","i_long":106.675475,"station_name":"Rawa Buntu","distance":4566,"time":6,"is_transit":false,"transit":false,"i_lat":-6.314823,"line":6},{"i_lat":-6.319871,"time":4,"station_id":"SRP","i_long":106.66566,"transit":false,"line":6,"station_name":"Serpong","is_transit":false,"distance":2413},{"station_id":"CSK","i_lat":-6.32484,"time":4,"transit":false,"station_name":"Cisauk","distance":1784,"is_transit":false,"i_long":106.640411,"line":3},{"station_id":"CC","is_transit":false,"time":4,"transit":false,"distance":2519,"i_long":106.617853,"i_lat":-6.329547,"line":3,"station_name":"Cicayur"},{"station_name":"Parung Panjang","line":6,"i_lat":-6.3441410000000005,"transit":false,"station_id":"PRP","is_transit":false,"distance":5968,"time":8,"i_long":106.568863},{"time":9,"transit":false,"station_name":"Cilejit","station_id":"CJT","i_lat":-6.354349,"i_long":106.508482,"distance":7025,"line":3,"is_transit":false},{"i_long":106.491338,"line":0,"i_lat":-6.338021,"transit":false,"is_transit":false,"station_id":"DAR","time":6,"distance":2675,"station_name":"Daru"},{"transit":false,"line":6,"distance":3902,"station_id":"TEJ","i_long":106.460812,"time":5,"is_transit":false,"station_name":"Tenjo","i_lat":-6.327251},{"transit":false,"station_id":"TGS","is_transit":false,"i_lat":-6.328533,"line":6,"station_name":"Tigaraksa","time":5,"distance":2974,"i_long":106.425991},{"distance":2651,"station_name":"Cikoya","i_long":106.411216,"station_id":"CKY","is_transit":false,"transit":false,"i_lat":-6.33561,"time":3,"line":3},{"station_name":"Maja","station_id":"MJ","distance":1853,"transit":false,"i_lat":-6.332307,"time":4,"i_long":106.394373,"is_transit":false,"line":6},{"i_lat":-6.334892,"station_id":"CTR","i_long":106.332092,"distance":7293,"transit":false,"time":10,"line":3,"station_name":"Citeras","is_transit":false},{"is_transit":false,"i_long":106.250396,"station_id":"RK","transit":false,"station_name":"Rangkasbitung","time":13,"i_lat":-6.352675,"distance":9847,"line":3}],[{"station_id":"POK","time":0,"is_transit":false,"i_lat":-6.209188,"line":11,"transit":false,"station_name":"Pondok Jati","distance":0,"i_long":106.861737},{"time":9,"distance":1236,"is_transit":true,"i_long":106.86807400000001,"line":1,"station_name":"Jatinegara","station_id":"JNG","transit":true,"i_lat":-6.215091},{"time":2,"station_id":"MTR","is_transit":false,"i_lat":-6.212485,"transit":false,"i_long":106.858896,"station_name":"Matraman","distance":1377,"line":1},{"i_lat":-6.209883,"i_long":106.84912,"station_id":"MRI","is_transit":true,"station_name":"Manggarai","time":2,"transit":true,"line":2,"distance":1275},{"i_lat":-6.198556,"line":2,"station_name":"Cikini","station_id":"CKI","i_long":106.840169,"time":4,"is_transit":false,"distance":1590,"transit":false},{"station_name":"Gondangdia","station_id":"GDD","i_long":106.832183,"is_transit":false,"distance":1750,"i_lat":-6.186295,"time":3,"line":2,"transit":false},{"station_id":"JUA","distance":2015,"i_long":106.828284,"is_transit":false,"time":4,"line":2,"station_name":"Juanda","transit":false,"i_lat":-6.166716},{"i_lat":-6.160725,"line":2,"station_name":"Sawah Besar","is_transit":false,"distance":1149,"station_id":"SW","i_long":106.827103,"time":2,"transit":false},{"line":2,"is_transit":false,"station_id":"MGB","time":2,"i_lat":-6.149769,"transit":false,"station_name":"Manggabesar","distance":906,"i_long":106.82482},{"distance":1080,"station_name":"Jayakarta","station_id":"JAY","is_transit":false,"line":2,"i_lat":-6.141205,"time":2,"i_long":106.820901,"transit":false},{"line":2,"transit":true,"station_id":"JAKK","i_long":106.812439,"time":4,"is_transit":true,"station_name":"Jakarta Kota","distance":1264,"i_lat":-6.137569},{"i_lat":-6.132549,"distance":1364,"station_id":"KPB","is_transit":true,"time":3,"transit":true,"line":4,"i_long":106.826365,"station_name":"Kampung Bandan"},{"i_lat":-6.144674,"i_long":106.79867,"time":9,"line":1,"is_transit":false,"distance":4102,"station_name":"Angke","transit":false,"station_id":"AK"},{"transit":false,"i_long":106.800832,"is_transit":false,"distance":1230,"station_id":"DU","i_lat":-6.155215,"line":1,"time":4,"station_name":"Duri"},{"is_transit":true,"time":8,"i_long":106.811091,"station_id":"THB","transit":true,"i_lat":-6.185545,"station_name":"Tanah Abang","line":1,"distance":3632},{"station_name":"Palmerah","i_long":106.79689,"distance":3191,"station_id":"PLM","is_transit":false,"line":6,"time":6,"transit":false,"i_lat":-6.207404},{"station_name":"Kebayoran","transit":false,"station_id":"KBY","distance":3737,"i_long":106.780334,"i_lat":-6.237242,"line":6,"is_transit":false,"time":7},{"transit":false,"distance":6218,"station_name":"Pondokranji","time":8,"line":6,"is_transit":false,"i_lat":-6.276362,"station_id":"PDJ","i_long":106.74273},{"line":6,"is_transit":false,"time":3,"station_id":"JMU","distance":2179,"i_lat":-6.288927,"station_name":"Jurangmangu","i_long":106.728916,"transit":false},{"line":6,"station_name":"Sudimara","transit":false,"station_id":"SDM","time":4,"i_lat":-6.296963,"i_long":106.712277,"distance":1994,"is_transit":false},{"transit":false,"station_id":"RU","distance":4566,"i_long":106.675475,"line":6,"i_lat":-6.314823,"time":6,"station_name":"Rawa Buntu","is_transit":false},{"transit":false,"station_id":"SRP","i_long":106.66566,"is_transit":false,"line":6,"time":4,"station_name":"Serpong","distance":2413,"i_lat":-6.319871},{"line":3,"i_lat":-6.32484,"i_long":106.640411,"station_name":"Cisauk","is_transit":false,"distance":1784,"station_id":"CSK","time":4,"transit":false},{"transit":false,"station_id":"CC","line":3,"time":4,"i_lat":-6.329547,"is_transit":false,"station_name":"Cicayur","i_long":106.617853,"distance":2519},{"transit":false,"is_transit":false,"i_lat":-6.3441410000000005,"time":8,"i_long":106.568863,"distance":5968,"line":6,"station_name":"Parung Panjang","station_id":"PRP"},{"transit":false,"station_id":"CJT","time":9,"distance":7025,"is_transit":false,"i_long":106.508482,"i_lat":-6.354349,"station_name":"Cilejit","line":3},{"station_id":"DAR","transit":false,"is_transit":false,"station_name":"Daru","line":0,"i_lat":-6.338021,"time":6,"i_long":106.491338,"distance":2675},{"distance":3902,"is_transit":false,"transit":false,"time":5,"i_lat":-6.327251,"i_long":106.460812,"line":6,"station_id":"TEJ","station_name":"Tenjo"},{"transit":false,"time":5,"distance":2974,"i_lat":-6.328533,"line":6,"station_name":"Tigaraksa","station_id":"TGS","is_transit":false,"i_long":106.425991},{"station_name":"Cikoya","distance":2651,"transit":false,"time":3,"is_transit":false,"station_id":"CKY","i_lat":-6.33561,"i_long":106.411216,"line":3},{"station_id":"MJ","transit":false,"is_transit":false,"time":4,"distance":1853,"i_lat":-6.332307,"station_name":"Maja","i_long":106.394373,"line":6},{"station_name":"Citeras","time":10,"is_transit":false,"transit":false,"station_id":"CTR","i_lat":-6.334892,"i_long":106.332092,"line":3,"distance":7293},{"i_long":106.250396,"station_name":"Rangkasbitung","transit":false,"station_id":"RK","line":3,"time":13,"is_transit":false,"i_lat":-6.352675,"distance":9847}],[{"time":0,"i_lat":-6.209188,"i_long":106.861737,"is_transit":false,"distance":0,"station_name":"Pondok Jati","transit":false,"station_id":"POK","line":11},{"station_id":"KMT","i_lat":-6.193792,"distance":1829,"time":2,"station_name":"Kramat","transit":false,"line":11,"is_transit":false,"i_long":106.855437},{"time":1,"station_id":"GST","i_lat":-6.185975,"is_transit":false,"distance":973,"transit":false,"station_name":"Gang Sentiong","line":11,"i_long":106.850107},{"station_name":"Pasar Senen","i_long":106.84368,"line":11,"is_transit":false,"distance":1567,"i_lat":-6.174784,"station_id":"PSE","time":8,"transit":false},{"time":4,"is_transit":false,"station_id":"KMO","distance":1436,"i_lat":-6.161728,"line":11,"station_name":"Kemayoran","transit":false,"i_long":106.839204},{"transit":false,"i_lat":-6.14505,"i_long":106.836569,"time":5,"station_name":"Rajawali","station_id":"RJW","is_transit":false,"distance":1901,"line":11},{"station_id":"KPB","line":4,"station_name":"Kampung Bandan","distance":1444,"time":3,"i_lat":-6.132549,"is_transit":true,"i_long":106.826365,"transit":true},{"transit":true,"time":3,"i_lat":-6.137569,"station_id":"JAKK","i_long":106.812439,"station_name":"Jakarta Kota","is_transit":true,"distance":1364,"line":2},{"station_id":"JAY","is_transit":false,"line":2,"station_name":"Jayakarta","time":4,"distance":1264,"transit":false,"i_lat":-6.141205,"i_long":106.820901},{"station_name":"Manggabesar","station_id":"MGB","i_lat":-6.149769,"distance":1080,"is_transit":false,"line":2,"time":2,"i_long":106.82482,"transit":false},{"transit":false,"station_name":"Sawah Besar","i_lat":-6.160725,"i_long":106.827103,"line":2,"station_id":"SW","time":2,"distance":906,"is_transit":false},{"is_transit":false,"time":2,"station_id":"JUA","distance":1149,"i_lat":-6.166716,"station_name":"Juanda","i_long":106.828284,"line":2,"transit":false},{"is_transit":false,"station_id":"GDD","line":2,"time":4,"transit":false,"station_name":"Gondangdia","i_long":106.832183,"distance":2015,"i_lat":-6.186295},{"i_lat":-6.198556,"is_transit":false,"i_long":106.840169,"transit":false,"station_name":"Cikini","station_id":"CKI","time":3,"line":2,"distance":1750},{"distance":1590,"station_id":"MRI","line":2,"transit":true,"station_name":"Manggarai","is_transit":true,"time":4,"i_lat":-6.209883,"i_long":106.84912},{"line":1,"transit":false,"i_lat":-6.202263,"station_name":"Sudirman","station_id":"SUD","time":4,"is_transit":false,"distance":3186,"i_long":106.822649},{"line":1,"distance":280,"i_long":106.819881,"station_name":"Sudirman Baru","time":1,"transit":false,"i_lat":-6.201433,"station_id":"SUDB","is_transit":false},{"station_name":"Karet","transit":false,"line":1,"is_transit":false,"distance":471,"i_lat":-6.20132,"station_id":"KAT","i_long":106.816351,"time":1},{"i_lat":-6.185545,"station_name":"Tanah Abang","i_long":106.811091,"distance":2029,"is_transit":true,"station_id":"THB","line":1,"time":5,"transit":true},{"line":6,"transit":false,"station_id":"PLM","i_long":106.79689,"distance":3191,"is_transit":false,"time":6,"i_lat":-6.207404,"station_name":"Palmerah"},{"station_name":"Kebayoran","i_lat":-6.237242,"line":6,"is_transit":false,"transit":false,"time":7,"station_id":"KBY","distance":3737,"i_long":106.780334},{"station_name":"Pondokranji","i_long":106.74273,"is_transit":false,"time":8,"station_id":"PDJ","distance":6218,"transit":false,"i_lat":-6.276362,"line":6},{"i_lat":-6.288927,"station_name":"Jurangmangu","station_id":"JMU","line":6,"transit":false,"time":3,"i_long":106.728916,"is_transit":false,"distance":2179},{"transit":false,"station_name":"Sudimara","i_lat":-6.296963,"is_transit":false,"i_long":106.712277,"line":6,"station_id":"SDM","distance":1994,"time":4},{"time":6,"distance":4566,"i_lat":-6.314823,"transit":false,"i_long":106.675475,"station_id":"RU","line":6,"is_transit":false,"station_name":"Rawa Buntu"},{"is_transit":false,"transit":false,"station_name":"Serpong","station_id":"SRP","distance":2413,"i_lat":-6.319871,"i_long":106.66566,"line":6,"time":4},{"transit":false,"i_lat":-6.32484,"is_transit":false,"i_long":106.640411,"line":3,"station_name":"Cisauk","station_id":"CSK","time":4,"distance":1784},{"is_transit":false,"distance":2519,"i_lat":-6.329547,"time":4,"station_id":"CC","line":3,"station_name":"Cicayur","i_long":106.617853,"transit":false},{"i_long":106.568863,"station_name":"Parung Panjang","is_transit":false,"station_id":"PRP","transit":false,"time":8,"distance":5968,"i_lat":-6.3441410000000005,"line":6},{"transit":false,"line":3,"time":9,"distance":7025,"i_long":106.508482,"station_name":"Cilejit","is_transit":false,"i_lat":-6.354349,"station_id":"CJT"},{"station_id":"DAR","is_transit":false,"station_name":"Daru","line":0,"i_long":106.491338,"time":6,"i_lat":-6.338021,"transit":false,"distance":2675},{"i_long":106.460812,"station_name":"Tenjo","transit":false,"station_id":"TEJ","is_transit":false,"time":5,"distance":3902,"line":6,"i_lat":-6.327251},{"line":6,"station_name":"Tigaraksa","time":5,"is_transit":false,"distance":2974,"i_long":106.425991,"transit":false,"station_id":"TGS","i_lat":-6.328533},{"transit":false,"is_transit":false,"line":3,"station_name":"Cikoya","time":3,"distance":2651,"station_id":"CKY","i_lat":-6.33561,"i_long":106.411216},{"time":4,"i_lat":-6.332307,"line":6,"transit":false,"distance":1853,"station_id":"MJ","is_transit":false,"station_name":"Maja","i_long":106.394373},{"transit":false,"i_long":106.332092,"station_id":"CTR","distance":7293,"line":3,"is_transit":false,"station_name":"Citeras","i_lat":-6.334892,"time":10},{"station_id":"RK","line":3,"is_transit":false,"station_name":"Rangkasbitung","i_long":106.250396,"time":13,"distance":9847,"transit":false,"i_lat":-6.352675}]]}