{"data":[[{"i_lat":-6.209188,"transit":false,"line":11,"i_long":106.861737,"station_id":"POK","time":0,"station_name":"Pondok Jati","distance":0,"is_transit":false},{"i_long":106.86807400000001,"time":9,"i_lat":-6.215091,"is_transit":true,"station_id":"JNG","transit":true,"line":0,"station_name":"Jatinegara","distance":1236},{"distance":1377,"transit":false,"time":2,"is_transit":false,"i_lat":-6.212485,"station_id":"MTR","i_long":106.858896,"station_name":"Matraman","line":1},{"line":0,"distance":1275,"i_lat":-6.209883,"station_name":"Manggarai","time":2,"transit":false,"i_long":106.84912,"station_id":"MRI","is_transit":true},{"time":4,"line":1,"distance":3186,"i_lat":-6.202263,"station_id":"SUD","is_transit":false,"transit":false,"i_long":106.822649,"station_name":"Sudirman"},{"time":1,"line":1,"i_long":106.819881,"distance":280,"transit":false,"station_id":"SUDB","station_name":"Sudirman Baru","i_lat":-6.201433,"is_transit":false},{"is_transit":false,"i_lat":-6.20132,"station_id":"KAT","i_long":106.816351,"station_name":"Karet","time":1,"distance":471,"transit":false,"line":1},{"is_transit":true,"station_name":"Tanah Abang","distance":2029,"time":5,"i_long":106.811091,"station_id":"THB","transit":false,"line":1,"i_lat":-6.185545},{"distance":3632,"station_name":"Duri","station_id":"DU","is_transit":true,"transit":true,"i_lat":-6.155215,"time":8,"line":1,"i_long":106.800832},{"transit":false,"i_long":106.788277,"station_id":"GGL","is_transit":false,"station_name":"Grogol","line":5,"i_lat":-6.162021,"distance":1700,"time":3}],[{"station_name":"Pondok Jati","distance":0,"station_id":"POK","time":0,"transit":false,"i_long":106.861737,"i_lat":-6.209188,"line":11,"is_transit":false},{"transit":false,"station_id":"KMT","time":2,"distance":1829,"station_name":"Kramat","line":11,"i_long":106.855437,"i_lat":-6.193792,"is_transit":false},{"distance":973,"transit":false,"station_id":"GST","time":1,"i_lat":-6.185975,"i_long":106.850107,"station_name":"Gang Sentiong","is_transit":false,"line":11},{"i_long":106.84368,"distance":1567,"line":11,"station_name":"Pasar Senen","station_id":"PSE","i_lat":-6.174784,"is_transit":false,"transit":false,"time":8},{"time":4,"i_long":106.839204,"line":11,"is_transit":false,"station_id":"KMO","transit":false,"distance":1436,"i_lat":-6.161728,"station_name":"Kemayoran"},{"distance":1901,"i_long":106.836569,"line":11,"station_id":"RJW","transit":false,"is_transit":false,"station_name":"Rajawali","time":5,"i_lat":-6.14505},{"line":0,"i_lat":-6.132549,"time":3,"distance":1444,"station_id":"KPB","station_name":"Kampung Bandan","i_long":106.826365,"transit":true,"is_transit":true},{"station_name":"Angke","station_id":"AK","is_transit":false,"distance":4102,"i_lat":-6.144674,"line":0,"time":9,"i_long":106.79867,"transit":false},{"time":4,"station_id":"DU","station_name":"Duri","transit":true,"i_lat":-6.155215,"line":1,"distance":1230,"is_transit":true,"i_long":106.800832},{"line":5,"distance":1700,"is_transit":false,"station_id":"GGL","i_lat":-6.162021,"station_name":"Grogol","transit":false,"i_long":106.788277,"time":3}],[{"i_long":106.861737,"station_id":"POK","line":11,"i_lat":-6.209188,"time":0,"is_transit":false,"transit":false,"station_name":"Pondok Jati","distance":0},{"time":9,"station_id":"JNG","i_long":106.86807400000001,"is_transit":true,"transit":true,"line":0,"station_name":"Jatinegara","i_lat":-6.215091,"distance":1236},{"i_lat":-6.212485,"station_name":"Matraman","i_long":106.858896,"is_transit":false,"distance":1377,"station_id":"MTR","transit":false,"line":1,"time":2},{"i_long":106.84912,"i_lat":-6.209883,"transit":true,"station_id":"MRI","is_transit":true,"line":0,"distance":1275,"time":2,"station_name":"Manggarai"},{"i_lat":-6.198556,"time":4,"line":0,"distance":1590,"is_transit":false,"station_name":"Cikini","transit":false,"i_long":106.840169,"station_id":"CKI"},{"station_name":"Gondangdia","i_long":106.832183,"is_transit":false,"i_lat":-6.186295,"station_id":"GDD","time":3,"line":2,"distance":1750,"transit":false},{"station_id":"JUA","is_transit":false,"i_lat":-6.166716,"station_name":"Juanda","i_long":106.828284,"time":4,"distance":2015,"line":2,"transit":false},{"distance":1149,"is_transit":false,"i_lat":-6.160725,"station_name":"Sawah Besar","time":2,"station_id":"SW","line":2,"i_long":106.827103,"transit":false},{"station_id":"MGB","is_transit":false,"time":2,"distance":906,"station_name":"Manggabesar","i_lat":-6.149769,"i_long":106.82482,"transit":false,"line":2},{"station_name":"Jayakarta","distance":1080,"i_long":106.820901,"transit":false,"station_id":"JAY","line":7,"time":2,"i_lat":-6.141205,"is_transit":false},{"transit":true,"distance":1264,"i_lat":-6.137569,"station_id":"JAKK","station_name":"Jakarta Kota","is_transit":true,"i_long":106.812439,"line":0,"time":4},{"i_lat":-6.132549,"time":3,"i_long":106.826365,"distance":1364,"transit":false,"station_name":"Kampung Bandan","line":0,"is_transit":true,"station_id":"KPB"},{"transit":false,"station_id":"AK","line":0,"time":9,"i_long":106.79867,"station_name":"Angke","i_lat":-6.144674,"is_transit":false,"distance":4102},{"distance":1230,"is_transit":true,"station_name":"Duri","transit":true,"line":1,"station_id":"DU","time":4,"i_long":106.800832,"i_lat":-6.155215},{"station_name":"Grogol","station_id":"GGL","i_long":106.788277,"line":5,"transit":false,"i_lat":-6.162021,"distance":1700,"is_transit":false,"time":3}],[{"i_long":106.861737,"is_transit":false,"time":0,"line":11,"station_name":"Pondok Jati","transit":false,"distance":0,"i_lat":-6.209188,"station_id":"POK"},{"is_transit":false,"transit":false,"station_id":"KMT","line":11,"time":2,"i_lat":-6.193792,"station_name":"Kramat","distance":1829,"i_long":106.855437},{"line":11,"station_id":"GST","is_transit":false,"station_name":"Gang Sentiong","i_lat":-6.185975,"i_long":106.850107,"distance":973,"transit":false,"time":1},{"time":8,"is_transit":false,"station_name":"Pasar Senen","i_long":106.84368,"distance":1567,"i_lat":-6.174784,"transit":false,"line":11,"station_id":"PSE"},{"transit":false,"i_long":106.839204,"i_lat":-6.161728,"time":4,"station_id":"KMO","distance":1436,"is_transit":false,"station_name":"Kemayoran","line":11},{"i_long":106.836569,"line":11,"transit":false,"is_transit":false,"time":5,"station_id":"RJW","i_lat":-6.14505,"distance":1901,"station_name":"Rajawali"},{"station_id":"KPB","station_name":"Kampung Bandan","distance":1444,"is_transit":true,"transit":true,"i_lat":-6.132549,"i_long":106.826365,"line":0,"time":3},{"station_name":"Jakarta Kota","i_lat":-6.137569,"line":0,"i_long":106.812439,"station_id":"JAKK","time":3,"transit":true,"distance":1364,"is_transit":true},{"transit":false,"line":7,"i_long":106.820901,"station_id":"JAY","i_lat":-6.141205,"station_name":"Jayakarta","is_transit":false,"time":4,"distance":1264},{"time":2,"line":2,"distance":1080,"i_lat":-6.149769,"station_id":"MGB","transit":false,"is_transit":false,"station_name":"Manggabesar","i_long":106.82482},{"line":2,"station_name":"Sawah Besar","i_lat":-6.160725,"time":2,"i_long":106.827103,"station_id":"SW","distance":906,"is_transit":false,"transit":false},{"is_transit":false,"station_id":"JUA","i_lat":-6.166716,"i_long":106.828284,"time":2,"distance":1149,"station_name":"Juanda","line":2,"transit":false},{"transit":false,"i_long":106.832183,"is_transit":false,"station_name":"Gondangdia","distance":2015,"time":4,"line":2,"station_id":"GDD","i_lat":-6.186295},{"line":0,"transit":false,"i_long":106.840169,"time":3,"i_lat":-6.198556,"station_name":"Cikini","is_transit":false,"station_id":"CKI","distance":1750},{"i_long":106.84912,"time":4,"i_lat":-6.209883,"distance":1590,"station_name":"Manggarai","transit":true,"is_transit":true,"station_id":"MRI","line":0},{"station_name":"Sudirman","transit":false,"distance":3186,"time":4,"station_id":"SUD","i_long":106.822649,"i_lat":-6.202263,"line":1,"is_transit":false},{"station_name":"Sudirman Baru","transit":false,"is_transit":false,"line":1,"time":1,"i_lat":-6.201433,"i_long":106.819881,"distance":280,"station_id":"SUDB"},{"i_long":106.816351,"i_lat":-6.20132,"distance":471,"station_id":"KAT","line":1,"is_transit":false,"station_name":"Karet","transit":false,"time":1},{"i_long":106.811091,"station_name":"Tanah Abang","i_lat":-6.185545,"distance":2029,"station_id":"THB","line":1,"is_transit":true,"time":5,"transit":false},{"transit":true,"time":8,"i_long":106.800832,"station_id":"DU","distance":3632,"i_lat":-6.155215,"line":1,"is_transit":true,"station_name":"Duri"},{"line":5,"station_name":"Grogol","transit":false,"station_id":"GGL","time":3,"distance":1700,"is_transit":false,"i_lat":-6.162021,"i_long":106.788277}]]}