{"data":[[{"time":0,"station_name":"Pondok Jati","station_id":"POK","distance":0,"transit":false,"i_long":106.861737,"is_transit":false,"i_lat":-6.209188,"line":11},{"distance":1236,"transit":true,"i_lat":-6.215091,"station_name":"Jatinegara","station_id":"JNG","is_transit":true,"i_long":106.86807400000001,"line":0,"time":9},{"i_lat":-6.212485,"transit":false,"distance":1377,"time":2,"i_long":106.858896,"station_name":"Matraman","line":1,"station_id":"MTR","is_transit":false},{"time":2,"is_transit":true,"distance":1275,"line":0,"station_name":"Manggarai","i_lat":-6.209883,"i_long":106.84912,"station_id":"MRI","transit":false},{"transit":false,"time":4,"station_name":"Sudirman","line":1,"i_lat":-6.202263,"distance":3186,"is_transit":false,"station_id":"SUD","i_long":106.822649},{"distance":280,"is_transit":false,"i_lat":-6.201433,"station_name":"Sudirman Baru","i_long":106.819881,"time":1,"station_id":"SUDB","line":1,"transit":false},{"station_name":"Karet","is_transit":false,"time":1,"i_lat":-6.20132,"line":1,"distance":471,"i_long":106.816351,"station_id":"KAT","transit":false},{"station_name":"Tanah Abang","time":5,"distance":2029,"transit":false,"i_long":106.811091,"i_lat":-6.185545,"station_id":"THB","is_transit":true,"line":1},{"i_long":106.800832,"is_transit":true,"station_name":"Duri","time":8,"distance":3632,"station_id":"DU","i_lat":-6.155215,"transit":true,"line":1},{"line":5,"station_id":"GGL","station_name":"Grogol","i_lat":-6.162021,"is_transit":false,"transit":false,"distance":1700,"time":3,"i_long":106.788277},{"i_long":106.771379,"time":2,"i_lat":-6.161433,"transit":false,"is_transit":false,"line":5,"station_name":"Pesing","station_id":"PSG","distance":2036},{"time":2,"transit":false,"distance":1614,"i_long":106.756522,"station_name":"Taman Kota","i_lat":-6.1587309999999995,"is_transit":false,"station_id":"TKO","line":5},{"transit":false,"is_transit":false,"station_id":"BOI","time":2,"i_long":106.737035,"i_lat":-6.159876,"distance":2334,"station_name":"Bojongindah","line":0},{"line":5,"i_long":106.723064,"is_transit":false,"station_id":"RW","time":4,"i_lat":-6.162758,"distance":1152,"station_name":"Rawa Buaya","transit":false},{"is_transit":false,"line":5,"distance":2504,"i_long":106.701612,"station_name":"Kalideres","transit":false,"i_lat":-6.166068,"station_id":"KDS","time":3},{"transit":false,"i_long":106.679458,"time":3,"station_name":"Poris","station_id":"PI","is_transit":false,"distance":2548,"i_lat":-6.169933,"line":5}],[{"i_lat":-6.209188,"transit":false,"station_id":"POK","line":11,"distance":0,"is_transit":false,"station_name":"Pondok Jati","time":0,"i_long":106.861737},{"is_transit":false,"i_long":106.855437,"station_id":"KMT","distance":1829,"time":2,"station_name":"Kramat","i_lat":-6.193792,"transit":false,"line":11},{"is_transit":false,"station_id":"GST","time":1,"i_long":106.850107,"distance":973,"station_name":"Gang Sentiong","transit":false,"i_lat":-6.185975,"line":11},{"line":11,"station_name":"Pasar Senen","time":8,"i_lat":-6.174784,"station_id":"PSE","is_transit":false,"distance":1567,"transit":false,"i_long":106.84368},{"i_lat":-6.161728,"i_long":106.839204,"time":4,"is_transit":false,"station_id":"KMO","station_name":"Kemayoran","line":11,"transit":false,"distance":1436},{"i_lat":-6.14505,"is_transit":false,"distance":1901,"time":5,"station_id":"RJW","line":11,"station_name":"Rajawali","transit":false,"i_long":106.836569},{"time":3,"is_transit":true,"i_long":106.826365,"distance":1444,"station_id":"KPB","station_name":"Kampung Bandan","transit":true,"i_lat":-6.132549,"line":0},{"station_name":"Angke","time":9,"i_lat":-6.144674,"station_id":"AK","distance":4102,"i_long":106.79867,"line":0,"is_transit":false,"transit":false},{"transit":true,"i_long":106.800832,"station_id":"DU","i_lat":-6.155215,"distance":1230,"is_transit":true,"station_name":"Duri","line":1,"time":4},{"station_id":"GGL","i_long":106.788277,"line":5,"is_transit":false,"transit":false,"i_lat":-6.162021,"distance":1700,"time":3,"station_name":"Grogol"},{"is_transit":false,"station_name":"Pesing","time":2,"line":5,"distance":2036,"i_long":106.771379,"station_id":"PSG","transit":false,"i_lat":-6.161433},{"i_lat":-6.1587309999999995,"i_long":106.756522,"station_name":"Taman Kota","station_id":"TKO","distance":1614,"is_transit":false,"transit":false,"time":2,"line":5},{"station_id":"BOI","i_long":106.737035,"i_lat":-6.159876,"is_transit":false,"time":2,"line":0,"transit":false,"station_name":"Bojongindah","distance":2334},{"distance":1152,"station_name":"Rawa Buaya","station_id":"RW","i_long":106.723064,"is_transit":false,"i_lat":-6.162758,"transit":false,"line":5,"time":4},{"time":3,"line":5,"is_transit":false,"station_id":"KDS","i_long":106.701612,"transit":false,"distance":2504,"station_name":"Kalideres","i_lat":-6.166068},{"is_transit":false,"station_id":"PI","distance":2548,"line":5,"time":3,"transit":false,"i_lat":-6.169933,"i_long":106.679458,"station_name":"Poris"}],[{"station_name":"Pondok Jati","distance":0,"is_transit":false,"transit":false,"i_long":106.861737,"i_lat":-6.209188,"line":11,"station_id":"POK","time":0},{"station_name":"Jatinegara","i_long":106.86807400000001,"i_lat":-6.215091,"distance":1236,"transit":true,"time":9,"line":0,"is_transit":true,"station_id":"JNG"},{"is_transit":false,"i_long":106.858896,"time":2,"distance":1377,"transit":false,"i_lat":-6.212485,"station_id":"MTR","station_name":"Matraman","line":1},{"transit":true,"line":0,"station_name":"Manggarai","distance":1275,"time":2,"i_lat":-6.209883,"i_long":106.84912,"is_transit":true,"station_id":"MRI"},{"line":0,"station_id":"CKI","i_long":106.840169,"station_name":"Cikini","transit":false,"distance":1590,"time":4,"is_transit":false,"i_lat":-6.198556},{"transit":false,"i_lat":-6.186295,"line":2,"distance":1750,"time":3,"station_id":"GDD","is_transit":false,"station_name":"Gondangdia","i_long":106.832183},{"is_transit":false,"line":2,"distance":2015,"transit":false,"i_lat":-6.166716,"time":4,"station_id":"JUA","station_name":"Juanda","i_long":106.828284},{"is_transit":false,"station_name":"Sawah Besar","distance":1149,"station_id":"SW","line":2,"transit":false,"time":2,"i_long":106.827103,"i_lat":-6.160725},{"station_id":"MGB","station_name":"Manggabesar","distance":906,"line":2,"is_transit":false,"time":2,"i_long":106.82482,"i_lat":-6.149769,"transit":false},{"station_name":"Jayakarta","i_long":106.820901,"line":7,"transit":false,"is_transit":false,"time":2,"distance":1080,"station_id":"JAY","i_lat":-6.141205},{"time":4,"line":0,"station_name":"Jakarta Kota","is_transit":true,"i_lat":-6.137569,"station_id":"JAKK","distance":1264,"transit":true,"i_long":106.812439},{"distance":1364,"is_transit":true,"station_id":"KPB","i_long":106.826365,"line":0,"station_name":"Kampung Bandan","time":3,"transit":false,"i_lat":-6.132549},{"station_id":"AK","time":9,"i_lat":-6.144674,"i_long":106.79867,"line":0,"station_name":"Angke","is_transit":false,"distance":4102,"transit":false},{"distance":1230,"line":1,"time":4,"i_long":106.800832,"i_lat":-6.155215,"station_name":"Duri","is_transit":true,"transit":true,"station_id":"DU"},{"transit":false,"time":3,"i_long":106.788277,"distance":1700,"i_lat":-6.162021,"line":5,"is_transit":false,"station_name":"Grogol","station_id":"GGL"},{"distance":2036,"time":2,"i_lat":-6.161433,"station_id":"PSG","transit":false,"station_name":"Pesing","i_long":106.771379,"line":5,"is_transit":false},{"line":5,"is_transit":false,"station_id":"TKO","station_name":"Taman Kota","transit":false,"distance":1614,"i_lat":-6.1587309999999995,"time":2,"i_long":106.756522},{"distance":2334,"is_transit":false,"transit":false,"time":2,"i_lat":-6.159876,"station_id":"BOI","i_long":106.737035,"station_name":"Bojongindah","line":0},{"i_lat":-6.162758,"station_id":"RW","distance":1152,"i_long":106.723064,"station_name":"Rawa Buaya","line":5,"time":4,"transit":false,"is_transit":false},{"is_transit":false,"i_lat":-6.166068,"time":3,"station_id":"KDS","station_name":"Kalideres","i_long":106.701612,"line":5,"transit":false,"distance":2504},{"distance":2548,"station_id":"PI","time":3,"transit":false,"is_transit":false,"station_name":"Poris","i_lat":-6.169933,"i_long":106.679458,"line":5}],[{"i_long":106.861737,"distance":0,"is_transit":false,"station_id":"POK","station_name":"Pondok Jati","time":0,"transit":false,"i_lat":-6.209188,"line":11},{"station_id":"KMT","station_name":"Kramat","i_lat":-6.193792,"i_long":106.855437,"transit":false,"is_transit":false,"time":2,"line":11,"distance":1829},{"i_lat":-6.185975,"is_transit":false,"distance":973,"station_name":"Gang Sentiong","time":1,"i_long":106.850107,"line":11,"transit":false,"station_id":"GST"},{"station_id":"PSE","i_lat":-6.174784,"time":8,"i_long":106.84368,"station_name":"Pasar Senen","line":11,"distance":1567,"is_transit":false,"transit":false},{"transit":false,"time":4,"distance":1436,"i_lat":-6.161728,"is_transit":false,"station_name":"Kemayoran","i_long":106.839204,"line":11,"station_id":"KMO"},{"time":5,"i_lat":-6.14505,"is_transit":false,"station_name":"Rajawali","line":11,"transit":false,"station_id":"RJW","i_long":106.836569,"distance":1901},{"time":3,"i_long":106.826365,"line":0,"distance":1444,"station_id":"KPB","is_transit":true,"i_lat":-6.132549,"transit":true,"station_name":"Kampung Bandan"},{"transit":true,"time":3,"i_long":106.812439,"distance":1364,"i_lat":-6.137569,"station_name":"Jakarta Kota","line":0,"is_transit":true,"station_id":"JAKK"},{"station_id":"JAY","line":7,"i_long":106.820901,"distance":1264,"transit":false,"station_name":"Jayakarta","time":4,"is_transit":false,"i_lat":-6.141205},{"station_id":"MGB","time":2,"transit":false,"i_long":106.82482,"is_transit":false,"distance":1080,"station_name":"Manggabesar","i_lat":-6.149769,"line":2},{"i_long":106.827103,"transit":false,"time":2,"line":2,"is_transit":false,"station_id":"SW","i_lat":-6.160725,"station_name":"Sawah Besar","distance":906},{"line":2,"is_transit":false,"station_name":"Juanda","i_lat":-6.166716,"time":2,"i_long":106.828284,"distance":1149,"station_id":"JUA","transit":false},{"i_lat":-6.186295,"station_name":"Gondangdia","is_transit":false,"i_long":106.832183,"transit":false,"time":4,"line":2,"distance":2015,"station_id":"GDD"},{"i_long":106.840169,"is_transit":false,"distance":1750,"station_id":"CKI","station_name":"Cikini","line":0,"time":3,"transit":false,"i_lat":-6.198556},{"distance":1590,"station_name":"Manggarai","time":4,"is_transit":true,"station_id":"MRI","transit":true,"i_long":106.84912,"line":0,"i_lat":-6.209883},{"time":4,"station_id":"SUD","distance":3186,"station_name":"Sudirman","is_transit":false,"i_lat":-6.202263,"transit":false,"i_long":106.822649,"line":1},{"i_long":106.819881,"distance":280,"station_id":"SUDB","line":1,"transit":false,"is_transit":false,"time":1,"i_lat":-6.201433,"station_name":"Sudirman Baru"},{"station_id":"KAT","transit":false,"distance":471,"i_lat":-6.20132,"is_transit":false,"line":1,"time":1,"station_name":"Karet","i_long":106.816351},{"transit":false,"distance":2029,"i_lat":-6.185545,"time":5,"i_long":106.811091,"station_name":"Tanah Abang","is_transit":true,"station_id":"THB","line":1},{"i_long":106.800832,"is_transit":true,"distance":3632,"station_id":"DU","time":8,"station_name":"Duri","line":1,"transit":true,"i_lat":-6.155215},{"is_transit":false,"station_name":"Grogol","distance":1700,"station_id":"GGL","transit":false,"line":5,"time":3,"i_lat":-6.162021,"i_long":106.788277},{"transit":false,"line":5,"time":2,"station_name":"Pesing","i_lat":-6.161433,"distance":2036,"is_transit":false,"i_long":106.771379,"station_id":"PSG"},{"station_name":"Taman Kota","i_lat":-6.1587309999999995,"station_id":"TKO","time":2,"distance":1614,"i_long":106.756522,"line":5,"is_transit":false,"transit":false},{"i_lat":-6.159876,"line":0,"i_long":106.737035,"is_transit":false,"distance":2334,"station_id":"BOI","station_name":"Bojongindah","transit":false,"time":2},{"line":5,"time":4,"i_lat":-6.162758,"station_id":"RW","transit":false,"is_transit":false,"i_long":106.723064,"distance":1152,"station_name":"Rawa Buaya"},{"is_transit":false,"line":5,"i_long":106.701612,"transit":false,"time":3,"i_lat":-6.166068,"distance":2504,"station_id":"KDS","station_name":"Kalideres"},{"distance":2548,"station_name":"Poris","i_long":106.679458,"is_transit":false,"transit":false,"line":5,"station_id":"PI","time":3,"i_lat":-6.169933}]]}