{"data":[[{"time":0,"distance":0,"line":11,"transit":false,"is_transit":false,"station_id":"POK","station_name":"Pondok Jati","i_lat":-6.209188,"i_long":106.861737},{"distance":1236,"is_transit":true,"i_long":106.86807400000001,"i_lat":-6.215091,"station_name":"Jatinegara","station_id":"JNG","transit":true,"line":1,"time":9},{"transit":false,"station_id":"MTR","is_transit":false,"time":2,"distance":1377,"line":1,"i_long":106.858896,"station_name":"Matraman","i_lat":-6.212485},{"is_transit":false,"transit":false,"time":2,"station_id":"MRI","distance":1275,"i_lat":-6.209883,"station_name":"Manggarai","i_long":106.84912,"line":2},{"transit":false,"line":1,"i_lat":-6.202263,"i_long":106.822649,"time":4,"station_name":"Sudirman","station_id":"SUD","distance":3186,"is_transit":false},{"distance":280,"station_name":"Sudirman Baru","i_lat":-6.201433,"line":1,"transit":false,"station_id":"SUDB","is_transit":false,"time":1,"i_long":106.819881},{"station_name":"Karet","station_id":"KAT","transit":false,"time":1,"is_transit":false,"i_long":106.816351,"distance":471,"i_lat":-6.20132,"line":1},{"distance":2029,"i_lat":-6.185545,"transit":false,"is_transit":false,"line":1,"i_long":106.811091,"station_name":"Tanah Abang","time":5,"station_id":"THB"},{"time":8,"station_id":"DU","i_lat":-6.155215,"transit":true,"station_name":"Duri","i_long":106.800832,"distance":3632,"is_transit":true,"line":1},{"station_name":"Grogol","line":5,"station_id":"GGL","time":3,"i_lat":-6.162021,"transit":false,"is_transit":false,"distance":1700,"i_long":106.788277},{"transit":false,"is_transit":false,"i_lat":-6.161433,"station_id":"PSG","station_name":"Pesing","line":5,"distance":2036,"time":2,"i_long":106.771379},{"i_long":106.756522,"station_id":"TKO","line":5,"is_transit":false,"transit":false,"time":2,"i_lat":-6.1587309999999995,"distance":1614,"station_name":"Taman Kota"}],[{"distance":0,"i_long":106.861737,"time":0,"transit":false,"line":11,"station_name":"Pondok Jati","is_transit":false,"i_lat":-6.209188,"station_id":"POK"},{"i_lat":-6.193792,"distance":1829,"transit":false,"station_id":"KMT","is_transit":false,"time":2,"i_long":106.855437,"station_name":"Kramat","line":11},{"line":11,"transit":false,"i_lat":-6.185975,"station_id":"GST","is_transit":false,"i_long":106.850107,"time":1,"distance":973,"station_name":"Gang Sentiong"},{"line":11,"station_name":"Pasar Senen","time":8,"station_id":"PSE","transit":false,"is_transit":false,"distance":1567,"i_lat":-6.174784,"i_long":106.84368},{"i_lat":-6.161728,"is_transit":false,"time":4,"line":11,"distance":1436,"transit":false,"station_id":"KMO","i_long":106.839204,"station_name":"Kemayoran"},{"station_id":"RJW","line":11,"transit":false,"distance":1901,"station_name":"Rajawali","i_lat":-6.14505,"i_long":106.836569,"time":5,"is_transit":false},{"i_long":106.826365,"transit":true,"distance":1444,"i_lat":-6.132549,"line":4,"station_name":"Kampung Bandan","is_transit":true,"time":3,"station_id":"KPB"},{"transit":false,"station_name":"Angke","line":1,"i_long":106.79867,"i_lat":-6.144674,"is_transit":false,"time":9,"station_id":"AK","distance":4102},{"is_transit":true,"station_name":"Duri","distance":1230,"i_lat":-6.155215,"i_long":106.800832,"line":1,"time":4,"transit":true,"station_id":"DU"},{"is_transit":false,"line":5,"station_id":"GGL","i_long":106.788277,"i_lat":-6.162021,"time":3,"distance":1700,"station_name":"Grogol","transit":false},{"transit":false,"line":5,"station_id":"PSG","is_transit":false,"station_name":"Pesing","time":2,"distance":2036,"i_lat":-6.161433,"i_long":106.771379},{"transit":false,"line":5,"i_long":106.756522,"station_id":"TKO","station_name":"Taman Kota","is_transit":false,"distance":1614,"time":2,"i_lat":-6.1587309999999995}],[{"is_transit":false,"i_lat":-6.209188,"station_name":"Pondok Jati","station_id":"POK","distance":0,"i_long":106.861737,"transit":false,"time":0,"line":11},{"distance":1236,"i_lat":-6.215091,"station_id":"JNG","station_name":"Jatinegara","i_long":106.86807400000001,"is_transit":true,"time":9,"transit":true,"line":1},{"line":1,"station_name":"Matraman","i_lat":-6.212485,"time":2,"i_long":106.858896,"is_transit":false,"distance":1377,"station_id":"MTR","transit":false},{"distance":1275,"station_name":"Manggarai","i_lat":-6.209883,"line":2,"i_long":106.84912,"is_transit":true,"station_id":"MRI","transit":true,"time":2},{"time":4,"i_lat":-6.198556,"line":2,"i_long":106.840169,"station_name":"Cikini","is_transit":false,"station_id":"CKI","transit":false,"distance":1590},{"is_transit":false,"i_lat":-6.186295,"transit":false,"time":3,"line":2,"station_name":"Gondangdia","i_long":106.832183,"station_id":"GDD","distance":1750},{"is_transit":false,"station_name":"Juanda","transit":false,"i_lat":-6.166716,"station_id":"JUA","distance":2015,"i_long":106.828284,"line":2,"time":4},{"i_lat":-6.160725,"station_id":"SW","time":2,"i_long":106.827103,"station_name":"Sawah Besar","is_transit":false,"transit":false,"line":2,"distance":1149},{"i_lat":-6.149769,"is_transit":false,"station_id":"MGB","station_name":"Manggabesar","time":2,"distance":906,"i_long":106.82482,"transit":false,"line":2},{"time":2,"transit":false,"station_id":"JAY","i_lat":-6.141205,"line":2,"i_long":106.820901,"distance":1080,"station_name":"Jayakarta","is_transit":false},{"line":2,"station_id":"JAKK","is_transit":true,"i_long":106.812439,"distance":1264,"time":4,"transit":true,"station_name":"Jakarta Kota","i_lat":-6.137569},{"station_name":"Kampung Bandan","i_long":106.826365,"i_lat":-6.132549,"is_transit":true,"time":3,"distance":1364,"line":4,"station_id":"KPB","transit":true},{"transit":false,"time":9,"distance":4102,"i_lat":-6.144674,"i_long":106.79867,"station_name":"Angke","line":1,"is_transit":false,"station_id":"AK"},{"i_lat":-6.155215,"transit":true,"station_name":"Duri","time":4,"distance":1230,"i_long":106.800832,"station_id":"DU","is_transit":true,"line":1},{"i_long":106.788277,"station_id":"GGL","time":3,"distance":1700,"line":5,"transit":false,"is_transit":false,"station_name":"Grogol","i_lat":-6.162021},{"station_id":"PSG","transit":false,"is_transit":false,"station_name":"Pesing","line":5,"distance":2036,"i_lat":-6.161433,"time":2,"i_long":106.771379},{"distance":1614,"time":2,"i_long":106.756522,"is_transit":false,"line":5,"station_name":"Taman Kota","station_id":"TKO","i_lat":-6.1587309999999995,"transit":false}],[{"station_id":"POK","i_lat":-6.209188,"line":11,"transit":false,"station_name":"Pondok Jati","is_transit":false,"time":0,"distance":0,"i_long":106.861737},{"distance":1829,"is_transit":false,"time":2,"station_name":"Kramat","i_lat":-6.193792,"transit":false,"line":11,"i_long":106.855437,"station_id":"KMT"},{"station_id":"GST","transit":false,"distance":973,"station_name":"Gang Sentiong","i_lat":-6.185975,"line":11,"is_transit":false,"time":1,"i_long":106.850107},{"transit":false,"station_name":"Pasar Senen","is_transit":false,"i_lat":-6.174784,"distance":1567,"time":8,"i_long":106.84368,"station_id":"PSE","line":11},{"transit":false,"distance":1436,"time":4,"station_id":"KMO","station_name":"Kemayoran","line":11,"i_long":106.839204,"i_lat":-6.161728,"is_transit":false},{"i_lat":-6.14505,"time":5,"transit":false,"distance":1901,"i_long":106.836569,"line":11,"is_transit":false,"station_id":"RJW","station_name":"Rajawali"},{"station_id":"KPB","station_name":"Kampung Bandan","i_long":106.826365,"line":4,"time":3,"transit":true,"i_lat":-6.132549,"distance":1444,"is_transit":true},{"i_lat":-6.137569,"is_transit":true,"i_long":106.812439,"time":3,"station_name":"Jakarta Kota","distance":1364,"line":2,"transit":true,"station_id":"JAKK"},{"line":2,"time":4,"distance":1264,"i_lat":-6.141205,"station_id":"JAY","station_name":"Jayakarta","transit":false,"is_transit":false,"i_long":106.820901},{"distance":1080,"is_transit":false,"station_id":"MGB","time":2,"i_lat":-6.149769,"i_long":106.82482,"line":2,"station_name":"Manggabesar","transit":false},{"i_long":106.827103,"station_id":"SW","is_transit":false,"distance":906,"time":2,"i_lat":-6.160725,"station_name":"Sawah Besar","line":2,"transit":false},{"station_name":"Juanda","i_long":106.828284,"station_id":"JUA","distance":1149,"transit":false,"is_transit":false,"line":2,"i_lat":-6.166716,"time":2},{"station_name":"Gondangdia","line":2,"transit":false,"is_transit":false,"distance":2015,"i_lat":-6.186295,"i_long":106.832183,"station_id":"GDD","time":4},{"i_lat":-6.198556,"is_transit":false,"transit":false,"station_id":"CKI","distance":1750,"line":2,"i_long":106.840169,"station_name":"Cikini","time":3},{"distance":1590,"is_transit":true,"station_id":"MRI","i_lat":-6.209883,"time":4,"station_name":"Manggarai","i_long":106.84912,"line":2,"transit":true},{"distance":3186,"i_lat":-6.202263,"is_transit":false,"station_name":"Sudirman","line":1,"station_id":"SUD","time":4,"transit":false,"i_long":106.822649},{"station_id":"SUDB","line":1,"i_lat":-6.201433,"transit":false,"station_name":"Sudirman Baru","time":1,"distance":280,"i_long":106.819881,"is_transit":false},{"transit":false,"line":1,"station_name":"Karet","i_long":106.816351,"time":1,"i_lat":-6.20132,"distance":471,"is_transit":false,"station_id":"KAT"},{"transit":false,"is_transit":false,"i_lat":-6.185545,"distance":2029,"station_name":"Tanah Abang","i_long":106.811091,"line":1,"station_id":"THB","time":5},{"i_lat":-6.155215,"time":8,"station_id":"DU","distance":3632,"i_long":106.800832,"line":1,"transit":true,"is_transit":true,"station_name":"Duri"},{"station_id":"GGL","distance":1700,"transit":false,"station_name":"Grogol","is_transit":false,"line":5,"i_lat":-6.162021,"time":3,"i_long":106.788277},{"station_name":"Pesing","station_id":"PSG","transit":false,"time":2,"i_lat":-6.161433,"line":5,"distance":2036,"is_transit":false,"i_long":106.771379},{"distance":1614,"station_name":"Taman Kota","time":2,"transit":false,"line":5,"is_transit":false,"station_id":"TKO","i_lat":-6.1587309999999995,"i_long":106.756522}]]}