{"data":[[{"transit":false,"i_lat":-6.209188,"line":11,"i_long":106.861737,"is_transit":false,"time":0,"station_name":"Pondok Jati","station_id":"POK","distance":0},{"distance":1829,"station_id":"KMT","transit":false,"i_lat":-6.193792,"is_transit":false,"time":2,"i_long":106.855437,"station_name":"Kramat","line":11}],[{"transit":false,"i_lat":-6.209188,"i_long":106.861737,"time":0,"station_name":"Pondok Jati","distance":0,"is_transit":false,"line":11,"station_id":"POK"},{"is_transit":true,"station_name":"Jatinegara","station_id":"JNG","line":1,"transit":true,"time":9,"i_long":106.86807400000001,"i_lat":-6.215091,"distance":1236},{"distance":1377,"station_id":"MTR","time":2,"transit":false,"i_long":106.858896,"is_transit":false,"station_name":"Matraman","line":1,"i_lat":-6.212485},{"time":2,"i_lat":-6.209883,"i_long":106.84912,"line":2,"transit":false,"is_transit":false,"distance":1275,"station_name":"Manggarai","station_id":"MRI"},{"is_transit":false,"station_name":"Sudirman","transit":false,"i_long":106.822649,"line":1,"station_id":"SUD","distance":3186,"time":4,"i_lat":-6.202263},{"station_id":"SUDB","station_name":"Sudirman Baru","i_lat":-6.201433,"transit":false,"i_long":106.819881,"time":1,"line":1,"is_transit":false,"distance":280},{"is_transit":false,"transit":false,"distance":471,"line":1,"station_id":"KAT","station_name":"Karet","time":1,"i_long":106.816351,"i_lat":-6.20132},{"station_name":"Tanah Abang","is_transit":false,"time":5,"distance":2029,"i_lat":-6.185545,"transit":false,"i_long":106.811091,"line":1,"station_id":"THB"},{"i_long":106.800832,"i_lat":-6.155215,"line":1,"transit":false,"distance":3632,"station_id":"DU","station_name":"Duri","is_transit":false,"time":8},{"is_transit":false,"station_id":"AK","i_lat":-6.144674,"i_long":106.79867,"transit":false,"time":4,"distance":1230,"station_name":"Angke","line":1},{"is_transit":true,"i_long":106.826365,"station_name":"Kampung Bandan","station_id":"KPB","i_lat":-6.132549,"transit":true,"distance":4102,"time":9,"line":4},{"is_transit":false,"time":3,"distance":1444,"i_long":106.836569,"station_id":"RJW","line":11,"i_lat":-6.14505,"transit":false,"station_name":"Rajawali"},{"i_lat":-6.161728,"is_transit":false,"distance":1901,"i_long":106.839204,"station_name":"Kemayoran","station_id":"KMO","time":5,"transit":false,"line":11},{"line":11,"station_name":"Pasar Senen","station_id":"PSE","transit":false,"is_transit":false,"time":4,"distance":1436,"i_lat":-6.174784,"i_long":106.84368},{"is_transit":false,"i_lat":-6.185975,"transit":false,"station_id":"GST","i_long":106.850107,"time":8,"distance":1567,"line":11,"station_name":"Gang Sentiong"},{"time":1,"i_long":106.855437,"is_transit":false,"i_lat":-6.193792,"station_name":"Kramat","distance":973,"line":11,"transit":false,"station_id":"KMT"}],[{"station_name":"Pondok Jati","distance":0,"transit":false,"i_long":106.861737,"station_id":"POK","is_transit":false,"time":0,"i_lat":-6.209188,"line":11},{"line":1,"i_long":106.86807400000001,"distance":1236,"transit":true,"time":9,"station_id":"JNG","is_transit":true,"station_name":"Jatinegara","i_lat":-6.215091},{"is_transit":false,"time":2,"transit":false,"station_id":"MTR","distance":1377,"i_lat":-6.212485,"i_long":106.858896,"line":1,"station_name":"Matraman"},{"distance":1275,"transit":true,"i_long":106.84912,"is_transit":true,"line":2,"time":2,"station_name":"Manggarai","station_id":"MRI","i_lat":-6.209883},{"station_name":"Cikini","time":4,"i_long":106.840169,"line":2,"distance":1590,"is_transit":false,"station_id":"CKI","transit":false,"i_lat":-6.198556},{"time":3,"i_long":106.832183,"transit":false,"station_name":"Gondangdia","is_transit":false,"distance":1750,"i_lat":-6.186295,"station_id":"GDD","line":2},{"i_long":106.828284,"station_name":"Juanda","station_id":"JUA","is_transit":false,"line":2,"time":4,"distance":2015,"transit":false,"i_lat":-6.166716},{"transit":false,"distance":1149,"station_id":"SW","time":2,"line":2,"i_long":106.827103,"is_transit":false,"station_name":"Sawah Besar","i_lat":-6.160725},{"station_id":"MGB","station_name":"Manggabesar","transit":false,"distance":906,"line":2,"i_lat":-6.149769,"is_transit":false,"time":2,"i_long":106.82482},{"station_name":"Jayakarta","station_id":"JAY","is_transit":false,"i_lat":-6.141205,"transit":false,"line":2,"distance":1080,"time":2,"i_long":106.820901},{"distance":1264,"station_id":"JAKK","i_lat":-6.137569,"is_transit":true,"line":2,"i_long":106.812439,"transit":true,"station_name":"Jakarta Kota","time":4},{"station_name":"Kampung Bandan","time":3,"line":4,"station_id":"KPB","is_transit":true,"transit":true,"distance":1364,"i_lat":-6.132549,"i_long":106.826365},{"transit":false,"station_id":"RJW","distance":1444,"is_transit":false,"station_name":"Rajawali","time":3,"line":11,"i_lat":-6.14505,"i_long":106.836569},{"line":11,"station_name":"Kemayoran","station_id":"KMO","i_long":106.839204,"transit":false,"distance":1901,"is_transit":false,"time":5,"i_lat":-6.161728},{"line":11,"i_long":106.84368,"is_transit":false,"station_id":"PSE","distance":1436,"time":4,"i_lat":-6.174784,"transit":false,"station_name":"Pasar Senen"},{"is_transit":false,"transit":false,"i_lat":-6.185975,"distance":1567,"time":8,"line":11,"station_id":"GST","i_long":106.850107,"station_name":"Gang Sentiong"},{"line":11,"i_lat":-6.193792,"transit":false,"station_name":"Kramat","station_id":"KMT","time":1,"distance":973,"is_transit":false,"i_long":106.855437}]]}