{"data":[[{"is_transit":false,"i_lat":-6.209188,"line":11,"time":0,"transit":false,"i_long":106.861737,"distance":0,"station_id":"POK","station_name":"Pondok Jati"},{"time":9,"i_lat":-6.215091,"i_long":106.86807400000001,"station_id":"JNG","is_transit":true,"station_name":"Jatinegara","distance":1236,"transit":true,"line":1},{"line":1,"station_id":"MTR","station_name":"Matraman","distance":1377,"i_lat":-6.212485,"is_transit":false,"time":2,"transit":false,"i_long":106.858896},{"time":2,"station_id":"MRI","i_lat":-6.209883,"line":2,"distance":1275,"is_transit":false,"transit":false,"station_name":"Manggarai","i_long":106.84912},{"time":4,"transit":false,"line":1,"is_transit":false,"distance":3186,"station_id":"SUD","i_lat":-6.202263,"i_long":106.822649,"station_name":"Sudirman"},{"i_lat":-6.201433,"i_long":106.819881,"distance":280,"time":1,"is_transit":false,"transit":false,"line":1,"station_id":"SUDB","station_name":"Sudirman Baru"},{"time":1,"station_name":"Karet","i_lat":-6.20132,"transit":false,"is_transit":false,"station_id":"KAT","i_long":106.816351,"line":1,"distance":471},{"transit":true,"station_name":"Tanah Abang","line":1,"i_long":106.811091,"time":5,"station_id":"THB","i_lat":-6.185545,"distance":2029,"is_transit":true},{"transit":false,"distance":3191,"station_name":"Palmerah","i_long":106.79689,"i_lat":-6.207404,"line":6,"station_id":"PLM","is_transit":false,"time":6},{"distance":3737,"time":7,"i_long":106.780334,"is_transit":false,"station_name":"Kebayoran","i_lat":-6.237242,"station_id":"KBY","transit":false,"line":6}],[{"transit":false,"i_lat":-6.209188,"line":11,"station_name":"Pondok Jati","is_transit":false,"distance":0,"station_id":"POK","time":0,"i_long":106.861737},{"distance":1829,"i_long":106.855437,"is_transit":false,"station_name":"Kramat","station_id":"KMT","i_lat":-6.193792,"line":11,"transit":false,"time":2},{"i_long":106.850107,"station_name":"Gang Sentiong","is_transit":false,"station_id":"GST","distance":973,"i_lat":-6.185975,"line":11,"time":1,"transit":false},{"time":8,"transit":false,"i_long":106.84368,"i_lat":-6.174784,"station_name":"Pasar Senen","is_transit":false,"line":11,"station_id":"PSE","distance":1567},{"transit":false,"i_lat":-6.161728,"time":4,"station_name":"Kemayoran","i_long":106.839204,"line":11,"distance":1436,"is_transit":false,"station_id":"KMO"},{"station_name":"Rajawali","is_transit":false,"i_long":106.836569,"line":11,"time":5,"station_id":"RJW","distance":1901,"i_lat":-6.14505,"transit":false},{"station_name":"Kampung Bandan","is_transit":true,"i_lat":-6.132549,"line":4,"transit":true,"distance":1444,"i_long":106.826365,"station_id":"KPB","time":3},{"i_long":106.79867,"transit":false,"time":9,"line":1,"is_transit":false,"distance":4102,"station_name":"Angke","station_id":"AK","i_lat":-6.144674},{"time":4,"station_name":"Duri","transit":false,"i_long":106.800832,"i_lat":-6.155215,"is_transit":false,"line":1,"distance":1230,"station_id":"DU"},{"time":8,"i_long":106.811091,"i_lat":-6.185545,"station_name":"Tanah Abang","line":1,"transit":true,"station_id":"THB","distance":3632,"is_transit":true},{"transit":false,"distance":3191,"is_transit":false,"time":6,"station_name":"Palmerah","i_long":106.79689,"i_lat":-6.207404,"station_id":"PLM","line":6},{"distance":3737,"station_id":"KBY","i_lat":-6.237242,"i_long":106.780334,"transit":false,"line":6,"time":7,"station_name":"Kebayoran","is_transit":false}],[{"station_name":"Pondok Jati","i_long":106.861737,"is_transit":false,"time":0,"line":11,"transit":false,"distance":0,"station_id":"POK","i_lat":-6.209188},{"transit":true,"i_lat":-6.215091,"i_long":106.86807400000001,"distance":1236,"station_id":"JNG","station_name":"Jatinegara","line":1,"is_transit":true,"time":9},{"distance":1377,"station_id":"MTR","line":1,"i_lat":-6.212485,"i_long":106.858896,"is_transit":false,"transit":false,"station_name":"Matraman","time":2},{"transit":true,"distance":1275,"i_lat":-6.209883,"station_name":"Manggarai","i_long":106.84912,"line":2,"station_id":"MRI","is_transit":true,"time":2},{"transit":false,"is_transit":false,"time":4,"distance":1590,"station_name":"Cikini","i_lat":-6.198556,"station_id":"CKI","line":2,"i_long":106.840169},{"i_long":106.832183,"line":2,"station_id":"GDD","transit":false,"distance":1750,"is_transit":false,"i_lat":-6.186295,"time":3,"station_name":"Gondangdia"},{"i_long":106.828284,"transit":false,"distance":2015,"station_id":"JUA","station_name":"Juanda","is_transit":false,"line":2,"time":4,"i_lat":-6.166716},{"i_lat":-6.160725,"station_name":"Sawah Besar","transit":false,"station_id":"SW","is_transit":false,"i_long":106.827103,"time":2,"line":2,"distance":1149},{"distance":906,"time":2,"is_transit":false,"i_lat":-6.149769,"station_name":"Manggabesar","transit":false,"i_long":106.82482,"station_id":"MGB","line":2},{"line":2,"station_id":"JAY","transit":false,"station_name":"Jayakarta","time":2,"is_transit":false,"distance":1080,"i_long":106.820901,"i_lat":-6.141205},{"station_id":"JAKK","line":2,"station_name":"Jakarta Kota","i_long":106.812439,"i_lat":-6.137569,"distance":1264,"transit":true,"is_transit":true,"time":4},{"is_transit":true,"time":3,"i_long":106.826365,"i_lat":-6.132549,"transit":true,"station_id":"KPB","line":4,"station_name":"Kampung Bandan","distance":1364},{"distance":4102,"station_id":"AK","transit":false,"line":1,"time":9,"station_name":"Angke","is_transit":false,"i_lat":-6.144674,"i_long":106.79867},{"i_lat":-6.155215,"station_id":"DU","station_name":"Duri","transit":false,"distance":1230,"line":1,"i_long":106.800832,"time":4,"is_transit":false},{"i_lat":-6.185545,"line":1,"i_long":106.811091,"time":8,"station_name":"Tanah Abang","is_transit":true,"transit":true,"distance":3632,"station_id":"THB"},{"is_transit":false,"station_name":"Palmerah","time":6,"station_id":"PLM","transit":false,"i_lat":-6.207404,"i_long":106.79689,"line":6,"distance":3191},{"time":7,"station_id":"KBY","is_transit":false,"distance":3737,"i_lat":-6.237242,"line":6,"station_name":"Kebayoran","transit":false,"i_long":106.780334}],[{"transit":false,"station_name":"Pondok Jati","station_id":"POK","time":0,"distance":0,"is_transit":false,"i_long":106.861737,"i_lat":-6.209188,"line":11},{"line":11,"is_transit":false,"time":2,"station_id":"KMT","station_name":"Kramat","i_lat":-6.193792,"i_long":106.855437,"distance":1829,"transit":false},{"time":1,"i_long":106.850107,"is_transit":false,"station_id":"GST","distance":973,"i_lat":-6.185975,"transit":false,"line":11,"station_name":"Gang Sentiong"},{"distance":1567,"station_id":"PSE","transit":false,"time":8,"line":11,"i_lat":-6.174784,"station_name":"Pasar Senen","is_transit":false,"i_long":106.84368},{"i_long":106.839204,"line":11,"transit":false,"distance":1436,"station_id":"KMO","i_lat":-6.161728,"is_transit":false,"time":4,"station_name":"Kemayoran"},{"is_transit":false,"i_lat":-6.14505,"line":11,"time":5,"transit":false,"distance":1901,"station_name":"Rajawali","station_id":"RJW","i_long":106.836569},{"i_lat":-6.132549,"station_name":"Kampung Bandan","line":4,"i_long":106.826365,"time":3,"distance":1444,"transit":true,"station_id":"KPB","is_transit":true},{"distance":1364,"is_transit":true,"station_name":"Jakarta Kota","station_id":"JAKK","line":2,"time":3,"transit":true,"i_lat":-6.137569,"i_long":106.812439},{"i_lat":-6.141205,"time":4,"line":2,"i_long":106.820901,"transit":false,"station_id":"JAY","distance":1264,"is_transit":false,"station_name":"Jayakarta"},{"line":2,"distance":1080,"i_lat":-6.149769,"i_long":106.82482,"station_name":"Manggabesar","is_transit":false,"station_id":"MGB","time":2,"transit":false},{"line":2,"is_transit":false,"station_name":"Sawah Besar","distance":906,"i_long":106.827103,"time":2,"station_id":"SW","transit":false,"i_lat":-6.160725},{"distance":1149,"transit":false,"station_id":"JUA","i_long":106.828284,"is_transit":false,"i_lat":-6.166716,"line":2,"station_name":"Juanda","time":2},{"distance":2015,"i_lat":-6.186295,"time":4,"is_transit":false,"transit":false,"station_id":"GDD","station_name":"Gondangdia","i_long":106.832183,"line":2},{"is_transit":false,"time":3,"station_name":"Cikini","station_id":"CKI","distance":1750,"transit":false,"line":2,"i_lat":-6.198556,"i_long":106.840169},{"i_long":106.84912,"line":2,"distance":1590,"station_id":"MRI","time":4,"i_lat":-6.209883,"transit":true,"station_name":"Manggarai","is_transit":true},{"time":4,"i_lat":-6.202263,"station_name":"Sudirman","station_id":"SUD","i_long":106.822649,"distance":3186,"transit":false,"is_transit":false,"line":1},{"i_long":106.819881,"line":1,"is_transit":false,"transit":false,"distance":280,"station_name":"Sudirman Baru","i_lat":-6.201433,"station_id":"SUDB","time":1},{"time":1,"station_id":"KAT","distance":471,"i_lat":-6.20132,"line":1,"is_transit":false,"i_long":106.816351,"station_name":"Karet","transit":false},{"station_id":"THB","is_transit":true,"time":5,"distance":2029,"i_lat":-6.185545,"i_long":106.811091,"line":1,"transit":true,"station_name":"Tanah Abang"},{"station_name":"Palmerah","is_transit":false,"i_lat":-6.207404,"line":6,"station_id":"PLM","i_long":106.79689,"distance":3191,"time":6,"transit":false},{"time":7,"line":6,"i_long":106.780334,"distance":3737,"station_id":"KBY","transit":false,"i_lat":-6.237242,"is_transit":false,"station_name":"Kebayoran"}]]}