{"data":[[{"is_transit":false,"transit":false,"time":0,"station_id":"POK","i_long":106.861737,"distance":0,"i_lat":-6.209188,"line":11,"station_name":"Pondok Jati"},{"station_name":"Jatinegara","transit":true,"i_long":106.86807400000001,"line":0,"distance":1236,"is_transit":true,"time":9,"i_lat":-6.215091,"station_id":"JNG"},{"distance":1377,"i_lat":-6.212485,"transit":false,"time":2,"i_long":106.858896,"station_name":"Matraman","station_id":"MTR","line":1,"is_transit":false},{"distance":1275,"i_long":106.84912,"line":0,"time":2,"transit":false,"is_transit":true,"station_id":"MRI","i_lat":-6.209883,"station_name":"Manggarai"},{"station_name":"Sudirman","time":4,"i_lat":-6.202263,"distance":3186,"i_long":106.822649,"station_id":"SUD","line":1,"transit":false,"is_transit":false},{"station_id":"SUDB","is_transit":false,"time":1,"i_lat":-6.201433,"station_name":"Sudirman Baru","i_long":106.819881,"line":1,"transit":false,"distance":280},{"is_transit":false,"station_name":"Karet","transit":false,"i_long":106.816351,"line":1,"time":1,"distance":471,"i_lat":-6.20132,"station_id":"KAT"},{"is_transit":true,"station_name":"Tanah Abang","transit":false,"station_id":"THB","distance":2029,"line":1,"i_lat":-6.185545,"i_long":106.811091,"time":5},{"station_name":"Duri","transit":true,"i_lat":-6.155215,"time":8,"line":1,"station_id":"DU","is_transit":true,"i_long":106.800832,"distance":3632},{"transit":false,"i_lat":-6.162021,"station_id":"GGL","station_name":"Grogol","i_long":106.788277,"line":5,"time":3,"is_transit":false,"distance":1700},{"i_long":106.771379,"station_name":"Pesing","station_id":"PSG","transit":false,"distance":2036,"line":5,"time":2,"is_transit":false,"i_lat":-6.161433},{"transit":false,"i_lat":-6.1587309999999995,"time":2,"i_long":106.756522,"distance":1614,"station_id":"TKO","station_name":"Taman Kota","is_transit":false,"line":5},{"i_lat":-6.159876,"i_long":106.737035,"line":0,"station_id":"BOI","station_name":"Bojongindah","transit":false,"time":2,"distance":2334,"is_transit":false},{"time":4,"is_transit":false,"station_id":"RW","distance":1152,"i_lat":-6.162758,"station_name":"Rawa Buaya","transit":false,"i_long":106.723064,"line":5}],[{"is_transit":false,"line":11,"i_long":106.861737,"station_id":"POK","station_name":"Pondok Jati","i_lat":-6.209188,"distance":0,"time":0,"transit":false},{"i_long":106.855437,"station_name":"Kramat","line":11,"transit":false,"is_transit":false,"station_id":"KMT","distance":1829,"time":2,"i_lat":-6.193792},{"station_id":"GST","i_long":106.850107,"time":1,"station_name":"Gang Sentiong","distance":973,"is_transit":false,"line":11,"transit":false,"i_lat":-6.185975},{"line":11,"i_lat":-6.174784,"distance":1567,"transit":false,"time":8,"station_name":"Pasar Senen","is_transit":false,"station_id":"PSE","i_long":106.84368},{"transit":false,"distance":1436,"is_transit":false,"i_lat":-6.161728,"i_long":106.839204,"line":11,"station_name":"Kemayoran","station_id":"KMO","time":4},{"i_long":106.836569,"time":5,"i_lat":-6.14505,"distance":1901,"station_id":"RJW","transit":false,"line":11,"station_name":"Rajawali","is_transit":false},{"transit":true,"is_transit":true,"i_long":106.826365,"i_lat":-6.132549,"station_name":"Kampung Bandan","time":3,"distance":1444,"line":0,"station_id":"KPB"},{"time":9,"distance":4102,"is_transit":false,"transit":false,"line":0,"i_lat":-6.144674,"i_long":106.79867,"station_id":"AK","station_name":"Angke"},{"station_name":"Duri","time":4,"line":1,"transit":true,"i_lat":-6.155215,"station_id":"DU","distance":1230,"is_transit":true,"i_long":106.800832},{"i_lat":-6.162021,"line":5,"is_transit":false,"station_id":"GGL","station_name":"Grogol","i_long":106.788277,"time":3,"distance":1700,"transit":false},{"station_id":"PSG","time":2,"distance":2036,"i_lat":-6.161433,"station_name":"Pesing","i_long":106.771379,"line":5,"is_transit":false,"transit":false},{"i_lat":-6.1587309999999995,"i_long":106.756522,"transit":false,"time":2,"station_name":"Taman Kota","line":5,"distance":1614,"is_transit":false,"station_id":"TKO"},{"time":2,"distance":2334,"is_transit":false,"station_name":"Bojongindah","i_long":106.737035,"transit":false,"station_id":"BOI","i_lat":-6.159876,"line":0},{"is_transit":false,"station_name":"Rawa Buaya","station_id":"RW","line":5,"i_long":106.723064,"time":4,"transit":false,"i_lat":-6.162758,"distance":1152}],[{"i_long":106.861737,"time":0,"line":11,"station_id":"POK","station_name":"Pondok Jati","transit":false,"i_lat":-6.209188,"is_transit":false,"distance":0},{"distance":1236,"station_name":"Jatinegara","i_long":106.86807400000001,"is_transit":true,"transit":true,"time":9,"i_lat":-6.215091,"line":0,"station_id":"JNG"},{"time":2,"is_transit":false,"line":1,"transit":false,"i_long":106.858896,"distance":1377,"station_name":"Matraman","i_lat":-6.212485,"station_id":"MTR"},{"is_transit":true,"station_name":"Manggarai","i_lat":-6.209883,"distance":1275,"time":2,"line":0,"i_long":106.84912,"station_id":"MRI","transit":true},{"station_id":"CKI","station_name":"Cikini","i_long":106.840169,"i_lat":-6.198556,"time":4,"line":0,"transit":false,"is_transit":false,"distance":1590},{"i_lat":-6.186295,"station_id":"GDD","distance":1750,"is_transit":false,"station_name":"Gondangdia","i_long":106.832183,"time":3,"line":2,"transit":false},{"line":2,"station_name":"Juanda","time":4,"is_transit":false,"transit":false,"i_long":106.828284,"station_id":"JUA","distance":2015,"i_lat":-6.166716},{"is_transit":false,"station_name":"Sawah Besar","line":2,"time":2,"station_id":"SW","distance":1149,"i_lat":-6.160725,"i_long":106.827103,"transit":false},{"station_name":"Manggabesar","time":2,"i_long":106.82482,"transit":false,"is_transit":false,"station_id":"MGB","distance":906,"line":2,"i_lat":-6.149769},{"transit":false,"station_name":"Jayakarta","i_long":106.820901,"distance":1080,"i_lat":-6.141205,"is_transit":false,"time":2,"line":7,"station_id":"JAY"},{"i_lat":-6.137569,"station_name":"Jakarta Kota","time":4,"distance":1264,"transit":true,"is_transit":true,"i_long":106.812439,"line":0,"station_id":"JAKK"},{"transit":false,"line":0,"station_name":"Kampung Bandan","i_lat":-6.132549,"time":3,"i_long":106.826365,"station_id":"KPB","distance":1364,"is_transit":true},{"is_transit":false,"transit":false,"i_lat":-6.144674,"station_name":"Angke","line":0,"distance":4102,"time":9,"station_id":"AK","i_long":106.79867},{"transit":true,"station_name":"Duri","station_id":"DU","line":1,"time":4,"i_lat":-6.155215,"i_long":106.800832,"distance":1230,"is_transit":true},{"time":3,"i_long":106.788277,"station_name":"Grogol","transit":false,"line":5,"distance":1700,"i_lat":-6.162021,"is_transit":false,"station_id":"GGL"},{"line":5,"station_id":"PSG","is_transit":false,"station_name":"Pesing","time":2,"transit":false,"distance":2036,"i_lat":-6.161433,"i_long":106.771379},{"station_name":"Taman Kota","i_lat":-6.1587309999999995,"distance":1614,"is_transit":false,"line":5,"transit":false,"time":2,"i_long":106.756522,"station_id":"TKO"},{"is_transit":false,"distance":2334,"time":2,"i_long":106.737035,"line":0,"transit":false,"i_lat":-6.159876,"station_name":"Bojongindah","station_id":"BOI"},{"i_lat":-6.162758,"distance":1152,"is_transit":false,"line":5,"i_long":106.723064,"station_name":"Rawa Buaya","transit":false,"time":4,"station_id":"RW"}],[{"i_lat":-6.209188,"is_transit":false,"station_name":"Pondok Jati","distance":0,"time":0,"station_id":"POK","transit":false,"line":11,"i_long":106.861737},{"station_id":"KMT","transit":false,"i_lat":-6.193792,"station_name":"Kramat","time":2,"is_transit":false,"distance":1829,"line":11,"i_long":106.855437},{"transit":false,"i_lat":-6.185975,"i_long":106.850107,"station_id":"GST","is_transit":false,"line":11,"distance":973,"station_name":"Gang Sentiong","time":1},{"distance":1567,"station_name":"Pasar Senen","line":11,"station_id":"PSE","i_lat":-6.174784,"i_long":106.84368,"is_transit":false,"time":8,"transit":false},{"i_long":106.839204,"i_lat":-6.161728,"distance":1436,"transit":false,"station_name":"Kemayoran","is_transit":false,"station_id":"KMO","time":4,"line":11},{"line":11,"distance":1901,"station_name":"Rajawali","transit":false,"station_id":"RJW","time":5,"is_transit":false,"i_long":106.836569,"i_lat":-6.14505},{"station_id":"KPB","i_long":106.826365,"distance":1444,"transit":true,"is_transit":true,"station_name":"Kampung Bandan","time":3,"line":0,"i_lat":-6.132549},{"distance":1364,"station_id":"JAKK","time":3,"station_name":"Jakarta Kota","is_transit":true,"i_long":106.812439,"i_lat":-6.137569,"transit":true,"line":0},{"transit":false,"station_id":"JAY","i_lat":-6.141205,"time":4,"distance":1264,"i_long":106.820901,"line":7,"station_name":"Jayakarta","is_transit":false},{"i_long":106.82482,"station_name":"Manggabesar","is_transit":false,"station_id":"MGB","distance":1080,"transit":false,"line":2,"time":2,"i_lat":-6.149769},{"transit":false,"distance":906,"is_transit":false,"i_lat":-6.160725,"i_long":106.827103,"time":2,"station_name":"Sawah Besar","line":2,"station_id":"SW"},{"is_transit":false,"station_name":"Juanda","distance":1149,"station_id":"JUA","transit":false,"line":2,"time":2,"i_lat":-6.166716,"i_long":106.828284},{"transit":false,"line":2,"time":4,"station_name":"Gondangdia","i_lat":-6.186295,"distance":2015,"is_transit":false,"i_long":106.832183,"station_id":"GDD"},{"station_name":"Cikini","i_lat":-6.198556,"station_id":"CKI","time":3,"distance":1750,"i_long":106.840169,"line":0,"is_transit":false,"transit":false},{"i_lat":-6.209883,"line":0,"i_long":106.84912,"is_transit":true,"distance":1590,"station_id":"MRI","station_name":"Manggarai","transit":true,"time":4},{"line":1,"time":4,"i_lat":-6.202263,"station_id":"SUD","transit":false,"is_transit":false,"i_long":106.822649,"distance":3186,"station_name":"Sudirman"},{"is_transit":false,"line":1,"i_long":106.819881,"transit":false,"time":1,"i_lat":-6.201433,"distance":280,"station_id":"SUDB","station_name":"Sudirman Baru"},{"distance":471,"station_name":"Karet","i_long":106.816351,"is_transit":false,"transit":false,"line":1,"station_id":"KAT","time":1,"i_lat":-6.20132},{"i_lat":-6.185545,"is_transit":true,"transit":false,"station_id":"THB","time":5,"line":1,"i_long":106.811091,"distance":2029,"station_name":"Tanah Abang"},{"distance":3632,"station_id":"DU","is_transit":true,"transit":true,"time":8,"i_lat":-6.155215,"line":1,"station_name":"Duri","i_long":106.800832},{"is_transit":false,"i_long":106.788277,"distance":1700,"station_id":"GGL","i_lat":-6.162021,"line":5,"station_name":"Grogol","time":3,"transit":false},{"distance":2036,"station_name":"Pesing","line":5,"is_transit":false,"i_lat":-6.161433,"i_long":106.771379,"time":2,"transit":false,"station_id":"PSG"},{"time":2,"i_lat":-6.1587309999999995,"distance":1614,"station_id":"TKO","is_transit":false,"station_name":"Taman Kota","transit":false,"i_long":106.756522,"line":5},{"station_id":"BOI","i_lat":-6.159876,"line":0,"distance":2334,"is_transit":false,"station_name":"Bojongindah","time":2,"i_long":106.737035,"transit":false},{"is_transit":false,"transit":false,"time":4,"i_lat":-6.162758,"line":5,"station_name":"Rawa Buaya","i_long":106.723064,"station_id":"RW","distance":1152}]]}