{"data":[[{"i_lat":-6.209188,"i_long":106.861737,"is_transit":false,"distance":0,"line":11,"transit":false,"station_id":"POK","station_name":"Pondok Jati","time":0},{"time":9,"distance":1236,"station_id":"JNG","i_long":106.86807400000001,"is_transit":true,"line":1,"i_lat":-6.215091,"transit":true,"station_name":"Jatinegara"},{"station_name":"Matraman","line":1,"time":2,"station_id":"MTR","distance":1377,"i_lat":-6.212485,"transit":false,"is_transit":false,"i_long":106.858896},{"time":2,"is_transit":false,"station_id":"MRI","distance":1275,"i_lat":-6.209883,"transit":false,"i_long":106.84912,"station_name":"Manggarai","line":2},{"i_long":106.822649,"station_name":"Sudirman","line":1,"station_id":"SUD","time":4,"transit":false,"distance":3186,"i_lat":-6.202263,"is_transit":false},{"station_id":"SUDB","i_long":106.819881,"line":1,"time":1,"station_name":"Sudirman Baru","is_transit":false,"i_lat":-6.201433,"transit":false,"distance":280},{"station_id":"KAT","i_lat":-6.20132,"distance":471,"line":1,"is_transit":false,"time":1,"transit":false,"station_name":"Karet","i_long":106.816351},{"line":1,"transit":false,"station_id":"THB","station_name":"Tanah Abang","time":5,"i_lat":-6.185545,"i_long":106.811091,"distance":2029,"is_transit":false},{"station_id":"DU","i_long":106.800832,"i_lat":-6.155215,"line":1,"distance":3632,"time":8,"station_name":"Duri","is_transit":true,"transit":true},{"i_lat":-6.162021,"line":5,"distance":1700,"i_long":106.788277,"station_id":"GRG","is_transit":false,"transit":false,"station_name":"Grogol","time":3},{"distance":2036,"station_id":"PSG","is_transit":false,"line":5,"i_lat":-6.161433,"time":2,"station_name":"Pesing","transit":false,"i_long":106.771379},{"line":5,"transit":false,"station_id":"TKO","is_transit":false,"time":2,"station_name":"Taman Kota","distance":1614,"i_lat":-6.1587309999999995,"i_long":106.756522},{"time":2,"i_lat":-6.159876,"station_name":"Bojongindah","i_long":106.737035,"is_transit":false,"line":5,"transit":false,"distance":2334,"station_id":"BOI"},{"distance":1152,"i_long":106.723064,"i_lat":-6.162758,"line":5,"station_name":"Rawa Buaya","transit":false,"is_transit":false,"station_id":"RW","time":4}],[{"is_transit":false,"i_lat":-6.209188,"station_name":"Pondok Jati","station_id":"POK","i_long":106.861737,"distance":0,"time":0,"line":11,"transit":false},{"time":2,"station_name":"Kramat","is_transit":false,"transit":false,"i_lat":-6.193792,"station_id":"KMT","line":11,"distance":1829,"i_long":106.855437},{"is_transit":false,"station_name":"Gang Sentiong","transit":false,"i_lat":-6.185975,"line":11,"i_long":106.850107,"station_id":"GST","distance":973,"time":1},{"transit":false,"i_lat":-6.174784,"time":8,"station_id":"PSE","distance":1567,"i_long":106.84368,"is_transit":false,"line":11,"station_name":"Pasar Senen"},{"line":11,"distance":1436,"i_long":106.839204,"transit":false,"station_id":"KMO","is_transit":false,"i_lat":-6.161728,"station_name":"Kemayoran","time":4},{"transit":false,"line":11,"is_transit":false,"distance":1901,"station_id":"RJW","i_lat":-6.14505,"station_name":"Rajawali","time":5,"i_long":106.836569},{"is_transit":true,"distance":1444,"station_id":"KPB","station_name":"Kampung Bandan","i_long":106.826365,"line":4,"time":3,"i_lat":-6.132549,"transit":true},{"line":1,"distance":4102,"i_lat":-6.144674,"is_transit":false,"station_id":"AK","transit":false,"station_name":"Angke","time":9,"i_long":106.79867},{"i_lat":-6.155215,"transit":true,"station_name":"Duri","i_long":106.800832,"time":4,"distance":1230,"is_transit":true,"station_id":"DU","line":1},{"station_id":"GRG","i_lat":-6.162021,"station_name":"Grogol","transit":false,"is_transit":false,"distance":1700,"time":3,"i_long":106.788277,"line":5},{"station_id":"PSG","time":2,"line":5,"transit":false,"station_name":"Pesing","distance":2036,"i_long":106.771379,"is_transit":false,"i_lat":-6.161433},{"i_lat":-6.1587309999999995,"station_id":"TKO","station_name":"Taman Kota","is_transit":false,"line":5,"transit":false,"distance":1614,"time":2,"i_long":106.756522},{"transit":false,"station_name":"Bojongindah","distance":2334,"i_lat":-6.159876,"i_long":106.737035,"is_transit":false,"time":2,"line":5,"station_id":"BOI"},{"line":5,"distance":1152,"station_name":"Rawa Buaya","station_id":"RW","time":4,"is_transit":false,"i_lat":-6.162758,"transit":false,"i_long":106.723064}],[{"i_lat":-6.209188,"station_name":"Pondok Jati","time":0,"station_id":"POK","i_long":106.861737,"line":11,"distance":0,"is_transit":false,"transit":false},{"i_long":106.86807400000001,"station_id":"JNG","line":1,"i_lat":-6.215091,"station_name":"Jatinegara","transit":true,"is_transit":true,"time":9,"distance":1236},{"station_id":"MTR","distance":1377,"line":1,"i_lat":-6.212485,"transit":false,"i_long":106.858896,"station_name":"Matraman","time":2,"is_transit":false},{"distance":1275,"is_transit":true,"station_id":"MRI","i_long":106.84912,"transit":true,"station_name":"Manggarai","time":2,"line":2,"i_lat":-6.209883},{"station_id":"CKI","i_lat":-6.198556,"is_transit":false,"i_long":106.840169,"distance":1590,"transit":false,"station_name":"Cikini","time":4,"line":2},{"transit":false,"i_long":106.832183,"station_id":"GDD","i_lat":-6.186295,"time":3,"station_name":"Gondangdia","distance":1750,"line":2,"is_transit":false},{"transit":false,"station_name":"Juanda","station_id":"JUA","is_transit":false,"time":4,"distance":2015,"i_lat":-6.166716,"line":2,"i_long":106.828284},{"i_lat":-6.160725,"station_name":"Sawah Besar","is_transit":false,"time":2,"distance":1149,"i_long":106.827103,"line":2,"station_id":"SW","transit":false},{"is_transit":false,"time":2,"distance":906,"i_lat":-6.149769,"station_name":"Manggabesar","i_long":106.82482,"transit":false,"station_id":"MGB","line":2},{"station_name":"Jayakarta","station_id":"JAY","distance":1080,"line":2,"i_long":106.820901,"transit":false,"time":2,"is_transit":false,"i_lat":-6.141205},{"i_lat":-6.137569,"time":4,"station_id":"JAKK","transit":true,"i_long":106.812439,"line":2,"station_name":"Jakarta Kota","distance":1264,"is_transit":true},{"station_name":"Kampung Bandan","i_lat":-6.132549,"time":3,"is_transit":true,"station_id":"KPB","line":4,"transit":true,"distance":1364,"i_long":106.826365},{"is_transit":false,"station_id":"AK","station_name":"Angke","time":9,"i_long":106.79867,"i_lat":-6.144674,"line":1,"distance":4102,"transit":false},{"i_lat":-6.155215,"i_long":106.800832,"line":1,"transit":true,"station_name":"Duri","time":4,"is_transit":true,"distance":1230,"station_id":"DU"},{"time":3,"line":5,"distance":1700,"i_long":106.788277,"station_id":"GRG","i_lat":-6.162021,"is_transit":false,"transit":false,"station_name":"Grogol"},{"station_id":"PSG","station_name":"Pesing","is_transit":false,"time":2,"transit":false,"i_lat":-6.161433,"distance":2036,"i_long":106.771379,"line":5},{"line":5,"transit":false,"i_lat":-6.1587309999999995,"station_name":"Taman Kota","station_id":"TKO","distance":1614,"time":2,"is_transit":false,"i_long":106.756522},{"distance":2334,"i_lat":-6.159876,"transit":false,"is_transit":false,"station_id":"BOI","station_name":"Bojongindah","time":2,"i_long":106.737035,"line":5},{"station_id":"RW","distance":1152,"i_long":106.723064,"line":5,"time":4,"transit":false,"i_lat":-6.162758,"is_transit":false,"station_name":"Rawa Buaya"}],[{"distance":0,"i_long":106.861737,"station_id":"POK","time":0,"transit":false,"is_transit":false,"station_name":"Pondok Jati","i_lat":-6.209188,"line":11},{"time":2,"i_lat":-6.193792,"station_id":"KMT","i_long":106.855437,"is_transit":false,"line":11,"transit":false,"distance":1829,"station_name":"Kramat"},{"time":1,"line":11,"station_id":"GST","transit":false,"station_name":"Gang Sentiong","i_long":106.850107,"distance":973,"is_transit":false,"i_lat":-6.185975},{"station_name":"Pasar Senen","transit":false,"time":8,"station_id":"PSE","is_transit":false,"distance":1567,"i_lat":-6.174784,"i_long":106.84368,"line":11},{"station_id":"KMO","i_long":106.839204,"distance":1436,"is_transit":false,"transit":false,"station_name":"Kemayoran","i_lat":-6.161728,"time":4,"line":11},{"transit":false,"i_lat":-6.14505,"station_name":"Rajawali","is_transit":false,"line":11,"i_long":106.836569,"distance":1901,"station_id":"RJW","time":5},{"distance":1444,"station_id":"KPB","i_long":106.826365,"transit":true,"is_transit":true,"i_lat":-6.132549,"station_name":"Kampung Bandan","line":4,"time":3},{"is_transit":true,"line":2,"time":3,"station_name":"Jakarta Kota","i_lat":-6.137569,"distance":1364,"i_long":106.812439,"transit":true,"station_id":"JAKK"},{"station_id":"JAY","line":2,"station_name":"Jayakarta","transit":false,"i_long":106.820901,"distance":1264,"time":4,"i_lat":-6.141205,"is_transit":false},{"station_name":"Manggabesar","distance":1080,"time":2,"transit":false,"line":2,"i_lat":-6.149769,"is_transit":false,"station_id":"MGB","i_long":106.82482},{"station_name":"Sawah Besar","i_lat":-6.160725,"i_long":106.827103,"transit":false,"is_transit":false,"time":2,"distance":906,"station_id":"SW","line":2},{"is_transit":false,"station_name":"Juanda","time":2,"station_id":"JUA","distance":1149,"transit":false,"i_lat":-6.166716,"i_long":106.828284,"line":2},{"station_id":"GDD","time":4,"is_transit":false,"distance":2015,"line":2,"station_name":"Gondangdia","i_long":106.832183,"transit":false,"i_lat":-6.186295},{"i_long":106.840169,"station_id":"CKI","transit":false,"i_lat":-6.198556,"is_transit":false,"time":3,"station_name":"Cikini","line":2,"distance":1750},{"transit":true,"i_lat":-6.209883,"line":2,"i_long":106.84912,"is_transit":true,"station_name":"Manggarai","distance":1590,"time":4,"station_id":"MRI"},{"station_name":"Sudirman","line":1,"distance":3186,"is_transit":false,"station_id":"SUD","time":4,"transit":false,"i_long":106.822649,"i_lat":-6.202263},{"station_id":"SUDB","transit":false,"distance":280,"i_long":106.819881,"time":1,"i_lat":-6.201433,"is_transit":false,"line":1,"station_name":"Sudirman Baru"},{"station_id":"KAT","time":1,"is_transit":false,"i_long":106.816351,"transit":false,"distance":471,"station_name":"Karet","i_lat":-6.20132,"line":1},{"distance":2029,"i_lat":-6.185545,"line":1,"time":5,"i_long":106.811091,"station_name":"Tanah Abang","station_id":"THB","transit":false,"is_transit":false},{"transit":true,"i_lat":-6.155215,"distance":3632,"i_long":106.800832,"time":8,"is_transit":true,"station_id":"DU","station_name":"Duri","line":1},{"station_id":"GRG","i_long":106.788277,"line":5,"time":3,"distance":1700,"is_transit":false,"transit":false,"station_name":"Grogol","i_lat":-6.162021},{"line":5,"station_id":"PSG","is_transit":false,"station_name":"Pesing","time":2,"transit":false,"distance":2036,"i_lat":-6.161433,"i_long":106.771379},{"is_transit":false,"transit":false,"line":5,"time":2,"distance":1614,"i_long":106.756522,"station_id":"TKO","station_name":"Taman Kota","i_lat":-6.1587309999999995},{"i_long":106.737035,"transit":false,"time":2,"station_name":"Bojongindah","is_transit":false,"line":5,"station_id":"BOI","distance":2334,"i_lat":-6.159876},{"distance":1152,"i_long":106.723064,"station_name":"Rawa Buaya","time":4,"line":5,"transit":false,"i_lat":-6.162758,"is_transit":false,"station_id":"RW"}]]}