{"data":[[{"i_long":106.861737,"line":11,"time":0,"i_lat":-6.209188,"station_name":"Pondok Jati","station_id":"POK","transit":false,"is_transit":false,"distance":0},{"line":1,"station_name":"Jatinegara","time":9,"is_transit":true,"transit":true,"distance":1236,"i_lat":-6.215091,"station_id":"JNG","i_long":106.86807400000001},{"station_id":"MTR","time":2,"distance":1377,"line":1,"station_name":"Matraman","is_transit":false,"i_long":106.858896,"i_lat":-6.212485,"transit":false},{"time":2,"line":2,"station_id":"MRI","is_transit":false,"distance":1275,"station_name":"Manggarai","i_long":106.84912,"i_lat":-6.209883,"transit":false},{"time":4,"i_long":106.822649,"station_id":"SUD","station_name":"Sudirman","is_transit":false,"transit":false,"i_lat":-6.202263,"distance":3186,"line":1},{"distance":280,"station_id":"SUDB","i_long":106.819881,"transit":false,"time":1,"station_name":"Sudirman Baru","is_transit":false,"i_lat":-6.201433,"line":1},{"i_long":106.816351,"time":1,"distance":471,"is_transit":false,"station_id":"KAT","station_name":"Karet","transit":false,"i_lat":-6.20132,"line":1},{"line":1,"time":5,"distance":2029,"transit":false,"i_lat":-6.185545,"station_id":"THB","is_transit":false,"station_name":"Tanah Abang","i_long":106.811091},{"station_name":"Duri","i_long":106.800832,"transit":true,"time":8,"station_id":"DU","is_transit":true,"i_lat":-6.155215,"line":1,"distance":3632},{"i_lat":-6.162021,"is_transit":false,"station_id":"GGL","i_long":106.788277,"transit":false,"station_name":"Grogol","line":5,"distance":1700,"time":3},{"is_transit":false,"i_lat":-6.161433,"line":5,"i_long":106.771379,"transit":false,"station_name":"Pesing","time":2,"distance":2036,"station_id":"PSG"},{"is_transit":false,"time":2,"i_lat":-6.1587309999999995,"station_name":"Taman Kota","distance":1614,"line":5,"i_long":106.756522,"station_id":"TKO","transit":false}],[{"distance":0,"transit":false,"i_long":106.861737,"i_lat":-6.209188,"station_id":"POK","station_name":"Pondok Jati","is_transit":false,"line":11,"time":0},{"distance":1829,"line":11,"station_name":"Kramat","station_id":"KMT","transit":false,"is_transit":false,"i_long":106.855437,"time":2,"i_lat":-6.193792},{"i_lat":-6.185975,"distance":973,"transit":false,"line":11,"station_name":"Gang Sentiong","time":1,"station_id":"GST","is_transit":false,"i_long":106.850107},{"station_id":"PSE","time":8,"station_name":"Pasar Senen","line":11,"transit":false,"is_transit":false,"distance":1567,"i_lat":-6.174784,"i_long":106.84368},{"line":11,"transit":false,"i_lat":-6.161728,"distance":1436,"i_long":106.839204,"is_transit":false,"station_id":"KMO","station_name":"Kemayoran","time":4},{"i_long":106.836569,"is_transit":false,"line":11,"transit":false,"station_name":"Rajawali","time":5,"station_id":"RJW","i_lat":-6.14505,"distance":1901},{"line":4,"is_transit":true,"transit":true,"station_name":"Kampung Bandan","i_long":106.826365,"distance":1444,"station_id":"KPB","time":3,"i_lat":-6.132549},{"time":9,"station_id":"AK","station_name":"Angke","line":1,"is_transit":false,"transit":false,"i_long":106.79867,"distance":4102,"i_lat":-6.144674},{"transit":true,"time":4,"line":1,"station_id":"DU","station_name":"Duri","is_transit":true,"i_lat":-6.155215,"distance":1230,"i_long":106.800832},{"i_long":106.788277,"transit":false,"station_name":"Grogol","line":5,"time":3,"distance":1700,"is_transit":false,"i_lat":-6.162021,"station_id":"GGL"},{"time":2,"distance":2036,"station_id":"PSG","is_transit":false,"station_name":"Pesing","i_lat":-6.161433,"line":5,"transit":false,"i_long":106.771379},{"station_name":"Taman Kota","i_lat":-6.1587309999999995,"is_transit":false,"time":2,"station_id":"TKO","transit":false,"i_long":106.756522,"distance":1614,"line":5}],[{"is_transit":false,"transit":false,"line":11,"i_long":106.861737,"station_name":"Pondok Jati","i_lat":-6.209188,"distance":0,"time":0,"station_id":"POK"},{"time":9,"station_id":"JNG","i_long":106.86807400000001,"distance":1236,"transit":true,"line":1,"station_name":"Jatinegara","is_transit":true,"i_lat":-6.215091},{"station_name":"Matraman","time":2,"transit":false,"station_id":"MTR","distance":1377,"is_transit":false,"i_lat":-6.212485,"i_long":106.858896,"line":1},{"i_lat":-6.209883,"line":2,"station_id":"MRI","transit":true,"time":2,"i_long":106.84912,"station_name":"Manggarai","is_transit":true,"distance":1275},{"is_transit":false,"station_id":"CKI","line":2,"i_lat":-6.198556,"i_long":106.840169,"station_name":"Cikini","time":4,"transit":false,"distance":1590},{"transit":false,"station_id":"GDD","distance":1750,"time":3,"station_name":"Gondangdia","i_lat":-6.186295,"is_transit":false,"line":2,"i_long":106.832183},{"distance":2015,"i_lat":-6.166716,"station_id":"JUA","is_transit":false,"transit":false,"time":4,"station_name":"Juanda","line":2,"i_long":106.828284},{"i_lat":-6.160725,"line":2,"transit":false,"time":2,"station_name":"Sawah Besar","is_transit":false,"distance":1149,"i_long":106.827103,"station_id":"SW"},{"i_long":106.82482,"line":2,"station_id":"MGB","transit":false,"time":2,"is_transit":false,"distance":906,"i_lat":-6.149769,"station_name":"Manggabesar"},{"station_id":"JAY","distance":1080,"time":2,"i_lat":-6.141205,"station_name":"Jayakarta","is_transit":false,"line":2,"i_long":106.820901,"transit":false},{"transit":true,"time":4,"i_lat":-6.137569,"i_long":106.812439,"line":2,"station_id":"JAKK","is_transit":true,"distance":1264,"station_name":"Jakarta Kota"},{"line":4,"station_id":"KPB","time":3,"distance":1364,"transit":true,"i_lat":-6.132549,"i_long":106.826365,"station_name":"Kampung Bandan","is_transit":true},{"transit":false,"distance":4102,"i_lat":-6.144674,"i_long":106.79867,"is_transit":false,"station_id":"AK","station_name":"Angke","line":1,"time":9},{"i_long":106.800832,"time":4,"line":1,"station_name":"Duri","i_lat":-6.155215,"transit":true,"station_id":"DU","is_transit":true,"distance":1230},{"station_id":"GGL","station_name":"Grogol","i_lat":-6.162021,"is_transit":false,"i_long":106.788277,"time":3,"transit":false,"line":5,"distance":1700},{"i_long":106.771379,"distance":2036,"is_transit":false,"i_lat":-6.161433,"station_name":"Pesing","line":5,"time":2,"transit":false,"station_id":"PSG"},{"line":5,"i_lat":-6.1587309999999995,"transit":false,"station_name":"Taman Kota","is_transit":false,"station_id":"TKO","distance":1614,"i_long":106.756522,"time":2}],[{"time":0,"station_name":"Pondok Jati","line":11,"i_lat":-6.209188,"i_long":106.861737,"distance":0,"is_transit":false,"transit":false,"station_id":"POK"},{"station_id":"KMT","distance":1829,"i_lat":-6.193792,"is_transit":false,"transit":false,"i_long":106.855437,"line":11,"time":2,"station_name":"Kramat"},{"transit":false,"distance":973,"station_id":"GST","i_lat":-6.185975,"is_transit":false,"line":11,"i_long":106.850107,"time":1,"station_name":"Gang Sentiong"},{"distance":1567,"time":8,"is_transit":false,"line":11,"station_id":"PSE","station_name":"Pasar Senen","i_lat":-6.174784,"i_long":106.84368,"transit":false},{"transit":false,"is_transit":false,"distance":1436,"i_lat":-6.161728,"line":11,"time":4,"station_id":"KMO","station_name":"Kemayoran","i_long":106.839204},{"i_long":106.836569,"time":5,"i_lat":-6.14505,"station_id":"RJW","line":11,"transit":false,"distance":1901,"is_transit":false,"station_name":"Rajawali"},{"i_lat":-6.132549,"line":4,"transit":true,"distance":1444,"station_name":"Kampung Bandan","i_long":106.826365,"time":3,"station_id":"KPB","is_transit":true},{"distance":1364,"line":2,"time":3,"i_long":106.812439,"station_id":"JAKK","i_lat":-6.137569,"is_transit":true,"transit":true,"station_name":"Jakarta Kota"},{"transit":false,"time":4,"distance":1264,"i_long":106.820901,"station_id":"JAY","line":2,"i_lat":-6.141205,"station_name":"Jayakarta","is_transit":false},{"distance":1080,"line":2,"is_transit":false,"station_name":"Manggabesar","i_lat":-6.149769,"transit":false,"i_long":106.82482,"time":2,"station_id":"MGB"},{"time":2,"i_lat":-6.160725,"transit":false,"is_transit":false,"line":2,"station_name":"Sawah Besar","i_long":106.827103,"station_id":"SW","distance":906},{"i_long":106.828284,"i_lat":-6.166716,"is_transit":false,"transit":false,"station_id":"JUA","station_name":"Juanda","distance":1149,"line":2,"time":2},{"time":4,"station_id":"GDD","i_long":106.832183,"i_lat":-6.186295,"distance":2015,"line":2,"station_name":"Gondangdia","transit":false,"is_transit":false},{"time":3,"distance":1750,"transit":false,"station_id":"CKI","is_transit":false,"station_name":"Cikini","i_lat":-6.198556,"line":2,"i_long":106.840169},{"i_long":106.84912,"distance":1590,"station_name":"Manggarai","station_id":"MRI","transit":true,"i_lat":-6.209883,"line":2,"time":4,"is_transit":true},{"line":1,"i_lat":-6.202263,"i_long":106.822649,"transit":false,"time":4,"is_transit":false,"distance":3186,"station_name":"Sudirman","station_id":"SUD"},{"time":1,"i_lat":-6.201433,"line":1,"transit":false,"i_long":106.819881,"is_transit":false,"distance":280,"station_id":"SUDB","station_name":"Sudirman Baru"},{"i_long":106.816351,"transit":false,"i_lat":-6.20132,"time":1,"station_id":"KAT","is_transit":false,"distance":471,"station_name":"Karet","line":1},{"line":1,"distance":2029,"time":5,"is_transit":false,"station_id":"THB","i_lat":-6.185545,"transit":false,"station_name":"Tanah Abang","i_long":106.811091},{"distance":3632,"line":1,"time":8,"is_transit":true,"transit":true,"i_long":106.800832,"station_id":"DU","station_name":"Duri","i_lat":-6.155215},{"i_long":106.788277,"station_name":"Grogol","distance":1700,"station_id":"GGL","i_lat":-6.162021,"line":5,"transit":false,"time":3,"is_transit":false},{"is_transit":false,"distance":2036,"i_lat":-6.161433,"transit":false,"station_id":"PSG","station_name":"Pesing","i_long":106.771379,"line":5,"time":2},{"transit":false,"time":2,"is_transit":false,"station_name":"Taman Kota","line":5,"station_id":"TKO","i_long":106.756522,"i_lat":-6.1587309999999995,"distance":1614}]]}