{"data":[[{"station_id":"POK","time":0,"i_lat":-6.209188,"i_long":106.861737,"line":11,"station_name":"Pondok Jati","is_transit":false,"distance":0,"transit":false},{"station_name":"Kramat","transit":false,"i_lat":-6.193792,"distance":1829,"is_transit":false,"time":2,"i_long":106.855437,"line":11,"station_id":"KMT"},{"i_lat":-6.185975,"distance":973,"i_long":106.850107,"line":11,"station_id":"GST","station_name":"Gang Sentiong","time":1,"is_transit":false,"transit":false},{"i_lat":-6.174784,"distance":1567,"station_name":"Pasar Senen","is_transit":false,"station_id":"PSE","i_long":106.84368,"line":11,"transit":false,"time":8},{"i_lat":-6.161728,"transit":false,"i_long":106.839204,"station_name":"Kemayoran","line":11,"is_transit":false,"station_id":"KMO","distance":1436,"time":4}],[{"i_lat":-6.209188,"i_long":106.861737,"distance":0,"station_id":"POK","transit":false,"station_name":"Pondok Jati","time":0,"is_transit":false,"line":11},{"station_id":"JNG","is_transit":true,"i_long":106.86807400000001,"i_lat":-6.215091,"station_name":"Jatinegara","line":0,"time":9,"distance":1236,"transit":true},{"distance":1377,"transit":false,"time":2,"line":1,"i_lat":-6.212485,"i_long":106.858896,"station_name":"Matraman","station_id":"MTR","is_transit":false},{"i_long":106.84912,"station_id":"MRI","station_name":"Manggarai","i_lat":-6.209883,"is_transit":true,"distance":1275,"time":2,"line":0,"transit":false},{"is_transit":false,"station_name":"Sudirman","i_lat":-6.202263,"station_id":"SUD","distance":3186,"i_long":106.822649,"line":1,"time":4,"transit":false},{"station_name":"Sudirman Baru","is_transit":false,"distance":280,"station_id":"SUDB","transit":false,"time":1,"i_lat":-6.201433,"line":1,"i_long":106.819881},{"transit":false,"station_id":"KAT","i_long":106.816351,"line":1,"is_transit":false,"time":1,"distance":471,"i_lat":-6.20132,"station_name":"Karet"},{"station_name":"Tanah Abang","distance":2029,"is_transit":true,"transit":false,"time":5,"i_long":106.811091,"station_id":"THB","i_lat":-6.185545,"line":1},{"time":8,"i_long":106.800832,"distance":3632,"transit":true,"is_transit":true,"station_name":"Duri","line":1,"i_lat":-6.155215,"station_id":"DU"},{"i_lat":-6.144674,"is_transit":false,"station_name":"Angke","time":4,"i_long":106.79867,"transit":false,"distance":1230,"line":0,"station_id":"AK"},{"transit":true,"time":9,"station_id":"KPB","line":0,"distance":4102,"station_name":"Kampung Bandan","is_transit":true,"i_long":106.826365,"i_lat":-6.132549},{"i_lat":-6.14505,"i_long":106.836569,"distance":1444,"time":3,"line":11,"station_name":"Rajawali","is_transit":false,"transit":false,"station_id":"RJW"},{"line":11,"station_name":"Kemayoran","i_lat":-6.161728,"distance":1901,"is_transit":false,"transit":false,"i_long":106.839204,"station_id":"KMO","time":5}],[{"line":11,"is_transit":false,"station_id":"POK","time":0,"distance":0,"station_name":"Pondok Jati","i_lat":-6.209188,"i_long":106.861737,"transit":false},{"line":0,"station_id":"JNG","transit":true,"i_lat":-6.215091,"distance":1236,"station_name":"Jatinegara","time":9,"i_long":106.86807400000001,"is_transit":true},{"line":1,"station_id":"MTR","i_lat":-6.212485,"distance":1377,"transit":false,"time":2,"is_transit":false,"station_name":"Matraman","i_long":106.858896},{"transit":true,"line":0,"station_name":"Manggarai","distance":1275,"is_transit":true,"i_long":106.84912,"time":2,"i_lat":-6.209883,"station_id":"MRI"},{"station_id":"CKI","station_name":"Cikini","distance":1590,"line":0,"is_transit":false,"transit":false,"i_long":106.840169,"i_lat":-6.198556,"time":4},{"transit":false,"i_lat":-6.186295,"line":2,"station_name":"Gondangdia","i_long":106.832183,"distance":1750,"time":3,"is_transit":false,"station_id":"GDD"},{"station_id":"JUA","transit":false,"is_transit":false,"i_lat":-6.166716,"i_long":106.828284,"line":2,"distance":2015,"station_name":"Juanda","time":4},{"station_name":"Sawah Besar","is_transit":false,"distance":1149,"time":2,"i_long":106.827103,"transit":false,"line":2,"station_id":"SW","i_lat":-6.160725},{"i_long":106.82482,"line":2,"i_lat":-6.149769,"distance":906,"is_transit":false,"station_name":"Manggabesar","station_id":"MGB","time":2,"transit":false},{"line":7,"i_long":106.820901,"station_name":"Jayakarta","distance":1080,"i_lat":-6.141205,"time":2,"transit":false,"is_transit":false,"station_id":"JAY"},{"i_long":106.812439,"station_id":"JAKK","transit":true,"distance":1264,"station_name":"Jakarta Kota","i_lat":-6.137569,"line":0,"time":4,"is_transit":true},{"is_transit":true,"transit":true,"station_name":"Kampung Bandan","time":3,"i_lat":-6.132549,"i_long":106.826365,"distance":1364,"station_id":"KPB","line":0},{"line":11,"time":3,"is_transit":false,"station_name":"Rajawali","i_long":106.836569,"i_lat":-6.14505,"transit":false,"distance":1444,"station_id":"RJW"},{"line":11,"station_id":"KMO","is_transit":false,"station_name":"Kemayoran","i_lat":-6.161728,"distance":1901,"time":5,"i_long":106.839204,"transit":false}]]}