{"data":[[{"time":0,"station_id":"POK","line":11,"is_transit":false,"transit":false,"station_name":"Pondok Jati","distance":0,"i_lat":-6.209188,"i_long":106.861737},{"station_id":"JNG","is_transit":true,"distance":1236,"station_name":"Jatinegara","line":1,"transit":true,"i_long":106.86807400000001,"i_lat":-6.215091,"time":9},{"transit":false,"is_transit":false,"distance":1377,"time":2,"station_name":"Matraman","line":1,"station_id":"MTR","i_long":106.858896,"i_lat":-6.212485},{"i_long":106.84912,"station_name":"Manggarai","transit":false,"line":2,"time":2,"station_id":"MRI","distance":1275,"i_lat":-6.209883,"is_transit":false},{"i_lat":-6.202263,"is_transit":false,"i_long":106.822649,"station_name":"Sudirman","distance":3186,"transit":false,"station_id":"SUD","time":4,"line":1},{"station_id":"SUDB","i_lat":-6.201433,"distance":280,"line":1,"time":1,"is_transit":false,"station_name":"Sudirman Baru","i_long":106.819881,"transit":false},{"i_lat":-6.20132,"station_name":"Karet","station_id":"KAT","i_long":106.816351,"transit":false,"time":1,"is_transit":false,"line":1,"distance":471},{"distance":2029,"line":1,"station_id":"THB","i_lat":-6.185545,"transit":true,"is_transit":true,"i_long":106.811091,"station_name":"Tanah Abang","time":5},{"station_name":"Palmerah","station_id":"PLM","distance":3191,"transit":false,"i_long":106.79689,"line":6,"i_lat":-6.207404,"is_transit":false,"time":6},{"station_id":"KBY","i_long":106.780334,"is_transit":false,"line":6,"time":7,"distance":3737,"transit":false,"i_lat":-6.237242,"station_name":"Kebayoran"},{"is_transit":false,"distance":6218,"station_name":"Pondokranji","i_long":106.74273,"i_lat":-6.276362,"line":6,"time":8,"transit":false,"station_id":"PDJ"},{"is_transit":false,"station_name":"Jurangmangu","i_lat":-6.288927,"station_id":"JMU","time":3,"i_long":106.728916,"line":6,"distance":2179,"transit":false},{"i_lat":-6.296963,"time":4,"distance":1994,"is_transit":false,"station_name":"Sudimara","transit":false,"station_id":"SDM","i_long":106.712277,"line":6},{"transit":false,"i_long":106.675475,"station_id":"RU","line":6,"time":6,"is_transit":false,"distance":4566,"station_name":"Rawa Buntu","i_lat":-6.314823},{"is_transit":false,"distance":2413,"station_id":"SRP","i_lat":-6.319871,"i_long":106.66566,"time":4,"transit":false,"station_name":"Serpong","line":6},{"i_lat":-6.32484,"distance":1784,"line":3,"station_id":"CSK","transit":false,"time":4,"station_name":"Cisauk","is_transit":false,"i_long":106.640411},{"i_lat":-6.329547,"station_name":"Cicayur","distance":2519,"line":3,"i_long":106.617853,"transit":false,"is_transit":false,"station_id":"CC","time":4}],[{"distance":0,"is_transit":false,"i_long":106.861737,"time":0,"line":11,"station_id":"POK","station_name":"Pondok Jati","i_lat":-6.209188,"transit":false},{"transit":false,"time":2,"distance":1829,"i_long":106.855437,"station_name":"Kramat","i_lat":-6.193792,"station_id":"KMT","is_transit":false,"line":11},{"station_id":"GST","i_long":106.850107,"line":11,"station_name":"Gang Sentiong","i_lat":-6.185975,"time":1,"transit":false,"is_transit":false,"distance":973},{"i_lat":-6.174784,"station_name":"Pasar Senen","time":8,"line":11,"transit":false,"distance":1567,"station_id":"PSE","is_transit":false,"i_long":106.84368},{"transit":false,"station_id":"KMO","line":11,"is_transit":false,"i_long":106.839204,"distance":1436,"time":4,"station_name":"Kemayoran","i_lat":-6.161728},{"time":5,"station_id":"RJW","transit":false,"distance":1901,"station_name":"Rajawali","i_long":106.836569,"line":11,"is_transit":false,"i_lat":-6.14505},{"station_id":"KPB","line":4,"station_name":"Kampung Bandan","time":3,"i_long":106.826365,"distance":1444,"i_lat":-6.132549,"transit":true,"is_transit":true},{"time":9,"station_id":"AK","i_long":106.79867,"i_lat":-6.144674,"line":1,"transit":false,"distance":4102,"station_name":"Angke","is_transit":false},{"distance":1230,"i_long":106.800832,"station_id":"DU","is_transit":false,"station_name":"Duri","time":4,"transit":false,"line":1,"i_lat":-6.155215},{"line":1,"station_name":"Tanah Abang","time":8,"i_lat":-6.185545,"is_transit":true,"transit":true,"distance":3632,"station_id":"THB","i_long":106.811091},{"is_transit":false,"station_id":"PLM","transit":false,"distance":3191,"station_name":"Palmerah","i_lat":-6.207404,"line":6,"time":6,"i_long":106.79689},{"distance":3737,"i_lat":-6.237242,"transit":false,"is_transit":false,"time":7,"station_name":"Kebayoran","i_long":106.780334,"line":6,"station_id":"KBY"},{"station_id":"PDJ","distance":6218,"i_lat":-6.276362,"is_transit":false,"i_long":106.74273,"time":8,"line":6,"station_name":"Pondokranji","transit":false},{"distance":2179,"station_id":"JMU","time":3,"transit":false,"station_name":"Jurangmangu","i_lat":-6.288927,"i_long":106.728916,"is_transit":false,"line":6},{"transit":false,"is_transit":false,"i_long":106.712277,"station_id":"SDM","i_lat":-6.296963,"distance":1994,"line":6,"station_name":"Sudimara","time":4},{"station_name":"Rawa Buntu","i_long":106.675475,"station_id":"RU","is_transit":false,"i_lat":-6.314823,"line":6,"transit":false,"time":6,"distance":4566},{"line":6,"is_transit":false,"time":4,"transit":false,"i_long":106.66566,"distance":2413,"i_lat":-6.319871,"station_id":"SRP","station_name":"Serpong"},{"i_lat":-6.32484,"time":4,"i_long":106.640411,"line":3,"distance":1784,"transit":false,"station_name":"Cisauk","is_transit":false,"station_id":"CSK"},{"is_transit":false,"time":4,"i_lat":-6.329547,"i_long":106.617853,"line":3,"station_name":"Cicayur","transit":false,"distance":2519,"station_id":"CC"}],[{"is_transit":false,"station_id":"POK","time":0,"station_name":"Pondok Jati","i_lat":-6.209188,"distance":0,"transit":false,"line":11,"i_long":106.861737},{"time":9,"distance":1236,"transit":true,"station_name":"Jatinegara","i_long":106.86807400000001,"line":1,"is_transit":true,"station_id":"JNG","i_lat":-6.215091},{"transit":false,"is_transit":false,"i_long":106.858896,"time":2,"distance":1377,"station_id":"MTR","i_lat":-6.212485,"line":1,"station_name":"Matraman"},{"transit":true,"is_transit":true,"i_long":106.84912,"line":2,"station_name":"Manggarai","station_id":"MRI","time":2,"distance":1275,"i_lat":-6.209883},{"station_id":"CKI","station_name":"Cikini","time":4,"i_long":106.840169,"transit":false,"i_lat":-6.198556,"distance":1590,"line":2,"is_transit":false},{"transit":false,"station_id":"GDD","i_long":106.832183,"station_name":"Gondangdia","i_lat":-6.186295,"distance":1750,"is_transit":false,"time":3,"line":2},{"line":2,"station_name":"Juanda","distance":2015,"i_long":106.828284,"is_transit":false,"transit":false,"time":4,"i_lat":-6.166716,"station_id":"JUA"},{"distance":1149,"line":2,"time":2,"is_transit":false,"i_lat":-6.160725,"i_long":106.827103,"station_id":"SW","station_name":"Sawah Besar","transit":false},{"i_long":106.82482,"distance":906,"transit":false,"station_name":"Manggabesar","station_id":"MGB","is_transit":false,"line":2,"i_lat":-6.149769,"time":2},{"i_long":106.820901,"is_transit":false,"line":2,"transit":false,"station_name":"Jayakarta","time":2,"i_lat":-6.141205,"distance":1080,"station_id":"JAY"},{"distance":1264,"transit":true,"time":4,"is_transit":true,"station_id":"JAKK","station_name":"Jakarta Kota","line":2,"i_long":106.812439,"i_lat":-6.137569},{"station_name":"Kampung Bandan","time":3,"transit":true,"station_id":"KPB","line":4,"is_transit":true,"distance":1364,"i_long":106.826365,"i_lat":-6.132549},{"station_name":"Angke","i_lat":-6.144674,"line":1,"station_id":"AK","i_long":106.79867,"transit":false,"distance":4102,"time":9,"is_transit":false},{"station_name":"Duri","is_transit":false,"i_lat":-6.155215,"line":1,"time":4,"transit":false,"station_id":"DU","i_long":106.800832,"distance":1230},{"transit":true,"station_id":"THB","line":1,"i_lat":-6.185545,"time":8,"station_name":"Tanah Abang","i_long":106.811091,"is_transit":true,"distance":3632},{"transit":false,"distance":3191,"time":6,"station_id":"PLM","is_transit":false,"station_name":"Palmerah","i_lat":-6.207404,"line":6,"i_long":106.79689},{"line":6,"time":7,"transit":false,"station_id":"KBY","distance":3737,"station_name":"Kebayoran","i_lat":-6.237242,"i_long":106.780334,"is_transit":false},{"i_lat":-6.276362,"line":6,"station_id":"PDJ","time":8,"station_name":"Pondokranji","is_transit":false,"distance":6218,"transit":false,"i_long":106.74273},{"station_id":"JMU","station_name":"Jurangmangu","i_lat":-6.288927,"time":3,"i_long":106.728916,"is_transit":false,"distance":2179,"transit":false,"line":6},{"distance":1994,"station_name":"Sudimara","time":4,"is_transit":false,"i_lat":-6.296963,"i_long":106.712277,"transit":false,"line":6,"station_id":"SDM"},{"station_id":"RU","line":6,"is_transit":false,"transit":false,"i_long":106.675475,"time":6,"i_lat":-6.314823,"distance":4566,"station_name":"Rawa Buntu"},{"distance":2413,"i_long":106.66566,"line":6,"transit":false,"time":4,"station_name":"Serpong","is_transit":false,"i_lat":-6.319871,"station_id":"SRP"},{"time":4,"i_lat":-6.32484,"transit":false,"is_transit":false,"distance":1784,"station_id":"CSK","line":3,"i_long":106.640411,"station_name":"Cisauk"},{"is_transit":false,"transit":false,"i_long":106.617853,"station_name":"Cicayur","station_id":"CC","time":4,"distance":2519,"i_lat":-6.329547,"line":3}],[{"line":11,"is_transit":false,"station_name":"Pondok Jati","i_long":106.861737,"transit":false,"station_id":"POK","i_lat":-6.209188,"distance":0,"time":0},{"distance":1829,"i_lat":-6.193792,"i_long":106.855437,"is_transit":false,"station_name":"Kramat","transit":false,"time":2,"line":11,"station_id":"KMT"},{"line":11,"i_long":106.850107,"station_name":"Gang Sentiong","i_lat":-6.185975,"transit":false,"time":1,"is_transit":false,"distance":973,"station_id":"GST"},{"time":8,"is_transit":false,"station_name":"Pasar Senen","i_lat":-6.174784,"distance":1567,"station_id":"PSE","transit":false,"i_long":106.84368,"line":11},{"distance":1436,"i_lat":-6.161728,"is_transit":false,"station_id":"KMO","i_long":106.839204,"line":11,"time":4,"transit":false,"station_name":"Kemayoran"},{"distance":1901,"station_name":"Rajawali","transit":false,"time":5,"is_transit":false,"i_lat":-6.14505,"i_long":106.836569,"station_id":"RJW","line":11},{"is_transit":true,"time":3,"i_long":106.826365,"distance":1444,"line":4,"station_id":"KPB","i_lat":-6.132549,"transit":true,"station_name":"Kampung Bandan"},{"station_name":"Jakarta Kota","station_id":"JAKK","distance":1364,"i_long":106.812439,"time":3,"is_transit":true,"line":2,"transit":true,"i_lat":-6.137569},{"transit":false,"is_transit":false,"station_name":"Jayakarta","line":2,"station_id":"JAY","time":4,"i_lat":-6.141205,"distance":1264,"i_long":106.820901},{"transit":false,"i_lat":-6.149769,"time":2,"is_transit":false,"distance":1080,"i_long":106.82482,"line":2,"station_name":"Manggabesar","station_id":"MGB"},{"transit":false,"station_id":"SW","is_transit":false,"i_lat":-6.160725,"time":2,"station_name":"Sawah Besar","line":2,"i_long":106.827103,"distance":906},{"transit":false,"station_id":"JUA","time":2,"station_name":"Juanda","i_lat":-6.166716,"is_transit":false,"distance":1149,"i_long":106.828284,"line":2},{"transit":false,"i_lat":-6.186295,"is_transit":false,"station_name":"Gondangdia","time":4,"line":2,"station_id":"GDD","i_long":106.832183,"distance":2015},{"time":3,"i_long":106.840169,"is_transit":false,"distance":1750,"station_name":"Cikini","line":2,"transit":false,"station_id":"CKI","i_lat":-6.198556},{"i_long":106.84912,"time":4,"station_name":"Manggarai","line":2,"distance":1590,"station_id":"MRI","is_transit":true,"transit":true,"i_lat":-6.209883},{"time":4,"line":1,"transit":false,"i_lat":-6.202263,"i_long":106.822649,"station_id":"SUD","is_transit":false,"station_name":"Sudirman","distance":3186},{"station_id":"SUDB","i_lat":-6.201433,"distance":280,"is_transit":false,"i_long":106.819881,"line":1,"time":1,"transit":false,"station_name":"Sudirman Baru"},{"line":1,"i_long":106.816351,"is_transit":false,"i_lat":-6.20132,"station_name":"Karet","time":1,"distance":471,"transit":false,"station_id":"KAT"},{"station_id":"THB","is_transit":true,"distance":2029,"line":1,"i_long":106.811091,"time":5,"station_name":"Tanah Abang","transit":true,"i_lat":-6.185545},{"time":6,"is_transit":false,"distance":3191,"i_long":106.79689,"transit":false,"line":6,"station_name":"Palmerah","station_id":"PLM","i_lat":-6.207404},{"i_lat":-6.237242,"i_long":106.780334,"line":6,"station_name":"Kebayoran","time":7,"distance":3737,"transit":false,"station_id":"KBY","is_transit":false},{"i_long":106.74273,"distance":6218,"station_id":"PDJ","station_name":"Pondokranji","time":8,"i_lat":-6.276362,"line":6,"is_transit":false,"transit":false},{"time":3,"is_transit":false,"line":6,"station_id":"JMU","station_name":"Jurangmangu","i_lat":-6.288927,"distance":2179,"transit":false,"i_long":106.728916},{"is_transit":false,"station_id":"SDM","station_name":"Sudimara","i_long":106.712277,"time":4,"transit":false,"line":6,"distance":1994,"i_lat":-6.296963},{"line":6,"time":6,"transit":false,"station_id":"RU","i_long":106.675475,"station_name":"Rawa Buntu","is_transit":false,"i_lat":-6.314823,"distance":4566},{"distance":2413,"station_id":"SRP","line":6,"is_transit":false,"i_lat":-6.319871,"i_long":106.66566,"time":4,"station_name":"Serpong","transit":false},{"i_long":106.640411,"time":4,"distance":1784,"station_id":"CSK","line":3,"is_transit":false,"station_name":"Cisauk","transit":false,"i_lat":-6.32484},{"is_transit":false,"time":4,"i_lat":-6.329547,"distance":2519,"transit":false,"station_id":"CC","station_name":"Cicayur","i_long":106.617853,"line":3}]]}