{"data":[[{"line":11,"i_long":106.861737,"distance":0,"station_name":"Pondok Jati","is_transit":false,"transit":false,"time":0,"i_lat":-6.209188,"station_id":"POK"},{"station_name":"Jatinegara","transit":true,"distance":1236,"time":9,"i_lat":-6.215091,"is_transit":true,"i_long":106.86807400000001,"line":0,"station_id":"JNG"},{"i_long":106.899548,"station_name":"Klender","time":3,"station_id":"KLD","transit":false,"is_transit":false,"i_lat":-6.2135,"distance":3395,"line":1},{"distance":3100,"i_lat":-6.215568,"line":0,"is_transit":false,"station_name":"Buaran","time":2,"transit":false,"i_long":106.922662,"station_id":"BUA"},{"station_id":"KLDB","is_transit":false,"i_long":106.939679,"i_lat":-6.217455,"time":1,"transit":false,"distance":1305,"station_name":"Klenderbaru","line":1},{"transit":false,"station_id":"CUK","line":0,"i_long":106.951283,"i_lat":-6.219053,"station_name":"Cakung","time":8,"distance":1385,"is_transit":false}],[{"line":11,"station_name":"Pondok Jati","is_transit":false,"time":0,"distance":0,"transit":false,"i_long":106.861737,"i_lat":-6.209188,"station_id":"POK"},{"station_name":"Kramat","is_transit":false,"time":2,"transit":false,"line":11,"i_lat":-6.193792,"i_long":106.855437,"station_id":"KMT","distance":1829},{"transit":false,"station_id":"GST","distance":973,"time":1,"line":11,"is_transit":false,"i_lat":-6.185975,"i_long":106.850107,"station_name":"Gang Sentiong"},{"station_id":"PSE","time":8,"station_name":"Pasar Senen","is_transit":false,"distance":1567,"i_lat":-6.174784,"transit":false,"i_long":106.84368,"line":11},{"time":4,"distance":1436,"i_lat":-6.161728,"station_name":"Kemayoran","is_transit":false,"station_id":"KMO","transit":false,"line":11,"i_long":106.839204},{"line":11,"station_id":"RJW","time":5,"transit":false,"station_name":"Rajawali","distance":1901,"i_lat":-6.14505,"is_transit":false,"i_long":106.836569},{"line":0,"station_name":"Kampung Bandan","time":3,"station_id":"KPB","is_transit":true,"transit":true,"distance":1444,"i_lat":-6.132549,"i_long":106.826365},{"time":9,"station_name":"Angke","station_id":"AK","line":0,"transit":false,"i_lat":-6.144674,"is_transit":false,"distance":4102,"i_long":106.79867},{"is_transit":true,"time":4,"i_lat":-6.155215,"i_long":106.800832,"distance":1230,"station_name":"Duri","transit":true,"line":1,"station_id":"DU"},{"line":1,"time":8,"station_name":"Tanah Abang","is_transit":true,"i_lat":-6.185545,"i_long":106.811091,"distance":3632,"station_id":"THB","transit":false},{"distance":2029,"is_transit":false,"time":5,"station_name":"Karet","transit":false,"i_long":106.816351,"station_id":"KAT","i_lat":-6.20132,"line":1},{"is_transit":false,"transit":false,"line":1,"i_long":106.819881,"i_lat":-6.201433,"station_id":"SUDB","distance":471,"station_name":"Sudirman Baru","time":1},{"station_id":"SUD","station_name":"Sudirman","time":1,"is_transit":false,"i_lat":-6.202263,"i_long":106.822649,"distance":280,"transit":false,"line":1},{"station_id":"MRI","transit":false,"i_lat":-6.209883,"distance":3186,"station_name":"Manggarai","i_long":106.84912,"is_transit":true,"time":4,"line":0},{"station_name":"Matraman","is_transit":false,"distance":1275,"transit":false,"i_lat":-6.212485,"station_id":"MTR","i_long":106.858896,"line":1,"time":2},{"transit":false,"i_long":106.86807400000001,"i_lat":-6.215091,"station_id":"JNG","time":8,"is_transit":true,"distance":1377,"station_name":"Jatinegara","line":0},{"station_name":"Klender","i_lat":-6.2135,"distance":3395,"i_long":106.899548,"time":3,"is_transit":false,"transit":false,"station_id":"KLD","line":1},{"transit":false,"station_name":"Buaran","time":2,"i_lat":-6.215568,"line":0,"i_long":106.922662,"is_transit":false,"station_id":"BUA","distance":3100},{"time":1,"distance":1305,"line":1,"station_id":"KLDB","i_long":106.939679,"transit":false,"i_lat":-6.217455,"station_name":"Klenderbaru","is_transit":false},{"time":8,"station_name":"Cakung","i_lat":-6.219053,"is_transit":false,"station_id":"CUK","transit":false,"distance":1385,"i_long":106.951283,"line":0}],[{"is_transit":false,"transit":false,"station_name":"Pondok Jati","i_long":106.861737,"distance":0,"time":0,"i_lat":-6.209188,"station_id":"POK","line":11},{"time":2,"is_transit":false,"transit":false,"i_long":106.855437,"station_name":"Kramat","line":11,"i_lat":-6.193792,"distance":1829,"station_id":"KMT"},{"i_lat":-6.185975,"line":11,"is_transit":false,"station_name":"Gang Sentiong","time":1,"distance":973,"i_long":106.850107,"transit":false,"station_id":"GST"},{"time":8,"line":11,"is_transit":false,"station_name":"Pasar Senen","station_id":"PSE","i_lat":-6.174784,"distance":1567,"transit":false,"i_long":106.84368},{"i_long":106.839204,"distance":1436,"transit":false,"line":11,"station_name":"Kemayoran","is_transit":false,"station_id":"KMO","i_lat":-6.161728,"time":4},{"i_lat":-6.14505,"is_transit":false,"station_name":"Rajawali","line":11,"transit":false,"i_long":106.836569,"station_id":"RJW","distance":1901,"time":5},{"i_long":106.826365,"i_lat":-6.132549,"station_name":"Kampung Bandan","station_id":"KPB","time":3,"distance":1444,"line":0,"transit":true,"is_transit":true},{"station_id":"JAKK","time":3,"line":0,"distance":1364,"station_name":"Jakarta Kota","i_long":106.812439,"transit":true,"i_lat":-6.137569,"is_transit":true},{"i_lat":-6.141205,"line":7,"transit":false,"distance":1264,"is_transit":false,"time":4,"i_long":106.820901,"station_id":"JAY","station_name":"Jayakarta"},{"i_lat":-6.149769,"distance":1080,"station_name":"Manggabesar","i_long":106.82482,"line":2,"station_id":"MGB","time":2,"is_transit":false,"transit":false},{"transit":false,"i_lat":-6.160725,"i_long":106.827103,"line":2,"distance":906,"station_name":"Sawah Besar","station_id":"SW","is_transit":false,"time":2},{"station_name":"Juanda","i_lat":-6.166716,"transit":false,"time":2,"distance":1149,"line":2,"station_id":"JUA","is_transit":false,"i_long":106.828284},{"line":2,"distance":2015,"is_transit":false,"station_name":"Gondangdia","i_lat":-6.186295,"station_id":"GDD","time":4,"transit":false,"i_long":106.832183},{"i_lat":-6.198556,"is_transit":false,"line":0,"station_name":"Cikini","i_long":106.840169,"distance":1750,"time":3,"station_id":"CKI","transit":false},{"time":4,"i_lat":-6.209883,"line":0,"station_name":"Manggarai","i_long":106.84912,"transit":true,"is_transit":true,"station_id":"MRI","distance":1590},{"is_transit":false,"time":2,"i_long":106.858896,"distance":1275,"line":1,"station_id":"MTR","transit":false,"station_name":"Matraman","i_lat":-6.212485},{"time":8,"station_name":"Jatinegara","station_id":"JNG","is_transit":true,"distance":1377,"transit":false,"i_lat":-6.215091,"i_long":106.86807400000001,"line":0},{"transit":false,"time":3,"station_name":"Klender","line":1,"i_lat":-6.2135,"station_id":"KLD","is_transit":false,"distance":3395,"i_long":106.899548},{"distance":3100,"is_transit":false,"i_lat":-6.215568,"station_name":"Buaran","i_long":106.922662,"time":2,"station_id":"BUA","line":0,"transit":false},{"station_name":"Klenderbaru","is_transit":false,"time":1,"i_lat":-6.217455,"line":1,"distance":1305,"i_long":106.939679,"station_id":"KLDB","transit":false},{"station_name":"Cakung","time":8,"distance":1385,"transit":false,"i_long":106.951283,"i_lat":-6.219053,"station_id":"CUK","is_transit":false,"line":0}]]}