{"data":[[{"transit":false,"is_transit":false,"i_long":106.861737,"station_name":"Pondok Jati","i_lat":-6.209188,"line":11,"station_id":"POK","distance":0,"time":0},{"station_name":"Jatinegara","distance":1236,"station_id":"JNG","line":0,"is_transit":true,"transit":true,"i_lat":-6.215091,"i_long":106.86807400000001,"time":9},{"transit":false,"station_id":"KLD","distance":3395,"is_transit":false,"i_lat":-6.2135,"line":1,"station_name":"Klender","i_long":106.899548,"time":3},{"line":0,"station_id":"BUA","transit":false,"station_name":"Buaran","i_long":106.922662,"is_transit":false,"time":2,"distance":3100,"i_lat":-6.215568},{"line":1,"is_transit":false,"time":1,"station_id":"KLDB","i_long":106.939679,"transit":false,"i_lat":-6.217455,"distance":1305,"station_name":"Klenderbaru"},{"i_lat":-6.219053,"i_long":106.951283,"time":8,"station_name":"Cakung","is_transit":false,"station_id":"CUK","distance":1385,"line":0,"transit":false},{"i_lat":-6.224515,"is_transit":false,"transit":false,"i_long":106.977657,"station_id":"KRI","line":1,"distance":3097,"time":3,"station_name":"Kranji"},{"distance":2520,"i_long":106.997013,"transit":false,"is_transit":false,"i_lat":-6.236616,"line":0,"station_id":"BKS","station_name":"Bekasi","time":4},{"time":2,"i_lat":-6.248029,"line":0,"station_name":"Bekasi Timur","station_id":"BKST","distance":2368,"i_long":107.016735,"is_transit":false,"transit":false},{"i_lat":-6.258864,"station_id":"TB","distance":4460,"time":7,"is_transit":false,"transit":false,"station_name":"Tambun","i_long":107.055722,"line":1},{"station_name":"Cibitung","i_lat":-6.261877,"distance":3420,"station_id":"CIT","i_long":107.083084,"transit":false,"line":0,"is_transit":false,"time":3}],[{"station_id":"POK","i_long":106.861737,"station_name":"Pondok Jati","distance":0,"time":0,"transit":false,"i_lat":-6.209188,"line":11,"is_transit":false},{"i_long":106.855437,"transit":false,"distance":1829,"time":2,"station_id":"KMT","station_name":"Kramat","i_lat":-6.193792,"line":11,"is_transit":false},{"i_long":106.850107,"distance":973,"transit":false,"time":1,"station_id":"GST","is_transit":false,"i_lat":-6.185975,"line":11,"station_name":"Gang Sentiong"},{"distance":1567,"line":11,"time":8,"transit":false,"i_lat":-6.174784,"is_transit":false,"station_name":"Pasar Senen","station_id":"PSE","i_long":106.84368},{"distance":1436,"time":4,"station_id":"KMO","i_long":106.839204,"transit":false,"station_name":"Kemayoran","i_lat":-6.161728,"is_transit":false,"line":11},{"i_lat":-6.14505,"transit":false,"is_transit":false,"distance":1901,"i_long":106.836569,"time":5,"station_id":"RJW","station_name":"Rajawali","line":11},{"i_lat":-6.132549,"i_long":106.826365,"line":0,"station_name":"Kampung Bandan","time":3,"station_id":"KPB","transit":true,"distance":1444,"is_transit":true},{"i_lat":-6.144674,"line":0,"i_long":106.79867,"time":9,"transit":false,"station_id":"AK","distance":4102,"station_name":"Angke","is_transit":false},{"station_name":"Duri","distance":1230,"line":1,"is_transit":true,"time":4,"transit":true,"i_lat":-6.155215,"i_long":106.800832,"station_id":"DU"},{"station_id":"THB","transit":false,"time":8,"station_name":"Tanah Abang","distance":3632,"i_lat":-6.185545,"line":1,"is_transit":true,"i_long":106.811091},{"transit":false,"is_transit":false,"time":5,"station_id":"KAT","station_name":"Karet","distance":2029,"i_long":106.816351,"i_lat":-6.20132,"line":1},{"time":1,"station_name":"Sudirman Baru","i_long":106.819881,"transit":false,"station_id":"SUDB","distance":471,"is_transit":false,"line":1,"i_lat":-6.201433},{"station_name":"Sudirman","distance":280,"time":1,"line":1,"station_id":"SUD","i_lat":-6.202263,"i_long":106.822649,"transit":false,"is_transit":false},{"is_transit":true,"line":0,"station_name":"Manggarai","distance":3186,"station_id":"MRI","time":4,"transit":false,"i_long":106.84912,"i_lat":-6.209883},{"distance":1275,"i_lat":-6.212485,"time":2,"i_long":106.858896,"station_id":"MTR","is_transit":false,"station_name":"Matraman","transit":false,"line":1},{"time":8,"i_lat":-6.215091,"i_long":106.86807400000001,"is_transit":true,"station_name":"Jatinegara","transit":false,"distance":1377,"station_id":"JNG","line":0},{"distance":3395,"station_id":"KLD","i_lat":-6.2135,"transit":false,"station_name":"Klender","i_long":106.899548,"line":1,"is_transit":false,"time":3},{"i_lat":-6.215568,"station_id":"BUA","i_long":106.922662,"is_transit":false,"station_name":"Buaran","line":0,"time":2,"distance":3100,"transit":false},{"station_id":"KLDB","distance":1305,"line":1,"i_lat":-6.217455,"is_transit":false,"transit":false,"station_name":"Klenderbaru","i_long":106.939679,"time":1},{"time":8,"i_lat":-6.219053,"station_id":"CUK","line":0,"distance":1385,"is_transit":false,"i_long":106.951283,"transit":false,"station_name":"Cakung"},{"i_lat":-6.224515,"distance":3097,"time":3,"is_transit":false,"station_id":"KRI","transit":false,"station_name":"Kranji","i_long":106.977657,"line":1},{"i_long":106.997013,"station_id":"BKS","is_transit":false,"transit":false,"distance":2520,"station_name":"Bekasi","time":4,"i_lat":-6.236616,"line":0},{"time":2,"distance":2368,"is_transit":false,"line":0,"i_lat":-6.248029,"station_id":"BKST","transit":false,"i_long":107.016735,"station_name":"Bekasi Timur"},{"is_transit":false,"i_long":107.055722,"i_lat":-6.258864,"station_id":"TB","line":1,"transit":false,"station_name":"Tambun","distance":4460,"time":7},{"station_id":"CIT","is_transit":false,"station_name":"Cibitung","distance":3420,"time":3,"transit":false,"line":0,"i_lat":-6.261877,"i_long":107.083084}],[{"transit":false,"line":11,"i_lat":-6.209188,"is_transit":false,"time":0,"station_id":"POK","station_name":"Pondok Jati","distance":0,"i_long":106.861737},{"time":2,"line":11,"transit":false,"station_id":"KMT","station_name":"Kramat","i_long":106.855437,"distance":1829,"is_transit":false,"i_lat":-6.193792},{"station_id":"GST","is_transit":false,"station_name":"Gang Sentiong","i_long":106.850107,"time":1,"i_lat":-6.185975,"distance":973,"line":11,"transit":false},{"line":11,"station_id":"PSE","i_long":106.84368,"transit":false,"time":8,"i_lat":-6.174784,"distance":1567,"station_name":"Pasar Senen","is_transit":false},{"i_long":106.839204,"is_transit":false,"line":11,"station_id":"KMO","distance":1436,"station_name":"Kemayoran","time":4,"i_lat":-6.161728,"transit":false},{"is_transit":false,"i_long":106.836569,"time":5,"station_id":"RJW","station_name":"Rajawali","line":11,"i_lat":-6.14505,"transit":false,"distance":1901},{"line":0,"time":3,"transit":true,"station_name":"Kampung Bandan","station_id":"KPB","distance":1444,"i_lat":-6.132549,"is_transit":true,"i_long":106.826365},{"station_id":"JAKK","i_long":106.812439,"transit":true,"distance":1364,"line":0,"is_transit":true,"time":3,"i_lat":-6.137569,"station_name":"Jakarta Kota"},{"time":4,"transit":false,"i_lat":-6.141205,"distance":1264,"i_long":106.820901,"station_id":"JAY","line":7,"is_transit":false,"station_name":"Jayakarta"},{"transit":false,"time":2,"station_name":"Manggabesar","line":2,"station_id":"MGB","distance":1080,"i_long":106.82482,"i_lat":-6.149769,"is_transit":false},{"distance":906,"i_lat":-6.160725,"i_long":106.827103,"is_transit":false,"station_id":"SW","station_name":"Sawah Besar","time":2,"line":2,"transit":false},{"time":2,"station_id":"JUA","distance":1149,"line":2,"i_lat":-6.166716,"transit":false,"i_long":106.828284,"station_name":"Juanda","is_transit":false},{"station_name":"Gondangdia","line":2,"station_id":"GDD","i_long":106.832183,"distance":2015,"transit":false,"is_transit":false,"i_lat":-6.186295,"time":4},{"station_id":"CKI","distance":1750,"i_long":106.840169,"line":0,"time":3,"transit":false,"is_transit":false,"station_name":"Cikini","i_lat":-6.198556},{"i_long":106.84912,"distance":1590,"station_id":"MRI","i_lat":-6.209883,"line":0,"station_name":"Manggarai","is_transit":true,"time":4,"transit":true},{"line":1,"station_id":"MTR","is_transit":false,"transit":false,"station_name":"Matraman","distance":1275,"i_lat":-6.212485,"i_long":106.858896,"time":2},{"distance":1377,"i_lat":-6.215091,"time":8,"line":0,"i_long":106.86807400000001,"station_name":"Jatinegara","is_transit":true,"station_id":"JNG","transit":false},{"time":3,"is_transit":false,"i_lat":-6.2135,"station_id":"KLD","station_name":"Klender","transit":false,"line":1,"distance":3395,"i_long":106.899548},{"line":0,"i_long":106.922662,"distance":3100,"time":2,"transit":false,"station_name":"Buaran","i_lat":-6.215568,"is_transit":false,"station_id":"BUA"},{"station_id":"KLDB","distance":1305,"transit":false,"i_long":106.939679,"station_name":"Klenderbaru","line":1,"time":1,"i_lat":-6.217455,"is_transit":false},{"time":8,"transit":false,"station_name":"Cakung","i_lat":-6.219053,"i_long":106.951283,"line":0,"distance":1385,"station_id":"CUK","is_transit":false},{"transit":false,"is_transit":false,"station_name":"Kranji","time":3,"distance":3097,"line":1,"station_id":"KRI","i_long":106.977657,"i_lat":-6.224515},{"transit":false,"is_transit":false,"i_long":106.997013,"i_lat":-6.236616,"station_id":"BKS","distance":2520,"line":0,"station_name":"Bekasi","time":4},{"time":2,"station_name":"Bekasi Timur","i_lat":-6.248029,"station_id":"BKST","i_long":107.016735,"transit":false,"is_transit":false,"distance":2368,"line":0},{"i_lat":-6.258864,"distance":4460,"station_name":"Tambun","time":7,"station_id":"TB","transit":false,"i_long":107.055722,"line":1,"is_transit":false},{"station_name":"Cibitung","line":0,"i_lat":-6.261877,"i_long":107.083084,"station_id":"CIT","is_transit":false,"transit":false,"time":3,"distance":3420}]]}