{"data":[[{"transit":false,"time":0,"distance":0,"station_name":"Pondok Jati","i_lat":-6.209188,"line":11,"station_id":"POK","i_long":106.861737,"is_transit":false},{"station_id":"JNG","transit":true,"station_name":"Jatinegara","i_lat":-6.215091,"i_long":106.86807400000001,"time":9,"is_transit":true,"distance":1236,"line":1},{"is_transit":false,"line":1,"time":2,"i_lat":-6.212485,"i_long":106.858896,"station_id":"MTR","station_name":"Matraman","transit":false,"distance":1377},{"station_id":"MRI","transit":false,"station_name":"Manggarai","line":2,"is_transit":false,"distance":1275,"time":2,"i_long":106.84912,"i_lat":-6.209883},{"distance":3186,"transit":false,"time":4,"i_long":106.822649,"station_name":"Sudirman","line":1,"station_id":"SUD","is_transit":false,"i_lat":-6.202263},{"i_long":106.819881,"transit":false,"time":1,"line":1,"i_lat":-6.201433,"station_name":"Sudirman Baru","distance":280,"station_id":"SUDB","is_transit":false},{"i_lat":-6.20132,"station_name":"Karet","station_id":"KAT","time":1,"transit":false,"i_long":106.816351,"line":1,"distance":471,"is_transit":false},{"distance":2029,"transit":true,"i_lat":-6.185545,"station_name":"Tanah Abang","i_long":106.811091,"is_transit":true,"station_id":"THB","time":5,"line":1},{"i_long":106.79689,"is_transit":false,"station_name":"Palmerah","station_id":"PLM","transit":false,"distance":3191,"line":6,"time":6,"i_lat":-6.207404},{"station_name":"Kebayoran","distance":3737,"station_id":"KBY","line":6,"transit":false,"i_long":106.780334,"time":7,"i_lat":-6.237242,"is_transit":false}],[{"station_id":"POK","transit":false,"station_name":"Pondok Jati","distance":0,"i_long":106.861737,"is_transit":false,"time":0,"line":11,"i_lat":-6.209188},{"station_name":"Kramat","station_id":"KMT","i_lat":-6.193792,"is_transit":false,"distance":1829,"time":2,"transit":false,"i_long":106.855437,"line":11},{"i_long":106.850107,"time":1,"is_transit":false,"distance":973,"i_lat":-6.185975,"station_id":"GST","station_name":"Gang Sentiong","transit":false,"line":11},{"is_transit":false,"i_lat":-6.174784,"station_id":"PSE","distance":1567,"line":11,"station_name":"Pasar Senen","time":8,"i_long":106.84368,"transit":false},{"transit":false,"i_long":106.839204,"is_transit":false,"distance":1436,"station_id":"KMO","i_lat":-6.161728,"line":11,"time":4,"station_name":"Kemayoran"},{"transit":false,"distance":1901,"i_lat":-6.14505,"station_name":"Rajawali","station_id":"RJW","line":11,"time":5,"i_long":106.836569,"is_transit":false},{"i_lat":-6.132549,"time":3,"line":4,"transit":true,"distance":1444,"station_id":"KPB","station_name":"Kampung Bandan","is_transit":true,"i_long":106.826365},{"station_name":"Angke","transit":false,"station_id":"AK","i_lat":-6.144674,"i_long":106.79867,"line":1,"is_transit":false,"distance":4102,"time":9},{"distance":1230,"line":1,"i_long":106.800832,"time":4,"is_transit":false,"transit":false,"station_id":"DU","station_name":"Duri","i_lat":-6.155215},{"is_transit":true,"time":8,"station_id":"THB","transit":true,"station_name":"Tanah Abang","distance":3632,"i_lat":-6.185545,"line":1,"i_long":106.811091},{"transit":false,"distance":3191,"time":6,"i_long":106.79689,"line":6,"is_transit":false,"station_id":"PLM","i_lat":-6.207404,"station_name":"Palmerah"},{"station_name":"Kebayoran","line":6,"is_transit":false,"i_lat":-6.237242,"i_long":106.780334,"distance":3737,"station_id":"KBY","time":7,"transit":false}],[{"time":0,"is_transit":false,"i_lat":-6.209188,"line":11,"i_long":106.861737,"station_name":"Pondok Jati","distance":0,"transit":false,"station_id":"POK"},{"time":9,"transit":true,"line":1,"i_long":106.86807400000001,"station_name":"Jatinegara","station_id":"JNG","i_lat":-6.215091,"distance":1236,"is_transit":true},{"time":2,"distance":1377,"is_transit":false,"line":1,"station_name":"Matraman","station_id":"MTR","transit":false,"i_lat":-6.212485,"i_long":106.858896},{"transit":true,"i_long":106.84912,"line":2,"time":2,"station_name":"Manggarai","station_id":"MRI","distance":1275,"i_lat":-6.209883,"is_transit":true},{"distance":1590,"i_lat":-6.198556,"transit":false,"i_long":106.840169,"station_name":"Cikini","is_transit":false,"station_id":"CKI","line":2,"time":4},{"is_transit":false,"transit":false,"distance":1750,"i_lat":-6.186295,"line":2,"time":3,"i_long":106.832183,"station_name":"Gondangdia","station_id":"GDD"},{"i_lat":-6.166716,"transit":false,"is_transit":false,"line":2,"station_id":"JUA","distance":2015,"time":4,"station_name":"Juanda","i_long":106.828284},{"i_lat":-6.160725,"is_transit":false,"station_id":"SW","i_long":106.827103,"line":2,"time":2,"transit":false,"distance":1149,"station_name":"Sawah Besar"},{"i_long":106.82482,"time":2,"line":2,"transit":false,"is_transit":false,"station_name":"Manggabesar","station_id":"MGB","distance":906,"i_lat":-6.149769},{"transit":false,"i_lat":-6.141205,"i_long":106.820901,"time":2,"line":2,"is_transit":false,"station_id":"JAY","station_name":"Jayakarta","distance":1080},{"transit":true,"station_id":"JAKK","distance":1264,"i_long":106.812439,"i_lat":-6.137569,"is_transit":true,"line":2,"station_name":"Jakarta Kota","time":4},{"is_transit":true,"i_lat":-6.132549,"station_id":"KPB","i_long":106.826365,"station_name":"Kampung Bandan","transit":true,"line":4,"time":3,"distance":1364},{"distance":4102,"i_long":106.79867,"station_id":"AK","transit":false,"line":1,"station_name":"Angke","is_transit":false,"i_lat":-6.144674,"time":9},{"i_long":106.800832,"station_name":"Duri","station_id":"DU","time":4,"distance":1230,"line":1,"is_transit":false,"transit":false,"i_lat":-6.155215},{"time":8,"is_transit":true,"station_id":"THB","i_lat":-6.185545,"transit":true,"line":1,"station_name":"Tanah Abang","distance":3632,"i_long":106.811091},{"transit":false,"line":6,"distance":3191,"is_transit":false,"i_lat":-6.207404,"station_id":"PLM","time":6,"i_long":106.79689,"station_name":"Palmerah"},{"time":7,"is_transit":false,"transit":false,"i_lat":-6.237242,"line":6,"station_id":"KBY","station_name":"Kebayoran","i_long":106.780334,"distance":3737}],[{"i_long":106.861737,"time":0,"distance":0,"is_transit":false,"station_id":"POK","station_name":"Pondok Jati","transit":false,"i_lat":-6.209188,"line":11},{"line":11,"time":2,"distance":1829,"transit":false,"i_lat":-6.193792,"is_transit":false,"station_name":"Kramat","station_id":"KMT","i_long":106.855437},{"station_name":"Gang Sentiong","i_long":106.850107,"transit":false,"is_transit":false,"station_id":"GST","time":1,"i_lat":-6.185975,"line":11,"distance":973},{"i_lat":-6.174784,"is_transit":false,"station_id":"PSE","i_long":106.84368,"transit":false,"station_name":"Pasar Senen","line":11,"distance":1567,"time":8},{"is_transit":false,"i_lat":-6.161728,"line":11,"i_long":106.839204,"transit":false,"station_name":"Kemayoran","time":4,"distance":1436,"station_id":"KMO"},{"is_transit":false,"time":5,"i_lat":-6.14505,"station_name":"Rajawali","distance":1901,"line":11,"i_long":106.836569,"station_id":"RJW","transit":false},{"distance":1444,"transit":true,"i_long":106.826365,"i_lat":-6.132549,"station_name":"Kampung Bandan","station_id":"KPB","is_transit":true,"line":4,"time":3},{"distance":1364,"line":2,"station_name":"Jakarta Kota","station_id":"JAKK","transit":true,"is_transit":true,"i_long":106.812439,"time":3,"i_lat":-6.137569},{"i_lat":-6.141205,"distance":1264,"transit":false,"line":2,"station_name":"Jayakarta","station_id":"JAY","is_transit":false,"time":4,"i_long":106.820901},{"station_id":"MGB","station_name":"Manggabesar","time":2,"line":2,"transit":false,"is_transit":false,"distance":1080,"i_lat":-6.149769,"i_long":106.82482},{"line":2,"transit":false,"i_lat":-6.160725,"distance":906,"i_long":106.827103,"is_transit":false,"station_name":"Sawah Besar","station_id":"SW","time":2},{"i_long":106.828284,"is_transit":false,"line":2,"station_name":"Juanda","transit":false,"time":2,"station_id":"JUA","i_lat":-6.166716,"distance":1149},{"line":2,"is_transit":false,"transit":false,"station_name":"Gondangdia","i_long":106.832183,"distance":2015,"station_id":"GDD","time":4,"i_lat":-6.186295},{"station_name":"Cikini","station_id":"CKI","time":3,"line":2,"is_transit":false,"transit":false,"i_long":106.840169,"distance":1750,"i_lat":-6.198556},{"time":4,"transit":true,"line":2,"station_id":"MRI","station_name":"Manggarai","is_transit":true,"i_lat":-6.209883,"distance":1590,"i_long":106.84912},{"i_long":106.822649,"station_name":"Sudirman","transit":false,"line":1,"time":4,"distance":3186,"is_transit":false,"i_lat":-6.202263,"station_id":"SUD"},{"time":1,"distance":280,"station_id":"SUDB","is_transit":false,"station_name":"Sudirman Baru","i_lat":-6.201433,"line":1,"transit":false,"i_long":106.819881},{"is_transit":false,"i_lat":-6.20132,"line":1,"distance":471,"i_long":106.816351,"station_id":"KAT","time":1,"station_name":"Karet","transit":false},{"station_id":"THB","time":5,"transit":true,"station_name":"Tanah Abang","line":1,"i_long":106.811091,"distance":2029,"i_lat":-6.185545,"is_transit":true},{"distance":3191,"station_id":"PLM","i_lat":-6.207404,"i_long":106.79689,"line":6,"transit":false,"station_name":"Palmerah","time":6,"is_transit":false},{"i_long":106.780334,"is_transit":false,"station_name":"Kebayoran","time":7,"transit":false,"line":6,"distance":3737,"i_lat":-6.237242,"station_id":"KBY"}]]}