{"data":[[{"is_transit":false,"i_lat":-6.209188,"i_long":106.861737,"transit":false,"station_name":"Pondok Jati","distance":0,"time":0,"line":11,"station_id":"POK"},{"distance":1236,"i_long":106.86807400000001,"station_id":"JNG","line":1,"time":9,"is_transit":true,"station_name":"Jatinegara","transit":true,"i_lat":-6.215091},{"transit":false,"station_id":"MTR","i_lat":-6.212485,"is_transit":false,"time":2,"distance":1377,"line":1,"station_name":"Matraman","i_long":106.858896},{"station_name":"Manggarai","time":2,"distance":1275,"line":2,"transit":true,"i_lat":-6.209883,"is_transit":true,"station_id":"MRI","i_long":106.84912},{"i_lat":-6.226659,"station_name":"Tebet","station_id":"TEB","transit":false,"distance":2610,"line":2,"i_long":106.857948,"time":4,"is_transit":false},{"distance":1230,"i_lat":-6.242512,"i_long":106.856607,"time":2,"transit":false,"is_transit":false,"station_name":"Cawang","station_id":"CW","line":2},{"line":2,"distance":1546,"time":3,"transit":false,"station_id":"DRN","is_transit":false,"i_lat":-6.255332,"station_name":"Duren Kalibata","i_long":106.85449},{"distance":824,"i_long":106.851577,"transit":false,"is_transit":false,"time":2,"station_id":"PSMB","i_lat":-6.263214,"station_name":"Pasar Minggu Baru","line":2},{"transit":false,"station_name":"Pasar Minggu","is_transit":false,"distance":2380,"time":2,"station_id":"PSM","i_lat":-6.2842400000000005,"i_long":106.843999,"line":2},{"line":2,"i_long":106.838896,"distance":2820,"station_id":"TNT","time":4,"transit":false,"i_lat":-6.3080680000000005,"station_name":"Tanjung Barat","is_transit":false},{"time":3,"is_transit":false,"station_id":"LNA","i_long":106.832616,"line":2,"transit":false,"station_name":"Lenteng Agung","distance":2671,"i_lat":-6.330363},{"time":2,"i_lat":-6.339291,"transit":false,"is_transit":false,"station_id":"UP","distance":1029,"i_long":106.834175,"line":2,"station_name":"Univ. Pancasila"},{"i_long":106.831474,"line":2,"transit":false,"station_name":"Univ. Indonesia","is_transit":false,"distance":2264,"i_lat":-6.360749,"time":3,"station_id":"UI"},{"time":2,"station_name":"Pondok Cina","i_long":106.831114,"transit":false,"distance":1109,"is_transit":false,"i_lat":-6.369073,"line":2,"station_id":"POC"},{"is_transit":false,"i_long":106.819451,"time":4,"distance":2727,"transit":false,"line":2,"station_name":"Depokbaru","i_lat":-6.391065,"station_id":"DPB"},{"is_transit":false,"transit":false,"i_lat":-6.405256,"time":3,"i_long":106.816926,"station_name":"Depok","distance":1584,"line":2,"station_id":"DP"},{"time":6,"transit":true,"i_lat":-6.448811,"station_name":"Citayam","distance":5084,"i_long":106.800298,"is_transit":true,"station_id":"CTA","line":2},{"line":21,"i_lat":-6.460735,"station_name":"Pondok Rajeg","station_id":"PDRG","distance":0,"time":0,"transit":false,"is_transit":false,"i_long":106.824374}],[{"station_name":"Pondok Jati","transit":false,"i_lat":-6.209188,"i_long":106.861737,"line":11,"station_id":"POK","time":0,"is_transit":false,"distance":0},{"time":2,"distance":1829,"station_id":"KMT","transit":false,"is_transit":false,"line":11,"i_long":106.855437,"i_lat":-6.193792,"station_name":"Kramat"},{"distance":973,"station_id":"GST","i_long":106.850107,"time":1,"is_transit":false,"transit":false,"i_lat":-6.185975,"station_name":"Gang Sentiong","line":11},{"station_id":"PSE","station_name":"Pasar Senen","distance":1567,"time":8,"transit":false,"i_long":106.84368,"line":11,"i_lat":-6.174784,"is_transit":false},{"station_name":"Kemayoran","distance":1436,"station_id":"KMO","i_long":106.839204,"transit":false,"time":4,"is_transit":false,"i_lat":-6.161728,"line":11},{"transit":false,"station_name":"Rajawali","time":5,"station_id":"RJW","distance":1901,"line":11,"i_lat":-6.14505,"i_long":106.836569,"is_transit":false},{"station_name":"Kampung Bandan","distance":1444,"is_transit":true,"i_long":106.826365,"line":4,"time":3,"station_id":"KPB","i_lat":-6.132549,"transit":true},{"station_name":"Angke","station_id":"AK","time":9,"is_transit":false,"i_long":106.79867,"i_lat":-6.144674,"distance":4102,"transit":false,"line":1},{"line":1,"i_lat":-6.155215,"station_name":"Duri","time":4,"is_transit":false,"station_id":"DU","transit":false,"i_long":106.800832,"distance":1230},{"time":8,"line":1,"is_transit":false,"distance":3632,"transit":false,"i_long":106.811091,"station_id":"THB","i_lat":-6.185545,"station_name":"Tanah Abang"},{"transit":false,"time":5,"is_transit":false,"i_long":106.816351,"station_name":"Karet","station_id":"KAT","line":1,"distance":2029,"i_lat":-6.20132},{"line":1,"station_name":"Sudirman Baru","distance":471,"station_id":"SUDB","transit":false,"is_transit":false,"time":1,"i_lat":-6.201433,"i_long":106.819881},{"station_name":"Sudirman","line":1,"transit":false,"station_id":"SUD","is_transit":false,"i_lat":-6.202263,"time":1,"distance":280,"i_long":106.822649},{"station_id":"MRI","station_name":"Manggarai","line":2,"time":4,"distance":3186,"i_long":106.84912,"is_transit":true,"transit":true,"i_lat":-6.209883},{"station_name":"Tebet","is_transit":false,"time":4,"i_long":106.857948,"transit":false,"line":2,"distance":2610,"station_id":"TEB","i_lat":-6.226659},{"transit":false,"station_id":"CW","i_lat":-6.242512,"is_transit":false,"station_name":"Cawang","distance":1230,"i_long":106.856607,"time":2,"line":2},{"station_name":"Duren Kalibata","distance":1546,"is_transit":false,"transit":false,"station_id":"DRN","i_long":106.85449,"time":3,"line":2,"i_lat":-6.255332},{"line":2,"is_transit":false,"distance":824,"station_name":"Pasar Minggu Baru","transit":false,"time":2,"station_id":"PSMB","i_long":106.851577,"i_lat":-6.263214},{"transit":false,"i_lat":-6.2842400000000005,"station_id":"PSM","line":2,"time":2,"station_name":"Pasar Minggu","distance":2380,"is_transit":false,"i_long":106.843999},{"station_name":"Tanjung Barat","distance":2820,"i_long":106.838896,"transit":false,"line":2,"i_lat":-6.3080680000000005,"is_transit":false,"time":4,"station_id":"TNT"},{"station_id":"LNA","station_name":"Lenteng Agung","i_lat":-6.330363,"i_long":106.832616,"line":2,"distance":2671,"transit":false,"is_transit":false,"time":3},{"transit":false,"distance":1029,"time":2,"i_lat":-6.339291,"i_long":106.834175,"line":2,"is_transit":false,"station_name":"Univ. Pancasila","station_id":"UP"},{"time":3,"transit":false,"is_transit":false,"distance":2264,"station_id":"UI","i_lat":-6.360749,"i_long":106.831474,"line":2,"station_name":"Univ. Indonesia"},{"line":2,"station_name":"Pondok Cina","is_transit":false,"i_lat":-6.369073,"i_long":106.831114,"time":2,"distance":1109,"station_id":"POC","transit":false},{"station_name":"Depokbaru","i_lat":-6.391065,"distance":2727,"is_transit":false,"time":4,"station_id":"DPB","i_long":106.819451,"transit":false,"line":2},{"is_transit":false,"time":3,"distance":1584,"i_lat":-6.405256,"i_long":106.816926,"line":2,"transit":false,"station_name":"Depok","station_id":"DP"},{"station_id":"CTA","is_transit":true,"transit":true,"i_long":106.800298,"line":2,"station_name":"Citayam","distance":5084,"time":6,"i_lat":-6.448811},{"station_id":"PDRG","i_long":106.824374,"station_name":"Pondok Rajeg","time":0,"line":21,"distance":0,"i_lat":-6.460735,"transit":false,"is_transit":false}],[{"station_name":"Pondok Jati","is_transit":false,"transit":false,"station_id":"POK","i_lat":-6.209188,"i_long":106.861737,"line":11,"time":0,"distance":0},{"transit":false,"station_name":"Kramat","is_transit":false,"station_id":"KMT","i_lat":-6.193792,"line":11,"i_long":106.855437,"distance":1829,"time":2},{"i_long":106.850107,"line":11,"station_name":"Gang Sentiong","station_id":"GST","i_lat":-6.185975,"time":1,"transit":false,"is_transit":false,"distance":973},{"time":8,"station_id":"PSE","i_long":106.84368,"i_lat":-6.174784,"line":11,"distance":1567,"station_name":"Pasar Senen","transit":false,"is_transit":false},{"time":4,"is_transit":false,"line":11,"transit":false,"station_name":"Kemayoran","station_id":"KMO","i_lat":-6.161728,"distance":1436,"i_long":106.839204},{"distance":1901,"i_lat":-6.14505,"line":11,"time":5,"station_id":"RJW","station_name":"Rajawali","transit":false,"i_long":106.836569,"is_transit":false},{"distance":1444,"station_id":"KPB","is_transit":true,"station_name":"Kampung Bandan","time":3,"transit":true,"i_lat":-6.132549,"line":4,"i_long":106.826365},{"is_transit":true,"time":3,"i_long":106.812439,"distance":1364,"i_lat":-6.137569,"line":2,"station_id":"JAKK","station_name":"Jakarta Kota","transit":true},{"station_name":"Jayakarta","time":4,"distance":1264,"station_id":"JAY","is_transit":false,"i_lat":-6.141205,"i_long":106.820901,"line":2,"transit":false},{"i_lat":-6.149769,"is_transit":false,"station_name":"Manggabesar","distance":1080,"transit":false,"station_id":"MGB","time":2,"line":2,"i_long":106.82482},{"time":2,"distance":906,"station_id":"SW","station_name":"Sawah Besar","transit":false,"i_long":106.827103,"i_lat":-6.160725,"line":2,"is_transit":false},{"distance":1149,"is_transit":false,"station_name":"Juanda","time":2,"station_id":"JUA","i_lat":-6.166716,"transit":false,"i_long":106.828284,"line":2},{"i_long":106.832183,"time":4,"distance":2015,"i_lat":-6.186295,"is_transit":false,"station_name":"Gondangdia","station_id":"GDD","transit":false,"line":2},{"line":2,"i_long":106.840169,"transit":false,"distance":1750,"station_id":"CKI","station_name":"Cikini","is_transit":false,"time":3,"i_lat":-6.198556},{"is_transit":false,"station_name":"Manggarai","time":4,"line":2,"station_id":"MRI","transit":false,"i_long":106.84912,"distance":1590,"i_lat":-6.209883},{"i_lat":-6.226659,"distance":2610,"time":4,"line":2,"is_transit":false,"station_name":"Tebet","transit":false,"i_long":106.857948,"station_id":"TEB"},{"i_long":106.856607,"line":2,"distance":1230,"i_lat":-6.242512,"time":2,"is_transit":false,"station_name":"Cawang","station_id":"CW","transit":false},{"station_id":"DRN","i_long":106.85449,"i_lat":-6.255332,"time":3,"station_name":"Duren Kalibata","transit":false,"distance":1546,"line":2,"is_transit":false},{"distance":824,"station_name":"Pasar Minggu Baru","time":2,"i_long":106.851577,"i_lat":-6.263214,"line":2,"is_transit":false,"station_id":"PSMB","transit":false},{"i_long":106.843999,"station_name":"Pasar Minggu","station_id":"PSM","line":2,"time":2,"transit":false,"distance":2380,"is_transit":false,"i_lat":-6.2842400000000005},{"i_long":106.838896,"distance":2820,"line":2,"station_id":"TNT","is_transit":false,"station_name":"Tanjung Barat","time":4,"transit":false,"i_lat":-6.3080680000000005},{"station_id":"LNA","line":2,"station_name":"Lenteng Agung","time":3,"distance":2671,"i_long":106.832616,"transit":false,"is_transit":false,"i_lat":-6.330363},{"time":2,"transit":false,"station_id":"UP","is_transit":false,"i_lat":-6.339291,"i_long":106.834175,"distance":1029,"station_name":"Univ. Pancasila","line":2},{"time":3,"i_lat":-6.360749,"i_long":106.831474,"is_transit":false,"station_id":"UI","transit":false,"distance":2264,"station_name":"Univ. Indonesia","line":2},{"time":2,"i_long":106.831114,"transit":false,"station_name":"Pondok Cina","line":2,"distance":1109,"i_lat":-6.369073,"station_id":"POC","is_transit":false},{"i_long":106.819451,"is_transit":false,"station_id":"DPB","time":4,"distance":2727,"transit":false,"line":2,"i_lat":-6.391065,"station_name":"Depokbaru"},{"line":2,"i_long":106.816926,"time":3,"transit":false,"station_id":"DP","is_transit":false,"station_name":"Depok","distance":1584,"i_lat":-6.405256},{"i_lat":-6.448811,"distance":5084,"transit":true,"time":6,"station_id":"CTA","station_name":"Citayam","line":2,"is_transit":true,"i_long":106.800298},{"line":21,"i_long":106.824374,"i_lat":-6.460735,"is_transit":false,"station_name":"Pondok Rajeg","time":0,"distance":0,"station_id":"PDRG","transit":false}]]}