{"data":[[{"station_name":"Pondok Jati","i_long":106.861737,"time":0,"line":11,"is_transit":false,"i_lat":-6.209188,"distance":0,"station_id":"POK","transit":false},{"station_name":"Kramat","station_id":"KMT","distance":1829,"time":2,"transit":false,"is_transit":false,"i_lat":-6.193792,"i_long":106.855437,"line":11}],[{"i_lat":-6.209188,"station_id":"POK","is_transit":false,"time":0,"station_name":"Pondok Jati","i_long":106.861737,"transit":false,"line":11,"distance":0},{"distance":1236,"time":9,"station_id":"JNG","i_long":106.86807400000001,"is_transit":true,"i_lat":-6.215091,"station_name":"Jatinegara","transit":true,"line":1},{"transit":false,"i_long":106.858896,"time":2,"station_name":"Matraman","station_id":"MTR","distance":1377,"is_transit":false,"line":1,"i_lat":-6.212485},{"distance":1275,"time":2,"transit":false,"station_id":"MRI","is_transit":false,"station_name":"Manggarai","i_lat":-6.209883,"i_long":106.84912,"line":2},{"station_id":"SUD","i_long":106.822649,"station_name":"Sudirman","is_transit":false,"line":1,"transit":false,"time":4,"i_lat":-6.202263,"distance":3186},{"line":1,"station_name":"Sudirman Baru","is_transit":false,"i_long":106.819881,"time":1,"transit":false,"i_lat":-6.201433,"station_id":"SUDB","distance":280},{"station_name":"Karet","station_id":"KAT","time":1,"i_lat":-6.20132,"transit":false,"line":1,"is_transit":false,"distance":471,"i_long":106.816351},{"station_id":"THB","time":5,"is_transit":false,"i_lat":-6.185545,"i_long":106.811091,"station_name":"Tanah Abang","transit":false,"line":1,"distance":2029},{"time":8,"station_id":"DU","i_long":106.800832,"station_name":"Duri","line":1,"i_lat":-6.155215,"distance":3632,"transit":false,"is_transit":false},{"line":1,"time":4,"station_id":"AK","distance":1230,"is_transit":false,"transit":false,"i_long":106.79867,"i_lat":-6.144674,"station_name":"Angke"},{"distance":4102,"is_transit":true,"station_name":"Kampung Bandan","transit":true,"i_long":106.826365,"line":4,"i_lat":-6.132549,"time":9,"station_id":"KPB"},{"station_id":"RJW","transit":false,"i_long":106.836569,"distance":1444,"station_name":"Rajawali","line":11,"is_transit":false,"time":3,"i_lat":-6.14505},{"distance":1901,"time":5,"station_id":"KMO","station_name":"Kemayoran","transit":false,"is_transit":false,"i_lat":-6.161728,"i_long":106.839204,"line":11},{"i_long":106.84368,"distance":1436,"line":11,"i_lat":-6.174784,"transit":false,"is_transit":false,"station_name":"Pasar Senen","time":4,"station_id":"PSE"},{"i_long":106.850107,"line":11,"is_transit":false,"i_lat":-6.185975,"transit":false,"station_name":"Gang Sentiong","station_id":"GST","distance":1567,"time":8},{"station_name":"Kramat","is_transit":false,"i_lat":-6.193792,"transit":false,"distance":973,"line":11,"time":1,"i_long":106.855437,"station_id":"KMT"}],[{"distance":0,"is_transit":false,"i_long":106.861737,"station_name":"Pondok Jati","station_id":"POK","i_lat":-6.209188,"transit":false,"line":11,"time":0},{"time":9,"transit":true,"station_id":"JNG","i_lat":-6.215091,"is_transit":true,"line":1,"distance":1236,"station_name":"Jatinegara","i_long":106.86807400000001},{"station_id":"MTR","transit":false,"station_name":"Matraman","is_transit":false,"time":2,"line":1,"distance":1377,"i_long":106.858896,"i_lat":-6.212485},{"distance":1275,"time":2,"station_id":"MRI","transit":true,"is_transit":true,"line":2,"station_name":"Manggarai","i_lat":-6.209883,"i_long":106.84912},{"i_lat":-6.198556,"station_name":"Cikini","distance":1590,"time":4,"station_id":"CKI","transit":false,"i_long":106.840169,"line":2,"is_transit":false},{"line":2,"station_name":"Gondangdia","time":3,"distance":1750,"transit":false,"i_lat":-6.186295,"station_id":"GDD","i_long":106.832183,"is_transit":false},{"distance":2015,"transit":false,"station_name":"Juanda","i_long":106.828284,"station_id":"JUA","i_lat":-6.166716,"is_transit":false,"line":2,"time":4},{"line":2,"distance":1149,"transit":false,"station_id":"SW","station_name":"Sawah Besar","is_transit":false,"time":2,"i_lat":-6.160725,"i_long":106.827103},{"i_long":106.82482,"station_name":"Manggabesar","time":2,"is_transit":false,"transit":false,"station_id":"MGB","line":2,"distance":906,"i_lat":-6.149769},{"transit":false,"time":2,"i_long":106.820901,"station_name":"Jayakarta","distance":1080,"is_transit":false,"i_lat":-6.141205,"station_id":"JAY","line":2},{"i_long":106.812439,"distance":1264,"is_transit":true,"transit":true,"time":4,"i_lat":-6.137569,"station_name":"Jakarta Kota","station_id":"JAKK","line":2},{"i_lat":-6.132549,"station_id":"KPB","time":3,"station_name":"Kampung Bandan","transit":true,"is_transit":true,"i_long":106.826365,"line":4,"distance":1364},{"station_id":"RJW","distance":1444,"i_long":106.836569,"is_transit":false,"time":3,"line":11,"station_name":"Rajawali","transit":false,"i_lat":-6.14505},{"i_long":106.839204,"station_name":"Kemayoran","is_transit":false,"time":5,"distance":1901,"station_id":"KMO","transit":false,"i_lat":-6.161728,"line":11},{"time":4,"line":11,"i_long":106.84368,"station_name":"Pasar Senen","is_transit":false,"i_lat":-6.174784,"station_id":"PSE","distance":1436,"transit":false},{"station_id":"GST","i_lat":-6.185975,"time":8,"distance":1567,"transit":false,"is_transit":false,"i_long":106.850107,"station_name":"Gang Sentiong","line":11},{"station_name":"Kramat","distance":973,"time":1,"is_transit":false,"i_long":106.855437,"transit":false,"i_lat":-6.193792,"line":11,"station_id":"KMT"}]]}