{"data":[[{"i_lat":-6.209188,"station_name":"Pondok Jati","time":0,"distance":0,"transit":false,"station_id":"POK","is_transit":false,"i_long":106.861737,"line":11},{"station_name":"Jatinegara","transit":true,"i_lat":-6.215091,"is_transit":true,"line":1,"distance":1236,"i_long":106.86807400000001,"time":9,"station_id":"JNG"},{"distance":1377,"is_transit":false,"station_name":"Matraman","i_long":106.858896,"time":2,"station_id":"MTR","line":1,"i_lat":-6.212485,"transit":false},{"station_id":"MRI","transit":false,"station_name":"Manggarai","is_transit":false,"time":2,"distance":1275,"i_long":106.84912,"i_lat":-6.209883,"line":2},{"station_id":"SUD","time":4,"station_name":"Sudirman","is_transit":false,"i_long":106.822649,"line":1,"i_lat":-6.202263,"distance":3186,"transit":false},{"i_long":106.819881,"time":1,"line":1,"station_id":"SUDB","i_lat":-6.201433,"distance":280,"station_name":"Sudirman Baru","is_transit":false,"transit":false},{"time":1,"line":1,"distance":471,"i_lat":-6.20132,"transit":false,"station_name":"Karet","station_id":"KAT","is_transit":false,"i_long":106.816351},{"station_id":"THB","i_lat":-6.185545,"time":5,"station_name":"Tanah Abang","distance":2029,"line":1,"transit":false,"is_transit":false,"i_long":106.811091},{"transit":false,"is_transit":false,"distance":3632,"time":8,"i_lat":-6.155215,"station_name":"Duri","i_long":106.800832,"station_id":"DU","line":1}],[{"transit":false,"station_id":"POK","i_lat":-6.209188,"distance":0,"i_long":106.861737,"is_transit":false,"line":11,"station_name":"Pondok Jati","time":0},{"station_id":"KMT","is_transit":false,"distance":1829,"i_long":106.855437,"i_lat":-6.193792,"time":2,"line":11,"transit":false,"station_name":"Kramat"},{"time":1,"distance":973,"station_name":"Gang Sentiong","transit":false,"is_transit":false,"station_id":"GST","line":11,"i_long":106.850107,"i_lat":-6.185975},{"distance":1567,"i_long":106.84368,"transit":false,"time":8,"i_lat":-6.174784,"line":11,"is_transit":false,"station_name":"Pasar Senen","station_id":"PSE"},{"is_transit":false,"station_name":"Kemayoran","i_lat":-6.161728,"transit":false,"i_long":106.839204,"station_id":"KMO","distance":1436,"time":4,"line":11},{"transit":false,"station_name":"Rajawali","i_long":106.836569,"is_transit":false,"time":5,"station_id":"RJW","i_lat":-6.14505,"line":11,"distance":1901},{"station_id":"KPB","station_name":"Kampung Bandan","is_transit":true,"i_lat":-6.132549,"line":4,"transit":true,"i_long":106.826365,"time":3,"distance":1444},{"station_name":"Angke","station_id":"AK","line":1,"distance":4102,"transit":false,"i_lat":-6.144674,"i_long":106.79867,"is_transit":false,"time":9},{"i_lat":-6.155215,"station_name":"Duri","time":4,"line":1,"i_long":106.800832,"is_transit":false,"distance":1230,"transit":false,"station_id":"DU"}],[{"i_long":106.861737,"i_lat":-6.209188,"time":0,"station_id":"POK","is_transit":false,"line":11,"transit":false,"station_name":"Pondok Jati","distance":0},{"station_name":"Jatinegara","distance":1236,"i_lat":-6.215091,"is_transit":true,"i_long":106.86807400000001,"station_id":"JNG","time":9,"transit":true,"line":1},{"distance":1377,"time":2,"station_name":"Matraman","i_long":106.858896,"transit":false,"is_transit":false,"line":1,"station_id":"MTR","i_lat":-6.212485},{"i_lat":-6.209883,"is_transit":true,"transit":true,"time":2,"station_id":"MRI","station_name":"Manggarai","distance":1275,"i_long":106.84912,"line":2},{"station_name":"Cikini","transit":false,"i_long":106.840169,"is_transit":false,"station_id":"CKI","distance":1590,"time":4,"i_lat":-6.198556,"line":2},{"is_transit":false,"time":3,"distance":1750,"station_id":"GDD","station_name":"Gondangdia","i_lat":-6.186295,"line":2,"transit":false,"i_long":106.832183},{"station_name":"Juanda","distance":2015,"i_long":106.828284,"is_transit":false,"station_id":"JUA","transit":false,"i_lat":-6.166716,"time":4,"line":2},{"i_lat":-6.160725,"transit":false,"time":2,"i_long":106.827103,"line":2,"station_name":"Sawah Besar","station_id":"SW","distance":1149,"is_transit":false},{"transit":false,"station_name":"Manggabesar","distance":906,"i_lat":-6.149769,"i_long":106.82482,"time":2,"station_id":"MGB","line":2,"is_transit":false},{"station_id":"JAY","station_name":"Jayakarta","i_lat":-6.141205,"transit":false,"is_transit":false,"i_long":106.820901,"time":2,"line":2,"distance":1080},{"station_id":"JAKK","distance":1264,"line":2,"station_name":"Jakarta Kota","i_lat":-6.137569,"is_transit":true,"i_long":106.812439,"time":4,"transit":true},{"station_name":"Kampung Bandan","line":4,"time":3,"transit":true,"distance":1364,"i_long":106.826365,"is_transit":true,"station_id":"KPB","i_lat":-6.132549},{"station_id":"AK","time":9,"transit":false,"i_long":106.79867,"distance":4102,"i_lat":-6.144674,"is_transit":false,"line":1,"station_name":"Angke"},{"i_long":106.800832,"line":1,"station_name":"Duri","is_transit":false,"transit":false,"time":4,"distance":1230,"station_id":"DU","i_lat":-6.155215}],[{"i_long":106.861737,"transit":false,"station_id":"POK","i_lat":-6.209188,"time":0,"is_transit":false,"line":11,"station_name":"Pondok Jati","distance":0},{"station_name":"Kramat","line":11,"transit":false,"i_lat":-6.193792,"station_id":"KMT","i_long":106.855437,"time":2,"is_transit":false,"distance":1829},{"station_name":"Gang Sentiong","time":1,"station_id":"GST","line":11,"transit":false,"i_long":106.850107,"is_transit":false,"distance":973,"i_lat":-6.185975},{"distance":1567,"i_long":106.84368,"line":11,"station_name":"Pasar Senen","station_id":"PSE","time":8,"is_transit":false,"transit":false,"i_lat":-6.174784},{"transit":false,"is_transit":false,"station_name":"Kemayoran","time":4,"distance":1436,"i_lat":-6.161728,"i_long":106.839204,"station_id":"KMO","line":11},{"station_id":"RJW","distance":1901,"i_long":106.836569,"time":5,"line":11,"transit":false,"station_name":"Rajawali","is_transit":false,"i_lat":-6.14505},{"is_transit":true,"station_id":"KPB","distance":1444,"transit":true,"time":3,"i_lat":-6.132549,"i_long":106.826365,"line":4,"station_name":"Kampung Bandan"},{"time":3,"transit":true,"is_transit":true,"i_lat":-6.137569,"i_long":106.812439,"distance":1364,"station_name":"Jakarta Kota","station_id":"JAKK","line":2},{"station_name":"Jayakarta","station_id":"JAY","i_lat":-6.141205,"transit":false,"i_long":106.820901,"is_transit":false,"line":2,"distance":1264,"time":4},{"station_id":"MGB","distance":1080,"i_lat":-6.149769,"transit":false,"i_long":106.82482,"line":2,"station_name":"Manggabesar","time":2,"is_transit":false},{"distance":906,"station_id":"SW","is_transit":false,"i_long":106.827103,"line":2,"transit":false,"station_name":"Sawah Besar","time":2,"i_lat":-6.160725},{"line":2,"distance":1149,"is_transit":false,"transit":false,"station_name":"Juanda","time":2,"station_id":"JUA","i_long":106.828284,"i_lat":-6.166716},{"is_transit":false,"station_id":"GDD","i_lat":-6.186295,"transit":false,"i_long":106.832183,"station_name":"Gondangdia","distance":2015,"line":2,"time":4},{"time":3,"station_name":"Cikini","is_transit":false,"transit":false,"i_lat":-6.198556,"station_id":"CKI","i_long":106.840169,"distance":1750,"line":2},{"transit":true,"station_name":"Manggarai","i_lat":-6.209883,"is_transit":true,"distance":1590,"line":2,"station_id":"MRI","i_long":106.84912,"time":4},{"station_name":"Sudirman","time":4,"station_id":"SUD","transit":false,"is_transit":false,"i_lat":-6.202263,"distance":3186,"line":1,"i_long":106.822649},{"i_lat":-6.201433,"is_transit":false,"transit":false,"distance":280,"i_long":106.819881,"time":1,"station_name":"Sudirman Baru","station_id":"SUDB","line":1},{"is_transit":false,"i_lat":-6.20132,"time":1,"i_long":106.816351,"line":1,"distance":471,"transit":false,"station_id":"KAT","station_name":"Karet"},{"is_transit":false,"line":1,"time":5,"station_name":"Tanah Abang","i_long":106.811091,"i_lat":-6.185545,"distance":2029,"station_id":"THB","transit":false},{"i_lat":-6.155215,"transit":false,"distance":3632,"station_name":"Duri","time":8,"station_id":"DU","i_long":106.800832,"line":1,"is_transit":false}]]}