{"data":[[{"is_transit":false,"time":0,"station_id":"POK","i_lat":-6.209188,"line":11,"station_name":"Pondok Jati","distance":0,"transit":false,"i_long":106.861737},{"station_name":"Kramat","station_id":"KMT","is_transit":false,"i_long":106.855437,"i_lat":-6.193792,"distance":1829,"transit":false,"line":11,"time":2},{"station_name":"Gang Sentiong","transit":false,"station_id":"GST","i_lat":-6.185975,"distance":973,"is_transit":false,"line":11,"i_long":106.850107,"time":1},{"station_name":"Pasar Senen","is_transit":false,"i_lat":-6.174784,"line":11,"distance":1567,"transit":false,"time":8,"station_id":"PSE","i_long":106.84368},{"transit":false,"station_id":"KMO","is_transit":false,"distance":1436,"i_lat":-6.161728,"line":11,"i_long":106.839204,"station_name":"Kemayoran","time":4}],[{"distance":0,"is_transit":false,"station_id":"POK","i_long":106.861737,"time":0,"station_name":"Pondok Jati","transit":false,"i_lat":-6.209188,"line":11},{"i_long":106.86807400000001,"i_lat":-6.215091,"station_id":"JNG","line":1,"station_name":"Jatinegara","distance":1236,"transit":true,"time":9,"is_transit":true},{"station_name":"Matraman","distance":1377,"line":1,"station_id":"MTR","is_transit":false,"i_lat":-6.212485,"transit":false,"time":2,"i_long":106.858896},{"transit":false,"line":2,"station_name":"Manggarai","time":2,"station_id":"MRI","i_lat":-6.209883,"i_long":106.84912,"distance":1275,"is_transit":false},{"i_lat":-6.202263,"i_long":106.822649,"station_id":"SUD","transit":false,"is_transit":false,"line":1,"distance":3186,"time":4,"station_name":"Sudirman"},{"line":1,"time":1,"transit":false,"i_long":106.819881,"station_name":"Sudirman Baru","is_transit":false,"i_lat":-6.201433,"distance":280,"station_id":"SUDB"},{"distance":471,"station_id":"KAT","line":1,"i_long":106.816351,"i_lat":-6.20132,"station_name":"Karet","is_transit":false,"transit":false,"time":1},{"station_id":"THB","time":5,"i_lat":-6.185545,"i_long":106.811091,"station_name":"Tanah Abang","distance":2029,"is_transit":false,"line":1,"transit":false},{"line":1,"is_transit":false,"station_id":"DU","i_long":106.800832,"time":8,"station_name":"Duri","distance":3632,"transit":false,"i_lat":-6.155215},{"time":4,"distance":1230,"station_id":"AK","is_transit":false,"transit":false,"i_lat":-6.144674,"i_long":106.79867,"line":1,"station_name":"Angke"},{"station_name":"Kampung Bandan","i_lat":-6.132549,"distance":4102,"station_id":"KPB","line":4,"transit":true,"is_transit":true,"i_long":106.826365,"time":9},{"station_id":"RJW","transit":false,"station_name":"Rajawali","i_long":106.836569,"line":11,"i_lat":-6.14505,"distance":1444,"is_transit":false,"time":3},{"i_long":106.839204,"line":11,"time":5,"station_id":"KMO","station_name":"Kemayoran","transit":false,"is_transit":false,"distance":1901,"i_lat":-6.161728}],[{"distance":0,"transit":false,"station_id":"POK","time":0,"is_transit":false,"i_lat":-6.209188,"i_long":106.861737,"line":11,"station_name":"Pondok Jati"},{"transit":true,"is_transit":true,"i_lat":-6.215091,"time":9,"distance":1236,"station_name":"Jatinegara","i_long":106.86807400000001,"station_id":"JNG","line":1},{"i_long":106.858896,"line":1,"time":2,"distance":1377,"is_transit":false,"station_id":"MTR","station_name":"Matraman","transit":false,"i_lat":-6.212485},{"time":2,"transit":true,"distance":1275,"station_id":"MRI","station_name":"Manggarai","is_transit":true,"i_lat":-6.209883,"line":2,"i_long":106.84912},{"time":4,"is_transit":false,"station_id":"CKI","transit":false,"i_long":106.840169,"distance":1590,"line":2,"i_lat":-6.198556,"station_name":"Cikini"},{"station_name":"Gondangdia","transit":false,"is_transit":false,"time":3,"distance":1750,"station_id":"GDD","i_lat":-6.186295,"line":2,"i_long":106.832183},{"transit":false,"line":2,"distance":2015,"station_id":"JUA","is_transit":false,"station_name":"Juanda","i_long":106.828284,"time":4,"i_lat":-6.166716},{"station_name":"Sawah Besar","transit":false,"time":2,"station_id":"SW","distance":1149,"is_transit":false,"i_lat":-6.160725,"line":2,"i_long":106.827103},{"station_id":"MGB","transit":false,"i_long":106.82482,"is_transit":false,"time":2,"distance":906,"line":2,"station_name":"Manggabesar","i_lat":-6.149769},{"time":2,"station_name":"Jayakarta","i_lat":-6.141205,"transit":false,"distance":1080,"i_long":106.820901,"station_id":"JAY","is_transit":false,"line":2},{"station_id":"JAKK","i_lat":-6.137569,"distance":1264,"transit":true,"time":4,"is_transit":true,"i_long":106.812439,"line":2,"station_name":"Jakarta Kota"},{"distance":1364,"is_transit":true,"time":3,"line":4,"station_id":"KPB","station_name":"Kampung Bandan","transit":true,"i_long":106.826365,"i_lat":-6.132549},{"time":3,"station_id":"RJW","is_transit":false,"distance":1444,"transit":false,"i_lat":-6.14505,"station_name":"Rajawali","i_long":106.836569,"line":11},{"i_lat":-6.161728,"station_name":"Kemayoran","line":11,"transit":false,"distance":1901,"i_long":106.839204,"station_id":"KMO","time":5,"is_transit":false}]]}