{"data":[[{"i_long":106.861737,"is_transit":false,"transit":false,"line":11,"station_name":"Pondok Jati","time":0,"distance":0,"station_id":"POK","i_lat":-6.209188},{"station_name":"Jatinegara","station_id":"JNG","is_transit":true,"i_lat":-6.215091,"distance":1236,"i_long":106.86807400000001,"transit":true,"time":9,"line":1},{"i_long":106.858896,"transit":false,"distance":1377,"station_id":"MTR","line":1,"is_transit":false,"time":2,"station_name":"Matraman","i_lat":-6.212485},{"i_lat":-6.209883,"line":2,"i_long":106.84912,"transit":true,"station_name":"Manggarai","station_id":"MRI","is_transit":true,"time":2,"distance":1275},{"station_id":"TEB","i_lat":-6.226659,"distance":2610,"line":2,"transit":false,"station_name":"Tebet","is_transit":false,"time":4,"i_long":106.857948},{"station_id":"CW","i_long":106.856607,"i_lat":-6.242512,"transit":false,"time":2,"line":2,"station_name":"Cawang","distance":1230,"is_transit":false},{"time":3,"distance":1546,"station_id":"DRN","i_lat":-6.255332,"i_long":106.85449,"station_name":"Duren Kalibata","line":2,"transit":false,"is_transit":false},{"transit":false,"is_transit":false,"distance":824,"i_long":106.851577,"station_name":"Pasar Minggu Baru","line":2,"time":2,"station_id":"PSMB","i_lat":-6.263214},{"distance":2380,"transit":false,"is_transit":false,"station_name":"Pasar Minggu","station_id":"PSM","time":2,"i_lat":-6.2842400000000005,"i_long":106.843999,"line":2},{"time":4,"line":2,"transit":false,"station_name":"Tanjung Barat","i_long":106.838896,"station_id":"TNT","distance":2820,"i_lat":-6.3080680000000005,"is_transit":false},{"is_transit":false,"station_name":"Lenteng Agung","i_lat":-6.330363,"transit":false,"station_id":"LNA","i_long":106.832616,"line":2,"time":3,"distance":2671},{"i_long":106.834175,"transit":false,"distance":1029,"is_transit":false,"line":2,"station_name":"Univ. Pancasila","time":2,"station_id":"UP","i_lat":-6.339291},{"station_id":"UI","transit":false,"time":3,"i_long":106.831474,"i_lat":-6.360749,"distance":2264,"line":2,"station_name":"Univ. Indonesia","is_transit":false},{"station_id":"POC","i_lat":-6.369073,"station_name":"Pondok Cina","time":2,"distance":1109,"i_long":106.831114,"is_transit":false,"transit":false,"line":2},{"transit":false,"station_id":"DPB","is_transit":false,"station_name":"Depokbaru","time":4,"i_long":106.819451,"line":2,"distance":2727,"i_lat":-6.391065},{"i_lat":-6.405256,"station_id":"DP","is_transit":false,"distance":1584,"line":2,"i_long":106.816926,"time":3,"station_name":"Depok","transit":false},{"i_lat":-6.448811,"time":6,"line":2,"i_long":106.800298,"transit":false,"distance":5084,"station_name":"Citayam","is_transit":false,"station_id":"CTA"},{"transit":false,"station_name":"Bojonggede","time":5,"distance":5197,"station_id":"BJD","is_transit":false,"i_lat":-6.493243,"line":2,"i_long":106.792719},{"time":5,"i_lat":-6.530544,"distance":4331,"line":2,"is_transit":false,"station_name":"Cilebut","station_id":"CLT","i_long":106.800016,"transit":false}],[{"i_lat":-6.209188,"time":0,"station_id":"POK","line":11,"transit":false,"is_transit":false,"i_long":106.861737,"station_name":"Pondok Jati","distance":0},{"station_id":"KMT","is_transit":false,"i_lat":-6.193792,"station_name":"Kramat","i_long":106.855437,"distance":1829,"line":11,"transit":false,"time":2},{"distance":973,"line":11,"is_transit":false,"i_long":106.850107,"station_id":"GST","time":1,"station_name":"Gang Sentiong","transit":false,"i_lat":-6.185975},{"station_name":"Pasar Senen","i_long":106.84368,"transit":false,"time":8,"is_transit":false,"distance":1567,"i_lat":-6.174784,"line":11,"station_id":"PSE"},{"is_transit":false,"station_name":"Kemayoran","time":4,"station_id":"KMO","distance":1436,"i_lat":-6.161728,"i_long":106.839204,"transit":false,"line":11},{"station_id":"RJW","time":5,"is_transit":false,"transit":false,"i_lat":-6.14505,"distance":1901,"i_long":106.836569,"station_name":"Rajawali","line":11},{"station_name":"Kampung Bandan","time":3,"i_long":106.826365,"line":4,"is_transit":true,"distance":1444,"i_lat":-6.132549,"transit":true,"station_id":"KPB"},{"time":9,"i_long":106.79867,"station_name":"Angke","station_id":"AK","transit":false,"distance":4102,"i_lat":-6.144674,"line":1,"is_transit":false},{"i_long":106.800832,"i_lat":-6.155215,"line":1,"station_id":"DU","is_transit":false,"time":4,"transit":false,"distance":1230,"station_name":"Duri"},{"station_name":"Tanah Abang","is_transit":false,"i_lat":-6.185545,"distance":3632,"line":1,"transit":false,"time":8,"station_id":"THB","i_long":106.811091},{"station_name":"Karet","i_long":106.816351,"time":5,"line":1,"i_lat":-6.20132,"is_transit":false,"distance":2029,"station_id":"KAT","transit":false},{"is_transit":false,"line":1,"i_lat":-6.201433,"transit":false,"station_id":"SUDB","time":1,"station_name":"Sudirman Baru","distance":471,"i_long":106.819881},{"time":1,"distance":280,"is_transit":false,"transit":false,"i_lat":-6.202263,"line":1,"i_long":106.822649,"station_name":"Sudirman","station_id":"SUD"},{"station_name":"Manggarai","is_transit":true,"distance":3186,"i_long":106.84912,"time":4,"i_lat":-6.209883,"station_id":"MRI","transit":true,"line":2},{"i_long":106.857948,"transit":false,"time":4,"station_name":"Tebet","i_lat":-6.226659,"is_transit":false,"line":2,"station_id":"TEB","distance":2610},{"distance":1230,"i_long":106.856607,"line":2,"station_name":"Cawang","is_transit":false,"transit":false,"time":2,"station_id":"CW","i_lat":-6.242512},{"distance":1546,"i_lat":-6.255332,"line":2,"station_id":"DRN","is_transit":false,"i_long":106.85449,"station_name":"Duren Kalibata","transit":false,"time":3},{"transit":false,"i_long":106.851577,"distance":824,"is_transit":false,"station_name":"Pasar Minggu Baru","time":2,"line":2,"station_id":"PSMB","i_lat":-6.263214},{"transit":false,"station_id":"PSM","i_lat":-6.2842400000000005,"station_name":"Pasar Minggu","line":2,"is_transit":false,"time":2,"i_long":106.843999,"distance":2380},{"is_transit":false,"station_id":"TNT","i_lat":-6.3080680000000005,"transit":false,"distance":2820,"line":2,"station_name":"Tanjung Barat","time":4,"i_long":106.838896},{"transit":false,"time":3,"i_lat":-6.330363,"station_name":"Lenteng Agung","distance":2671,"line":2,"i_long":106.832616,"station_id":"LNA","is_transit":false},{"is_transit":false,"time":2,"i_lat":-6.339291,"station_id":"UP","line":2,"distance":1029,"transit":false,"i_long":106.834175,"station_name":"Univ. Pancasila"},{"i_long":106.831474,"time":3,"i_lat":-6.360749,"transit":false,"is_transit":false,"station_name":"Univ. Indonesia","station_id":"UI","line":2,"distance":2264},{"is_transit":false,"transit":false,"distance":1109,"i_long":106.831114,"station_id":"POC","i_lat":-6.369073,"station_name":"Pondok Cina","time":2,"line":2},{"is_transit":false,"transit":false,"station_name":"Depokbaru","distance":2727,"i_lat":-6.391065,"station_id":"DPB","i_long":106.819451,"line":2,"time":4},{"station_name":"Depok","i_lat":-6.405256,"is_transit":false,"distance":1584,"line":2,"transit":false,"station_id":"DP","time":3,"i_long":106.816926},{"i_long":106.800298,"is_transit":false,"i_lat":-6.448811,"distance":5084,"transit":false,"station_name":"Citayam","line":2,"station_id":"CTA","time":6},{"i_lat":-6.493243,"line":2,"time":5,"station_name":"Bojonggede","is_transit":false,"distance":5197,"transit":false,"station_id":"BJD","i_long":106.792719},{"station_name":"Cilebut","transit":false,"station_id":"CLT","is_transit":false,"time":5,"distance":4331,"i_long":106.800016,"i_lat":-6.530544,"line":2}],[{"is_transit":false,"station_name":"Pondok Jati","i_long":106.861737,"distance":0,"time":0,"transit":false,"station_id":"POK","i_lat":-6.209188,"line":11},{"line":11,"i_long":106.855437,"is_transit":false,"station_id":"KMT","i_lat":-6.193792,"transit":false,"station_name":"Kramat","distance":1829,"time":2},{"time":1,"station_id":"GST","i_long":106.850107,"i_lat":-6.185975,"line":11,"station_name":"Gang Sentiong","is_transit":false,"transit":false,"distance":973},{"i_lat":-6.174784,"i_long":106.84368,"line":11,"station_name":"Pasar Senen","transit":false,"station_id":"PSE","time":8,"is_transit":false,"distance":1567},{"i_lat":-6.161728,"time":4,"transit":false,"is_transit":false,"station_id":"KMO","line":11,"station_name":"Kemayoran","distance":1436,"i_long":106.839204},{"distance":1901,"station_name":"Rajawali","station_id":"RJW","time":5,"transit":false,"line":11,"i_long":106.836569,"is_transit":false,"i_lat":-6.14505},{"i_long":106.826365,"line":4,"i_lat":-6.132549,"time":3,"station_id":"KPB","distance":1444,"is_transit":true,"station_name":"Kampung Bandan","transit":true},{"time":3,"distance":1364,"station_id":"JAKK","station_name":"Jakarta Kota","i_lat":-6.137569,"i_long":106.812439,"transit":true,"is_transit":true,"line":2},{"i_long":106.820901,"station_name":"Jayakarta","is_transit":false,"time":4,"distance":1264,"line":2,"i_lat":-6.141205,"station_id":"JAY","transit":false},{"time":2,"i_lat":-6.149769,"line":2,"distance":1080,"i_long":106.82482,"station_name":"Manggabesar","station_id":"MGB","transit":false,"is_transit":false},{"distance":906,"i_lat":-6.160725,"i_long":106.827103,"station_name":"Sawah Besar","transit":false,"station_id":"SW","is_transit":false,"line":2,"time":2},{"station_name":"Juanda","distance":1149,"station_id":"JUA","is_transit":false,"i_long":106.828284,"transit":false,"i_lat":-6.166716,"time":2,"line":2},{"time":4,"distance":2015,"i_lat":-6.186295,"i_long":106.832183,"station_id":"GDD","line":2,"station_name":"Gondangdia","is_transit":false,"transit":false},{"distance":1750,"station_name":"Cikini","line":2,"station_id":"CKI","is_transit":false,"i_lat":-6.198556,"time":3,"transit":false,"i_long":106.840169},{"is_transit":false,"transit":false,"distance":1590,"i_lat":-6.209883,"i_long":106.84912,"station_id":"MRI","time":4,"line":2,"station_name":"Manggarai"},{"time":4,"i_lat":-6.226659,"line":2,"is_transit":false,"station_name":"Tebet","distance":2610,"i_long":106.857948,"station_id":"TEB","transit":false},{"line":2,"i_long":106.856607,"distance":1230,"transit":false,"is_transit":false,"time":2,"i_lat":-6.242512,"station_id":"CW","station_name":"Cawang"},{"station_name":"Duren Kalibata","is_transit":false,"line":2,"transit":false,"station_id":"DRN","distance":1546,"i_long":106.85449,"i_lat":-6.255332,"time":3},{"is_transit":false,"i_long":106.851577,"station_name":"Pasar Minggu Baru","station_id":"PSMB","time":2,"distance":824,"line":2,"transit":false,"i_lat":-6.263214},{"time":2,"distance":2380,"is_transit":false,"station_name":"Pasar Minggu","station_id":"PSM","i_lat":-6.2842400000000005,"i_long":106.843999,"transit":false,"line":2},{"line":2,"i_long":106.838896,"station_id":"TNT","transit":false,"is_transit":false,"station_name":"Tanjung Barat","time":4,"distance":2820,"i_lat":-6.3080680000000005},{"station_id":"LNA","line":2,"distance":2671,"station_name":"Lenteng Agung","i_long":106.832616,"transit":false,"is_transit":false,"i_lat":-6.330363,"time":3},{"is_transit":false,"i_long":106.834175,"transit":false,"station_name":"Univ. Pancasila","distance":1029,"station_id":"UP","time":2,"i_lat":-6.339291,"line":2},{"line":2,"station_name":"Univ. Indonesia","distance":2264,"station_id":"UI","time":3,"i_long":106.831474,"transit":false,"i_lat":-6.360749,"is_transit":false},{"station_id":"POC","is_transit":false,"i_lat":-6.369073,"i_long":106.831114,"time":2,"distance":1109,"line":2,"transit":false,"station_name":"Pondok Cina"},{"is_transit":false,"time":4,"station_id":"DPB","i_long":106.819451,"distance":2727,"transit":false,"i_lat":-6.391065,"station_name":"Depokbaru","line":2},{"i_lat":-6.405256,"distance":1584,"i_long":106.816926,"station_name":"Depok","is_transit":false,"time":3,"line":2,"station_id":"DP","transit":false},{"distance":5084,"i_lat":-6.448811,"station_name":"Citayam","transit":false,"station_id":"CTA","is_transit":false,"time":6,"line":2,"i_long":106.800298},{"station_id":"BJD","i_lat":-6.493243,"i_long":106.792719,"line":2,"station_name":"Bojonggede","is_transit":false,"time":5,"transit":false,"distance":5197},{"time":5,"i_lat":-6.530544,"station_name":"Cilebut","i_long":106.800016,"line":2,"distance":4331,"is_transit":false,"transit":false,"station_id":"CLT"}]]}