{"data":[[{"transit":false,"station_name":"Pondok Jati","line":11,"i_lat":-6.209188,"i_long":106.861737,"distance":0,"is_transit":false,"station_id":"POK","time":0},{"station_name":"Jatinegara","distance":1236,"time":9,"station_id":"JNG","is_transit":true,"i_lat":-6.215091,"i_long":106.86807400000001,"line":1,"transit":true},{"time":2,"distance":1377,"line":1,"is_transit":false,"station_id":"MTR","transit":false,"i_long":106.858896,"station_name":"Matraman","i_lat":-6.212485},{"station_id":"MRI","transit":true,"is_transit":true,"distance":1275,"i_long":106.84912,"time":2,"line":2,"station_name":"Manggarai","i_lat":-6.209883},{"distance":2610,"station_name":"Tebet","i_lat":-6.226659,"is_transit":false,"transit":false,"line":2,"station_id":"TEB","i_long":106.857948,"time":4},{"line":2,"transit":false,"station_name":"Cawang","station_id":"CW","time":2,"i_lat":-6.242512,"i_long":106.856607,"is_transit":false,"distance":1230},{"transit":false,"station_id":"DRN","distance":1546,"i_long":106.85449,"i_lat":-6.255332,"line":2,"time":3,"station_name":"Duren Kalibata","is_transit":false},{"station_id":"PSMB","time":2,"line":2,"i_lat":-6.263214,"i_long":106.851577,"station_name":"Pasar Minggu Baru","is_transit":false,"distance":824,"transit":false},{"station_id":"PSM","transit":false,"i_lat":-6.2842400000000005,"i_long":106.843999,"station_name":"Pasar Minggu","is_transit":false,"line":2,"distance":2380,"time":2},{"i_long":106.838896,"station_id":"TNT","time":4,"distance":2820,"station_name":"Tanjung Barat","i_lat":-6.3080680000000005,"line":2,"is_transit":false,"transit":false},{"station_id":"LNA","distance":2671,"transit":false,"is_transit":false,"i_lat":-6.330363,"i_long":106.832616,"line":2,"station_name":"Lenteng Agung","time":3},{"station_id":"UP","time":2,"is_transit":false,"station_name":"Univ. Pancasila","distance":1029,"i_lat":-6.339291,"line":2,"transit":false,"i_long":106.834175},{"station_id":"UI","i_long":106.831474,"transit":false,"station_name":"Univ. Indonesia","time":3,"distance":2264,"i_lat":-6.360749,"line":2,"is_transit":false},{"station_name":"Pondok Cina","transit":false,"is_transit":false,"distance":1109,"time":2,"station_id":"POC","i_lat":-6.369073,"i_long":106.831114,"line":2},{"line":2,"distance":2727,"transit":false,"station_name":"Depokbaru","is_transit":false,"time":4,"i_lat":-6.391065,"station_id":"DPB","i_long":106.819451},{"time":3,"station_name":"Depok","i_long":106.816926,"station_id":"DP","line":2,"distance":1584,"i_lat":-6.405256,"transit":false,"is_transit":false},{"is_transit":true,"i_long":106.800298,"distance":5084,"station_id":"CTA","time":6,"i_lat":-6.448811,"transit":true,"station_name":"Citayam","line":2},{"i_long":106.824374,"line":21,"station_name":"Pondok Rajeg","is_transit":false,"distance":0,"transit":false,"time":0,"station_id":"PDRG","i_lat":-6.460735},{"transit":false,"distance":0,"station_name":"Cibinong","is_transit":false,"time":0,"line":21,"station_id":"CBN","i_lat":-6.46424,"i_long":106.851978},{"i_long":106.905196,"is_transit":false,"distance":6527,"i_lat":-6.466285,"time":10,"station_id":"NMO","line":21,"transit":false,"station_name":"Nambo"}],[{"station_id":"POK","time":0,"transit":false,"station_name":"Pondok Jati","line":11,"i_long":106.861737,"distance":0,"is_transit":false,"i_lat":-6.209188},{"i_lat":-6.193792,"line":11,"station_name":"Kramat","distance":1829,"i_long":106.855437,"is_transit":false,"transit":false,"station_id":"KMT","time":2},{"is_transit":false,"station_name":"Gang Sentiong","line":11,"distance":973,"i_long":106.850107,"transit":false,"time":1,"i_lat":-6.185975,"station_id":"GST"},{"station_id":"PSE","transit":false,"station_name":"Pasar Senen","i_lat":-6.174784,"line":11,"i_long":106.84368,"is_transit":false,"time":8,"distance":1567},{"is_transit":false,"transit":false,"station_name":"Kemayoran","i_long":106.839204,"i_lat":-6.161728,"line":11,"station_id":"KMO","distance":1436,"time":4},{"station_name":"Rajawali","time":5,"line":11,"transit":false,"is_transit":false,"station_id":"RJW","i_lat":-6.14505,"i_long":106.836569,"distance":1901},{"i_lat":-6.132549,"i_long":106.826365,"station_id":"KPB","is_transit":true,"station_name":"Kampung Bandan","distance":1444,"line":4,"transit":true,"time":3},{"i_long":106.79867,"line":1,"station_name":"Angke","transit":false,"distance":4102,"station_id":"AK","is_transit":false,"time":9,"i_lat":-6.144674},{"time":4,"line":1,"transit":false,"distance":1230,"station_id":"DU","i_long":106.800832,"is_transit":false,"station_name":"Duri","i_lat":-6.155215},{"is_transit":false,"station_name":"Tanah Abang","station_id":"THB","i_lat":-6.185545,"line":1,"time":8,"i_long":106.811091,"distance":3632,"transit":false},{"i_long":106.816351,"time":5,"transit":false,"distance":2029,"is_transit":false,"i_lat":-6.20132,"station_name":"Karet","line":1,"station_id":"KAT"},{"i_long":106.819881,"time":1,"transit":false,"i_lat":-6.201433,"line":1,"is_transit":false,"station_id":"SUDB","distance":471,"station_name":"Sudirman Baru"},{"time":1,"station_id":"SUD","is_transit":false,"station_name":"Sudirman","distance":280,"i_lat":-6.202263,"i_long":106.822649,"transit":false,"line":1},{"transit":true,"station_id":"MRI","station_name":"Manggarai","i_lat":-6.209883,"distance":3186,"i_long":106.84912,"time":4,"is_transit":true,"line":2},{"distance":2610,"i_lat":-6.226659,"i_long":106.857948,"station_id":"TEB","line":2,"is_transit":false,"time":4,"station_name":"Tebet","transit":false},{"transit":false,"line":2,"station_id":"CW","distance":1230,"is_transit":false,"i_lat":-6.242512,"i_long":106.856607,"time":2,"station_name":"Cawang"},{"distance":1546,"is_transit":false,"i_lat":-6.255332,"line":2,"station_id":"DRN","i_long":106.85449,"station_name":"Duren Kalibata","transit":false,"time":3},{"time":2,"station_id":"PSMB","i_long":106.851577,"distance":824,"transit":false,"i_lat":-6.263214,"station_name":"Pasar Minggu Baru","is_transit":false,"line":2},{"i_lat":-6.2842400000000005,"is_transit":false,"station_id":"PSM","station_name":"Pasar Minggu","i_long":106.843999,"time":2,"distance":2380,"transit":false,"line":2},{"i_lat":-6.3080680000000005,"distance":2820,"line":2,"transit":false,"is_transit":false,"station_name":"Tanjung Barat","time":4,"i_long":106.838896,"station_id":"TNT"},{"transit":false,"station_id":"LNA","is_transit":false,"station_name":"Lenteng Agung","i_lat":-6.330363,"line":2,"time":3,"i_long":106.832616,"distance":2671},{"transit":false,"i_lat":-6.339291,"station_name":"Univ. Pancasila","station_id":"UP","is_transit":false,"i_long":106.834175,"distance":1029,"line":2,"time":2},{"is_transit":false,"station_name":"Univ. Indonesia","time":3,"i_lat":-6.360749,"i_long":106.831474,"station_id":"UI","transit":false,"distance":2264,"line":2},{"station_name":"Pondok Cina","transit":false,"distance":1109,"is_transit":false,"i_lat":-6.369073,"i_long":106.831114,"time":2,"line":2,"station_id":"POC"},{"time":4,"station_name":"Depokbaru","i_lat":-6.391065,"transit":false,"station_id":"DPB","distance":2727,"i_long":106.819451,"line":2,"is_transit":false},{"is_transit":false,"transit":false,"i_long":106.816926,"station_name":"Depok","station_id":"DP","time":3,"distance":1584,"i_lat":-6.405256,"line":2},{"station_id":"CTA","i_lat":-6.448811,"time":6,"line":2,"transit":true,"is_transit":true,"station_name":"Citayam","i_long":106.800298,"distance":5084},{"line":21,"distance":0,"i_lat":-6.460735,"transit":false,"time":0,"station_id":"PDRG","station_name":"Pondok Rajeg","i_long":106.824374,"is_transit":false},{"station_name":"Cibinong","station_id":"CBN","i_lat":-6.46424,"time":0,"distance":0,"transit":false,"i_long":106.851978,"line":21,"is_transit":false},{"time":10,"transit":false,"i_lat":-6.466285,"is_transit":false,"station_id":"NMO","i_long":106.905196,"line":21,"distance":6527,"station_name":"Nambo"}],[{"station_name":"Pondok Jati","time":0,"i_lat":-6.209188,"is_transit":false,"line":11,"distance":0,"station_id":"POK","i_long":106.861737,"transit":false},{"i_lat":-6.193792,"station_name":"Kramat","i_long":106.855437,"station_id":"KMT","line":11,"time":2,"is_transit":false,"distance":1829,"transit":false},{"distance":973,"transit":false,"is_transit":false,"station_name":"Gang Sentiong","station_id":"GST","time":1,"line":11,"i_long":106.850107,"i_lat":-6.185975},{"station_id":"PSE","time":8,"distance":1567,"station_name":"Pasar Senen","is_transit":false,"i_lat":-6.174784,"transit":false,"i_long":106.84368,"line":11},{"station_id":"KMO","i_long":106.839204,"time":4,"i_lat":-6.161728,"is_transit":false,"station_name":"Kemayoran","line":11,"transit":false,"distance":1436},{"i_lat":-6.14505,"station_name":"Rajawali","station_id":"RJW","time":5,"transit":false,"is_transit":false,"line":11,"distance":1901,"i_long":106.836569},{"station_name":"Kampung Bandan","station_id":"KPB","time":3,"distance":1444,"transit":true,"i_lat":-6.132549,"line":4,"i_long":106.826365,"is_transit":true},{"i_lat":-6.137569,"station_id":"JAKK","transit":true,"distance":1364,"is_transit":true,"time":3,"station_name":"Jakarta Kota","i_long":106.812439,"line":2},{"i_long":106.820901,"is_transit":false,"station_id":"JAY","i_lat":-6.141205,"time":4,"station_name":"Jayakarta","line":2,"transit":false,"distance":1264},{"i_lat":-6.149769,"i_long":106.82482,"is_transit":false,"time":2,"distance":1080,"line":2,"station_id":"MGB","transit":false,"station_name":"Manggabesar"},{"i_long":106.827103,"i_lat":-6.160725,"line":2,"transit":false,"station_id":"SW","station_name":"Sawah Besar","is_transit":false,"time":2,"distance":906},{"transit":false,"station_name":"Juanda","i_lat":-6.166716,"time":2,"station_id":"JUA","distance":1149,"i_long":106.828284,"line":2,"is_transit":false},{"is_transit":false,"time":4,"i_long":106.832183,"station_name":"Gondangdia","i_lat":-6.186295,"line":2,"transit":false,"distance":2015,"station_id":"GDD"},{"time":3,"i_lat":-6.198556,"is_transit":false,"distance":1750,"station_id":"CKI","i_long":106.840169,"station_name":"Cikini","transit":false,"line":2},{"i_lat":-6.209883,"line":2,"i_long":106.84912,"time":4,"station_name":"Manggarai","transit":false,"is_transit":false,"station_id":"MRI","distance":1590},{"transit":false,"i_lat":-6.226659,"time":4,"distance":2610,"is_transit":false,"line":2,"station_id":"TEB","station_name":"Tebet","i_long":106.857948},{"station_id":"CW","i_lat":-6.242512,"i_long":106.856607,"line":2,"is_transit":false,"transit":false,"time":2,"station_name":"Cawang","distance":1230},{"distance":1546,"line":2,"i_lat":-6.255332,"station_id":"DRN","station_name":"Duren Kalibata","transit":false,"time":3,"i_long":106.85449,"is_transit":false},{"i_long":106.851577,"is_transit":false,"station_id":"PSMB","line":2,"distance":824,"transit":false,"station_name":"Pasar Minggu Baru","i_lat":-6.263214,"time":2},{"station_name":"Pasar Minggu","station_id":"PSM","is_transit":false,"time":2,"i_lat":-6.2842400000000005,"line":2,"transit":false,"distance":2380,"i_long":106.843999},{"i_lat":-6.3080680000000005,"line":2,"transit":false,"is_transit":false,"distance":2820,"station_name":"Tanjung Barat","station_id":"TNT","time":4,"i_long":106.838896},{"time":3,"station_id":"LNA","station_name":"Lenteng Agung","distance":2671,"i_long":106.832616,"transit":false,"is_transit":false,"i_lat":-6.330363,"line":2},{"station_name":"Univ. Pancasila","station_id":"UP","distance":1029,"transit":false,"i_long":106.834175,"i_lat":-6.339291,"time":2,"line":2,"is_transit":false},{"transit":false,"distance":2264,"i_lat":-6.360749,"line":2,"is_transit":false,"i_long":106.831474,"station_name":"Univ. Indonesia","station_id":"UI","time":3},{"station_id":"POC","distance":1109,"is_transit":false,"transit":false,"time":2,"i_long":106.831114,"station_name":"Pondok Cina","line":2,"i_lat":-6.369073},{"station_id":"DPB","i_long":106.819451,"distance":2727,"transit":false,"station_name":"Depokbaru","is_transit":false,"i_lat":-6.391065,"line":2,"time":4},{"station_name":"Depok","line":2,"is_transit":false,"station_id":"DP","distance":1584,"i_lat":-6.405256,"transit":false,"i_long":106.816926,"time":3},{"transit":true,"station_name":"Citayam","distance":5084,"i_lat":-6.448811,"is_transit":true,"i_long":106.800298,"line":2,"time":6,"station_id":"CTA"},{"i_lat":-6.460735,"transit":false,"station_id":"PDRG","is_transit":false,"station_name":"Pondok Rajeg","time":0,"i_long":106.824374,"distance":0,"line":21},{"i_lat":-6.46424,"transit":false,"station_name":"Cibinong","station_id":"CBN","line":21,"i_long":106.851978,"is_transit":false,"distance":0,"time":0},{"is_transit":false,"transit":false,"station_id":"NMO","time":10,"distance":6527,"i_lat":-6.466285,"i_long":106.905196,"line":21,"station_name":"Nambo"}]]}