{"data":[[{"time":0,"line":11,"station_id":"POK","transit":false,"i_long":106.861737,"i_lat":-6.209188,"distance":0,"station_name":"Pondok Jati","is_transit":false},{"station_id":"JNG","station_name":"Jatinegara","is_transit":true,"line":1,"i_lat":-6.215091,"time":9,"distance":1236,"transit":true,"i_long":106.86807400000001},{"distance":1377,"station_id":"MTR","is_transit":false,"time":2,"station_name":"Matraman","i_lat":-6.212485,"line":1,"transit":false,"i_long":106.858896},{"time":2,"distance":1275,"i_lat":-6.209883,"transit":false,"station_id":"MRI","is_transit":false,"i_long":106.84912,"line":2,"station_name":"Manggarai"},{"i_lat":-6.202263,"time":4,"station_name":"Sudirman","line":1,"transit":false,"i_long":106.822649,"station_id":"SUD","is_transit":false,"distance":3186},{"line":1,"i_lat":-6.201433,"station_name":"Sudirman Baru","station_id":"SUDB","is_transit":false,"i_long":106.819881,"time":1,"transit":false,"distance":280},{"distance":471,"i_lat":-6.20132,"i_long":106.816351,"station_name":"Karet","transit":false,"station_id":"KAT","is_transit":false,"line":1,"time":1},{"time":5,"station_id":"THB","i_lat":-6.185545,"i_long":106.811091,"line":1,"is_transit":true,"transit":true,"distance":2029,"station_name":"Tanah Abang"},{"line":6,"station_name":"Palmerah","station_id":"PLM","i_long":106.79689,"time":6,"distance":3191,"is_transit":false,"transit":false,"i_lat":-6.207404},{"station_name":"Kebayoran","is_transit":false,"time":7,"distance":3737,"transit":false,"i_lat":-6.237242,"station_id":"KBY","line":6,"i_long":106.780334},{"i_lat":-6.276362,"transit":false,"is_transit":false,"i_long":106.74273,"line":6,"station_id":"PDJ","time":8,"distance":6218,"station_name":"Pondokranji"},{"time":3,"i_lat":-6.288927,"station_id":"JMU","line":6,"transit":false,"i_long":106.728916,"station_name":"Jurangmangu","distance":2179,"is_transit":false}],[{"i_long":106.861737,"is_transit":false,"distance":0,"station_name":"Pondok Jati","time":0,"transit":false,"line":11,"station_id":"POK","i_lat":-6.209188},{"distance":1829,"i_lat":-6.193792,"is_transit":false,"i_long":106.855437,"line":11,"transit":false,"station_name":"Kramat","station_id":"KMT","time":2},{"transit":false,"i_long":106.850107,"line":11,"distance":973,"time":1,"station_id":"GST","is_transit":false,"i_lat":-6.185975,"station_name":"Gang Sentiong"},{"i_lat":-6.174784,"distance":1567,"station_id":"PSE","line":11,"is_transit":false,"time":8,"station_name":"Pasar Senen","transit":false,"i_long":106.84368},{"distance":1436,"i_lat":-6.161728,"station_id":"KMO","time":4,"is_transit":false,"transit":false,"i_long":106.839204,"station_name":"Kemayoran","line":11},{"station_name":"Rajawali","station_id":"RJW","transit":false,"time":5,"line":11,"is_transit":false,"i_lat":-6.14505,"distance":1901,"i_long":106.836569},{"time":3,"i_lat":-6.132549,"station_name":"Kampung Bandan","distance":1444,"is_transit":true,"station_id":"KPB","i_long":106.826365,"line":4,"transit":true},{"distance":4102,"station_name":"Angke","time":9,"transit":false,"i_lat":-6.144674,"is_transit":false,"station_id":"AK","i_long":106.79867,"line":1},{"is_transit":false,"time":4,"i_lat":-6.155215,"distance":1230,"station_name":"Duri","station_id":"DU","line":1,"transit":false,"i_long":106.800832},{"station_name":"Tanah Abang","distance":3632,"transit":true,"station_id":"THB","line":1,"is_transit":true,"i_lat":-6.185545,"i_long":106.811091,"time":8},{"station_id":"PLM","station_name":"Palmerah","i_long":106.79689,"transit":false,"line":6,"is_transit":false,"distance":3191,"i_lat":-6.207404,"time":6},{"i_lat":-6.237242,"line":6,"i_long":106.780334,"transit":false,"distance":3737,"time":7,"station_id":"KBY","is_transit":false,"station_name":"Kebayoran"},{"transit":false,"station_name":"Pondokranji","line":6,"i_lat":-6.276362,"time":8,"distance":6218,"is_transit":false,"station_id":"PDJ","i_long":106.74273},{"distance":2179,"i_long":106.728916,"time":3,"i_lat":-6.288927,"station_name":"Jurangmangu","transit":false,"station_id":"JMU","line":6,"is_transit":false}],[{"time":0,"is_transit":false,"station_name":"Pondok Jati","station_id":"POK","i_lat":-6.209188,"i_long":106.861737,"distance":0,"transit":false,"line":11},{"i_lat":-6.215091,"station_name":"Jatinegara","distance":1236,"transit":true,"line":1,"is_transit":true,"station_id":"JNG","time":9,"i_long":106.86807400000001},{"time":2,"station_name":"Matraman","i_long":106.858896,"line":1,"is_transit":false,"station_id":"MTR","distance":1377,"i_lat":-6.212485,"transit":false},{"time":2,"transit":true,"station_id":"MRI","is_transit":true,"i_long":106.84912,"station_name":"Manggarai","distance":1275,"i_lat":-6.209883,"line":2},{"i_lat":-6.198556,"distance":1590,"time":4,"transit":false,"line":2,"is_transit":false,"station_name":"Cikini","i_long":106.840169,"station_id":"CKI"},{"station_id":"GDD","line":2,"time":3,"i_long":106.832183,"distance":1750,"i_lat":-6.186295,"station_name":"Gondangdia","is_transit":false,"transit":false},{"time":4,"distance":2015,"transit":false,"is_transit":false,"i_lat":-6.166716,"line":2,"i_long":106.828284,"station_id":"JUA","station_name":"Juanda"},{"transit":false,"station_id":"SW","line":2,"i_lat":-6.160725,"i_long":106.827103,"station_name":"Sawah Besar","time":2,"is_transit":false,"distance":1149},{"i_long":106.82482,"is_transit":false,"time":2,"station_id":"MGB","distance":906,"i_lat":-6.149769,"line":2,"station_name":"Manggabesar","transit":false},{"time":2,"station_name":"Jayakarta","i_lat":-6.141205,"distance":1080,"transit":false,"station_id":"JAY","line":2,"is_transit":false,"i_long":106.820901},{"distance":1264,"station_name":"Jakarta Kota","i_lat":-6.137569,"station_id":"JAKK","time":4,"transit":true,"line":2,"i_long":106.812439,"is_transit":true},{"i_lat":-6.132549,"station_name":"Kampung Bandan","distance":1364,"time":3,"i_long":106.826365,"is_transit":true,"line":4,"station_id":"KPB","transit":true},{"station_name":"Angke","is_transit":false,"i_lat":-6.144674,"i_long":106.79867,"transit":false,"time":9,"distance":4102,"line":1,"station_id":"AK"},{"line":1,"transit":false,"i_lat":-6.155215,"distance":1230,"is_transit":false,"i_long":106.800832,"station_name":"Duri","time":4,"station_id":"DU"},{"station_name":"Tanah Abang","i_lat":-6.185545,"is_transit":true,"transit":true,"distance":3632,"time":8,"i_long":106.811091,"station_id":"THB","line":1},{"station_name":"Palmerah","line":6,"i_long":106.79689,"station_id":"PLM","transit":false,"is_transit":false,"time":6,"i_lat":-6.207404,"distance":3191},{"station_id":"KBY","transit":false,"i_lat":-6.237242,"line":6,"time":7,"station_name":"Kebayoran","is_transit":false,"i_long":106.780334,"distance":3737},{"distance":6218,"station_name":"Pondokranji","line":6,"station_id":"PDJ","transit":false,"i_lat":-6.276362,"time":8,"i_long":106.74273,"is_transit":false},{"transit":false,"is_transit":false,"time":3,"line":6,"station_id":"JMU","station_name":"Jurangmangu","i_lat":-6.288927,"i_long":106.728916,"distance":2179}],[{"i_long":106.861737,"distance":0,"line":11,"time":0,"transit":false,"station_name":"Pondok Jati","station_id":"POK","i_lat":-6.209188,"is_transit":false},{"time":2,"i_long":106.855437,"line":11,"is_transit":false,"distance":1829,"station_id":"KMT","i_lat":-6.193792,"transit":false,"station_name":"Kramat"},{"is_transit":false,"distance":973,"time":1,"transit":false,"station_name":"Gang Sentiong","station_id":"GST","i_lat":-6.185975,"i_long":106.850107,"line":11},{"i_long":106.84368,"transit":false,"is_transit":false,"distance":1567,"line":11,"station_name":"Pasar Senen","i_lat":-6.174784,"time":8,"station_id":"PSE"},{"transit":false,"distance":1436,"is_transit":false,"line":11,"i_long":106.839204,"station_name":"Kemayoran","i_lat":-6.161728,"station_id":"KMO","time":4},{"is_transit":false,"line":11,"distance":1901,"station_name":"Rajawali","station_id":"RJW","i_lat":-6.14505,"i_long":106.836569,"transit":false,"time":5},{"transit":true,"station_name":"Kampung Bandan","is_transit":true,"distance":1444,"station_id":"KPB","time":3,"i_lat":-6.132549,"i_long":106.826365,"line":4},{"line":2,"i_lat":-6.137569,"is_transit":true,"transit":true,"time":3,"distance":1364,"station_id":"JAKK","station_name":"Jakarta Kota","i_long":106.812439},{"station_id":"JAY","is_transit":false,"distance":1264,"transit":false,"i_lat":-6.141205,"line":2,"time":4,"station_name":"Jayakarta","i_long":106.820901},{"station_name":"Manggabesar","line":2,"time":2,"i_long":106.82482,"transit":false,"is_transit":false,"distance":1080,"station_id":"MGB","i_lat":-6.149769},{"line":2,"time":2,"distance":906,"is_transit":false,"station_name":"Sawah Besar","station_id":"SW","i_lat":-6.160725,"i_long":106.827103,"transit":false},{"i_lat":-6.166716,"time":2,"distance":1149,"i_long":106.828284,"line":2,"station_id":"JUA","station_name":"Juanda","is_transit":false,"transit":false},{"is_transit":false,"transit":false,"distance":2015,"station_id":"GDD","station_name":"Gondangdia","line":2,"i_lat":-6.186295,"i_long":106.832183,"time":4},{"station_name":"Cikini","transit":false,"i_lat":-6.198556,"i_long":106.840169,"is_transit":false,"station_id":"CKI","time":3,"distance":1750,"line":2},{"time":4,"distance":1590,"station_name":"Manggarai","station_id":"MRI","i_lat":-6.209883,"is_transit":true,"transit":true,"i_long":106.84912,"line":2},{"transit":false,"distance":3186,"time":4,"is_transit":false,"station_name":"Sudirman","station_id":"SUD","i_lat":-6.202263,"i_long":106.822649,"line":1},{"time":1,"station_name":"Sudirman Baru","i_long":106.819881,"station_id":"SUDB","distance":280,"line":1,"is_transit":false,"transit":false,"i_lat":-6.201433},{"station_name":"Karet","line":1,"i_long":106.816351,"station_id":"KAT","time":1,"distance":471,"i_lat":-6.20132,"is_transit":false,"transit":false},{"station_name":"Tanah Abang","i_long":106.811091,"i_lat":-6.185545,"is_transit":true,"line":1,"station_id":"THB","time":5,"distance":2029,"transit":true},{"distance":3191,"line":6,"station_name":"Palmerah","is_transit":false,"transit":false,"time":6,"i_lat":-6.207404,"station_id":"PLM","i_long":106.79689},{"station_id":"KBY","distance":3737,"transit":false,"station_name":"Kebayoran","i_long":106.780334,"time":7,"line":6,"i_lat":-6.237242,"is_transit":false},{"time":8,"line":6,"is_transit":false,"transit":false,"i_long":106.74273,"station_name":"Pondokranji","station_id":"PDJ","distance":6218,"i_lat":-6.276362},{"i_lat":-6.288927,"transit":false,"line":6,"is_transit":false,"distance":2179,"station_name":"Jurangmangu","i_long":106.728916,"station_id":"JMU","time":3}]]}