{"data":[[{"station_name":"Pondok Jati","i_lat":-6.209188,"transit":false,"distance":0,"i_long":106.861737,"station_id":"POK","is_transit":false,"time":0,"line":11},{"is_transit":true,"time":9,"station_name":"Jatinegara","distance":1236,"transit":true,"i_long":106.86807400000001,"line":1,"i_lat":-6.215091,"station_id":"JNG"},{"station_id":"MTR","transit":false,"station_name":"Matraman","is_transit":false,"i_lat":-6.212485,"distance":1377,"line":1,"i_long":106.858896,"time":2},{"i_long":106.84912,"station_id":"MRI","is_transit":false,"distance":1275,"i_lat":-6.209883,"station_name":"Manggarai","time":2,"transit":false,"line":2},{"station_id":"SUD","distance":3186,"i_long":106.822649,"is_transit":false,"station_name":"Sudirman","time":4,"line":1,"i_lat":-6.202263,"transit":false},{"station_id":"SUDB","transit":false,"station_name":"Sudirman Baru","time":1,"i_long":106.819881,"line":1,"i_lat":-6.201433,"distance":280,"is_transit":false},{"is_transit":false,"station_name":"Karet","distance":471,"i_lat":-6.20132,"line":1,"time":1,"station_id":"KAT","i_long":106.816351,"transit":false},{"i_long":106.811091,"i_lat":-6.185545,"time":5,"transit":false,"distance":2029,"is_transit":false,"line":1,"station_id":"THB","station_name":"Tanah Abang"},{"i_long":106.800832,"i_lat":-6.155215,"distance":3632,"station_name":"Duri","is_transit":true,"line":1,"transit":true,"time":8,"station_id":"DU"},{"transit":false,"station_id":"GGL","distance":1700,"is_transit":false,"i_long":106.788277,"i_lat":-6.162021,"line":5,"station_name":"Grogol","time":3},{"i_long":106.771379,"i_lat":-6.161433,"distance":2036,"is_transit":false,"transit":false,"line":5,"station_id":"PSG","time":2,"station_name":"Pesing"},{"distance":1614,"i_lat":-6.1587309999999995,"transit":false,"time":2,"line":5,"is_transit":false,"i_long":106.756522,"station_id":"TKO","station_name":"Taman Kota"},{"transit":false,"station_name":"Bojongindah","i_lat":-6.159876,"i_long":106.737035,"station_id":"BOI","line":5,"is_transit":false,"distance":2334,"time":2},{"i_lat":-6.162758,"line":5,"is_transit":false,"time":4,"distance":1152,"transit":false,"station_id":"RW","i_long":106.723064,"station_name":"Rawa Buaya"},{"station_id":"KDS","time":3,"i_long":106.701612,"is_transit":false,"i_lat":-6.166068,"distance":2504,"line":5,"transit":false,"station_name":"Kalideres"},{"line":5,"distance":2548,"i_lat":-6.169933,"time":3,"station_id":"PI","station_name":"Poris","is_transit":false,"transit":false,"i_long":106.679458}],[{"line":11,"is_transit":false,"transit":false,"i_lat":-6.209188,"station_id":"POK","distance":0,"station_name":"Pondok Jati","time":0,"i_long":106.861737},{"transit":false,"station_name":"Kramat","i_long":106.855437,"distance":1829,"is_transit":false,"station_id":"KMT","line":11,"time":2,"i_lat":-6.193792},{"transit":false,"is_transit":false,"station_id":"GST","i_long":106.850107,"station_name":"Gang Sentiong","distance":973,"line":11,"time":1,"i_lat":-6.185975},{"transit":false,"time":8,"i_lat":-6.174784,"line":11,"station_id":"PSE","station_name":"Pasar Senen","is_transit":false,"i_long":106.84368,"distance":1567},{"i_lat":-6.161728,"distance":1436,"is_transit":false,"transit":false,"time":4,"station_id":"KMO","station_name":"Kemayoran","i_long":106.839204,"line":11},{"station_name":"Rajawali","distance":1901,"line":11,"is_transit":false,"time":5,"station_id":"RJW","i_lat":-6.14505,"i_long":106.836569,"transit":false},{"line":4,"i_long":106.826365,"distance":1444,"time":3,"station_name":"Kampung Bandan","station_id":"KPB","transit":true,"is_transit":true,"i_lat":-6.132549},{"i_lat":-6.144674,"station_name":"Angke","i_long":106.79867,"transit":false,"line":1,"distance":4102,"station_id":"AK","time":9,"is_transit":false},{"station_name":"Duri","station_id":"DU","time":4,"i_lat":-6.155215,"i_long":106.800832,"distance":1230,"line":1,"is_transit":true,"transit":true},{"line":5,"is_transit":false,"transit":false,"station_name":"Grogol","i_lat":-6.162021,"time":3,"i_long":106.788277,"station_id":"GGL","distance":1700},{"line":5,"time":2,"i_lat":-6.161433,"distance":2036,"is_transit":false,"station_id":"PSG","i_long":106.771379,"transit":false,"station_name":"Pesing"},{"is_transit":false,"distance":1614,"station_id":"TKO","i_lat":-6.1587309999999995,"transit":false,"i_long":106.756522,"line":5,"station_name":"Taman Kota","time":2},{"distance":2334,"line":5,"i_lat":-6.159876,"transit":false,"station_name":"Bojongindah","time":2,"is_transit":false,"i_long":106.737035,"station_id":"BOI"},{"transit":false,"station_id":"RW","is_transit":false,"time":4,"distance":1152,"station_name":"Rawa Buaya","i_long":106.723064,"line":5,"i_lat":-6.162758},{"transit":false,"i_long":106.701612,"line":5,"time":3,"station_name":"Kalideres","is_transit":false,"station_id":"KDS","distance":2504,"i_lat":-6.166068},{"station_name":"Poris","transit":false,"station_id":"PI","i_lat":-6.169933,"is_transit":false,"distance":2548,"line":5,"i_long":106.679458,"time":3}],[{"distance":0,"i_lat":-6.209188,"line":11,"station_name":"Pondok Jati","transit":false,"time":0,"i_long":106.861737,"station_id":"POK","is_transit":false},{"is_transit":true,"time":9,"line":1,"station_id":"JNG","i_lat":-6.215091,"station_name":"Jatinegara","i_long":106.86807400000001,"transit":true,"distance":1236},{"i_long":106.858896,"station_name":"Matraman","is_transit":false,"i_lat":-6.212485,"transit":false,"station_id":"MTR","time":2,"line":1,"distance":1377},{"is_transit":true,"line":2,"i_lat":-6.209883,"transit":true,"station_id":"MRI","time":2,"distance":1275,"i_long":106.84912,"station_name":"Manggarai"},{"station_name":"Cikini","i_lat":-6.198556,"line":2,"i_long":106.840169,"station_id":"CKI","is_transit":false,"distance":1590,"time":4,"transit":false},{"i_long":106.832183,"transit":false,"line":2,"is_transit":false,"distance":1750,"station_id":"GDD","i_lat":-6.186295,"station_name":"Gondangdia","time":3},{"line":2,"i_lat":-6.166716,"i_long":106.828284,"station_name":"Juanda","station_id":"JUA","is_transit":false,"time":4,"transit":false,"distance":2015},{"station_id":"SW","station_name":"Sawah Besar","distance":1149,"i_lat":-6.160725,"i_long":106.827103,"time":2,"line":2,"transit":false,"is_transit":false},{"distance":906,"i_lat":-6.149769,"i_long":106.82482,"transit":false,"station_id":"MGB","is_transit":false,"line":2,"station_name":"Manggabesar","time":2},{"transit":false,"is_transit":false,"line":2,"station_id":"JAY","distance":1080,"i_lat":-6.141205,"time":2,"i_long":106.820901,"station_name":"Jayakarta"},{"station_name":"Jakarta Kota","i_long":106.812439,"distance":1264,"is_transit":true,"transit":true,"station_id":"JAKK","time":4,"i_lat":-6.137569,"line":2},{"is_transit":true,"distance":1364,"line":4,"transit":true,"i_long":106.826365,"station_name":"Kampung Bandan","station_id":"KPB","i_lat":-6.132549,"time":3},{"line":1,"i_long":106.79867,"station_name":"Angke","station_id":"AK","is_transit":false,"distance":4102,"i_lat":-6.144674,"time":9,"transit":false},{"i_long":106.800832,"is_transit":true,"time":4,"transit":true,"station_id":"DU","distance":1230,"station_name":"Duri","i_lat":-6.155215,"line":1},{"transit":false,"station_name":"Grogol","station_id":"GGL","distance":1700,"i_lat":-6.162021,"line":5,"time":3,"i_long":106.788277,"is_transit":false},{"distance":2036,"station_id":"PSG","line":5,"is_transit":false,"i_lat":-6.161433,"time":2,"station_name":"Pesing","i_long":106.771379,"transit":false},{"i_long":106.756522,"transit":false,"time":2,"station_name":"Taman Kota","station_id":"TKO","line":5,"i_lat":-6.1587309999999995,"distance":1614,"is_transit":false},{"station_name":"Bojongindah","transit":false,"distance":2334,"i_long":106.737035,"is_transit":false,"time":2,"i_lat":-6.159876,"station_id":"BOI","line":5},{"i_long":106.723064,"transit":false,"time":4,"is_transit":false,"station_id":"RW","i_lat":-6.162758,"line":5,"station_name":"Rawa Buaya","distance":1152},{"line":5,"transit":false,"is_transit":false,"time":3,"distance":2504,"i_lat":-6.166068,"station_id":"KDS","i_long":106.701612,"station_name":"Kalideres"},{"i_long":106.679458,"time":3,"distance":2548,"station_name":"Poris","i_lat":-6.169933,"is_transit":false,"transit":false,"line":5,"station_id":"PI"}],[{"distance":0,"station_name":"Pondok Jati","line":11,"i_lat":-6.209188,"transit":false,"station_id":"POK","time":0,"i_long":106.861737,"is_transit":false},{"time":2,"is_transit":false,"i_lat":-6.193792,"distance":1829,"i_long":106.855437,"transit":false,"station_name":"Kramat","line":11,"station_id":"KMT"},{"time":1,"station_name":"Gang Sentiong","line":11,"i_lat":-6.185975,"distance":973,"is_transit":false,"station_id":"GST","transit":false,"i_long":106.850107},{"distance":1567,"line":11,"i_long":106.84368,"time":8,"transit":false,"is_transit":false,"station_name":"Pasar Senen","station_id":"PSE","i_lat":-6.174784},{"i_long":106.839204,"i_lat":-6.161728,"transit":false,"is_transit":false,"line":11,"station_id":"KMO","time":4,"distance":1436,"station_name":"Kemayoran"},{"is_transit":false,"time":5,"station_name":"Rajawali","distance":1901,"i_long":106.836569,"transit":false,"i_lat":-6.14505,"station_id":"RJW","line":11},{"i_lat":-6.132549,"i_long":106.826365,"station_name":"Kampung Bandan","is_transit":true,"transit":true,"station_id":"KPB","line":4,"distance":1444,"time":3},{"station_id":"JAKK","is_transit":true,"distance":1364,"time":3,"station_name":"Jakarta Kota","transit":true,"i_lat":-6.137569,"i_long":106.812439,"line":2},{"distance":1264,"transit":false,"time":4,"i_long":106.820901,"station_name":"Jayakarta","is_transit":false,"i_lat":-6.141205,"station_id":"JAY","line":2},{"distance":1080,"station_name":"Manggabesar","i_long":106.82482,"station_id":"MGB","i_lat":-6.149769,"line":2,"transit":false,"is_transit":false,"time":2},{"i_lat":-6.160725,"station_id":"SW","i_long":106.827103,"transit":false,"station_name":"Sawah Besar","is_transit":false,"distance":906,"time":2,"line":2},{"line":2,"station_id":"JUA","is_transit":false,"station_name":"Juanda","i_long":106.828284,"i_lat":-6.166716,"transit":false,"time":2,"distance":1149},{"station_id":"GDD","distance":2015,"time":4,"transit":false,"i_lat":-6.186295,"is_transit":false,"i_long":106.832183,"station_name":"Gondangdia","line":2},{"i_lat":-6.198556,"station_id":"CKI","time":3,"distance":1750,"line":2,"i_long":106.840169,"station_name":"Cikini","transit":false,"is_transit":false},{"transit":true,"station_id":"MRI","i_lat":-6.209883,"station_name":"Manggarai","is_transit":true,"distance":1590,"i_long":106.84912,"line":2,"time":4},{"i_lat":-6.202263,"station_name":"Sudirman","i_long":106.822649,"line":1,"time":4,"transit":false,"distance":3186,"station_id":"SUD","is_transit":false},{"station_name":"Sudirman Baru","i_long":106.819881,"line":1,"i_lat":-6.201433,"distance":280,"station_id":"SUDB","is_transit":false,"transit":false,"time":1},{"station_name":"Karet","i_long":106.816351,"time":1,"i_lat":-6.20132,"distance":471,"transit":false,"station_id":"KAT","is_transit":false,"line":1},{"station_id":"THB","line":1,"station_name":"Tanah Abang","is_transit":false,"i_lat":-6.185545,"distance":2029,"time":5,"transit":false,"i_long":106.811091},{"station_name":"Duri","is_transit":true,"transit":true,"time":8,"i_lat":-6.155215,"line":1,"distance":3632,"i_long":106.800832,"station_id":"DU"},{"distance":1700,"time":3,"line":5,"i_lat":-6.162021,"station_id":"GGL","i_long":106.788277,"station_name":"Grogol","is_transit":false,"transit":false},{"is_transit":false,"station_id":"PSG","time":2,"station_name":"Pesing","line":5,"transit":false,"i_lat":-6.161433,"distance":2036,"i_long":106.771379},{"distance":1614,"transit":false,"time":2,"is_transit":false,"i_lat":-6.1587309999999995,"line":5,"station_id":"TKO","i_long":106.756522,"station_name":"Taman Kota"},{"station_id":"BOI","is_transit":false,"i_long":106.737035,"line":5,"time":2,"distance":2334,"i_lat":-6.159876,"transit":false,"station_name":"Bojongindah"},{"time":4,"distance":1152,"i_lat":-6.162758,"station_name":"Rawa Buaya","transit":false,"i_long":106.723064,"line":5,"station_id":"RW","is_transit":false},{"i_lat":-6.166068,"time":3,"station_id":"KDS","is_transit":false,"station_name":"Kalideres","distance":2504,"i_long":106.701612,"line":5,"transit":false},{"time":3,"i_lat":-6.169933,"line":5,"is_transit":false,"i_long":106.679458,"distance":2548,"station_id":"PI","transit":false,"station_name":"Poris"}]]}