{"data":[[{"distance":0,"time":0,"transit":false,"station_id":"POK","i_lat":-6.209188,"station_name":"Pondok Jati","is_transit":false,"i_long":106.861737,"line":11},{"i_long":106.86807400000001,"station_id":"JNG","distance":1236,"i_lat":-6.215091,"station_name":"Jatinegara","line":1,"time":9,"transit":true,"is_transit":true},{"time":2,"distance":1377,"station_id":"MTR","i_lat":-6.212485,"i_long":106.858896,"line":1,"station_name":"Matraman","transit":false,"is_transit":false},{"station_id":"MRI","is_transit":true,"distance":1275,"time":2,"transit":true,"i_long":106.84912,"station_name":"Manggarai","i_lat":-6.209883,"line":2},{"station_id":"TEB","line":2,"station_name":"Tebet","distance":2610,"is_transit":false,"transit":false,"i_lat":-6.226659,"i_long":106.857948,"time":4},{"distance":1230,"i_lat":-6.242512,"station_name":"Cawang","time":2,"station_id":"CW","is_transit":false,"i_long":106.856607,"line":2,"transit":false},{"station_id":"DRN","distance":1546,"transit":false,"i_lat":-6.255332,"station_name":"Duren Kalibata","is_transit":false,"time":3,"line":2,"i_long":106.85449},{"is_transit":false,"distance":824,"transit":false,"i_long":106.851577,"time":2,"station_id":"PSMB","i_lat":-6.263214,"line":2,"station_name":"Pasar Minggu Baru"},{"station_name":"Pasar Minggu","distance":2380,"time":2,"i_lat":-6.2842400000000005,"line":2,"is_transit":false,"station_id":"PSM","i_long":106.843999,"transit":false},{"i_long":106.838896,"station_name":"Tanjung Barat","time":4,"station_id":"TNT","line":2,"i_lat":-6.3080680000000005,"transit":false,"is_transit":false,"distance":2820},{"station_id":"LNA","i_lat":-6.330363,"station_name":"Lenteng Agung","distance":2671,"line":2,"time":3,"transit":false,"i_long":106.832616,"is_transit":false},{"distance":1029,"is_transit":false,"time":2,"line":2,"station_id":"UP","transit":false,"i_long":106.834175,"station_name":"Univ. Pancasila","i_lat":-6.339291},{"station_id":"UI","i_lat":-6.360749,"line":2,"i_long":106.831474,"is_transit":false,"time":3,"station_name":"Univ. Indonesia","distance":2264,"transit":false},{"is_transit":false,"station_id":"POC","station_name":"Pondok Cina","distance":1109,"i_long":106.831114,"i_lat":-6.369073,"transit":false,"time":2,"line":2},{"i_lat":-6.391065,"station_name":"Depokbaru","distance":2727,"line":2,"station_id":"DPB","i_long":106.819451,"time":4,"is_transit":false,"transit":false}],[{"i_lat":-6.209188,"distance":0,"transit":false,"i_long":106.861737,"line":11,"station_id":"POK","station_name":"Pondok Jati","is_transit":false,"time":0},{"time":2,"is_transit":false,"transit":false,"station_id":"KMT","line":11,"distance":1829,"station_name":"Kramat","i_long":106.855437,"i_lat":-6.193792},{"line":11,"is_transit":false,"distance":973,"time":1,"station_name":"Gang Sentiong","station_id":"GST","i_lat":-6.185975,"transit":false,"i_long":106.850107},{"time":8,"i_lat":-6.174784,"line":11,"i_long":106.84368,"distance":1567,"is_transit":false,"station_id":"PSE","transit":false,"station_name":"Pasar Senen"},{"station_id":"KMO","distance":1436,"time":4,"transit":false,"i_long":106.839204,"station_name":"Kemayoran","line":11,"is_transit":false,"i_lat":-6.161728},{"is_transit":false,"time":5,"transit":false,"i_lat":-6.14505,"line":11,"station_id":"RJW","station_name":"Rajawali","i_long":106.836569,"distance":1901},{"line":4,"time":3,"i_lat":-6.132549,"is_transit":true,"transit":true,"distance":1444,"station_id":"KPB","station_name":"Kampung Bandan","i_long":106.826365},{"i_long":106.79867,"station_id":"AK","line":1,"distance":4102,"transit":false,"time":9,"station_name":"Angke","is_transit":false,"i_lat":-6.144674},{"transit":false,"distance":1230,"station_name":"Duri","station_id":"DU","i_long":106.800832,"i_lat":-6.155215,"line":1,"time":4,"is_transit":false},{"line":1,"station_id":"THB","station_name":"Tanah Abang","is_transit":false,"distance":3632,"transit":false,"time":8,"i_long":106.811091,"i_lat":-6.185545},{"line":1,"distance":2029,"is_transit":false,"station_name":"Karet","station_id":"KAT","transit":false,"i_long":106.816351,"i_lat":-6.20132,"time":5},{"distance":471,"is_transit":false,"time":1,"station_id":"SUDB","transit":false,"line":1,"i_lat":-6.201433,"station_name":"Sudirman Baru","i_long":106.819881},{"station_id":"SUD","transit":false,"is_transit":false,"i_long":106.822649,"line":1,"time":1,"distance":280,"i_lat":-6.202263,"station_name":"Sudirman"},{"line":2,"i_long":106.84912,"i_lat":-6.209883,"station_name":"Manggarai","distance":3186,"time":4,"station_id":"MRI","is_transit":true,"transit":true},{"distance":2610,"station_name":"Tebet","is_transit":false,"station_id":"TEB","i_lat":-6.226659,"line":2,"transit":false,"time":4,"i_long":106.857948},{"station_name":"Cawang","is_transit":false,"transit":false,"i_long":106.856607,"time":2,"i_lat":-6.242512,"line":2,"station_id":"CW","distance":1230},{"transit":false,"i_lat":-6.255332,"distance":1546,"station_name":"Duren Kalibata","is_transit":false,"i_long":106.85449,"line":2,"station_id":"DRN","time":3},{"is_transit":false,"transit":false,"line":2,"distance":824,"i_long":106.851577,"i_lat":-6.263214,"station_id":"PSMB","station_name":"Pasar Minggu Baru","time":2},{"time":2,"station_id":"PSM","i_long":106.843999,"distance":2380,"is_transit":false,"line":2,"station_name":"Pasar Minggu","i_lat":-6.2842400000000005,"transit":false},{"station_name":"Tanjung Barat","is_transit":false,"i_lat":-6.3080680000000005,"line":2,"transit":false,"station_id":"TNT","distance":2820,"i_long":106.838896,"time":4},{"distance":2671,"i_long":106.832616,"station_id":"LNA","transit":false,"time":3,"line":2,"is_transit":false,"station_name":"Lenteng Agung","i_lat":-6.330363},{"station_id":"UP","station_name":"Univ. Pancasila","is_transit":false,"i_lat":-6.339291,"transit":false,"distance":1029,"line":2,"i_long":106.834175,"time":2},{"i_lat":-6.360749,"is_transit":false,"station_name":"Univ. Indonesia","line":2,"distance":2264,"time":3,"i_long":106.831474,"station_id":"UI","transit":false},{"i_lat":-6.369073,"time":2,"station_id":"POC","line":2,"station_name":"Pondok Cina","distance":1109,"transit":false,"is_transit":false,"i_long":106.831114},{"i_lat":-6.391065,"distance":2727,"time":4,"transit":false,"line":2,"is_transit":false,"station_id":"DPB","i_long":106.819451,"station_name":"Depokbaru"}],[{"i_lat":-6.209188,"transit":false,"i_long":106.861737,"station_id":"POK","station_name":"Pondok Jati","time":0,"line":11,"distance":0,"is_transit":false},{"station_name":"Kramat","distance":1829,"transit":false,"i_long":106.855437,"line":11,"i_lat":-6.193792,"time":2,"is_transit":false,"station_id":"KMT"},{"is_transit":false,"station_name":"Gang Sentiong","i_long":106.850107,"distance":973,"time":1,"transit":false,"i_lat":-6.185975,"line":11,"station_id":"GST"},{"distance":1567,"time":8,"station_name":"Pasar Senen","station_id":"PSE","is_transit":false,"transit":false,"i_lat":-6.174784,"i_long":106.84368,"line":11},{"is_transit":false,"transit":false,"time":4,"station_id":"KMO","i_lat":-6.161728,"i_long":106.839204,"line":11,"distance":1436,"station_name":"Kemayoran"},{"time":5,"i_lat":-6.14505,"station_id":"RJW","i_long":106.836569,"line":11,"distance":1901,"is_transit":false,"station_name":"Rajawali","transit":false},{"station_name":"Kampung Bandan","i_lat":-6.132549,"station_id":"KPB","is_transit":true,"i_long":106.826365,"time":3,"line":4,"distance":1444,"transit":true},{"transit":true,"distance":1364,"station_name":"Jakarta Kota","is_transit":true,"i_lat":-6.137569,"i_long":106.812439,"station_id":"JAKK","line":2,"time":3},{"distance":1264,"station_id":"JAY","is_transit":false,"line":2,"transit":false,"i_long":106.820901,"time":4,"station_name":"Jayakarta","i_lat":-6.141205},{"transit":false,"station_id":"MGB","time":2,"i_lat":-6.149769,"line":2,"distance":1080,"i_long":106.82482,"station_name":"Manggabesar","is_transit":false},{"station_id":"SW","i_long":106.827103,"distance":906,"time":2,"is_transit":false,"station_name":"Sawah Besar","transit":false,"i_lat":-6.160725,"line":2},{"is_transit":false,"i_long":106.828284,"station_id":"JUA","distance":1149,"time":2,"station_name":"Juanda","transit":false,"line":2,"i_lat":-6.166716},{"is_transit":false,"distance":2015,"station_name":"Gondangdia","time":4,"transit":false,"i_long":106.832183,"station_id":"GDD","i_lat":-6.186295,"line":2},{"time":3,"station_name":"Cikini","distance":1750,"is_transit":false,"station_id":"CKI","i_lat":-6.198556,"transit":false,"i_long":106.840169,"line":2},{"transit":false,"station_id":"MRI","station_name":"Manggarai","i_lat":-6.209883,"i_long":106.84912,"is_transit":false,"time":4,"line":2,"distance":1590},{"is_transit":false,"distance":2610,"line":2,"time":4,"i_long":106.857948,"transit":false,"i_lat":-6.226659,"station_name":"Tebet","station_id":"TEB"},{"line":2,"is_transit":false,"station_id":"CW","i_lat":-6.242512,"station_name":"Cawang","i_long":106.856607,"time":2,"transit":false,"distance":1230},{"line":2,"i_lat":-6.255332,"distance":1546,"station_id":"DRN","time":3,"is_transit":false,"i_long":106.85449,"station_name":"Duren Kalibata","transit":false},{"time":2,"distance":824,"station_name":"Pasar Minggu Baru","is_transit":false,"transit":false,"i_lat":-6.263214,"line":2,"i_long":106.851577,"station_id":"PSMB"},{"station_name":"Pasar Minggu","time":2,"station_id":"PSM","distance":2380,"is_transit":false,"i_long":106.843999,"i_lat":-6.2842400000000005,"line":2,"transit":false},{"time":4,"transit":false,"i_lat":-6.3080680000000005,"station_name":"Tanjung Barat","i_long":106.838896,"station_id":"TNT","distance":2820,"is_transit":false,"line":2},{"time":3,"i_long":106.832616,"line":2,"transit":false,"is_transit":false,"i_lat":-6.330363,"distance":2671,"station_name":"Lenteng Agung","station_id":"LNA"},{"line":2,"station_name":"Univ. Pancasila","is_transit":false,"i_long":106.834175,"distance":1029,"i_lat":-6.339291,"transit":false,"time":2,"station_id":"UP"},{"distance":2264,"time":3,"station_name":"Univ. Indonesia","i_long":106.831474,"i_lat":-6.360749,"line":2,"transit":false,"is_transit":false,"station_id":"UI"},{"line":2,"i_long":106.831114,"distance":1109,"is_transit":false,"i_lat":-6.369073,"time":2,"transit":false,"station_name":"Pondok Cina","station_id":"POC"},{"time":4,"is_transit":false,"i_lat":-6.391065,"line":2,"i_long":106.819451,"station_id":"DPB","transit":false,"station_name":"Depokbaru","distance":2727}]]}