{"data":[[{"i_long":106.861737,"is_transit":false,"transit":false,"distance":0,"time":0,"line":11,"station_id":"POK","i_lat":-6.209188,"station_name":"Pondok Jati"},{"time":9,"is_transit":true,"i_lat":-6.215091,"line":0,"distance":1236,"station_id":"JNG","i_long":106.86807400000001,"station_name":"Jatinegara","transit":true},{"is_transit":false,"transit":false,"i_lat":-6.212485,"station_id":"MTR","distance":1377,"time":2,"i_long":106.858896,"station_name":"Matraman","line":1},{"is_transit":true,"time":2,"station_id":"MRI","station_name":"Manggarai","transit":false,"distance":1275,"line":0,"i_lat":-6.209883,"i_long":106.84912},{"i_lat":-6.202263,"transit":false,"time":4,"is_transit":false,"line":1,"distance":3186,"station_name":"Sudirman","station_id":"SUD","i_long":106.822649},{"transit":false,"station_id":"SUDB","is_transit":false,"station_name":"Sudirman Baru","time":1,"i_lat":-6.201433,"i_long":106.819881,"line":1,"distance":280},{"is_transit":false,"time":1,"station_id":"KAT","i_lat":-6.20132,"i_long":106.816351,"line":1,"station_name":"Karet","distance":471,"transit":false},{"station_name":"Tanah Abang","i_lat":-6.185545,"line":1,"is_transit":true,"station_id":"THB","i_long":106.811091,"transit":false,"time":5,"distance":2029},{"station_id":"DU","is_transit":true,"distance":3632,"station_name":"Duri","line":1,"time":8,"i_lat":-6.155215,"transit":true,"i_long":106.800832},{"transit":false,"distance":1700,"i_long":106.788277,"time":3,"is_transit":false,"station_id":"GGL","station_name":"Grogol","line":5,"i_lat":-6.162021},{"time":2,"i_long":106.771379,"i_lat":-6.161433,"station_id":"PSG","distance":2036,"transit":false,"station_name":"Pesing","line":5,"is_transit":false},{"i_long":106.756522,"is_transit":false,"line":5,"i_lat":-6.1587309999999995,"distance":1614,"transit":false,"station_id":"TKO","station_name":"Taman Kota","time":2}],[{"station_name":"Pondok Jati","station_id":"POK","transit":false,"i_lat":-6.209188,"time":0,"i_long":106.861737,"line":11,"is_transit":false,"distance":0},{"station_id":"KMT","i_lat":-6.193792,"is_transit":false,"station_name":"Kramat","transit":false,"distance":1829,"i_long":106.855437,"time":2,"line":11},{"is_transit":false,"station_id":"GST","distance":973,"time":1,"i_lat":-6.185975,"transit":false,"station_name":"Gang Sentiong","i_long":106.850107,"line":11},{"line":11,"transit":false,"station_id":"PSE","time":8,"station_name":"Pasar Senen","i_lat":-6.174784,"is_transit":false,"i_long":106.84368,"distance":1567},{"is_transit":false,"time":4,"distance":1436,"line":11,"i_lat":-6.161728,"i_long":106.839204,"transit":false,"station_id":"KMO","station_name":"Kemayoran"},{"line":11,"is_transit":false,"station_id":"RJW","distance":1901,"transit":false,"i_lat":-6.14505,"i_long":106.836569,"time":5,"station_name":"Rajawali"},{"line":0,"station_name":"Kampung Bandan","is_transit":true,"transit":true,"i_long":106.826365,"i_lat":-6.132549,"distance":1444,"time":3,"station_id":"KPB"},{"i_long":106.79867,"time":9,"is_transit":false,"transit":false,"i_lat":-6.144674,"line":0,"station_id":"AK","station_name":"Angke","distance":4102},{"transit":true,"distance":1230,"station_id":"DU","line":1,"station_name":"Duri","i_lat":-6.155215,"is_transit":true,"time":4,"i_long":106.800832},{"transit":false,"i_long":106.788277,"line":5,"is_transit":false,"station_id":"GGL","station_name":"Grogol","time":3,"i_lat":-6.162021,"distance":1700},{"station_name":"Pesing","line":5,"transit":false,"distance":2036,"station_id":"PSG","i_lat":-6.161433,"i_long":106.771379,"is_transit":false,"time":2},{"station_name":"Taman Kota","line":5,"time":2,"distance":1614,"transit":false,"station_id":"TKO","i_long":106.756522,"i_lat":-6.1587309999999995,"is_transit":false}],[{"line":11,"distance":0,"station_id":"POK","is_transit":false,"i_lat":-6.209188,"transit":false,"station_name":"Pondok Jati","i_long":106.861737,"time":0},{"i_lat":-6.215091,"i_long":106.86807400000001,"line":0,"transit":true,"station_name":"Jatinegara","station_id":"JNG","distance":1236,"is_transit":true,"time":9},{"line":1,"station_name":"Matraman","i_lat":-6.212485,"distance":1377,"i_long":106.858896,"station_id":"MTR","transit":false,"time":2,"is_transit":false},{"i_lat":-6.209883,"transit":true,"time":2,"i_long":106.84912,"line":0,"distance":1275,"is_transit":true,"station_id":"MRI","station_name":"Manggarai"},{"distance":1590,"station_name":"Cikini","time":4,"i_long":106.840169,"station_id":"CKI","transit":false,"line":0,"is_transit":false,"i_lat":-6.198556},{"i_lat":-6.186295,"station_name":"Gondangdia","distance":1750,"line":2,"i_long":106.832183,"time":3,"transit":false,"is_transit":false,"station_id":"GDD"},{"time":4,"distance":2015,"station_id":"JUA","is_transit":false,"station_name":"Juanda","i_lat":-6.166716,"i_long":106.828284,"transit":false,"line":2},{"is_transit":false,"station_id":"SW","line":2,"i_lat":-6.160725,"distance":1149,"station_name":"Sawah Besar","transit":false,"time":2,"i_long":106.827103},{"i_lat":-6.149769,"line":2,"transit":false,"station_name":"Manggabesar","time":2,"i_long":106.82482,"station_id":"MGB","distance":906,"is_transit":false},{"transit":false,"is_transit":false,"line":7,"station_name":"Jayakarta","i_lat":-6.141205,"station_id":"JAY","i_long":106.820901,"distance":1080,"time":2},{"distance":1264,"is_transit":true,"station_name":"Jakarta Kota","station_id":"JAKK","transit":true,"i_long":106.812439,"i_lat":-6.137569,"time":4,"line":0},{"i_lat":-6.132549,"station_name":"Kampung Bandan","line":0,"time":3,"is_transit":true,"distance":1364,"transit":false,"i_long":106.826365,"station_id":"KPB"},{"transit":false,"i_lat":-6.144674,"is_transit":false,"i_long":106.79867,"distance":4102,"station_name":"Angke","time":9,"line":0,"station_id":"AK"},{"station_name":"Duri","transit":true,"is_transit":true,"i_lat":-6.155215,"i_long":106.800832,"time":4,"station_id":"DU","line":1,"distance":1230},{"transit":false,"is_transit":false,"time":3,"i_long":106.788277,"distance":1700,"station_id":"GGL","line":5,"i_lat":-6.162021,"station_name":"Grogol"},{"i_long":106.771379,"i_lat":-6.161433,"station_name":"Pesing","line":5,"station_id":"PSG","time":2,"distance":2036,"is_transit":false,"transit":false},{"is_transit":false,"station_name":"Taman Kota","i_lat":-6.1587309999999995,"station_id":"TKO","line":5,"time":2,"transit":false,"distance":1614,"i_long":106.756522}],[{"station_name":"Pondok Jati","is_transit":false,"time":0,"line":11,"transit":false,"i_long":106.861737,"station_id":"POK","i_lat":-6.209188,"distance":0},{"line":11,"i_long":106.855437,"station_name":"Kramat","distance":1829,"is_transit":false,"transit":false,"i_lat":-6.193792,"time":2,"station_id":"KMT"},{"transit":false,"i_long":106.850107,"time":1,"line":11,"station_id":"GST","station_name":"Gang Sentiong","distance":973,"is_transit":false,"i_lat":-6.185975},{"i_long":106.84368,"is_transit":false,"station_name":"Pasar Senen","distance":1567,"i_lat":-6.174784,"transit":false,"line":11,"station_id":"PSE","time":8},{"is_transit":false,"station_name":"Kemayoran","distance":1436,"station_id":"KMO","transit":false,"line":11,"time":4,"i_lat":-6.161728,"i_long":106.839204},{"transit":false,"line":11,"time":5,"station_name":"Rajawali","i_lat":-6.14505,"distance":1901,"is_transit":false,"i_long":106.836569,"station_id":"RJW"},{"station_name":"Kampung Bandan","i_lat":-6.132549,"station_id":"KPB","time":3,"distance":1444,"i_long":106.826365,"line":0,"is_transit":true,"transit":true},{"i_lat":-6.137569,"line":0,"i_long":106.812439,"is_transit":true,"distance":1364,"station_id":"JAKK","station_name":"Jakarta Kota","transit":true,"time":3},{"line":7,"time":4,"i_lat":-6.141205,"station_id":"JAY","transit":false,"is_transit":false,"i_long":106.820901,"distance":1264,"station_name":"Jayakarta"},{"is_transit":false,"line":2,"i_long":106.82482,"transit":false,"time":2,"i_lat":-6.149769,"distance":1080,"station_id":"MGB","station_name":"Manggabesar"},{"distance":906,"station_name":"Sawah Besar","i_long":106.827103,"is_transit":false,"transit":false,"line":2,"station_id":"SW","time":2,"i_lat":-6.160725},{"i_lat":-6.166716,"is_transit":false,"transit":false,"station_id":"JUA","time":2,"line":2,"i_long":106.828284,"distance":1149,"station_name":"Juanda"},{"distance":2015,"station_id":"GDD","is_transit":false,"transit":false,"time":4,"i_lat":-6.186295,"line":2,"station_name":"Gondangdia","i_long":106.832183},{"is_transit":false,"i_long":106.840169,"distance":1750,"station_id":"CKI","i_lat":-6.198556,"line":0,"station_name":"Cikini","time":3,"transit":false},{"distance":1590,"station_name":"Manggarai","line":0,"is_transit":true,"i_lat":-6.209883,"i_long":106.84912,"time":4,"transit":true,"station_id":"MRI"},{"time":4,"i_lat":-6.202263,"distance":3186,"station_id":"SUD","is_transit":false,"station_name":"Sudirman","transit":false,"i_long":106.822649,"line":1},{"station_id":"SUDB","i_lat":-6.201433,"line":1,"distance":280,"is_transit":false,"station_name":"Sudirman Baru","time":1,"i_long":106.819881,"transit":false},{"i_long":106.816351,"is_transit":false,"station_id":"KAT","transit":false,"time":1,"distance":471,"station_name":"Karet","line":1,"i_lat":-6.20132},{"i_long":106.811091,"time":5,"is_transit":true,"station_id":"THB","distance":2029,"i_lat":-6.185545,"transit":false,"line":1,"station_name":"Tanah Abang"},{"distance":3632,"station_id":"DU","i_long":106.800832,"line":1,"is_transit":true,"i_lat":-6.155215,"station_name":"Duri","transit":true,"time":8},{"line":5,"i_long":106.788277,"is_transit":false,"transit":false,"distance":1700,"station_id":"GGL","time":3,"station_name":"Grogol","i_lat":-6.162021},{"station_id":"PSG","i_long":106.771379,"line":5,"station_name":"Pesing","distance":2036,"transit":false,"i_lat":-6.161433,"time":2,"is_transit":false},{"distance":1614,"is_transit":false,"i_lat":-6.1587309999999995,"i_long":106.756522,"transit":false,"line":5,"station_id":"TKO","time":2,"station_name":"Taman Kota"}]]}