{"data":[[{"station_id":"POK","transit":false,"line":11,"station_name":"Pondok Jati","i_long":106.861737,"distance":0,"is_transit":false,"time":0,"i_lat":-6.209188},{"line":0,"i_lat":-6.215091,"station_name":"Jatinegara","i_long":106.86807400000001,"station_id":"JNG","distance":1236,"transit":true,"time":9,"is_transit":true},{"transit":false,"station_name":"Matraman","i_lat":-6.212485,"line":1,"i_long":106.858896,"distance":1377,"station_id":"MTR","is_transit":false,"time":2},{"station_id":"MRI","time":2,"distance":1275,"i_lat":-6.209883,"is_transit":true,"station_name":"Manggarai","line":0,"i_long":106.84912,"transit":false},{"is_transit":false,"distance":3186,"station_name":"Sudirman","station_id":"SUD","transit":false,"i_lat":-6.202263,"i_long":106.822649,"line":1,"time":4},{"distance":280,"station_name":"Sudirman Baru","i_long":106.819881,"line":1,"station_id":"SUDB","is_transit":false,"transit":false,"i_lat":-6.201433,"time":1},{"station_id":"KAT","time":1,"i_lat":-6.20132,"line":1,"distance":471,"i_long":106.816351,"station_name":"Karet","transit":false,"is_transit":false},{"station_id":"THB","transit":true,"i_long":106.811091,"is_transit":true,"station_name":"Tanah Abang","distance":2029,"i_lat":-6.185545,"time":5,"line":1},{"station_id":"PLM","transit":false,"time":6,"is_transit":false,"station_name":"Palmerah","i_long":106.79689,"distance":3191,"i_lat":-6.207404,"line":6},{"line":6,"station_name":"Kebayoran","distance":3737,"station_id":"KBY","transit":false,"i_long":106.780334,"time":7,"i_lat":-6.237242,"is_transit":false},{"station_id":"PDJ","is_transit":false,"i_long":106.74273,"i_lat":-6.276362,"distance":6218,"station_name":"Pondokranji","line":6,"transit":false,"time":8},{"time":3,"i_lat":-6.288927,"station_name":"Jurangmangu","line":6,"is_transit":false,"i_long":106.728916,"distance":2179,"station_id":"JMU","transit":false},{"i_lat":-6.296963,"is_transit":false,"i_long":106.712277,"line":6,"station_name":"Sudimara","distance":1994,"station_id":"SDM","transit":false,"time":4},{"i_long":106.675475,"i_lat":-6.314823,"transit":false,"distance":4566,"line":6,"is_transit":false,"time":6,"station_name":"Rawa Buntu","station_id":"RU"}],[{"station_name":"Pondok Jati","distance":0,"transit":false,"i_long":106.861737,"station_id":"POK","line":11,"is_transit":false,"i_lat":-6.209188,"time":0},{"is_transit":false,"station_id":"KMT","i_long":106.855437,"station_name":"Kramat","line":11,"transit":false,"i_lat":-6.193792,"distance":1829,"time":2},{"transit":false,"i_long":106.850107,"is_transit":false,"i_lat":-6.185975,"line":11,"distance":973,"station_name":"Gang Sentiong","time":1,"station_id":"GST"},{"station_id":"PSE","time":8,"distance":1567,"is_transit":false,"line":11,"station_name":"Pasar Senen","i_lat":-6.174784,"i_long":106.84368,"transit":false},{"station_id":"KMO","line":11,"is_transit":false,"transit":false,"i_lat":-6.161728,"distance":1436,"station_name":"Kemayoran","i_long":106.839204,"time":4},{"station_id":"RJW","line":11,"is_transit":false,"distance":1901,"station_name":"Rajawali","i_long":106.836569,"transit":false,"i_lat":-6.14505,"time":5},{"time":3,"i_lat":-6.132549,"station_id":"KPB","line":0,"transit":true,"distance":1444,"station_name":"Kampung Bandan","is_transit":true,"i_long":106.826365},{"distance":4102,"station_id":"AK","is_transit":false,"time":9,"i_long":106.79867,"line":0,"transit":false,"station_name":"Angke","i_lat":-6.144674},{"station_name":"Duri","transit":true,"station_id":"DU","is_transit":true,"line":1,"i_long":106.800832,"distance":1230,"time":4,"i_lat":-6.155215},{"transit":true,"i_lat":-6.185545,"is_transit":true,"station_id":"THB","station_name":"Tanah Abang","i_long":106.811091,"line":1,"distance":3632,"time":8},{"time":6,"i_lat":-6.207404,"line":6,"station_id":"PLM","station_name":"Palmerah","distance":3191,"is_transit":false,"transit":false,"i_long":106.79689},{"time":7,"i_long":106.780334,"line":6,"is_transit":false,"transit":false,"station_name":"Kebayoran","station_id":"KBY","i_lat":-6.237242,"distance":3737},{"station_id":"PDJ","line":6,"i_lat":-6.276362,"station_name":"Pondokranji","transit":false,"is_transit":false,"time":8,"i_long":106.74273,"distance":6218},{"time":3,"i_lat":-6.288927,"i_long":106.728916,"transit":false,"distance":2179,"station_id":"JMU","line":6,"station_name":"Jurangmangu","is_transit":false},{"station_name":"Sudimara","distance":1994,"station_id":"SDM","time":4,"i_lat":-6.296963,"i_long":106.712277,"transit":false,"line":6,"is_transit":false},{"station_id":"RU","station_name":"Rawa Buntu","is_transit":false,"distance":4566,"time":6,"i_long":106.675475,"i_lat":-6.314823,"line":6,"transit":false}],[{"distance":0,"is_transit":false,"station_name":"Pondok Jati","station_id":"POK","line":11,"transit":false,"time":0,"i_long":106.861737,"i_lat":-6.209188},{"is_transit":true,"transit":true,"i_lat":-6.215091,"i_long":106.86807400000001,"line":0,"station_name":"Jatinegara","distance":1236,"station_id":"JNG","time":9},{"time":2,"i_lat":-6.212485,"transit":false,"is_transit":false,"line":1,"station_name":"Matraman","i_long":106.858896,"distance":1377,"station_id":"MTR"},{"distance":1275,"i_long":106.84912,"time":2,"is_transit":true,"transit":true,"station_name":"Manggarai","i_lat":-6.209883,"station_id":"MRI","line":0},{"time":4,"i_lat":-6.198556,"i_long":106.840169,"line":0,"station_name":"Cikini","is_transit":false,"transit":false,"station_id":"CKI","distance":1590},{"distance":1750,"i_lat":-6.186295,"is_transit":false,"station_id":"GDD","station_name":"Gondangdia","transit":false,"i_long":106.832183,"line":2,"time":3},{"station_id":"JUA","i_lat":-6.166716,"distance":2015,"is_transit":false,"transit":false,"time":4,"station_name":"Juanda","line":2,"i_long":106.828284},{"is_transit":false,"i_lat":-6.160725,"i_long":106.827103,"distance":1149,"time":2,"station_id":"SW","station_name":"Sawah Besar","transit":false,"line":2},{"i_lat":-6.149769,"i_long":106.82482,"transit":false,"is_transit":false,"line":2,"station_id":"MGB","station_name":"Manggabesar","distance":906,"time":2},{"station_id":"JAY","distance":1080,"transit":false,"is_transit":false,"time":2,"line":7,"station_name":"Jayakarta","i_lat":-6.141205,"i_long":106.820901},{"line":0,"station_id":"JAKK","station_name":"Jakarta Kota","transit":true,"time":4,"is_transit":true,"distance":1264,"i_long":106.812439,"i_lat":-6.137569},{"transit":false,"is_transit":true,"distance":1364,"i_lat":-6.132549,"station_id":"KPB","station_name":"Kampung Bandan","time":3,"i_long":106.826365,"line":0},{"station_name":"Angke","line":0,"time":9,"is_transit":false,"distance":4102,"i_long":106.79867,"i_lat":-6.144674,"transit":false,"station_id":"AK"},{"i_lat":-6.155215,"line":1,"station_id":"DU","i_long":106.800832,"distance":1230,"station_name":"Duri","is_transit":true,"time":4,"transit":true},{"transit":true,"i_long":106.811091,"line":1,"distance":3632,"station_id":"THB","i_lat":-6.185545,"time":8,"is_transit":true,"station_name":"Tanah Abang"},{"is_transit":false,"station_id":"PLM","i_lat":-6.207404,"line":6,"time":6,"station_name":"Palmerah","i_long":106.79689,"distance":3191,"transit":false},{"transit":false,"i_long":106.780334,"station_id":"KBY","station_name":"Kebayoran","time":7,"i_lat":-6.237242,"line":6,"is_transit":false,"distance":3737},{"is_transit":false,"station_name":"Pondokranji","distance":6218,"line":6,"station_id":"PDJ","i_lat":-6.276362,"time":8,"transit":false,"i_long":106.74273},{"line":6,"distance":2179,"station_id":"JMU","station_name":"Jurangmangu","i_lat":-6.288927,"is_transit":false,"transit":false,"i_long":106.728916,"time":3},{"station_name":"Sudimara","distance":1994,"line":6,"transit":false,"time":4,"station_id":"SDM","i_long":106.712277,"is_transit":false,"i_lat":-6.296963},{"station_id":"RU","time":6,"i_long":106.675475,"i_lat":-6.314823,"station_name":"Rawa Buntu","distance":4566,"line":6,"transit":false,"is_transit":false}],[{"i_long":106.861737,"station_id":"POK","is_transit":false,"i_lat":-6.209188,"time":0,"line":11,"distance":0,"station_name":"Pondok Jati","transit":false},{"transit":false,"time":2,"line":11,"station_id":"KMT","is_transit":false,"i_lat":-6.193792,"distance":1829,"station_name":"Kramat","i_long":106.855437},{"station_id":"GST","time":1,"i_long":106.850107,"station_name":"Gang Sentiong","i_lat":-6.185975,"transit":false,"line":11,"distance":973,"is_transit":false},{"transit":false,"time":8,"is_transit":false,"i_long":106.84368,"distance":1567,"station_name":"Pasar Senen","line":11,"station_id":"PSE","i_lat":-6.174784},{"i_long":106.839204,"time":4,"station_id":"KMO","i_lat":-6.161728,"transit":false,"line":11,"distance":1436,"is_transit":false,"station_name":"Kemayoran"},{"is_transit":false,"station_id":"RJW","station_name":"Rajawali","time":5,"distance":1901,"i_long":106.836569,"line":11,"transit":false,"i_lat":-6.14505},{"station_name":"Kampung Bandan","i_lat":-6.132549,"distance":1444,"is_transit":true,"line":0,"time":3,"station_id":"KPB","i_long":106.826365,"transit":true},{"line":0,"is_transit":true,"station_name":"Jakarta Kota","i_long":106.812439,"distance":1364,"time":3,"i_lat":-6.137569,"station_id":"JAKK","transit":true},{"i_lat":-6.141205,"station_id":"JAY","line":7,"is_transit":false,"distance":1264,"station_name":"Jayakarta","transit":false,"time":4,"i_long":106.820901},{"is_transit":false,"station_name":"Manggabesar","distance":1080,"station_id":"MGB","transit":false,"line":2,"time":2,"i_lat":-6.149769,"i_long":106.82482},{"transit":false,"line":2,"time":2,"station_name":"Sawah Besar","i_lat":-6.160725,"distance":906,"is_transit":false,"i_long":106.827103,"station_id":"SW"},{"station_name":"Juanda","i_lat":-6.166716,"station_id":"JUA","time":2,"distance":1149,"i_long":106.828284,"line":2,"is_transit":false,"transit":false},{"i_lat":-6.186295,"line":2,"i_long":106.832183,"is_transit":false,"distance":2015,"station_id":"GDD","station_name":"Gondangdia","transit":false,"time":4},{"line":0,"time":3,"i_lat":-6.198556,"station_id":"CKI","transit":false,"is_transit":false,"i_long":106.840169,"distance":1750,"station_name":"Cikini"},{"is_transit":true,"line":0,"i_long":106.84912,"transit":true,"time":4,"i_lat":-6.209883,"distance":1590,"station_id":"MRI","station_name":"Manggarai"},{"distance":3186,"station_name":"Sudirman","i_long":106.822649,"is_transit":false,"transit":false,"line":1,"station_id":"SUD","time":4,"i_lat":-6.202263},{"i_lat":-6.201433,"is_transit":false,"transit":false,"station_id":"SUDB","time":1,"line":1,"i_long":106.819881,"distance":280,"station_name":"Sudirman Baru"},{"line":1,"station_name":"Karet","time":1,"transit":false,"i_lat":-6.20132,"i_long":106.816351,"station_id":"KAT","distance":471,"is_transit":false},{"station_id":"THB","line":1,"time":5,"distance":2029,"is_transit":true,"transit":true,"i_long":106.811091,"i_lat":-6.185545,"station_name":"Tanah Abang"},{"i_lat":-6.207404,"i_long":106.79689,"line":6,"station_name":"Palmerah","distance":3191,"station_id":"PLM","is_transit":false,"transit":false,"time":6},{"is_transit":false,"line":6,"distance":3737,"i_lat":-6.237242,"i_long":106.780334,"time":7,"station_name":"Kebayoran","station_id":"KBY","transit":false},{"is_transit":false,"i_lat":-6.276362,"transit":false,"i_long":106.74273,"station_name":"Pondokranji","time":8,"line":6,"distance":6218,"station_id":"PDJ"},{"i_long":106.728916,"is_transit":false,"station_id":"JMU","transit":false,"time":3,"distance":2179,"station_name":"Jurangmangu","line":6,"i_lat":-6.288927},{"i_long":106.712277,"time":4,"is_transit":false,"station_id":"SDM","distance":1994,"i_lat":-6.296963,"transit":false,"line":6,"station_name":"Sudimara"},{"distance":4566,"station_id":"RU","i_long":106.675475,"line":6,"is_transit":false,"i_lat":-6.314823,"station_name":"Rawa Buntu","transit":false,"time":6}]]}