{"data":[[{"line":11,"time":0,"station_name":"Pondok Jati","i_long":106.861737,"transit":false,"i_lat":-6.209188,"station_id":"POK","is_transit":false,"distance":0},{"distance":1236,"line":1,"station_id":"JNG","transit":false,"station_name":"Jatinegara","i_long":106.86807400000001,"is_transit":false,"i_lat":-6.215091,"time":9}],[{"station_id":"POK","line":11,"time":0,"is_transit":false,"distance":0,"transit":false,"i_long":106.861737,"i_lat":-6.209188,"station_name":"Pondok Jati"},{"i_lat":-6.193792,"station_name":"Kramat","station_id":"KMT","i_long":106.855437,"transit":false,"time":2,"line":11,"distance":1829,"is_transit":false},{"i_long":106.850107,"distance":973,"i_lat":-6.185975,"station_id":"GST","is_transit":false,"station_name":"Gang Sentiong","line":11,"transit":false,"time":1},{"i_lat":-6.174784,"distance":1567,"station_id":"PSE","station_name":"Pasar Senen","i_long":106.84368,"is_transit":false,"line":11,"transit":false,"time":8},{"i_lat":-6.161728,"time":4,"is_transit":false,"distance":1436,"station_id":"KMO","station_name":"Kemayoran","i_long":106.839204,"line":11,"transit":false},{"is_transit":false,"distance":1901,"station_name":"Rajawali","transit":false,"time":5,"line":11,"i_lat":-6.14505,"station_id":"RJW","i_long":106.836569},{"line":4,"station_name":"Kampung Bandan","i_long":106.826365,"i_lat":-6.132549,"station_id":"KPB","is_transit":true,"time":3,"transit":true,"distance":1444},{"distance":4102,"i_long":106.79867,"time":9,"station_id":"AK","transit":false,"is_transit":false,"station_name":"Angke","i_lat":-6.144674,"line":1},{"time":4,"i_lat":-6.155215,"line":1,"station_id":"DU","transit":false,"i_long":106.800832,"station_name":"Duri","distance":1230,"is_transit":false},{"station_id":"THB","i_long":106.811091,"transit":false,"station_name":"Tanah Abang","is_transit":false,"line":1,"time":8,"distance":3632,"i_lat":-6.185545},{"i_lat":-6.20132,"station_name":"Karet","station_id":"KAT","transit":false,"is_transit":false,"distance":2029,"i_long":106.816351,"line":1,"time":5},{"distance":471,"line":1,"station_id":"SUDB","is_transit":false,"time":1,"i_long":106.819881,"transit":false,"station_name":"Sudirman Baru","i_lat":-6.201433},{"station_id":"SUD","i_long":106.822649,"transit":false,"is_transit":false,"station_name":"Sudirman","line":1,"distance":280,"time":1,"i_lat":-6.202263},{"transit":false,"distance":3186,"line":2,"is_transit":false,"station_name":"Manggarai","i_long":106.84912,"station_id":"MRI","i_lat":-6.209883,"time":4},{"distance":1275,"i_lat":-6.212485,"time":2,"line":1,"i_long":106.858896,"transit":false,"is_transit":false,"station_name":"Matraman","station_id":"MTR"},{"time":8,"i_long":106.86807400000001,"is_transit":false,"station_id":"JNG","transit":false,"i_lat":-6.215091,"distance":1377,"line":1,"station_name":"Jatinegara"}],[{"time":0,"transit":false,"is_transit":false,"station_name":"Pondok Jati","i_long":106.861737,"station_id":"POK","i_lat":-6.209188,"line":11,"distance":0},{"i_long":106.855437,"station_name":"Kramat","line":11,"transit":false,"time":2,"distance":1829,"i_lat":-6.193792,"station_id":"KMT","is_transit":false},{"transit":false,"distance":973,"station_id":"GST","is_transit":false,"time":1,"i_long":106.850107,"line":11,"i_lat":-6.185975,"station_name":"Gang Sentiong"},{"line":11,"is_transit":false,"distance":1567,"i_long":106.84368,"station_name":"Pasar Senen","time":8,"transit":false,"station_id":"PSE","i_lat":-6.174784},{"line":11,"station_id":"KMO","transit":false,"distance":1436,"time":4,"i_lat":-6.161728,"station_name":"Kemayoran","i_long":106.839204,"is_transit":false},{"transit":false,"station_name":"Rajawali","i_lat":-6.14505,"station_id":"RJW","i_long":106.836569,"time":5,"distance":1901,"line":11,"is_transit":false},{"station_id":"KPB","distance":1444,"i_lat":-6.132549,"i_long":106.826365,"line":4,"transit":true,"is_transit":true,"station_name":"Kampung Bandan","time":3},{"station_id":"JAKK","transit":true,"is_transit":true,"station_name":"Jakarta Kota","distance":1364,"i_lat":-6.137569,"i_long":106.812439,"line":2,"time":3},{"transit":false,"distance":1264,"line":2,"station_id":"JAY","i_lat":-6.141205,"i_long":106.820901,"is_transit":false,"station_name":"Jayakarta","time":4},{"station_name":"Manggabesar","i_lat":-6.149769,"is_transit":false,"distance":1080,"line":2,"time":2,"transit":false,"i_long":106.82482,"station_id":"MGB"},{"time":2,"station_id":"SW","is_transit":false,"line":2,"transit":false,"distance":906,"i_lat":-6.160725,"i_long":106.827103,"station_name":"Sawah Besar"},{"transit":false,"distance":1149,"time":2,"station_id":"JUA","station_name":"Juanda","i_lat":-6.166716,"i_long":106.828284,"line":2,"is_transit":false},{"time":4,"is_transit":false,"line":2,"transit":false,"station_id":"GDD","station_name":"Gondangdia","distance":2015,"i_lat":-6.186295,"i_long":106.832183},{"time":3,"transit":false,"station_id":"CKI","station_name":"Cikini","distance":1750,"line":2,"i_long":106.840169,"i_lat":-6.198556,"is_transit":false},{"line":2,"transit":true,"station_name":"Manggarai","distance":1590,"station_id":"MRI","is_transit":true,"i_lat":-6.209883,"time":4,"i_long":106.84912},{"time":2,"i_lat":-6.212485,"station_id":"MTR","line":1,"is_transit":false,"station_name":"Matraman","transit":false,"distance":1275,"i_long":106.858896},{"station_name":"Jatinegara","i_lat":-6.215091,"time":8,"distance":1377,"station_id":"JNG","transit":false,"i_long":106.86807400000001,"line":1,"is_transit":false}]]}