{"data":[[{"is_transit":false,"line":6,"station_name":"Parung Panjang","time":0,"station_id":"PRP","distance":0,"i_long":106.568863,"transit":false,"i_lat":-6.3441410000000005},{"station_name":"Cicayur","distance":5968,"transit":false,"is_transit":false,"line":3,"time":8,"i_lat":-6.329547,"station_id":"CC","i_long":106.617853},{"time":4,"transit":false,"line":3,"station_name":"Cisauk","station_id":"CSK","distance":2519,"i_long":106.640411,"is_transit":false,"i_lat":-6.32484},{"i_lat":-6.319871,"line":6,"station_id":"SRP","time":4,"distance":1784,"station_name":"Serpong","i_long":106.66566,"transit":false,"is_transit":false},{"time":4,"i_lat":-6.314823,"station_name":"Rawa Buntu","line":6,"is_transit":false,"distance":2413,"i_long":106.675475,"transit":false,"station_id":"RU"},{"station_id":"SDM","transit":false,"is_transit":false,"station_name":"Sudimara","line":6,"i_lat":-6.296963,"time":6,"i_long":106.712277,"distance":4566},{"distance":1994,"is_transit":false,"transit":false,"time":4,"i_lat":-6.288927,"i_long":106.728916,"line":6,"station_id":"JMU","station_name":"Jurangmangu"},{"transit":false,"time":3,"distance":2179,"i_lat":-6.276362,"line":6,"station_name":"Pondokranji","station_id":"PDJ","is_transit":false,"i_long":106.74273},{"station_name":"Kebayoran","distance":6218,"transit":false,"time":8,"is_transit":false,"station_id":"KBY","i_lat":-6.237242,"i_long":106.780334,"line":6},{"station_id":"PLM","transit":false,"is_transit":false,"time":7,"distance":3737,"i_lat":-6.207404,"station_name":"Palmerah","i_long":106.79689,"line":6},{"station_name":"Tanah Abang","time":6,"is_transit":true,"transit":true,"station_id":"THB","i_lat":-6.185545,"i_long":106.811091,"line":1,"distance":3191},{"i_long":106.816351,"station_name":"Karet","transit":false,"station_id":"KAT","line":1,"time":5,"is_transit":false,"i_lat":-6.20132,"distance":2029},{"i_lat":-6.201433,"time":1,"is_transit":false,"distance":471,"station_name":"Sudirman Baru","station_id":"SUDB","line":1,"i_long":106.819881,"transit":false},{"station_name":"Sudirman","i_long":106.822649,"transit":false,"line":1,"i_lat":-6.202263,"station_id":"SUD","is_transit":false,"time":1,"distance":280},{"i_lat":-6.209883,"line":2,"station_name":"Manggarai","station_id":"MRI","distance":3186,"i_long":106.84912,"transit":true,"time":4,"is_transit":true},{"i_lat":-6.198556,"i_long":106.840169,"station_name":"Cikini","station_id":"CKI","time":4,"line":2,"transit":false,"is_transit":false,"distance":1590},{"station_id":"GDD","line":2,"station_name":"Gondangdia","time":3,"distance":1750,"transit":false,"i_lat":-6.186295,"is_transit":false,"i_long":106.832183}],[{"i_lat":-6.3441410000000005,"time":0,"i_long":106.568863,"is_transit":false,"line":6,"station_id":"PRP","transit":false,"station_name":"Parung Panjang","distance":0},{"i_long":106.617853,"distance":5968,"i_lat":-6.329547,"station_name":"Cicayur","transit":false,"line":3,"time":8,"station_id":"CC","is_transit":false},{"transit":false,"is_transit":false,"i_lat":-6.32484,"line":3,"station_id":"CSK","distance":2519,"time":4,"station_name":"Cisauk","i_long":106.640411},{"time":4,"distance":1784,"i_long":106.66566,"transit":false,"station_id":"SRP","is_transit":false,"station_name":"Serpong","line":6,"i_lat":-6.319871},{"time":4,"is_transit":false,"station_id":"RU","station_name":"Rawa Buntu","i_long":106.675475,"transit":false,"line":6,"distance":2413,"i_lat":-6.314823},{"is_transit":false,"station_name":"Sudimara","time":6,"i_long":106.712277,"i_lat":-6.296963,"station_id":"SDM","transit":false,"line":6,"distance":4566},{"i_long":106.728916,"time":4,"transit":false,"i_lat":-6.288927,"is_transit":false,"line":6,"station_name":"Jurangmangu","station_id":"JMU","distance":1994},{"station_id":"PDJ","transit":false,"is_transit":false,"time":3,"distance":2179,"i_long":106.74273,"i_lat":-6.276362,"station_name":"Pondokranji","line":6},{"i_long":106.780334,"is_transit":false,"line":6,"station_name":"Kebayoran","station_id":"KBY","transit":false,"time":8,"distance":6218,"i_lat":-6.237242},{"station_id":"PLM","distance":3737,"i_long":106.79689,"time":7,"is_transit":false,"transit":false,"i_lat":-6.207404,"station_name":"Palmerah","line":6},{"transit":true,"i_long":106.811091,"station_name":"Tanah Abang","is_transit":true,"distance":3191,"line":1,"station_id":"THB","time":6,"i_lat":-6.185545},{"is_transit":false,"time":8,"station_id":"DU","i_lat":-6.155215,"i_long":106.800832,"station_name":"Duri","transit":false,"distance":3632,"line":1},{"station_name":"Angke","i_lat":-6.144674,"transit":false,"time":4,"station_id":"AK","line":1,"i_long":106.79867,"is_transit":false,"distance":1230},{"line":4,"station_name":"Kampung Bandan","station_id":"KPB","is_transit":true,"distance":4102,"time":9,"transit":true,"i_long":106.826365,"i_lat":-6.132549},{"is_transit":true,"transit":true,"time":3,"distance":1364,"i_lat":-6.137569,"station_name":"Jakarta Kota","line":2,"i_long":106.812439,"station_id":"JAKK"},{"i_lat":-6.141205,"station_name":"Jayakarta","is_transit":false,"distance":1264,"transit":false,"i_long":106.820901,"station_id":"JAY","time":4,"line":2},{"station_name":"Manggabesar","distance":1080,"transit":false,"station_id":"MGB","i_lat":-6.149769,"line":2,"i_long":106.82482,"time":2,"is_transit":false},{"station_name":"Sawah Besar","distance":906,"is_transit":false,"transit":false,"station_id":"SW","i_lat":-6.160725,"time":2,"i_long":106.827103,"line":2},{"line":2,"i_long":106.828284,"i_lat":-6.166716,"time":2,"is_transit":false,"distance":1149,"station_id":"JUA","station_name":"Juanda","transit":false},{"i_long":106.832183,"is_transit":false,"station_id":"GDD","i_lat":-6.186295,"line":2,"station_name":"Gondangdia","distance":2015,"transit":false,"time":4}],[{"line":6,"distance":0,"is_transit":false,"i_lat":-6.3441410000000005,"time":0,"transit":false,"station_name":"Parung Panjang","station_id":"PRP","i_long":106.568863},{"i_long":106.617853,"time":8,"transit":false,"i_lat":-6.329547,"station_name":"Cicayur","station_id":"CC","is_transit":false,"distance":5968,"line":3},{"i_lat":-6.32484,"distance":2519,"time":4,"is_transit":false,"transit":false,"i_long":106.640411,"station_name":"Cisauk","line":3,"station_id":"CSK"},{"time":4,"i_lat":-6.319871,"i_long":106.66566,"transit":false,"distance":1784,"station_name":"Serpong","is_transit":false,"line":6,"station_id":"SRP"},{"i_lat":-6.314823,"line":6,"is_transit":false,"station_name":"Rawa Buntu","time":4,"transit":false,"distance":2413,"station_id":"RU","i_long":106.675475},{"i_lat":-6.296963,"station_name":"Sudimara","distance":4566,"time":6,"transit":false,"line":6,"station_id":"SDM","is_transit":false,"i_long":106.712277},{"station_name":"Jurangmangu","transit":false,"line":6,"i_lat":-6.288927,"i_long":106.728916,"station_id":"JMU","is_transit":false,"time":4,"distance":1994},{"time":3,"station_id":"PDJ","distance":2179,"i_lat":-6.276362,"i_long":106.74273,"line":6,"station_name":"Pondokranji","is_transit":false,"transit":false},{"station_id":"KBY","time":8,"line":6,"station_name":"Kebayoran","is_transit":false,"distance":6218,"i_long":106.780334,"transit":false,"i_lat":-6.237242},{"time":7,"distance":3737,"station_name":"Palmerah","is_transit":false,"line":6,"transit":false,"i_long":106.79689,"i_lat":-6.207404,"station_id":"PLM"},{"is_transit":true,"line":1,"i_lat":-6.185545,"transit":true,"time":6,"i_long":106.811091,"station_name":"Tanah Abang","distance":3191,"station_id":"THB"},{"i_long":106.800832,"station_id":"DU","is_transit":false,"time":8,"i_lat":-6.155215,"line":1,"transit":false,"distance":3632,"station_name":"Duri"},{"station_name":"Angke","i_long":106.79867,"is_transit":false,"line":1,"i_lat":-6.144674,"station_id":"AK","time":4,"distance":1230,"transit":false},{"station_name":"Kampung Bandan","station_id":"KPB","i_long":106.826365,"is_transit":true,"transit":true,"i_lat":-6.132549,"line":4,"time":9,"distance":4102},{"station_id":"RJW","transit":false,"time":3,"distance":1444,"is_transit":false,"i_lat":-6.14505,"station_name":"Rajawali","i_long":106.836569,"line":11},{"transit":false,"station_name":"Kemayoran","is_transit":false,"distance":1901,"station_id":"KMO","time":5,"i_lat":-6.161728,"line":11,"i_long":106.839204},{"line":11,"i_lat":-6.174784,"time":4,"distance":1436,"station_id":"PSE","is_transit":false,"i_long":106.84368,"station_name":"Pasar Senen","transit":false},{"i_long":106.850107,"station_name":"Gang Sentiong","distance":1567,"is_transit":false,"i_lat":-6.185975,"transit":false,"time":8,"line":11,"station_id":"GST"},{"station_id":"KMT","time":1,"line":11,"is_transit":false,"distance":973,"i_long":106.855437,"station_name":"Kramat","transit":false,"i_lat":-6.193792},{"line":11,"station_id":"POK","distance":1829,"transit":false,"i_lat":-6.209188,"is_transit":false,"time":2,"i_long":106.861737,"station_name":"Pondok Jati"},{"distance":1236,"time":9,"transit":true,"station_name":"Jatinegara","line":1,"station_id":"JNG","is_transit":true,"i_lat":-6.215091,"i_long":106.86807400000001},{"station_id":"MTR","is_transit":false,"station_name":"Matraman","i_long":106.858896,"line":1,"transit":false,"distance":1377,"i_lat":-6.212485,"time":2},{"time":2,"distance":1275,"line":2,"i_long":106.84912,"station_name":"Manggarai","is_transit":true,"station_id":"MRI","i_lat":-6.209883,"transit":true},{"line":2,"station_name":"Cikini","is_transit":false,"i_lat":-6.198556,"distance":1590,"i_long":106.840169,"station_id":"CKI","transit":false,"time":4},{"is_transit":false,"time":3,"line":2,"i_long":106.832183,"distance":1750,"station_id":"GDD","i_lat":-6.186295,"transit":false,"station_name":"Gondangdia"}],[{"station_name":"Parung Panjang","transit":false,"time":0,"i_lat":-6.3441410000000005,"line":6,"distance":0,"station_id":"PRP","is_transit":false,"i_long":106.568863},{"i_lat":-6.329547,"is_transit":false,"line":3,"transit":false,"i_long":106.617853,"station_id":"CC","distance":5968,"time":8,"station_name":"Cicayur"},{"station_name":"Cisauk","line":3,"distance":2519,"station_id":"CSK","time":4,"i_lat":-6.32484,"transit":false,"is_transit":false,"i_long":106.640411},{"i_lat":-6.319871,"time":4,"line":6,"i_long":106.66566,"transit":false,"distance":1784,"station_name":"Serpong","station_id":"SRP","is_transit":false},{"i_long":106.675475,"line":6,"station_id":"RU","transit":false,"station_name":"Rawa Buntu","is_transit":false,"distance":2413,"time":4,"i_lat":-6.314823},{"time":6,"station_id":"SDM","i_long":106.712277,"i_lat":-6.296963,"line":6,"station_name":"Sudimara","distance":4566,"is_transit":false,"transit":false},{"line":6,"distance":1994,"i_long":106.728916,"transit":false,"time":4,"station_id":"JMU","i_lat":-6.288927,"is_transit":false,"station_name":"Jurangmangu"},{"time":3,"i_long":106.74273,"transit":false,"is_transit":false,"distance":2179,"station_id":"PDJ","i_lat":-6.276362,"station_name":"Pondokranji","line":6},{"distance":6218,"i_long":106.780334,"line":6,"transit":false,"is_transit":false,"station_id":"KBY","time":8,"station_name":"Kebayoran","i_lat":-6.237242},{"transit":false,"distance":3737,"i_long":106.79689,"is_transit":false,"i_lat":-6.207404,"station_name":"Palmerah","time":7,"line":6,"station_id":"PLM"},{"is_transit":true,"i_lat":-6.185545,"distance":3191,"station_name":"Tanah Abang","time":6,"line":1,"i_long":106.811091,"transit":true,"station_id":"THB"},{"line":1,"i_lat":-6.20132,"station_name":"Karet","time":5,"transit":false,"is_transit":false,"i_long":106.816351,"distance":2029,"station_id":"KAT"},{"time":1,"station_name":"Sudirman Baru","distance":471,"i_lat":-6.201433,"station_id":"SUDB","line":1,"i_long":106.819881,"transit":false,"is_transit":false},{"i_long":106.822649,"is_transit":false,"line":1,"distance":280,"time":1,"transit":false,"i_lat":-6.202263,"station_id":"SUD","station_name":"Sudirman"},{"line":2,"station_name":"Manggarai","i_lat":-6.209883,"is_transit":false,"time":4,"i_long":106.84912,"transit":false,"distance":3186,"station_id":"MRI"},{"station_id":"MTR","is_transit":false,"station_name":"Matraman","time":2,"i_long":106.858896,"transit":false,"line":1,"distance":1275,"i_lat":-6.212485},{"time":8,"distance":1377,"i_lat":-6.215091,"is_transit":true,"line":1,"i_long":106.86807400000001,"transit":true,"station_name":"Jatinegara","station_id":"JNG"},{"is_transit":false,"distance":1236,"transit":false,"station_id":"POK","station_name":"Pondok Jati","i_lat":-6.209188,"line":11,"time":2,"i_long":106.861737},{"time":2,"is_transit":false,"transit":false,"i_long":106.855437,"distance":1829,"station_id":"KMT","line":11,"station_name":"Kramat","i_lat":-6.193792},{"station_name":"Gang Sentiong","i_long":106.850107,"transit":false,"line":11,"is_transit":false,"time":1,"station_id":"GST","distance":973,"i_lat":-6.185975},{"station_id":"PSE","i_lat":-6.174784,"station_name":"Pasar Senen","distance":1567,"time":8,"i_long":106.84368,"transit":false,"is_transit":false,"line":11},{"i_lat":-6.161728,"i_long":106.839204,"line":11,"station_name":"Kemayoran","time":4,"distance":1436,"transit":false,"is_transit":false,"station_id":"KMO"},{"transit":false,"station_name":"Rajawali","distance":1901,"i_long":106.836569,"station_id":"RJW","is_transit":false,"i_lat":-6.14505,"time":5,"line":11},{"distance":1444,"line":4,"transit":true,"i_lat":-6.132549,"station_name":"Kampung Bandan","station_id":"KPB","is_transit":true,"time":3,"i_long":106.826365},{"distance":1364,"station_id":"JAKK","is_transit":true,"line":2,"i_lat":-6.137569,"time":3,"station_name":"Jakarta Kota","transit":true,"i_long":106.812439},{"i_long":106.820901,"distance":1264,"station_id":"JAY","is_transit":false,"line":2,"transit":false,"station_name":"Jayakarta","time":4,"i_lat":-6.141205},{"line":2,"is_transit":false,"i_lat":-6.149769,"i_long":106.82482,"distance":1080,"time":2,"transit":false,"station_name":"Manggabesar","station_id":"MGB"},{"station_id":"SW","is_transit":false,"time":2,"transit":false,"i_long":106.827103,"distance":906,"station_name":"Sawah Besar","line":2,"i_lat":-6.160725},{"distance":1149,"transit":false,"line":2,"time":2,"is_transit":false,"i_lat":-6.166716,"station_name":"Juanda","station_id":"JUA","i_long":106.828284},{"station_id":"GDD","is_transit":false,"i_long":106.832183,"distance":2015,"time":4,"transit":false,"station_name":"Gondangdia","i_lat":-6.186295,"line":2}]]}