{"data":[[{"is_transit":false,"time":0,"station_name":"Parung Panjang","station_id":"PRP","distance":0,"line":6,"transit":false,"i_lat":-6.3441410000000005,"i_long":106.568863},{"line":3,"station_id":"CJT","is_transit":false,"i_long":106.508482,"distance":7025,"time":9,"i_lat":-6.354349,"transit":false,"station_name":"Cilejit"},{"station_id":"DAR","line":0,"is_transit":false,"station_name":"Daru","distance":2675,"time":6,"transit":false,"i_long":106.491338,"i_lat":-6.338021},{"line":6,"i_long":106.460812,"i_lat":-6.327251,"is_transit":false,"distance":3902,"transit":false,"time":5,"station_name":"Tenjo","station_id":"TEJ"},{"station_name":"Tigaraksa","time":5,"i_long":106.425991,"distance":2974,"transit":false,"line":6,"i_lat":-6.328533,"is_transit":false,"station_id":"TGS"},{"is_transit":false,"line":3,"i_lat":-6.33561,"transit":false,"i_long":106.411216,"station_id":"CKY","time":3,"station_name":"Cikoya","distance":2651},{"station_id":"MJ","transit":false,"line":6,"time":4,"is_transit":false,"i_lat":-6.332307,"i_long":106.394373,"distance":1853,"station_name":"Maja"}]]}