{"data":[[{"time":0,"is_transit":false,"i_lat":-6.3441410000000005,"station_id":"PRP","distance":0,"transit":false,"station_name":"Parung Panjang","line":6,"i_long":106.568863},{"time":9,"i_lat":-6.354349,"station_name":"Cilejit","distance":7025,"i_long":106.508482,"is_transit":false,"line":3,"station_id":"CJT","transit":false},{"station_name":"Daru","is_transit":false,"i_long":106.491338,"station_id":"DAR","i_lat":-6.338021,"time":6,"transit":false,"distance":2675,"line":0},{"line":6,"time":5,"i_long":106.460812,"station_name":"Tenjo","station_id":"TEJ","transit":false,"distance":3902,"i_lat":-6.327251,"is_transit":false},{"station_name":"Tigaraksa","i_lat":-6.328533,"i_long":106.425991,"is_transit":false,"distance":2974,"transit":false,"time":5,"station_id":"TGS","line":6},{"transit":false,"station_name":"Cikoya","i_long":106.411216,"line":3,"distance":2651,"time":3,"i_lat":-6.33561,"station_id":"CKY","is_transit":false},{"i_long":106.394373,"transit":false,"is_transit":false,"distance":1853,"station_name":"Maja","station_id":"MJ","line":6,"time":4,"i_lat":-6.332307}]]}