{"data":[[{"station_id":"PRP","is_transit":false,"distance":0,"i_lat":-6.3441410000000005,"station_name":"Parung Panjang","transit":false,"time":0,"i_long":106.568863,"line":6},{"distance":5968,"station_name":"Cicayur","i_long":106.617853,"line":3,"transit":false,"i_lat":-6.329547,"is_transit":false,"time":8,"station_id":"CC"},{"line":3,"transit":false,"time":4,"distance":2519,"i_long":106.640411,"is_transit":false,"station_id":"CSK","station_name":"Cisauk","i_lat":-6.32484},{"i_long":106.66566,"line":6,"station_id":"SRP","i_lat":-6.319871,"distance":1784,"station_name":"Serpong","transit":false,"time":4,"is_transit":false},{"time":4,"distance":2413,"i_long":106.675475,"line":6,"is_transit":false,"transit":false,"station_name":"Rawa Buntu","i_lat":-6.314823,"station_id":"RU"},{"is_transit":false,"i_lat":-6.296963,"transit":false,"distance":4566,"station_id":"SDM","i_long":106.712277,"line":6,"time":6,"station_name":"Sudimara"}]]}