{"data":[[{"transit":false,"distance":0,"line":6,"time":0,"station_id":"PRP","is_transit":false,"station_name":"Parung Panjang","i_long":106.568863,"i_lat":-6.3441410000000005},{"line":3,"time":8,"station_id":"CC","is_transit":false,"station_name":"Cicayur","i_lat":-6.329547,"distance":5968,"i_long":106.617853,"transit":false},{"station_name":"Cisauk","transit":false,"line":3,"station_id":"CSK","is_transit":false,"i_lat":-6.32484,"distance":2519,"time":4,"i_long":106.640411},{"distance":1784,"time":4,"i_long":106.66566,"i_lat":-6.319871,"line":6,"station_id":"SRP","transit":false,"station_name":"Serpong","is_transit":false},{"i_lat":-6.314823,"distance":2413,"i_long":106.675475,"is_transit":false,"time":4,"station_id":"RU","line":6,"transit":false,"station_name":"Rawa Buntu"},{"is_transit":false,"station_name":"Sudimara","time":6,"i_lat":-6.296963,"station_id":"SDM","transit":false,"i_long":106.712277,"distance":4566,"line":6},{"i_lat":-6.288927,"line":6,"distance":1994,"time":4,"station_name":"Jurangmangu","station_id":"JMU","i_long":106.728916,"transit":false,"is_transit":false},{"transit":false,"distance":2179,"station_name":"Pondokranji","station_id":"PDJ","i_lat":-6.276362,"i_long":106.74273,"time":3,"is_transit":false,"line":6},{"transit":false,"i_long":106.780334,"station_id":"KBY","i_lat":-6.237242,"distance":6218,"time":8,"is_transit":false,"station_name":"Kebayoran","line":6},{"line":6,"station_name":"Palmerah","transit":false,"i_long":106.79689,"is_transit":false,"station_id":"PLM","distance":3737,"time":7,"i_lat":-6.207404},{"i_lat":-6.185545,"station_id":"THB","line":1,"i_long":106.811091,"is_transit":true,"time":6,"transit":true,"station_name":"Tanah Abang","distance":3191},{"line":1,"i_lat":-6.20132,"station_id":"KAT","time":5,"is_transit":false,"transit":false,"distance":2029,"station_name":"Karet","i_long":106.816351},{"i_long":106.819881,"line":1,"transit":false,"is_transit":false,"distance":471,"time":1,"station_name":"Sudirman Baru","station_id":"SUDB","i_lat":-6.201433},{"i_long":106.822649,"transit":false,"station_name":"Sudirman","line":1,"station_id":"SUD","is_transit":false,"distance":280,"time":1,"i_lat":-6.202263},{"i_lat":-6.209883,"transit":false,"is_transit":false,"distance":3186,"station_name":"Manggarai","i_long":106.84912,"station_id":"MRI","time":4,"line":2},{"line":1,"station_name":"Matraman","station_id":"MTR","is_transit":false,"distance":1275,"i_long":106.858896,"transit":false,"time":2,"i_lat":-6.212485},{"station_id":"JNG","i_long":106.86807400000001,"line":1,"time":8,"distance":1377,"is_transit":false,"transit":false,"i_lat":-6.215091,"station_name":"Jatinegara"},{"station_name":"Klender","transit":false,"time":3,"i_lat":-6.2135,"distance":3395,"station_id":"KLD","is_transit":false,"line":1,"i_long":106.899548},{"station_id":"BUA","is_transit":false,"station_name":"Buaran","i_lat":-6.215568,"distance":3100,"transit":false,"i_long":106.922662,"line":1,"time":2},{"transit":false,"time":1,"station_name":"Klenderbaru","line":1,"is_transit":false,"station_id":"KLDB","i_long":106.939679,"i_lat":-6.217455,"distance":1305},{"distance":1385,"time":8,"station_id":"CUK","station_name":"Cakung","is_transit":false,"i_lat":-6.219053,"line":1,"transit":false,"i_long":106.951283},{"time":3,"i_long":106.977657,"station_id":"KRI","line":1,"transit":false,"station_name":"Kranji","distance":3097,"is_transit":false,"i_lat":-6.224515},{"i_lat":-6.236616,"station_id":"BKS","is_transit":false,"i_long":106.997013,"distance":2520,"line":1,"time":4,"transit":false,"station_name":"Bekasi"}],[{"distance":0,"i_lat":-6.3441410000000005,"transit":false,"is_transit":false,"i_long":106.568863,"station_name":"Parung Panjang","station_id":"PRP","time":0,"line":6},{"line":3,"time":8,"transit":false,"station_id":"CC","i_long":106.617853,"is_transit":false,"station_name":"Cicayur","distance":5968,"i_lat":-6.329547},{"station_id":"CSK","is_transit":false,"station_name":"Cisauk","transit":false,"distance":2519,"line":3,"i_long":106.640411,"time":4,"i_lat":-6.32484},{"distance":1784,"i_lat":-6.319871,"transit":false,"station_name":"Serpong","i_long":106.66566,"line":6,"station_id":"SRP","is_transit":false,"time":4},{"is_transit":false,"distance":2413,"transit":false,"i_lat":-6.314823,"station_id":"RU","station_name":"Rawa Buntu","i_long":106.675475,"time":4,"line":6},{"time":6,"station_id":"SDM","i_lat":-6.296963,"line":6,"station_name":"Sudimara","i_long":106.712277,"distance":4566,"is_transit":false,"transit":false},{"i_long":106.728916,"line":6,"station_name":"Jurangmangu","is_transit":false,"distance":1994,"station_id":"JMU","time":4,"transit":false,"i_lat":-6.288927},{"station_name":"Pondokranji","i_long":106.74273,"transit":false,"station_id":"PDJ","is_transit":false,"i_lat":-6.276362,"line":6,"time":3,"distance":2179},{"station_id":"KBY","i_lat":-6.237242,"i_long":106.780334,"is_transit":false,"distance":6218,"station_name":"Kebayoran","line":6,"time":8,"transit":false},{"station_name":"Palmerah","station_id":"PLM","transit":false,"is_transit":false,"i_long":106.79689,"line":6,"i_lat":-6.207404,"time":7,"distance":3737},{"station_id":"THB","time":6,"line":1,"distance":3191,"transit":true,"i_long":106.811091,"station_name":"Tanah Abang","is_transit":true,"i_lat":-6.185545},{"is_transit":false,"i_lat":-6.155215,"i_long":106.800832,"time":8,"station_name":"Duri","station_id":"DU","distance":3632,"transit":false,"line":1},{"time":4,"transit":false,"line":1,"station_name":"Angke","is_transit":false,"distance":1230,"i_long":106.79867,"i_lat":-6.144674,"station_id":"AK"},{"station_name":"Kampung Bandan","time":9,"transit":true,"station_id":"KPB","distance":4102,"is_transit":true,"i_lat":-6.132549,"i_long":106.826365,"line":4},{"is_transit":false,"station_name":"Rajawali","distance":1444,"line":11,"time":3,"i_lat":-6.14505,"i_long":106.836569,"station_id":"RJW","transit":false},{"line":11,"transit":false,"i_lat":-6.161728,"i_long":106.839204,"distance":1901,"time":5,"is_transit":false,"station_name":"Kemayoran","station_id":"KMO"},{"station_name":"Pasar Senen","station_id":"PSE","time":4,"transit":false,"is_transit":false,"i_long":106.84368,"distance":1436,"i_lat":-6.174784,"line":11},{"distance":1567,"line":11,"i_lat":-6.185975,"i_long":106.850107,"station_id":"GST","time":8,"transit":false,"station_name":"Gang Sentiong","is_transit":false},{"station_id":"KMT","time":1,"distance":973,"station_name":"Kramat","i_lat":-6.193792,"line":11,"transit":false,"is_transit":false,"i_long":106.855437},{"i_lat":-6.209188,"transit":false,"is_transit":false,"i_long":106.861737,"station_id":"POK","distance":1829,"line":11,"station_name":"Pondok Jati","time":2},{"station_name":"Jatinegara","time":9,"i_long":106.86807400000001,"station_id":"JNG","line":1,"i_lat":-6.215091,"transit":true,"is_transit":true,"distance":1236},{"i_lat":-6.2135,"station_name":"Klender","distance":3395,"station_id":"KLD","is_transit":false,"i_long":106.899548,"time":3,"line":1,"transit":false},{"distance":3100,"transit":false,"is_transit":false,"station_id":"BUA","station_name":"Buaran","i_long":106.922662,"i_lat":-6.215568,"line":1,"time":2},{"station_id":"KLDB","transit":false,"distance":1305,"time":1,"i_lat":-6.217455,"is_transit":false,"station_name":"Klenderbaru","line":1,"i_long":106.939679},{"distance":1385,"station_id":"CUK","transit":false,"i_lat":-6.219053,"time":8,"line":1,"station_name":"Cakung","i_long":106.951283,"is_transit":false},{"i_lat":-6.224515,"i_long":106.977657,"station_id":"KRI","line":1,"transit":false,"is_transit":false,"station_name":"Kranji","time":3,"distance":3097},{"is_transit":false,"station_name":"Bekasi","station_id":"BKS","time":4,"distance":2520,"transit":false,"i_long":106.997013,"line":1,"i_lat":-6.236616}],[{"time":0,"i_lat":-6.3441410000000005,"transit":false,"line":6,"distance":0,"station_name":"Parung Panjang","station_id":"PRP","is_transit":false,"i_long":106.568863},{"station_id":"CC","i_long":106.617853,"is_transit":false,"time":8,"distance":5968,"i_lat":-6.329547,"line":3,"station_name":"Cicayur","transit":false},{"distance":2519,"is_transit":false,"station_name":"Cisauk","station_id":"CSK","transit":false,"time":4,"i_lat":-6.32484,"i_long":106.640411,"line":3},{"transit":false,"i_lat":-6.319871,"is_transit":false,"distance":1784,"time":4,"i_long":106.66566,"station_name":"Serpong","station_id":"SRP","line":6},{"station_id":"RU","time":4,"is_transit":false,"distance":2413,"i_long":106.675475,"station_name":"Rawa Buntu","transit":false,"i_lat":-6.314823,"line":6},{"transit":false,"time":6,"station_name":"Sudimara","i_lat":-6.296963,"i_long":106.712277,"distance":4566,"is_transit":false,"line":6,"station_id":"SDM"},{"transit":false,"distance":1994,"is_transit":false,"time":4,"station_id":"JMU","i_long":106.728916,"i_lat":-6.288927,"station_name":"Jurangmangu","line":6},{"transit":false,"i_long":106.74273,"is_transit":false,"distance":2179,"time":3,"line":6,"station_id":"PDJ","station_name":"Pondokranji","i_lat":-6.276362},{"is_transit":false,"i_lat":-6.237242,"station_id":"KBY","line":6,"time":8,"transit":false,"station_name":"Kebayoran","distance":6218,"i_long":106.780334},{"distance":3737,"line":6,"station_id":"PLM","station_name":"Palmerah","transit":false,"i_long":106.79689,"i_lat":-6.207404,"is_transit":false,"time":7},{"i_lat":-6.185545,"distance":3191,"station_id":"THB","is_transit":true,"station_name":"Tanah Abang","transit":true,"line":1,"time":6,"i_long":106.811091},{"is_transit":false,"i_lat":-6.155215,"line":1,"station_name":"Duri","i_long":106.800832,"station_id":"DU","distance":3632,"time":8,"transit":false},{"is_transit":false,"time":4,"i_long":106.79867,"line":1,"distance":1230,"station_id":"AK","transit":false,"i_lat":-6.144674,"station_name":"Angke"},{"line":4,"time":9,"is_transit":true,"i_lat":-6.132549,"distance":4102,"station_id":"KPB","station_name":"Kampung Bandan","i_long":106.826365,"transit":true},{"station_name":"Jakarta Kota","time":3,"station_id":"JAKK","transit":true,"is_transit":true,"line":2,"distance":1364,"i_lat":-6.137569,"i_long":106.812439},{"i_lat":-6.141205,"line":2,"distance":1264,"station_name":"Jayakarta","i_long":106.820901,"station_id":"JAY","transit":false,"time":4,"is_transit":false},{"time":2,"line":2,"is_transit":false,"distance":1080,"transit":false,"station_id":"MGB","i_long":106.82482,"station_name":"Manggabesar","i_lat":-6.149769},{"is_transit":false,"i_long":106.827103,"line":2,"distance":906,"station_id":"SW","station_name":"Sawah Besar","transit":false,"i_lat":-6.160725,"time":2},{"i_lat":-6.166716,"i_long":106.828284,"distance":1149,"line":2,"time":2,"station_id":"JUA","is_transit":false,"transit":false,"station_name":"Juanda"},{"time":4,"is_transit":false,"i_long":106.832183,"line":2,"i_lat":-6.186295,"distance":2015,"transit":false,"station_name":"Gondangdia","station_id":"GDD"},{"station_id":"CKI","transit":false,"station_name":"Cikini","distance":1750,"i_lat":-6.198556,"time":3,"is_transit":false,"i_long":106.840169,"line":2},{"distance":1590,"transit":true,"is_transit":true,"i_lat":-6.209883,"station_id":"MRI","line":2,"station_name":"Manggarai","time":4,"i_long":106.84912},{"i_long":106.858896,"transit":false,"time":2,"line":1,"station_name":"Matraman","station_id":"MTR","i_lat":-6.212485,"is_transit":false,"distance":1275},{"distance":1377,"i_long":106.86807400000001,"i_lat":-6.215091,"transit":false,"time":8,"line":1,"station_id":"JNG","is_transit":false,"station_name":"Jatinegara"},{"station_name":"Klender","distance":3395,"time":3,"is_transit":false,"i_lat":-6.2135,"line":1,"station_id":"KLD","transit":false,"i_long":106.899548},{"station_id":"BUA","is_transit":false,"distance":3100,"i_long":106.922662,"i_lat":-6.215568,"time":2,"transit":false,"line":1,"station_name":"Buaran"},{"distance":1305,"is_transit":false,"transit":false,"i_long":106.939679,"station_id":"KLDB","station_name":"Klenderbaru","i_lat":-6.217455,"line":1,"time":1},{"line":1,"station_name":"Cakung","distance":1385,"i_long":106.951283,"station_id":"CUK","i_lat":-6.219053,"time":8,"transit":false,"is_transit":false},{"i_long":106.977657,"line":1,"time":3,"is_transit":false,"transit":false,"distance":3097,"station_id":"KRI","station_name":"Kranji","i_lat":-6.224515},{"line":1,"i_long":106.997013,"is_transit":false,"transit":false,"distance":2520,"station_id":"BKS","time":4,"i_lat":-6.236616,"station_name":"Bekasi"}],[{"time":0,"is_transit":false,"i_lat":-6.3441410000000005,"station_id":"PRP","line":6,"station_name":"Parung Panjang","i_long":106.568863,"distance":0,"transit":false},{"station_id":"CC","i_lat":-6.329547,"distance":5968,"is_transit":false,"i_long":106.617853,"station_name":"Cicayur","transit":false,"line":3,"time":8},{"transit":false,"i_long":106.640411,"station_id":"CSK","line":3,"i_lat":-6.32484,"station_name":"Cisauk","time":4,"is_transit":false,"distance":2519},{"i_lat":-6.319871,"i_long":106.66566,"line":6,"station_name":"Serpong","station_id":"SRP","distance":1784,"time":4,"transit":false,"is_transit":false},{"i_long":106.675475,"distance":2413,"line":6,"transit":false,"is_transit":false,"i_lat":-6.314823,"time":4,"station_id":"RU","station_name":"Rawa Buntu"},{"station_id":"SDM","station_name":"Sudimara","distance":4566,"is_transit":false,"i_lat":-6.296963,"line":6,"i_long":106.712277,"time":6,"transit":false},{"i_lat":-6.288927,"distance":1994,"station_id":"JMU","transit":false,"is_transit":false,"i_long":106.728916,"time":4,"station_name":"Jurangmangu","line":6},{"i_lat":-6.276362,"i_long":106.74273,"is_transit":false,"transit":false,"station_name":"Pondokranji","distance":2179,"line":6,"time":3,"station_id":"PDJ"},{"station_id":"KBY","i_long":106.780334,"line":6,"transit":false,"time":8,"is_transit":false,"i_lat":-6.237242,"station_name":"Kebayoran","distance":6218},{"i_long":106.79689,"is_transit":false,"distance":3737,"transit":false,"line":6,"station_id":"PLM","station_name":"Palmerah","time":7,"i_lat":-6.207404},{"station_id":"THB","is_transit":true,"i_lat":-6.185545,"time":6,"distance":3191,"station_name":"Tanah Abang","transit":true,"i_long":106.811091,"line":1},{"i_lat":-6.20132,"line":1,"station_id":"KAT","time":5,"distance":2029,"transit":false,"is_transit":false,"i_long":106.816351,"station_name":"Karet"},{"time":1,"distance":471,"station_name":"Sudirman Baru","i_long":106.819881,"station_id":"SUDB","transit":false,"i_lat":-6.201433,"line":1,"is_transit":false},{"transit":false,"station_id":"SUD","time":1,"i_long":106.822649,"station_name":"Sudirman","distance":280,"is_transit":false,"i_lat":-6.202263,"line":1},{"time":4,"is_transit":true,"i_long":106.84912,"i_lat":-6.209883,"distance":3186,"station_name":"Manggarai","line":2,"transit":true,"station_id":"MRI"},{"station_id":"CKI","time":4,"transit":false,"i_long":106.840169,"i_lat":-6.198556,"is_transit":false,"distance":1590,"line":2,"station_name":"Cikini"},{"time":3,"station_name":"Gondangdia","i_lat":-6.186295,"is_transit":false,"line":2,"distance":1750,"transit":false,"i_long":106.832183,"station_id":"GDD"},{"station_name":"Juanda","transit":false,"distance":2015,"time":4,"is_transit":false,"i_lat":-6.166716,"line":2,"station_id":"JUA","i_long":106.828284},{"distance":1149,"station_id":"SW","transit":false,"i_lat":-6.160725,"i_long":106.827103,"time":2,"is_transit":false,"line":2,"station_name":"Sawah Besar"},{"station_name":"Manggabesar","is_transit":false,"station_id":"MGB","line":2,"transit":false,"distance":906,"time":2,"i_long":106.82482,"i_lat":-6.149769},{"i_long":106.820901,"distance":1080,"station_name":"Jayakarta","time":2,"is_transit":false,"transit":false,"i_lat":-6.141205,"station_id":"JAY","line":2},{"station_id":"JAKK","time":4,"station_name":"Jakarta Kota","transit":true,"line":2,"distance":1264,"i_long":106.812439,"i_lat":-6.137569,"is_transit":true},{"station_name":"Kampung Bandan","time":3,"i_lat":-6.132549,"transit":true,"distance":1364,"is_transit":true,"station_id":"KPB","i_long":106.826365,"line":4},{"station_id":"RJW","is_transit":false,"transit":false,"line":11,"distance":1444,"station_name":"Rajawali","time":3,"i_lat":-6.14505,"i_long":106.836569},{"i_long":106.839204,"station_name":"Kemayoran","time":5,"distance":1901,"station_id":"KMO","transit":false,"is_transit":false,"line":11,"i_lat":-6.161728},{"is_transit":false,"station_name":"Pasar Senen","transit":false,"i_long":106.84368,"line":11,"i_lat":-6.174784,"distance":1436,"station_id":"PSE","time":4},{"is_transit":false,"transit":false,"distance":1567,"i_long":106.850107,"station_name":"Gang Sentiong","time":8,"i_lat":-6.185975,"line":11,"station_id":"GST"},{"i_lat":-6.193792,"i_long":106.855437,"station_id":"KMT","line":11,"transit":false,"time":1,"station_name":"Kramat","distance":973,"is_transit":false},{"distance":1829,"station_id":"POK","station_name":"Pondok Jati","transit":false,"i_long":106.861737,"line":11,"time":2,"i_lat":-6.209188,"is_transit":false},{"station_name":"Jatinegara","line":1,"time":9,"station_id":"JNG","i_long":106.86807400000001,"distance":1236,"transit":true,"is_transit":true,"i_lat":-6.215091},{"station_name":"Klender","line":1,"is_transit":false,"distance":3395,"transit":false,"station_id":"KLD","i_long":106.899548,"time":3,"i_lat":-6.2135},{"i_lat":-6.215568,"i_long":106.922662,"time":2,"station_name":"Buaran","line":1,"distance":3100,"is_transit":false,"transit":false,"station_id":"BUA"},{"time":1,"station_name":"Klenderbaru","i_lat":-6.217455,"line":1,"distance":1305,"transit":false,"station_id":"KLDB","i_long":106.939679,"is_transit":false},{"time":8,"transit":false,"station_id":"CUK","line":1,"is_transit":false,"i_lat":-6.219053,"distance":1385,"i_long":106.951283,"station_name":"Cakung"},{"station_id":"KRI","transit":false,"i_lat":-6.224515,"line":1,"is_transit":false,"distance":3097,"i_long":106.977657,"station_name":"Kranji","time":3},{"is_transit":false,"line":1,"time":4,"transit":false,"i_lat":-6.236616,"distance":2520,"station_name":"Bekasi","station_id":"BKS","i_long":106.997013}]]}