{"data":[[{"time":0,"i_lat":-6.3441410000000005,"station_name":"Parung Panjang","is_transit":false,"i_long":106.568863,"transit":false,"distance":0,"station_id":"PRP","line":6},{"i_long":106.617853,"line":0,"is_transit":false,"distance":5968,"station_id":"CC","station_name":"Cicayur","transit":false,"time":8,"i_lat":-6.329547},{"i_long":106.640411,"transit":false,"i_lat":-6.32484,"is_transit":false,"station_id":"CSK","line":0,"distance":2519,"time":4,"station_name":"Cisauk"},{"transit":false,"line":6,"station_name":"Serpong","time":4,"i_lat":-6.319871,"i_long":106.66566,"distance":1784,"station_id":"SRP","is_transit":false},{"is_transit":false,"distance":2413,"station_id":"RU","line":6,"time":4,"transit":false,"i_lat":-6.314823,"i_long":106.675475,"station_name":"Rawa Buntu"},{"i_long":106.712277,"line":6,"is_transit":false,"station_id":"SDM","distance":4566,"station_name":"Sudimara","transit":false,"time":6,"i_lat":-6.296963},{"is_transit":false,"transit":false,"time":4,"i_long":106.728916,"line":6,"station_id":"JMU","distance":1994,"station_name":"Jurangmangu","i_lat":-6.288927},{"time":3,"i_lat":-6.276362,"i_long":106.74273,"distance":2179,"is_transit":false,"line":6,"transit":false,"station_id":"PDJ","station_name":"Pondokranji"},{"i_lat":-6.237242,"line":6,"distance":6218,"station_name":"Kebayoran","i_long":106.780334,"station_id":"KBY","is_transit":false,"time":8,"transit":false},{"is_transit":false,"time":7,"station_name":"Palmerah","i_long":106.79689,"line":6,"distance":3737,"station_id":"PLM","i_lat":-6.207404,"transit":false},{"transit":true,"station_id":"THB","i_lat":-6.185545,"line":1,"i_long":106.811091,"time":6,"is_transit":true,"distance":3191,"station_name":"Tanah Abang"},{"is_transit":false,"i_lat":-6.20132,"i_long":106.816351,"distance":2029,"station_name":"Karet","transit":false,"time":5,"line":1,"station_id":"KAT"},{"is_transit":false,"line":1,"i_lat":-6.201433,"station_name":"Sudirman Baru","time":1,"distance":471,"station_id":"SUDB","transit":false,"i_long":106.819881},{"time":1,"is_transit":false,"transit":false,"station_id":"SUD","i_lat":-6.202263,"distance":280,"line":1,"i_long":106.822649,"station_name":"Sudirman"},{"is_transit":true,"station_name":"Manggarai","distance":3186,"line":0,"station_id":"MRI","i_lat":-6.209883,"time":4,"transit":false,"i_long":106.84912},{"line":1,"distance":1275,"station_id":"MTR","station_name":"Matraman","i_lat":-6.212485,"is_transit":false,"transit":false,"i_long":106.858896,"time":2},{"station_name":"Jatinegara","distance":1377,"line":0,"transit":false,"time":8,"station_id":"JNG","i_long":106.86807400000001,"is_transit":true,"i_lat":-6.215091},{"station_id":"KLD","transit":false,"time":3,"distance":3395,"is_transit":false,"station_name":"Klender","line":1,"i_long":106.899548,"i_lat":-6.2135},{"distance":3100,"i_lat":-6.215568,"transit":false,"is_transit":false,"line":0,"station_name":"Buaran","station_id":"BUA","time":2,"i_long":106.922662},{"station_id":"KLDB","station_name":"Klenderbaru","time":1,"transit":false,"i_lat":-6.217455,"i_long":106.939679,"line":1,"distance":1305,"is_transit":false},{"is_transit":false,"i_lat":-6.219053,"line":0,"transit":false,"station_name":"Cakung","distance":1385,"i_long":106.951283,"station_id":"CUK","time":8},{"distance":3097,"line":1,"i_lat":-6.224515,"time":3,"i_long":106.977657,"station_id":"KRI","transit":false,"is_transit":false,"station_name":"Kranji"},{"i_long":106.997013,"is_transit":false,"time":4,"station_id":"BKS","line":0,"station_name":"Bekasi","transit":false,"distance":2520,"i_lat":-6.236616},{"distance":2368,"is_transit":false,"station_id":"BKST","station_name":"Bekasi Timur","transit":false,"i_lat":-6.248029,"time":2,"i_long":107.016735,"line":0}],[{"i_lat":-6.3441410000000005,"distance":0,"station_name":"Parung Panjang","transit":false,"time":0,"i_long":106.568863,"line":6,"station_id":"PRP","is_transit":false},{"station_id":"CC","line":0,"time":8,"i_lat":-6.329547,"i_long":106.617853,"distance":5968,"station_name":"Cicayur","transit":false,"is_transit":false},{"is_transit":false,"station_name":"Cisauk","distance":2519,"station_id":"CSK","transit":false,"line":0,"time":4,"i_lat":-6.32484,"i_long":106.640411},{"transit":false,"line":6,"time":4,"station_name":"Serpong","i_lat":-6.319871,"distance":1784,"is_transit":false,"i_long":106.66566,"station_id":"SRP"},{"station_name":"Rawa Buntu","i_lat":-6.314823,"station_id":"RU","time":4,"distance":2413,"i_long":106.675475,"line":6,"is_transit":false,"transit":false},{"i_lat":-6.296963,"line":6,"i_long":106.712277,"is_transit":false,"distance":4566,"station_id":"SDM","station_name":"Sudimara","transit":false,"time":6},{"line":6,"time":4,"i_lat":-6.288927,"station_id":"JMU","transit":false,"is_transit":false,"i_long":106.728916,"distance":1994,"station_name":"Jurangmangu"},{"is_transit":false,"line":6,"i_long":106.74273,"transit":false,"time":3,"i_lat":-6.276362,"distance":2179,"station_id":"PDJ","station_name":"Pondokranji"},{"distance":6218,"station_name":"Kebayoran","i_long":106.780334,"is_transit":false,"transit":false,"line":6,"station_id":"KBY","time":8,"i_lat":-6.237242},{"i_lat":-6.207404,"is_transit":false,"transit":false,"station_id":"PLM","time":7,"line":6,"i_long":106.79689,"distance":3737,"station_name":"Palmerah"},{"distance":3191,"station_id":"THB","is_transit":true,"transit":true,"time":6,"i_lat":-6.185545,"line":1,"station_name":"Tanah Abang","i_long":106.811091},{"is_transit":true,"i_long":106.800832,"distance":3632,"station_id":"DU","i_lat":-6.155215,"line":1,"station_name":"Duri","time":8,"transit":true},{"distance":1230,"station_name":"Angke","line":0,"is_transit":false,"i_lat":-6.144674,"i_long":106.79867,"time":4,"transit":false,"station_id":"AK"},{"time":9,"i_lat":-6.132549,"distance":4102,"station_id":"KPB","is_transit":true,"station_name":"Kampung Bandan","transit":true,"i_long":106.826365,"line":0},{"station_id":"RJW","i_lat":-6.14505,"line":11,"distance":1444,"is_transit":false,"station_name":"Rajawali","time":3,"i_long":106.836569,"transit":false},{"is_transit":false,"transit":false,"time":5,"i_lat":-6.161728,"line":11,"station_name":"Kemayoran","i_long":106.839204,"station_id":"KMO","distance":1901},{"time":4,"station_id":"PSE","distance":1436,"transit":false,"is_transit":false,"line":11,"station_name":"Pasar Senen","i_lat":-6.174784,"i_long":106.84368},{"distance":1567,"station_id":"GST","i_long":106.850107,"line":11,"is_transit":false,"i_lat":-6.185975,"station_name":"Gang Sentiong","transit":false,"time":8},{"line":11,"i_long":106.855437,"is_transit":false,"transit":false,"distance":973,"station_id":"KMT","time":1,"station_name":"Kramat","i_lat":-6.193792},{"station_id":"POK","i_long":106.861737,"line":11,"station_name":"Pondok Jati","distance":1829,"transit":false,"i_lat":-6.209188,"time":2,"is_transit":false},{"distance":1236,"is_transit":true,"i_lat":-6.215091,"i_long":106.86807400000001,"transit":true,"line":0,"station_id":"JNG","time":9,"station_name":"Jatinegara"},{"i_lat":-6.2135,"i_long":106.899548,"is_transit":false,"station_id":"KLD","distance":3395,"station_name":"Klender","time":3,"transit":false,"line":1},{"is_transit":false,"station_id":"BUA","i_lat":-6.215568,"line":0,"distance":3100,"transit":false,"station_name":"Buaran","i_long":106.922662,"time":2},{"station_id":"KLDB","time":1,"i_lat":-6.217455,"distance":1305,"transit":false,"station_name":"Klenderbaru","is_transit":false,"i_long":106.939679,"line":1},{"line":0,"i_lat":-6.219053,"station_name":"Cakung","distance":1385,"is_transit":false,"i_long":106.951283,"time":8,"transit":false,"station_id":"CUK"},{"i_lat":-6.224515,"i_long":106.977657,"distance":3097,"station_id":"KRI","is_transit":false,"transit":false,"time":3,"line":1,"station_name":"Kranji"},{"line":0,"time":4,"i_lat":-6.236616,"is_transit":false,"transit":false,"i_long":106.997013,"distance":2520,"station_id":"BKS","station_name":"Bekasi"},{"station_id":"BKST","time":2,"is_transit":false,"distance":2368,"line":0,"transit":false,"station_name":"Bekasi Timur","i_lat":-6.248029,"i_long":107.016735}],[{"is_transit":false,"station_name":"Parung Panjang","distance":0,"i_long":106.568863,"i_lat":-6.3441410000000005,"time":0,"line":6,"station_id":"PRP","transit":false},{"i_long":106.617853,"line":0,"i_lat":-6.329547,"time":8,"is_transit":false,"station_id":"CC","station_name":"Cicayur","transit":false,"distance":5968},{"time":4,"station_name":"Cisauk","transit":false,"station_id":"CSK","i_lat":-6.32484,"i_long":106.640411,"distance":2519,"is_transit":false,"line":0},{"time":4,"line":6,"distance":1784,"is_transit":false,"transit":false,"i_lat":-6.319871,"i_long":106.66566,"station_id":"SRP","station_name":"Serpong"},{"station_name":"Rawa Buntu","line":6,"is_transit":false,"station_id":"RU","i_lat":-6.314823,"transit":false,"distance":2413,"time":4,"i_long":106.675475},{"is_transit":false,"i_lat":-6.296963,"station_name":"Sudimara","station_id":"SDM","distance":4566,"transit":false,"time":6,"line":6,"i_long":106.712277},{"transit":false,"distance":1994,"station_name":"Jurangmangu","line":6,"time":4,"i_long":106.728916,"i_lat":-6.288927,"is_transit":false,"station_id":"JMU"},{"station_name":"Pondokranji","station_id":"PDJ","i_long":106.74273,"distance":2179,"line":6,"transit":false,"time":3,"is_transit":false,"i_lat":-6.276362},{"time":8,"station_name":"Kebayoran","station_id":"KBY","transit":false,"distance":6218,"i_long":106.780334,"i_lat":-6.237242,"line":6,"is_transit":false},{"distance":3737,"transit":false,"time":7,"line":6,"i_lat":-6.207404,"station_id":"PLM","i_long":106.79689,"is_transit":false,"station_name":"Palmerah"},{"line":1,"i_lat":-6.185545,"station_name":"Tanah Abang","is_transit":true,"i_long":106.811091,"station_id":"THB","time":6,"transit":true,"distance":3191},{"i_long":106.800832,"i_lat":-6.155215,"is_transit":true,"time":8,"station_name":"Duri","line":1,"station_id":"DU","transit":true,"distance":3632},{"i_long":106.79867,"is_transit":false,"station_name":"Angke","distance":1230,"i_lat":-6.144674,"station_id":"AK","time":4,"line":0,"transit":false},{"time":9,"i_long":106.826365,"distance":4102,"station_name":"Kampung Bandan","station_id":"KPB","is_transit":true,"transit":false,"i_lat":-6.132549,"line":0},{"i_long":106.812439,"transit":true,"distance":1364,"i_lat":-6.137569,"line":0,"is_transit":true,"station_id":"JAKK","station_name":"Jakarta Kota","time":3},{"distance":1264,"time":4,"station_name":"Jayakarta","i_long":106.820901,"is_transit":false,"transit":false,"station_id":"JAY","i_lat":-6.141205,"line":7},{"transit":false,"station_name":"Manggabesar","i_lat":-6.149769,"line":2,"i_long":106.82482,"distance":1080,"is_transit":false,"station_id":"MGB","time":2},{"distance":906,"transit":false,"time":2,"i_long":106.827103,"is_transit":false,"station_id":"SW","line":2,"i_lat":-6.160725,"station_name":"Sawah Besar"},{"line":2,"i_long":106.828284,"distance":1149,"is_transit":false,"station_id":"JUA","i_lat":-6.166716,"station_name":"Juanda","time":2,"transit":false},{"station_id":"GDD","station_name":"Gondangdia","line":2,"i_lat":-6.186295,"transit":false,"time":4,"is_transit":false,"i_long":106.832183,"distance":2015},{"i_lat":-6.198556,"is_transit":false,"station_name":"Cikini","distance":1750,"time":3,"i_long":106.840169,"station_id":"CKI","line":0,"transit":false},{"line":0,"station_id":"MRI","transit":true,"time":4,"distance":1590,"is_transit":true,"station_name":"Manggarai","i_lat":-6.209883,"i_long":106.84912},{"station_name":"Matraman","line":1,"distance":1275,"i_long":106.858896,"is_transit":false,"station_id":"MTR","i_lat":-6.212485,"time":2,"transit":false},{"distance":1377,"station_id":"JNG","time":8,"transit":false,"station_name":"Jatinegara","is_transit":true,"i_long":106.86807400000001,"line":0,"i_lat":-6.215091},{"i_long":106.899548,"transit":false,"is_transit":false,"line":1,"station_name":"Klender","station_id":"KLD","time":3,"i_lat":-6.2135,"distance":3395},{"distance":3100,"station_name":"Buaran","i_lat":-6.215568,"station_id":"BUA","time":2,"i_long":106.922662,"line":0,"is_transit":false,"transit":false},{"is_transit":false,"station_name":"Klenderbaru","station_id":"KLDB","i_lat":-6.217455,"line":1,"transit":false,"distance":1305,"time":1,"i_long":106.939679},{"time":8,"i_lat":-6.219053,"line":0,"transit":false,"is_transit":false,"station_id":"CUK","i_long":106.951283,"station_name":"Cakung","distance":1385},{"time":3,"station_name":"Kranji","distance":3097,"is_transit":false,"transit":false,"i_lat":-6.224515,"station_id":"KRI","i_long":106.977657,"line":1},{"transit":false,"distance":2520,"i_lat":-6.236616,"i_long":106.997013,"station_name":"Bekasi","is_transit":false,"line":0,"time":4,"station_id":"BKS"},{"time":2,"distance":2368,"i_lat":-6.248029,"line":0,"transit":false,"is_transit":false,"station_id":"BKST","station_name":"Bekasi Timur","i_long":107.016735}],[{"time":0,"distance":0,"station_id":"PRP","line":6,"is_transit":false,"station_name":"Parung Panjang","i_lat":-6.3441410000000005,"transit":false,"i_long":106.568863},{"i_long":106.617853,"line":0,"station_id":"CC","is_transit":false,"station_name":"Cicayur","transit":false,"time":8,"distance":5968,"i_lat":-6.329547},{"i_lat":-6.32484,"line":0,"is_transit":false,"i_long":106.640411,"station_name":"Cisauk","station_id":"CSK","distance":2519,"transit":false,"time":4},{"distance":1784,"is_transit":false,"station_id":"SRP","station_name":"Serpong","time":4,"line":6,"i_long":106.66566,"i_lat":-6.319871,"transit":false},{"transit":false,"line":6,"station_name":"Rawa Buntu","i_lat":-6.314823,"i_long":106.675475,"time":4,"station_id":"RU","is_transit":false,"distance":2413},{"station_id":"SDM","station_name":"Sudimara","transit":false,"i_long":106.712277,"distance":4566,"i_lat":-6.296963,"time":6,"line":6,"is_transit":false},{"is_transit":false,"i_lat":-6.288927,"transit":false,"station_name":"Jurangmangu","distance":1994,"station_id":"JMU","line":6,"time":4,"i_long":106.728916},{"distance":2179,"station_id":"PDJ","time":3,"line":6,"station_name":"Pondokranji","i_long":106.74273,"is_transit":false,"transit":false,"i_lat":-6.276362},{"station_name":"Kebayoran","is_transit":false,"i_long":106.780334,"time":8,"distance":6218,"transit":false,"i_lat":-6.237242,"line":6,"station_id":"KBY"},{"i_long":106.79689,"station_name":"Palmerah","is_transit":false,"transit":false,"i_lat":-6.207404,"distance":3737,"station_id":"PLM","line":6,"time":7},{"station_id":"THB","line":1,"transit":true,"i_lat":-6.185545,"i_long":106.811091,"station_name":"Tanah Abang","distance":3191,"time":6,"is_transit":true},{"is_transit":false,"transit":false,"distance":2029,"time":5,"station_id":"KAT","station_name":"Karet","line":1,"i_lat":-6.20132,"i_long":106.816351},{"station_id":"SUDB","transit":false,"i_long":106.819881,"distance":471,"i_lat":-6.201433,"line":1,"is_transit":false,"time":1,"station_name":"Sudirman Baru"},{"station_name":"Sudirman","is_transit":false,"station_id":"SUD","distance":280,"transit":false,"time":1,"line":1,"i_long":106.822649,"i_lat":-6.202263},{"transit":true,"distance":3186,"is_transit":true,"i_long":106.84912,"station_name":"Manggarai","station_id":"MRI","line":0,"i_lat":-6.209883,"time":4},{"line":0,"station_name":"Cikini","distance":1590,"i_lat":-6.198556,"transit":false,"time":4,"station_id":"CKI","i_long":106.840169,"is_transit":false},{"station_id":"GDD","is_transit":false,"i_long":106.832183,"station_name":"Gondangdia","i_lat":-6.186295,"time":3,"distance":1750,"transit":false,"line":2},{"i_lat":-6.166716,"i_long":106.828284,"distance":2015,"time":4,"station_id":"JUA","is_transit":false,"line":2,"transit":false,"station_name":"Juanda"},{"station_name":"Sawah Besar","i_lat":-6.160725,"line":2,"is_transit":false,"distance":1149,"station_id":"SW","transit":false,"time":2,"i_long":106.827103},{"distance":906,"time":2,"station_id":"MGB","i_lat":-6.149769,"line":2,"is_transit":false,"i_long":106.82482,"transit":false,"station_name":"Manggabesar"},{"i_long":106.820901,"station_id":"JAY","station_name":"Jayakarta","distance":1080,"is_transit":false,"transit":false,"i_lat":-6.141205,"time":2,"line":7},{"time":4,"station_id":"JAKK","is_transit":true,"station_name":"Jakarta Kota","i_lat":-6.137569,"transit":true,"i_long":106.812439,"distance":1264,"line":0},{"i_lat":-6.132549,"station_id":"KPB","station_name":"Kampung Bandan","i_long":106.826365,"is_transit":true,"line":0,"distance":1364,"transit":true,"time":3},{"line":11,"i_lat":-6.14505,"station_name":"Rajawali","transit":false,"distance":1444,"station_id":"RJW","time":3,"is_transit":false,"i_long":106.836569},{"line":11,"i_long":106.839204,"is_transit":false,"station_name":"Kemayoran","i_lat":-6.161728,"distance":1901,"station_id":"KMO","time":5,"transit":false},{"transit":false,"is_transit":false,"station_id":"PSE","i_long":106.84368,"i_lat":-6.174784,"distance":1436,"station_name":"Pasar Senen","time":4,"line":11},{"is_transit":false,"i_lat":-6.185975,"transit":false,"i_long":106.850107,"line":11,"distance":1567,"station_id":"GST","time":8,"station_name":"Gang Sentiong"},{"distance":973,"transit":false,"station_name":"Kramat","i_lat":-6.193792,"line":11,"station_id":"KMT","i_long":106.855437,"time":1,"is_transit":false},{"station_name":"Pondok Jati","time":2,"distance":1829,"i_lat":-6.209188,"i_long":106.861737,"transit":false,"line":11,"is_transit":false,"station_id":"POK"},{"i_long":106.86807400000001,"line":0,"station_id":"JNG","i_lat":-6.215091,"is_transit":true,"transit":true,"station_name":"Jatinegara","distance":1236,"time":9},{"time":3,"station_id":"KLD","line":1,"distance":3395,"station_name":"Klender","is_transit":false,"transit":false,"i_lat":-6.2135,"i_long":106.899548},{"line":0,"time":2,"is_transit":false,"distance":3100,"station_id":"BUA","transit":false,"station_name":"Buaran","i_lat":-6.215568,"i_long":106.922662},{"time":1,"i_lat":-6.217455,"i_long":106.939679,"transit":false,"line":1,"station_id":"KLDB","distance":1305,"is_transit":false,"station_name":"Klenderbaru"},{"i_lat":-6.219053,"i_long":106.951283,"transit":false,"line":0,"is_transit":false,"distance":1385,"station_id":"CUK","station_name":"Cakung","time":8},{"station_name":"Kranji","time":3,"is_transit":false,"station_id":"KRI","i_lat":-6.224515,"distance":3097,"i_long":106.977657,"transit":false,"line":1},{"distance":2520,"is_transit":false,"line":0,"transit":false,"time":4,"station_id":"BKS","station_name":"Bekasi","i_lat":-6.236616,"i_long":106.997013},{"distance":2368,"station_id":"BKST","line":0,"transit":false,"i_lat":-6.248029,"time":2,"station_name":"Bekasi Timur","i_long":107.016735,"is_transit":false}]]}