{"data":[[{"i_long":106.568863,"distance":0,"line":6,"time":0,"station_id":"PRP","station_name":"Parung Panjang","transit":false,"i_lat":-6.3441410000000005,"is_transit":false},{"time":8,"i_long":106.617853,"line":3,"is_transit":false,"distance":5968,"station_id":"CC","i_lat":-6.329547,"transit":false,"station_name":"Cicayur"},{"is_transit":false,"distance":2519,"time":4,"station_name":"Cisauk","transit":false,"station_id":"CSK","i_lat":-6.32484,"i_long":106.640411,"line":3},{"i_long":106.66566,"transit":false,"is_transit":false,"distance":1784,"line":6,"station_name":"Serpong","i_lat":-6.319871,"time":4,"station_id":"SRP"},{"transit":false,"distance":2413,"is_transit":false,"line":6,"i_long":106.675475,"station_name":"Rawa Buntu","i_lat":-6.314823,"station_id":"RU","time":4},{"is_transit":false,"line":6,"distance":4566,"station_id":"SDM","station_name":"Sudimara","i_lat":-6.296963,"i_long":106.712277,"transit":false,"time":6},{"transit":false,"station_name":"Jurangmangu","station_id":"JMU","distance":1994,"is_transit":false,"time":4,"i_lat":-6.288927,"i_long":106.728916,"line":6},{"line":6,"i_lat":-6.276362,"is_transit":false,"transit":false,"time":3,"distance":2179,"station_id":"PDJ","station_name":"Pondokranji","i_long":106.74273},{"station_id":"KBY","is_transit":false,"distance":6218,"transit":false,"i_lat":-6.237242,"line":6,"time":8,"station_name":"Kebayoran","i_long":106.780334},{"station_name":"Palmerah","line":6,"time":7,"i_long":106.79689,"transit":false,"is_transit":false,"distance":3737,"station_id":"PLM","i_lat":-6.207404},{"line":1,"time":6,"distance":3191,"is_transit":true,"station_name":"Tanah Abang","station_id":"THB","i_lat":-6.185545,"i_long":106.811091,"transit":true},{"i_lat":-6.155215,"time":8,"distance":3632,"i_long":106.800832,"line":1,"station_id":"DU","station_name":"Duri","is_transit":false,"transit":false},{"is_transit":false,"transit":false,"distance":1230,"station_id":"AK","station_name":"Angke","line":1,"i_lat":-6.144674,"i_long":106.79867,"time":4}],[{"station_name":"Parung Panjang","transit":false,"i_lat":-6.3441410000000005,"i_long":106.568863,"station_id":"PRP","is_transit":false,"time":0,"distance":0,"line":6},{"time":8,"distance":5968,"station_name":"Cicayur","station_id":"CC","i_lat":-6.329547,"is_transit":false,"transit":false,"i_long":106.617853,"line":3},{"transit":false,"distance":2519,"time":4,"station_id":"CSK","station_name":"Cisauk","is_transit":false,"i_lat":-6.32484,"i_long":106.640411,"line":3},{"time":4,"station_name":"Serpong","i_long":106.66566,"station_id":"SRP","distance":1784,"line":6,"is_transit":false,"transit":false,"i_lat":-6.319871},{"station_id":"RU","transit":false,"time":4,"line":6,"i_lat":-6.314823,"i_long":106.675475,"station_name":"Rawa Buntu","is_transit":false,"distance":2413},{"transit":false,"station_id":"SDM","is_transit":false,"time":6,"line":6,"station_name":"Sudimara","i_long":106.712277,"i_lat":-6.296963,"distance":4566},{"transit":false,"is_transit":false,"station_id":"JMU","i_long":106.728916,"time":4,"i_lat":-6.288927,"line":6,"distance":1994,"station_name":"Jurangmangu"},{"i_long":106.74273,"transit":false,"station_name":"Pondokranji","time":3,"station_id":"PDJ","i_lat":-6.276362,"line":6,"is_transit":false,"distance":2179},{"i_lat":-6.237242,"is_transit":false,"time":8,"station_id":"KBY","station_name":"Kebayoran","transit":false,"distance":6218,"i_long":106.780334,"line":6},{"line":6,"time":7,"is_transit":false,"i_lat":-6.207404,"station_name":"Palmerah","distance":3737,"station_id":"PLM","transit":false,"i_long":106.79689},{"is_transit":true,"distance":3191,"station_name":"Tanah Abang","transit":true,"i_lat":-6.185545,"time":6,"i_long":106.811091,"line":1,"station_id":"THB"},{"station_id":"KAT","station_name":"Karet","time":5,"distance":2029,"transit":false,"i_lat":-6.20132,"is_transit":false,"line":1,"i_long":106.816351},{"station_name":"Sudirman Baru","station_id":"SUDB","i_long":106.819881,"line":1,"distance":471,"transit":false,"time":1,"is_transit":false,"i_lat":-6.201433},{"time":1,"i_long":106.822649,"station_id":"SUD","line":1,"station_name":"Sudirman","i_lat":-6.202263,"transit":false,"distance":280,"is_transit":false},{"is_transit":true,"station_name":"Manggarai","transit":true,"time":4,"i_lat":-6.209883,"i_long":106.84912,"line":2,"distance":3186,"station_id":"MRI"},{"distance":1590,"is_transit":false,"station_id":"CKI","time":4,"station_name":"Cikini","line":2,"i_long":106.840169,"i_lat":-6.198556,"transit":false},{"i_lat":-6.186295,"distance":1750,"station_id":"GDD","transit":false,"i_long":106.832183,"station_name":"Gondangdia","time":3,"is_transit":false,"line":2},{"i_long":106.828284,"is_transit":false,"distance":2015,"time":4,"i_lat":-6.166716,"transit":false,"station_id":"JUA","station_name":"Juanda","line":2},{"time":2,"station_name":"Sawah Besar","station_id":"SW","transit":false,"line":2,"distance":1149,"i_long":106.827103,"is_transit":false,"i_lat":-6.160725},{"station_name":"Manggabesar","i_lat":-6.149769,"distance":906,"line":2,"station_id":"MGB","time":2,"is_transit":false,"transit":false,"i_long":106.82482},{"distance":1080,"is_transit":false,"time":2,"transit":false,"station_name":"Jayakarta","station_id":"JAY","i_long":106.820901,"line":2,"i_lat":-6.141205},{"time":4,"is_transit":true,"station_id":"JAKK","station_name":"Jakarta Kota","i_lat":-6.137569,"distance":1264,"transit":true,"i_long":106.812439,"line":2},{"station_name":"Kampung Bandan","transit":true,"is_transit":true,"i_long":106.826365,"distance":1364,"station_id":"KPB","i_lat":-6.132549,"time":3,"line":4},{"is_transit":false,"transit":false,"i_lat":-6.144674,"i_long":106.79867,"distance":4102,"station_name":"Angke","station_id":"AK","line":1,"time":9}],[{"station_id":"PRP","distance":0,"transit":false,"i_lat":-6.3441410000000005,"is_transit":false,"line":6,"time":0,"station_name":"Parung Panjang","i_long":106.568863},{"line":3,"is_transit":false,"distance":5968,"time":8,"station_id":"CC","transit":false,"i_lat":-6.329547,"station_name":"Cicayur","i_long":106.617853},{"time":4,"i_lat":-6.32484,"line":3,"distance":2519,"is_transit":false,"transit":false,"station_name":"Cisauk","station_id":"CSK","i_long":106.640411},{"station_name":"Serpong","station_id":"SRP","is_transit":false,"i_lat":-6.319871,"line":6,"i_long":106.66566,"time":4,"transit":false,"distance":1784},{"station_name":"Rawa Buntu","i_lat":-6.314823,"transit":false,"is_transit":false,"distance":2413,"station_id":"RU","line":6,"time":4,"i_long":106.675475},{"i_lat":-6.296963,"i_long":106.712277,"transit":false,"line":6,"is_transit":false,"distance":4566,"station_name":"Sudimara","time":6,"station_id":"SDM"},{"i_long":106.728916,"line":6,"station_id":"JMU","transit":false,"is_transit":false,"time":4,"i_lat":-6.288927,"distance":1994,"station_name":"Jurangmangu"},{"i_lat":-6.276362,"transit":false,"station_name":"Pondokranji","line":6,"distance":2179,"i_long":106.74273,"time":3,"station_id":"PDJ","is_transit":false},{"i_lat":-6.237242,"time":8,"line":6,"distance":6218,"is_transit":false,"station_id":"KBY","i_long":106.780334,"transit":false,"station_name":"Kebayoran"},{"time":7,"station_id":"PLM","i_long":106.79689,"is_transit":false,"line":6,"station_name":"Palmerah","distance":3737,"transit":false,"i_lat":-6.207404},{"station_id":"THB","is_transit":true,"i_long":106.811091,"distance":3191,"station_name":"Tanah Abang","i_lat":-6.185545,"time":6,"transit":true,"line":1},{"distance":2029,"is_transit":false,"station_name":"Karet","i_lat":-6.20132,"time":5,"transit":false,"i_long":106.816351,"line":1,"station_id":"KAT"},{"distance":471,"transit":false,"station_id":"SUDB","i_lat":-6.201433,"time":1,"line":1,"is_transit":false,"station_name":"Sudirman Baru","i_long":106.819881},{"station_name":"Sudirman","transit":false,"distance":280,"time":1,"is_transit":false,"i_long":106.822649,"station_id":"SUD","i_lat":-6.202263,"line":1},{"is_transit":false,"line":2,"station_name":"Manggarai","i_lat":-6.209883,"station_id":"MRI","i_long":106.84912,"time":4,"distance":3186,"transit":false},{"time":2,"station_name":"Matraman","line":1,"distance":1275,"is_transit":false,"i_lat":-6.212485,"station_id":"MTR","i_long":106.858896,"transit":false},{"transit":true,"i_long":106.86807400000001,"time":8,"distance":1377,"station_name":"Jatinegara","station_id":"JNG","i_lat":-6.215091,"line":1,"is_transit":true},{"station_id":"POK","i_long":106.861737,"i_lat":-6.209188,"line":11,"time":2,"station_name":"Pondok Jati","is_transit":false,"transit":false,"distance":1236},{"station_name":"Kramat","is_transit":false,"distance":1829,"i_long":106.855437,"line":11,"transit":false,"time":2,"station_id":"KMT","i_lat":-6.193792},{"time":1,"station_name":"Gang Sentiong","i_long":106.850107,"is_transit":false,"transit":false,"station_id":"GST","i_lat":-6.185975,"line":11,"distance":973},{"distance":1567,"i_long":106.84368,"station_name":"Pasar Senen","transit":false,"i_lat":-6.174784,"is_transit":false,"line":11,"station_id":"PSE","time":8},{"is_transit":false,"time":4,"distance":1436,"line":11,"station_id":"KMO","transit":false,"i_lat":-6.161728,"station_name":"Kemayoran","i_long":106.839204},{"transit":false,"is_transit":false,"time":5,"distance":1901,"station_id":"RJW","line":11,"station_name":"Rajawali","i_lat":-6.14505,"i_long":106.836569},{"is_transit":true,"i_long":106.826365,"line":4,"transit":true,"station_name":"Kampung Bandan","time":3,"distance":1444,"station_id":"KPB","i_lat":-6.132549},{"distance":4102,"station_name":"Angke","is_transit":false,"time":9,"station_id":"AK","i_lat":-6.144674,"transit":false,"i_long":106.79867,"line":1}]]}