{"data":[[{"time":0,"line":6,"is_transit":false,"station_id":"PRP","i_lat":-6.3441410000000005,"station_name":"Parung Panjang","distance":0,"i_long":106.568863,"transit":false},{"line":3,"station_name":"Cicayur","station_id":"CC","i_long":106.617853,"transit":false,"is_transit":false,"i_lat":-6.329547,"time":8,"distance":5968},{"i_long":106.640411,"time":4,"transit":false,"is_transit":false,"i_lat":-6.32484,"line":3,"station_id":"CSK","station_name":"Cisauk","distance":2519},{"time":4,"i_lat":-6.319871,"station_name":"Serpong","i_long":106.66566,"line":6,"distance":1784,"station_id":"SRP","is_transit":false,"transit":false},{"i_long":106.675475,"i_lat":-6.314823,"is_transit":false,"time":4,"station_id":"RU","transit":false,"station_name":"Rawa Buntu","distance":2413,"line":6},{"distance":4566,"station_id":"SDM","transit":false,"time":6,"i_long":106.712277,"is_transit":false,"line":6,"station_name":"Sudimara","i_lat":-6.296963}]]}