{"data":[[{"transit":false,"station_name":"Parung Panjang","distance":0,"station_id":"PRP","i_lat":-6.3441410000000005,"i_long":106.568863,"line":6,"is_transit":false,"time":0},{"i_long":106.617853,"distance":5968,"transit":false,"time":8,"station_name":"Cicayur","i_lat":-6.329547,"line":0,"is_transit":false,"station_id":"CC"},{"i_lat":-6.32484,"station_name":"Cisauk","station_id":"CSK","i_long":106.640411,"is_transit":false,"distance":2519,"transit":false,"line":0,"time":4},{"i_lat":-6.319871,"is_transit":false,"line":6,"station_name":"Serpong","transit":false,"time":4,"station_id":"SRP","i_long":106.66566,"distance":1784},{"i_lat":-6.314823,"distance":2413,"i_long":106.675475,"station_name":"Rawa Buntu","transit":false,"is_transit":false,"time":4,"station_id":"RU","line":6},{"distance":4566,"station_id":"SDM","transit":false,"i_long":106.712277,"is_transit":false,"station_name":"Sudimara","time":6,"i_lat":-6.296963,"line":6},{"i_long":106.728916,"station_id":"JMU","line":6,"station_name":"Jurangmangu","time":4,"i_lat":-6.288927,"distance":1994,"is_transit":false,"transit":false},{"line":6,"is_transit":false,"transit":false,"station_name":"Pondokranji","time":3,"i_lat":-6.276362,"i_long":106.74273,"distance":2179,"station_id":"PDJ"},{"distance":6218,"station_id":"KBY","station_name":"Kebayoran","transit":false,"is_transit":false,"i_lat":-6.237242,"line":6,"i_long":106.780334,"time":8},{"time":7,"distance":3737,"line":6,"transit":false,"station_id":"PLM","i_lat":-6.207404,"is_transit":false,"i_long":106.79689,"station_name":"Palmerah"},{"transit":true,"time":6,"station_name":"Tanah Abang","i_lat":-6.185545,"distance":3191,"i_long":106.811091,"station_id":"THB","line":1,"is_transit":true},{"line":1,"time":8,"i_long":106.800832,"transit":false,"distance":3632,"i_lat":-6.155215,"station_name":"Duri","is_transit":true,"station_id":"DU"}],[{"is_transit":false,"station_name":"Parung Panjang","time":0,"station_id":"PRP","line":6,"i_long":106.568863,"distance":0,"i_lat":-6.3441410000000005,"transit":false},{"station_id":"CC","transit":false,"line":0,"station_name":"Cicayur","i_lat":-6.329547,"distance":5968,"time":8,"i_long":106.617853,"is_transit":false},{"transit":false,"station_id":"CSK","is_transit":false,"time":4,"distance":2519,"i_long":106.640411,"i_lat":-6.32484,"line":0,"station_name":"Cisauk"},{"i_lat":-6.319871,"i_long":106.66566,"distance":1784,"line":6,"time":4,"is_transit":false,"station_id":"SRP","station_name":"Serpong","transit":false},{"i_long":106.675475,"line":6,"station_id":"RU","station_name":"Rawa Buntu","time":4,"distance":2413,"transit":false,"is_transit":false,"i_lat":-6.314823},{"is_transit":false,"time":6,"station_name":"Sudimara","i_lat":-6.296963,"transit":false,"line":6,"distance":4566,"station_id":"SDM","i_long":106.712277},{"transit":false,"station_name":"Jurangmangu","time":4,"i_lat":-6.288927,"station_id":"JMU","i_long":106.728916,"is_transit":false,"distance":1994,"line":6},{"station_id":"PDJ","time":3,"i_lat":-6.276362,"line":6,"station_name":"Pondokranji","is_transit":false,"transit":false,"i_long":106.74273,"distance":2179},{"transit":false,"station_id":"KBY","i_lat":-6.237242,"line":6,"distance":6218,"station_name":"Kebayoran","time":8,"is_transit":false,"i_long":106.780334},{"transit":false,"time":7,"i_lat":-6.207404,"i_long":106.79689,"is_transit":false,"station_id":"PLM","distance":3737,"station_name":"Palmerah","line":6},{"time":6,"i_lat":-6.185545,"is_transit":true,"line":1,"i_long":106.811091,"station_name":"Tanah Abang","distance":3191,"transit":true,"station_id":"THB"},{"is_transit":false,"station_id":"KAT","station_name":"Karet","i_lat":-6.20132,"line":1,"distance":2029,"time":5,"i_long":106.816351,"transit":false},{"transit":false,"distance":471,"i_long":106.819881,"i_lat":-6.201433,"is_transit":false,"time":1,"station_name":"Sudirman Baru","line":1,"station_id":"SUDB"},{"station_id":"SUD","transit":false,"i_long":106.822649,"distance":280,"is_transit":false,"station_name":"Sudirman","time":1,"i_lat":-6.202263,"line":1},{"is_transit":true,"transit":true,"time":4,"distance":3186,"i_lat":-6.209883,"line":0,"i_long":106.84912,"station_id":"MRI","station_name":"Manggarai"},{"time":4,"i_lat":-6.198556,"transit":false,"line":0,"station_name":"Cikini","station_id":"CKI","is_transit":false,"i_long":106.840169,"distance":1590},{"station_name":"Gondangdia","i_long":106.832183,"is_transit":false,"station_id":"GDD","i_lat":-6.186295,"transit":false,"time":3,"distance":1750,"line":2},{"line":2,"i_long":106.828284,"station_name":"Juanda","distance":2015,"time":4,"is_transit":false,"station_id":"JUA","i_lat":-6.166716,"transit":false},{"distance":1149,"i_lat":-6.160725,"line":2,"transit":false,"is_transit":false,"station_id":"SW","time":2,"i_long":106.827103,"station_name":"Sawah Besar"},{"i_lat":-6.149769,"time":2,"station_id":"MGB","is_transit":false,"transit":false,"line":2,"station_name":"Manggabesar","i_long":106.82482,"distance":906},{"i_long":106.820901,"station_name":"Jayakarta","station_id":"JAY","is_transit":false,"line":7,"i_lat":-6.141205,"time":2,"distance":1080,"transit":false},{"time":4,"line":0,"i_lat":-6.137569,"transit":true,"i_long":106.812439,"station_name":"Jakarta Kota","distance":1264,"is_transit":true,"station_id":"JAKK"},{"time":3,"i_long":106.826365,"distance":1364,"station_name":"Kampung Bandan","line":0,"station_id":"KPB","transit":false,"is_transit":true,"i_lat":-6.132549},{"time":9,"distance":4102,"is_transit":false,"station_id":"AK","line":0,"station_name":"Angke","i_lat":-6.144674,"i_long":106.79867,"transit":false},{"i_lat":-6.155215,"i_long":106.800832,"is_transit":true,"station_id":"DU","distance":1230,"time":4,"transit":false,"station_name":"Duri","line":1}],[{"line":6,"distance":0,"is_transit":false,"time":0,"station_name":"Parung Panjang","station_id":"PRP","i_lat":-6.3441410000000005,"transit":false,"i_long":106.568863},{"distance":5968,"i_lat":-6.329547,"line":0,"station_id":"CC","station_name":"Cicayur","transit":false,"time":8,"i_long":106.617853,"is_transit":false},{"i_long":106.640411,"transit":false,"is_transit":false,"distance":2519,"i_lat":-6.32484,"line":0,"station_name":"Cisauk","time":4,"station_id":"CSK"},{"is_transit":false,"line":6,"distance":1784,"station_name":"Serpong","i_lat":-6.319871,"i_long":106.66566,"transit":false,"station_id":"SRP","time":4},{"i_long":106.675475,"transit":false,"time":4,"line":6,"is_transit":false,"distance":2413,"station_id":"RU","station_name":"Rawa Buntu","i_lat":-6.314823},{"transit":false,"is_transit":false,"station_id":"SDM","station_name":"Sudimara","time":6,"line":6,"i_long":106.712277,"distance":4566,"i_lat":-6.296963},{"transit":false,"station_id":"JMU","is_transit":false,"time":4,"i_long":106.728916,"distance":1994,"station_name":"Jurangmangu","i_lat":-6.288927,"line":6},{"is_transit":false,"i_long":106.74273,"station_name":"Pondokranji","i_lat":-6.276362,"transit":false,"distance":2179,"station_id":"PDJ","time":3,"line":6},{"is_transit":false,"station_name":"Kebayoran","station_id":"KBY","transit":false,"distance":6218,"line":6,"i_lat":-6.237242,"i_long":106.780334,"time":8},{"station_id":"PLM","transit":false,"i_lat":-6.207404,"i_long":106.79689,"station_name":"Palmerah","is_transit":false,"distance":3737,"time":7,"line":6},{"is_transit":true,"distance":3191,"station_name":"Tanah Abang","transit":true,"i_long":106.811091,"time":6,"station_id":"THB","i_lat":-6.185545,"line":1},{"distance":2029,"is_transit":false,"transit":false,"station_id":"KAT","time":5,"station_name":"Karet","i_lat":-6.20132,"i_long":106.816351,"line":1},{"time":1,"is_transit":false,"transit":false,"i_lat":-6.201433,"line":1,"distance":471,"i_long":106.819881,"station_id":"SUDB","station_name":"Sudirman Baru"},{"transit":false,"time":1,"line":1,"i_long":106.822649,"i_lat":-6.202263,"distance":280,"is_transit":false,"station_name":"Sudirman","station_id":"SUD"},{"station_id":"MRI","i_long":106.84912,"station_name":"Manggarai","i_lat":-6.209883,"time":4,"distance":3186,"is_transit":true,"transit":false,"line":0},{"distance":1275,"transit":false,"i_lat":-6.212485,"is_transit":false,"i_long":106.858896,"line":1,"station_name":"Matraman","time":2,"station_id":"MTR"},{"station_id":"JNG","i_long":106.86807400000001,"line":0,"transit":true,"is_transit":true,"distance":1377,"time":8,"station_name":"Jatinegara","i_lat":-6.215091},{"is_transit":false,"station_id":"POK","time":2,"line":11,"station_name":"Pondok Jati","distance":1236,"transit":false,"i_lat":-6.209188,"i_long":106.861737},{"is_transit":false,"i_long":106.855437,"i_lat":-6.193792,"station_id":"KMT","distance":1829,"line":11,"time":2,"transit":false,"station_name":"Kramat"},{"i_lat":-6.185975,"station_name":"Gang Sentiong","transit":false,"distance":973,"time":1,"line":11,"is_transit":false,"i_long":106.850107,"station_id":"GST"},{"line":11,"is_transit":false,"distance":1567,"time":8,"i_lat":-6.174784,"station_name":"Pasar Senen","transit":false,"i_long":106.84368,"station_id":"PSE"},{"i_long":106.839204,"is_transit":false,"line":11,"distance":1436,"station_id":"KMO","station_name":"Kemayoran","transit":false,"time":4,"i_lat":-6.161728},{"i_long":106.836569,"time":5,"is_transit":false,"station_name":"Rajawali","distance":1901,"transit":false,"station_id":"RJW","line":11,"i_lat":-6.14505},{"time":3,"station_id":"KPB","i_lat":-6.132549,"transit":true,"station_name":"Kampung Bandan","line":0,"is_transit":true,"distance":1444,"i_long":106.826365},{"i_long":106.79867,"line":0,"i_lat":-6.144674,"time":9,"distance":4102,"transit":false,"is_transit":false,"station_id":"AK","station_name":"Angke"},{"station_name":"Duri","station_id":"DU","i_lat":-6.155215,"distance":1230,"is_transit":true,"transit":false,"i_long":106.800832,"line":1,"time":4}]]}