{"data":[[{"transit":false,"line":6,"station_name":"Parung Panjang","time":0,"station_id":"PRP","distance":0,"is_transit":false,"i_lat":-6.3441410000000005,"i_long":106.568863},{"is_transit":false,"i_lat":-6.329547,"line":3,"station_id":"CC","distance":5968,"transit":false,"station_name":"Cicayur","time":8,"i_long":106.617853},{"i_lat":-6.32484,"line":3,"time":4,"station_id":"CSK","distance":2519,"station_name":"Cisauk","i_long":106.640411,"transit":false,"is_transit":false},{"station_name":"Serpong","i_lat":-6.319871,"is_transit":false,"distance":1784,"line":6,"transit":false,"time":4,"i_long":106.66566,"station_id":"SRP"},{"station_name":"Rawa Buntu","distance":2413,"is_transit":false,"i_long":106.675475,"line":6,"time":4,"station_id":"RU","i_lat":-6.314823,"transit":false},{"transit":false,"station_name":"Sudimara","station_id":"SDM","line":6,"time":6,"i_lat":-6.296963,"i_long":106.712277,"is_transit":false,"distance":4566},{"i_long":106.728916,"i_lat":-6.288927,"is_transit":false,"time":4,"station_id":"JMU","distance":1994,"line":6,"station_name":"Jurangmangu","transit":false},{"station_name":"Pondokranji","transit":false,"line":6,"is_transit":false,"station_id":"PDJ","i_lat":-6.276362,"distance":2179,"time":3,"i_long":106.74273},{"is_transit":false,"station_name":"Kebayoran","line":6,"i_long":106.780334,"distance":6218,"transit":false,"time":8,"station_id":"KBY","i_lat":-6.237242},{"station_name":"Palmerah","line":6,"time":7,"station_id":"PLM","is_transit":false,"i_long":106.79689,"i_lat":-6.207404,"distance":3737,"transit":false},{"i_long":106.811091,"is_transit":true,"distance":3191,"station_name":"Tanah Abang","time":6,"i_lat":-6.185545,"line":1,"station_id":"THB","transit":true},{"i_long":106.800832,"station_id":"DU","i_lat":-6.155215,"line":1,"transit":true,"is_transit":true,"distance":3632,"time":8,"station_name":"Duri"},{"is_transit":false,"i_long":106.788277,"time":3,"station_name":"Grogol","transit":false,"i_lat":-6.162021,"distance":1700,"station_id":"GRG","line":5},{"time":2,"distance":2036,"station_name":"Pesing","i_long":106.771379,"transit":false,"station_id":"PSG","is_transit":false,"i_lat":-6.161433,"line":5},{"line":5,"is_transit":false,"i_lat":-6.1587309999999995,"station_id":"TKO","time":2,"distance":1614,"station_name":"Taman Kota","i_long":106.756522,"transit":false},{"transit":false,"distance":2334,"i_lat":-6.159876,"station_id":"BOI","is_transit":false,"time":2,"i_long":106.737035,"station_name":"Bojongindah","line":5},{"line":5,"time":4,"i_long":106.723064,"station_id":"RW","transit":false,"is_transit":false,"station_name":"Rawa Buaya","i_lat":-6.162758,"distance":1152},{"is_transit":false,"transit":false,"i_lat":-6.166068,"distance":2504,"line":5,"i_long":106.701612,"station_id":"KDS","station_name":"Kalideres","time":3},{"is_transit":false,"i_long":106.679458,"station_name":"Poris","station_id":"PI","time":3,"distance":2548,"line":5,"transit":false,"i_lat":-6.169933},{"station_name":"Batuceper","is_transit":false,"i_long":106.665036,"time":3,"line":5,"station_id":"BPR","distance":1834,"transit":false,"i_lat":-6.171811},{"line":5,"is_transit":false,"distance":2028,"transit":false,"i_lat":-6.17331,"station_name":"Tanah Tinggi","station_id":"THI","i_long":106.64657,"time":3},{"time":3,"distance":1547,"transit":false,"station_name":"Tangerang","i_lat":-6.176583,"station_id":"TNG","i_long":106.632761,"line":5,"is_transit":false}],[{"is_transit":false,"transit":false,"station_name":"Parung Panjang","time":0,"station_id":"PRP","i_lat":-6.3441410000000005,"distance":0,"line":6,"i_long":106.568863},{"transit":false,"is_transit":false,"line":3,"i_long":106.617853,"station_id":"CC","station_name":"Cicayur","time":8,"i_lat":-6.329547,"distance":5968},{"distance":2519,"i_long":106.640411,"transit":false,"is_transit":false,"station_name":"Cisauk","time":4,"station_id":"CSK","line":3,"i_lat":-6.32484},{"is_transit":false,"distance":1784,"transit":false,"i_long":106.66566,"station_id":"SRP","station_name":"Serpong","line":6,"i_lat":-6.319871,"time":4},{"station_name":"Rawa Buntu","i_long":106.675475,"station_id":"RU","is_transit":false,"line":6,"transit":false,"time":4,"i_lat":-6.314823,"distance":2413},{"transit":false,"line":6,"is_transit":false,"i_lat":-6.296963,"distance":4566,"station_id":"SDM","station_name":"Sudimara","i_long":106.712277,"time":6},{"station_name":"Jurangmangu","i_long":106.728916,"distance":1994,"station_id":"JMU","time":4,"transit":false,"is_transit":false,"i_lat":-6.288927,"line":6},{"i_long":106.74273,"transit":false,"station_name":"Pondokranji","time":3,"i_lat":-6.276362,"station_id":"PDJ","line":6,"is_transit":false,"distance":2179},{"time":8,"i_long":106.780334,"is_transit":false,"station_name":"Kebayoran","i_lat":-6.237242,"transit":false,"line":6,"distance":6218,"station_id":"KBY"},{"distance":3737,"transit":false,"station_id":"PLM","i_lat":-6.207404,"station_name":"Palmerah","i_long":106.79689,"is_transit":false,"time":7,"line":6},{"station_id":"THB","transit":true,"i_long":106.811091,"line":1,"time":6,"distance":3191,"is_transit":true,"station_name":"Tanah Abang","i_lat":-6.185545},{"station_id":"KAT","transit":false,"station_name":"Karet","line":1,"distance":2029,"i_long":106.816351,"is_transit":false,"time":5,"i_lat":-6.20132},{"distance":471,"station_name":"Sudirman Baru","i_lat":-6.201433,"is_transit":false,"line":1,"transit":false,"station_id":"SUDB","time":1,"i_long":106.819881},{"i_lat":-6.202263,"distance":280,"i_long":106.822649,"line":1,"station_name":"Sudirman","transit":false,"station_id":"SUD","is_transit":false,"time":1},{"time":4,"station_id":"MRI","is_transit":true,"transit":true,"i_long":106.84912,"distance":3186,"i_lat":-6.209883,"station_name":"Manggarai","line":2},{"station_id":"CKI","station_name":"Cikini","is_transit":false,"i_lat":-6.198556,"line":2,"time":4,"transit":false,"i_long":106.840169,"distance":1590},{"station_name":"Gondangdia","line":2,"is_transit":false,"distance":1750,"transit":false,"time":3,"i_lat":-6.186295,"i_long":106.832183,"station_id":"GDD"},{"station_id":"JUA","is_transit":false,"transit":false,"distance":2015,"i_long":106.828284,"i_lat":-6.166716,"station_name":"Juanda","line":2,"time":4},{"line":2,"station_name":"Sawah Besar","i_lat":-6.160725,"distance":1149,"station_id":"SW","i_long":106.827103,"transit":false,"time":2,"is_transit":false},{"time":2,"station_name":"Manggabesar","is_transit":false,"i_lat":-6.149769,"line":2,"distance":906,"i_long":106.82482,"transit":false,"station_id":"MGB"},{"time":2,"distance":1080,"i_lat":-6.141205,"station_name":"Jayakarta","line":2,"i_long":106.820901,"station_id":"JAY","is_transit":false,"transit":false},{"station_id":"JAKK","station_name":"Jakarta Kota","distance":1264,"time":4,"transit":true,"i_lat":-6.137569,"is_transit":true,"line":2,"i_long":106.812439},{"is_transit":true,"transit":true,"station_id":"KPB","distance":1364,"station_name":"Kampung Bandan","time":3,"i_lat":-6.132549,"i_long":106.826365,"line":4},{"time":9,"distance":4102,"transit":false,"i_long":106.79867,"station_name":"Angke","i_lat":-6.144674,"line":1,"station_id":"AK","is_transit":false},{"time":4,"station_name":"Duri","distance":1230,"is_transit":true,"transit":true,"i_lat":-6.155215,"station_id":"DU","i_long":106.800832,"line":1},{"i_long":106.788277,"station_id":"GRG","is_transit":false,"transit":false,"distance":1700,"time":3,"station_name":"Grogol","line":5,"i_lat":-6.162021},{"time":2,"transit":false,"distance":2036,"i_long":106.771379,"line":5,"station_name":"Pesing","i_lat":-6.161433,"is_transit":false,"station_id":"PSG"},{"time":2,"line":5,"is_transit":false,"distance":1614,"i_lat":-6.1587309999999995,"i_long":106.756522,"transit":false,"station_id":"TKO","station_name":"Taman Kota"},{"time":2,"is_transit":false,"station_id":"BOI","transit":false,"i_lat":-6.159876,"distance":2334,"station_name":"Bojongindah","i_long":106.737035,"line":5},{"station_name":"Rawa Buaya","i_long":106.723064,"time":4,"distance":1152,"is_transit":false,"i_lat":-6.162758,"station_id":"RW","transit":false,"line":5},{"distance":2504,"transit":false,"station_id":"KDS","time":3,"station_name":"Kalideres","is_transit":false,"i_lat":-6.166068,"i_long":106.701612,"line":5},{"i_lat":-6.169933,"is_transit":false,"i_long":106.679458,"transit":false,"time":3,"line":5,"station_name":"Poris","distance":2548,"station_id":"PI"},{"is_transit":false,"station_id":"BPR","time":3,"i_lat":-6.171811,"station_name":"Batuceper","transit":false,"i_long":106.665036,"line":5,"distance":1834},{"time":3,"transit":false,"station_id":"THI","is_transit":false,"station_name":"Tanah Tinggi","distance":2028,"i_lat":-6.17331,"line":5,"i_long":106.64657},{"line":5,"station_id":"TNG","is_transit":false,"i_long":106.632761,"time":3,"i_lat":-6.176583,"station_name":"Tangerang","transit":false,"distance":1547}],[{"distance":0,"transit":false,"station_id":"PRP","i_long":106.568863,"is_transit":false,"i_lat":-6.3441410000000005,"line":6,"station_name":"Parung Panjang","time":0},{"line":3,"time":8,"distance":5968,"i_lat":-6.329547,"station_name":"Cicayur","transit":false,"i_long":106.617853,"station_id":"CC","is_transit":false},{"distance":2519,"time":4,"is_transit":false,"station_id":"CSK","i_long":106.640411,"station_name":"Cisauk","i_lat":-6.32484,"transit":false,"line":3},{"station_id":"SRP","distance":1784,"transit":false,"is_transit":false,"i_lat":-6.319871,"i_long":106.66566,"time":4,"line":6,"station_name":"Serpong"},{"station_name":"Rawa Buntu","station_id":"RU","line":6,"is_transit":false,"time":4,"transit":false,"i_lat":-6.314823,"i_long":106.675475,"distance":2413},{"transit":false,"distance":4566,"i_lat":-6.296963,"i_long":106.712277,"station_name":"Sudimara","time":6,"station_id":"SDM","is_transit":false,"line":6},{"is_transit":false,"i_long":106.728916,"station_id":"JMU","station_name":"Jurangmangu","time":4,"distance":1994,"i_lat":-6.288927,"transit":false,"line":6},{"is_transit":false,"distance":2179,"station_name":"Pondokranji","transit":false,"i_lat":-6.276362,"line":6,"time":3,"i_long":106.74273,"station_id":"PDJ"},{"i_lat":-6.237242,"i_long":106.780334,"station_id":"KBY","distance":6218,"transit":false,"is_transit":false,"time":8,"station_name":"Kebayoran","line":6},{"is_transit":false,"distance":3737,"transit":false,"station_name":"Palmerah","station_id":"PLM","i_long":106.79689,"line":6,"time":7,"i_lat":-6.207404},{"transit":true,"i_long":106.811091,"station_id":"THB","line":1,"distance":3191,"i_lat":-6.185545,"station_name":"Tanah Abang","time":6,"is_transit":true},{"is_transit":false,"station_id":"KAT","distance":2029,"transit":false,"i_lat":-6.20132,"i_long":106.816351,"station_name":"Karet","time":5,"line":1},{"distance":471,"i_long":106.819881,"is_transit":false,"transit":false,"i_lat":-6.201433,"line":1,"time":1,"station_name":"Sudirman Baru","station_id":"SUDB"},{"time":1,"i_long":106.822649,"station_id":"SUD","station_name":"Sudirman","distance":280,"is_transit":false,"i_lat":-6.202263,"transit":false,"line":1},{"i_long":106.84912,"distance":3186,"line":2,"is_transit":false,"transit":false,"station_name":"Manggarai","time":4,"station_id":"MRI","i_lat":-6.209883},{"station_name":"Matraman","i_long":106.858896,"line":1,"is_transit":false,"i_lat":-6.212485,"station_id":"MTR","time":2,"distance":1275,"transit":false},{"i_lat":-6.215091,"is_transit":true,"distance":1377,"transit":true,"line":1,"station_name":"Jatinegara","station_id":"JNG","i_long":106.86807400000001,"time":8},{"i_long":106.861737,"i_lat":-6.209188,"time":2,"station_id":"POK","station_name":"Pondok Jati","distance":1236,"is_transit":false,"line":11,"transit":false},{"is_transit":false,"transit":false,"station_name":"Kramat","line":11,"i_lat":-6.193792,"i_long":106.855437,"time":2,"station_id":"KMT","distance":1829},{"transit":false,"line":11,"station_id":"GST","time":1,"station_name":"Gang Sentiong","i_lat":-6.185975,"is_transit":false,"distance":973,"i_long":106.850107},{"station_name":"Pasar Senen","distance":1567,"i_lat":-6.174784,"is_transit":false,"i_long":106.84368,"time":8,"station_id":"PSE","line":11,"transit":false},{"distance":1436,"i_lat":-6.161728,"i_long":106.839204,"time":4,"station_id":"KMO","is_transit":false,"transit":false,"station_name":"Kemayoran","line":11},{"station_id":"RJW","transit":false,"i_lat":-6.14505,"i_long":106.836569,"time":5,"is_transit":false,"line":11,"distance":1901,"station_name":"Rajawali"},{"i_long":106.826365,"is_transit":true,"transit":true,"station_name":"Kampung Bandan","i_lat":-6.132549,"line":4,"time":3,"distance":1444,"station_id":"KPB"},{"station_id":"AK","station_name":"Angke","i_long":106.79867,"line":1,"is_transit":false,"time":9,"i_lat":-6.144674,"distance":4102,"transit":false},{"transit":true,"time":4,"distance":1230,"i_long":106.800832,"is_transit":true,"station_name":"Duri","station_id":"DU","i_lat":-6.155215,"line":1},{"is_transit":false,"i_lat":-6.162021,"distance":1700,"line":5,"time":3,"transit":false,"station_id":"GRG","i_long":106.788277,"station_name":"Grogol"},{"line":5,"transit":false,"i_lat":-6.161433,"time":2,"station_id":"PSG","is_transit":false,"distance":2036,"i_long":106.771379,"station_name":"Pesing"},{"station_name":"Taman Kota","i_lat":-6.1587309999999995,"line":5,"distance":1614,"is_transit":false,"i_long":106.756522,"time":2,"transit":false,"station_id":"TKO"},{"is_transit":false,"transit":false,"i_long":106.737035,"i_lat":-6.159876,"time":2,"station_id":"BOI","station_name":"Bojongindah","line":5,"distance":2334},{"transit":false,"i_long":106.723064,"time":4,"distance":1152,"station_name":"Rawa Buaya","is_transit":false,"line":5,"i_lat":-6.162758,"station_id":"RW"},{"station_name":"Kalideres","i_long":106.701612,"station_id":"KDS","time":3,"distance":2504,"transit":false,"i_lat":-6.166068,"line":5,"is_transit":false},{"i_lat":-6.169933,"time":3,"distance":2548,"transit":false,"station_id":"PI","is_transit":false,"station_name":"Poris","i_long":106.679458,"line":5},{"i_long":106.665036,"is_transit":false,"line":5,"time":3,"station_id":"BPR","distance":1834,"station_name":"Batuceper","transit":false,"i_lat":-6.171811},{"is_transit":false,"i_lat":-6.17331,"time":3,"i_long":106.64657,"distance":2028,"transit":false,"station_name":"Tanah Tinggi","line":5,"station_id":"THI"},{"station_id":"TNG","distance":1547,"station_name":"Tangerang","time":3,"is_transit":false,"i_lat":-6.176583,"transit":false,"i_long":106.632761,"line":5}]]}