{"data":[[{"line":6,"station_id":"PRP","station_name":"Parung Panjang","i_lat":-6.3441410000000005,"i_long":106.568863,"transit":false,"distance":0,"is_transit":false,"time":0},{"station_id":"CC","station_name":"Cicayur","distance":5968,"i_long":106.617853,"transit":false,"is_transit":false,"time":8,"i_lat":-6.329547,"line":3},{"station_name":"Cisauk","is_transit":false,"transit":false,"i_long":106.640411,"station_id":"CSK","i_lat":-6.32484,"time":4,"distance":2519,"line":3},{"station_name":"Serpong","time":4,"line":6,"distance":1784,"is_transit":false,"i_lat":-6.319871,"station_id":"SRP","i_long":106.66566,"transit":false},{"line":6,"is_transit":false,"station_name":"Rawa Buntu","station_id":"RU","transit":false,"i_lat":-6.314823,"i_long":106.675475,"time":4,"distance":2413},{"distance":4566,"station_name":"Sudimara","i_long":106.712277,"line":6,"i_lat":-6.296963,"time":6,"transit":false,"station_id":"SDM","is_transit":false},{"line":6,"station_id":"JMU","distance":1994,"transit":false,"i_lat":-6.288927,"time":4,"station_name":"Jurangmangu","i_long":106.728916,"is_transit":false},{"i_long":106.74273,"time":3,"station_id":"PDJ","transit":false,"line":6,"station_name":"Pondokranji","is_transit":false,"distance":2179,"i_lat":-6.276362},{"distance":6218,"station_id":"KBY","is_transit":false,"station_name":"Kebayoran","i_long":106.780334,"transit":false,"line":6,"i_lat":-6.237242,"time":8},{"is_transit":false,"i_lat":-6.207404,"station_id":"PLM","transit":false,"line":6,"time":7,"distance":3737,"i_long":106.79689,"station_name":"Palmerah"},{"time":6,"i_long":106.811091,"station_id":"THB","station_name":"Tanah Abang","distance":3191,"i_lat":-6.185545,"is_transit":true,"line":1,"transit":true},{"transit":false,"i_lat":-6.155215,"time":8,"is_transit":false,"station_id":"DU","i_long":106.800832,"distance":3632,"station_name":"Duri","line":1},{"i_lat":-6.144674,"transit":false,"line":1,"time":4,"station_id":"AK","distance":1230,"station_name":"Angke","is_transit":false,"i_long":106.79867},{"is_transit":true,"time":9,"station_name":"Kampung Bandan","transit":true,"distance":4102,"i_lat":-6.132549,"station_id":"KPB","line":4,"i_long":106.826365},{"transit":false,"i_lat":-6.128023,"line":4,"is_transit":false,"time":4,"station_id":"AC","station_name":"Ancol","distance":2185,"i_long":106.84464}],[{"line":6,"station_id":"PRP","is_transit":false,"distance":0,"i_long":106.568863,"time":0,"station_name":"Parung Panjang","transit":false,"i_lat":-6.3441410000000005},{"i_lat":-6.329547,"line":3,"transit":false,"distance":5968,"station_id":"CC","station_name":"Cicayur","is_transit":false,"time":8,"i_long":106.617853},{"station_name":"Cisauk","is_transit":false,"distance":2519,"i_lat":-6.32484,"station_id":"CSK","line":3,"time":4,"transit":false,"i_long":106.640411},{"station_id":"SRP","i_lat":-6.319871,"line":6,"distance":1784,"is_transit":false,"transit":false,"time":4,"i_long":106.66566,"station_name":"Serpong"},{"transit":false,"time":4,"line":6,"is_transit":false,"station_name":"Rawa Buntu","station_id":"RU","distance":2413,"i_lat":-6.314823,"i_long":106.675475},{"distance":4566,"transit":false,"station_name":"Sudimara","is_transit":false,"i_lat":-6.296963,"station_id":"SDM","i_long":106.712277,"time":6,"line":6},{"station_name":"Jurangmangu","time":4,"station_id":"JMU","i_lat":-6.288927,"transit":false,"line":6,"distance":1994,"is_transit":false,"i_long":106.728916},{"time":3,"distance":2179,"transit":false,"station_id":"PDJ","is_transit":false,"i_lat":-6.276362,"station_name":"Pondokranji","i_long":106.74273,"line":6},{"distance":6218,"station_name":"Kebayoran","station_id":"KBY","transit":false,"time":8,"is_transit":false,"i_lat":-6.237242,"i_long":106.780334,"line":6},{"distance":3737,"i_lat":-6.207404,"station_id":"PLM","i_long":106.79689,"line":6,"is_transit":false,"time":7,"transit":false,"station_name":"Palmerah"},{"is_transit":true,"station_name":"Tanah Abang","line":1,"i_lat":-6.185545,"i_long":106.811091,"time":6,"station_id":"THB","transit":true,"distance":3191},{"line":1,"station_name":"Karet","is_transit":false,"distance":2029,"station_id":"KAT","transit":false,"i_long":106.816351,"time":5,"i_lat":-6.20132},{"is_transit":false,"line":1,"station_name":"Sudirman Baru","i_long":106.819881,"transit":false,"distance":471,"i_lat":-6.201433,"station_id":"SUDB","time":1},{"time":1,"transit":false,"distance":280,"station_id":"SUD","line":1,"station_name":"Sudirman","i_lat":-6.202263,"is_transit":false,"i_long":106.822649},{"time":4,"station_name":"Manggarai","station_id":"MRI","is_transit":true,"transit":true,"i_lat":-6.209883,"line":2,"distance":3186,"i_long":106.84912},{"station_name":"Cikini","station_id":"CKI","time":4,"transit":false,"i_long":106.840169,"i_lat":-6.198556,"distance":1590,"is_transit":false,"line":2},{"distance":1750,"line":2,"station_id":"GDD","time":3,"station_name":"Gondangdia","is_transit":false,"i_lat":-6.186295,"i_long":106.832183,"transit":false},{"i_long":106.828284,"line":2,"distance":2015,"station_id":"JUA","transit":false,"is_transit":false,"i_lat":-6.166716,"station_name":"Juanda","time":4},{"i_lat":-6.160725,"time":2,"station_id":"SW","transit":false,"is_transit":false,"line":2,"i_long":106.827103,"station_name":"Sawah Besar","distance":1149},{"i_lat":-6.149769,"line":2,"station_name":"Manggabesar","station_id":"MGB","distance":906,"transit":false,"i_long":106.82482,"is_transit":false,"time":2},{"station_name":"Jayakarta","time":2,"station_id":"JAY","line":2,"i_long":106.820901,"is_transit":false,"distance":1080,"transit":false,"i_lat":-6.141205},{"station_name":"Jakarta Kota","line":2,"time":4,"distance":1264,"station_id":"JAKK","i_long":106.812439,"is_transit":true,"transit":true,"i_lat":-6.137569},{"transit":true,"line":4,"station_name":"Kampung Bandan","i_lat":-6.132549,"is_transit":true,"distance":1364,"i_long":106.826365,"station_id":"KPB","time":3},{"is_transit":false,"station_name":"Ancol","distance":2185,"i_lat":-6.128023,"station_id":"AC","transit":false,"time":4,"i_long":106.84464,"line":4}],[{"station_name":"Parung Panjang","time":0,"line":6,"i_lat":-6.3441410000000005,"transit":false,"distance":0,"is_transit":false,"i_long":106.568863,"station_id":"PRP"},{"distance":5968,"i_lat":-6.329547,"line":3,"station_name":"Cicayur","is_transit":false,"time":8,"transit":false,"i_long":106.617853,"station_id":"CC"},{"distance":2519,"i_lat":-6.32484,"line":3,"is_transit":false,"i_long":106.640411,"station_name":"Cisauk","time":4,"transit":false,"station_id":"CSK"},{"is_transit":false,"time":4,"i_lat":-6.319871,"station_name":"Serpong","transit":false,"i_long":106.66566,"line":6,"station_id":"SRP","distance":1784},{"is_transit":false,"station_name":"Rawa Buntu","line":6,"i_long":106.675475,"transit":false,"time":4,"station_id":"RU","distance":2413,"i_lat":-6.314823},{"station_name":"Sudimara","station_id":"SDM","i_lat":-6.296963,"line":6,"distance":4566,"is_transit":false,"i_long":106.712277,"time":6,"transit":false},{"i_long":106.728916,"station_id":"JMU","station_name":"Jurangmangu","time":4,"distance":1994,"transit":false,"line":6,"is_transit":false,"i_lat":-6.288927},{"time":3,"transit":false,"line":6,"is_transit":false,"i_long":106.74273,"station_id":"PDJ","station_name":"Pondokranji","distance":2179,"i_lat":-6.276362},{"station_name":"Kebayoran","time":8,"i_lat":-6.237242,"is_transit":false,"transit":false,"distance":6218,"line":6,"i_long":106.780334,"station_id":"KBY"},{"i_lat":-6.207404,"time":7,"is_transit":false,"transit":false,"distance":3737,"i_long":106.79689,"station_name":"Palmerah","station_id":"PLM","line":6},{"time":6,"distance":3191,"station_name":"Tanah Abang","i_lat":-6.185545,"i_long":106.811091,"transit":true,"station_id":"THB","line":1,"is_transit":true},{"is_transit":false,"i_long":106.816351,"time":5,"station_id":"KAT","distance":2029,"station_name":"Karet","transit":false,"line":1,"i_lat":-6.20132},{"i_lat":-6.201433,"distance":471,"time":1,"i_long":106.819881,"transit":false,"station_name":"Sudirman Baru","line":1,"station_id":"SUDB","is_transit":false},{"transit":false,"i_lat":-6.202263,"line":1,"is_transit":false,"distance":280,"time":1,"station_name":"Sudirman","station_id":"SUD","i_long":106.822649},{"is_transit":false,"i_lat":-6.209883,"i_long":106.84912,"time":4,"line":2,"transit":false,"station_name":"Manggarai","station_id":"MRI","distance":3186},{"station_id":"MTR","distance":1275,"line":1,"i_long":106.858896,"station_name":"Matraman","transit":false,"i_lat":-6.212485,"time":2,"is_transit":false},{"station_name":"Jatinegara","i_long":106.86807400000001,"line":1,"station_id":"JNG","time":8,"distance":1377,"transit":true,"is_transit":true,"i_lat":-6.215091},{"station_name":"Pondok Jati","i_lat":-6.209188,"line":11,"i_long":106.861737,"time":2,"distance":1236,"is_transit":false,"station_id":"POK","transit":false},{"station_name":"Kramat","time":2,"station_id":"KMT","line":11,"i_lat":-6.193792,"is_transit":false,"i_long":106.855437,"transit":false,"distance":1829},{"distance":973,"i_lat":-6.185975,"station_id":"GST","line":11,"i_long":106.850107,"is_transit":false,"transit":false,"station_name":"Gang Sentiong","time":1},{"transit":false,"distance":1567,"station_id":"PSE","i_lat":-6.174784,"is_transit":false,"time":8,"i_long":106.84368,"line":11,"station_name":"Pasar Senen"},{"station_id":"KMO","line":11,"i_long":106.839204,"is_transit":false,"transit":false,"station_name":"Kemayoran","i_lat":-6.161728,"time":4,"distance":1436},{"is_transit":false,"station_id":"RJW","i_lat":-6.14505,"time":5,"transit":false,"i_long":106.836569,"line":11,"distance":1901,"station_name":"Rajawali"},{"i_lat":-6.132549,"line":4,"transit":true,"time":3,"i_long":106.826365,"distance":1444,"station_name":"Kampung Bandan","is_transit":true,"station_id":"KPB"},{"time":4,"distance":2185,"i_lat":-6.128023,"station_name":"Ancol","line":4,"is_transit":false,"i_long":106.84464,"transit":false,"station_id":"AC"}]]}