{"data":[[{"transit":false,"distance":0,"time":0,"is_transit":false,"station_name":"Parung Panjang","station_id":"PRP","line":6,"i_lat":-6.3441410000000005,"i_long":106.568863},{"i_lat":-6.354349,"i_long":106.508482,"line":0,"is_transit":false,"transit":false,"station_id":"CJT","station_name":"Cilejit","distance":7025,"time":9},{"station_name":"Daru","is_transit":false,"distance":2675,"i_long":106.491338,"line":0,"station_id":"DAR","time":6,"i_lat":-6.338021,"transit":false},{"time":5,"line":6,"distance":3902,"is_transit":false,"station_id":"TEJ","transit":false,"i_lat":-6.327251,"i_long":106.460812,"station_name":"Tenjo"},{"station_id":"TGS","transit":false,"line":6,"i_lat":-6.328533,"distance":2974,"station_name":"Tigaraksa","i_long":106.425991,"time":5,"is_transit":false}]]}