{"data":[[{"i_long":106.568863,"time":0,"station_id":"PRP","i_lat":-6.3441410000000005,"transit":false,"station_name":"Parung Panjang","distance":0,"is_transit":false,"line":6},{"transit":false,"i_lat":-6.329547,"station_name":"Cicayur","time":8,"is_transit":false,"station_id":"CC","i_long":106.617853,"line":3,"distance":5968},{"time":4,"line":3,"station_name":"Cisauk","station_id":"CSK","distance":2519,"i_lat":-6.32484,"is_transit":false,"transit":false,"i_long":106.640411},{"time":4,"transit":false,"i_lat":-6.319871,"line":6,"is_transit":false,"distance":1784,"station_id":"SRP","i_long":106.66566,"station_name":"Serpong"},{"time":4,"station_id":"RU","distance":2413,"i_long":106.675475,"line":6,"i_lat":-6.314823,"transit":false,"station_name":"Rawa Buntu","is_transit":false},{"distance":4566,"transit":false,"time":6,"is_transit":false,"station_name":"Sudimara","line":6,"station_id":"SDM","i_long":106.712277,"i_lat":-6.296963},{"station_name":"Jurangmangu","line":6,"station_id":"JMU","is_transit":false,"transit":false,"i_lat":-6.288927,"distance":1994,"i_long":106.728916,"time":4},{"is_transit":false,"time":3,"i_lat":-6.276362,"station_name":"Pondokranji","distance":2179,"transit":false,"i_long":106.74273,"station_id":"PDJ","line":6},{"distance":6218,"transit":false,"i_lat":-6.237242,"station_name":"Kebayoran","i_long":106.780334,"is_transit":false,"time":8,"line":6,"station_id":"KBY"},{"transit":false,"i_long":106.79689,"is_transit":false,"station_name":"Palmerah","station_id":"PLM","time":7,"line":6,"distance":3737,"i_lat":-6.207404},{"line":1,"transit":false,"station_id":"THB","distance":3191,"i_lat":-6.185545,"station_name":"Tanah Abang","is_transit":false,"time":6,"i_long":106.811091}]]}