{"data":[[{"i_lat":-6.3441410000000005,"line":6,"is_transit":false,"time":0,"station_id":"PRP","distance":0,"station_name":"Parung Panjang","i_long":106.568863,"transit":false},{"station_name":"Cicayur","station_id":"CC","distance":5968,"line":3,"transit":false,"i_lat":-6.329547,"i_long":106.617853,"is_transit":false,"time":8},{"station_name":"Cisauk","station_id":"CSK","time":4,"line":3,"distance":2519,"i_lat":-6.32484,"transit":false,"i_long":106.640411,"is_transit":false},{"station_id":"SRP","station_name":"Serpong","i_lat":-6.319871,"time":4,"is_transit":false,"line":6,"transit":false,"i_long":106.66566,"distance":1784},{"line":6,"i_lat":-6.314823,"transit":false,"is_transit":false,"station_name":"Rawa Buntu","station_id":"RU","time":4,"distance":2413,"i_long":106.675475},{"time":6,"station_name":"Sudimara","i_lat":-6.296963,"is_transit":false,"i_long":106.712277,"station_id":"SDM","transit":false,"distance":4566,"line":6},{"distance":1994,"line":6,"station_id":"JMU","station_name":"Jurangmangu","i_lat":-6.288927,"time":4,"transit":false,"i_long":106.728916,"is_transit":false},{"transit":false,"line":6,"station_id":"PDJ","distance":2179,"i_long":106.74273,"is_transit":false,"station_name":"Pondokranji","time":3,"i_lat":-6.276362},{"transit":false,"line":6,"is_transit":false,"distance":6218,"station_name":"Kebayoran","i_lat":-6.237242,"i_long":106.780334,"time":8,"station_id":"KBY"},{"is_transit":false,"i_lat":-6.207404,"i_long":106.79689,"transit":false,"line":6,"station_name":"Palmerah","distance":3737,"time":7,"station_id":"PLM"},{"is_transit":true,"station_name":"Tanah Abang","distance":3191,"i_lat":-6.185545,"i_long":106.811091,"line":1,"station_id":"THB","transit":true,"time":6},{"line":1,"i_long":106.816351,"station_name":"Karet","time":5,"is_transit":false,"station_id":"KAT","distance":2029,"transit":false,"i_lat":-6.20132},{"transit":false,"station_id":"SUDB","i_long":106.819881,"is_transit":false,"station_name":"Sudirman Baru","time":1,"distance":471,"i_lat":-6.201433,"line":1},{"line":1,"transit":false,"time":1,"station_name":"Sudirman","is_transit":false,"distance":280,"i_lat":-6.202263,"station_id":"SUD","i_long":106.822649},{"i_long":106.84912,"station_name":"Manggarai","line":2,"i_lat":-6.209883,"time":4,"station_id":"MRI","distance":3186,"transit":false,"is_transit":false},{"distance":1275,"transit":false,"time":2,"i_lat":-6.212485,"station_id":"MTR","i_long":106.858896,"is_transit":false,"line":1,"station_name":"Matraman"},{"i_lat":-6.215091,"is_transit":false,"distance":1377,"time":8,"i_long":106.86807400000001,"station_id":"JNG","transit":false,"line":1,"station_name":"Jatinegara"},{"distance":3395,"time":3,"is_transit":false,"transit":false,"i_lat":-6.2135,"station_name":"Klender","station_id":"KLD","line":1,"i_long":106.899548},{"time":2,"i_lat":-6.215568,"i_long":106.922662,"line":1,"station_name":"Buaran","is_transit":false,"distance":3100,"transit":false,"station_id":"BUA"},{"station_name":"Klenderbaru","i_lat":-6.217455,"line":1,"is_transit":false,"i_long":106.939679,"distance":1305,"station_id":"KLDB","time":1,"transit":false},{"distance":1385,"time":8,"station_id":"CUK","station_name":"Cakung","i_lat":-6.219053,"transit":false,"i_long":106.951283,"line":1,"is_transit":false},{"distance":3097,"is_transit":false,"station_id":"KRI","i_lat":-6.224515,"transit":false,"time":3,"i_long":106.977657,"line":1,"station_name":"Kranji"}],[{"i_lat":-6.3441410000000005,"is_transit":false,"i_long":106.568863,"line":6,"station_name":"Parung Panjang","distance":0,"station_id":"PRP","time":0,"transit":false},{"i_long":106.617853,"distance":5968,"station_name":"Cicayur","line":3,"time":8,"transit":false,"i_lat":-6.329547,"is_transit":false,"station_id":"CC"},{"transit":false,"is_transit":false,"distance":2519,"i_lat":-6.32484,"line":3,"station_name":"Cisauk","i_long":106.640411,"station_id":"CSK","time":4},{"time":4,"is_transit":false,"station_id":"SRP","line":6,"i_long":106.66566,"transit":false,"station_name":"Serpong","distance":1784,"i_lat":-6.319871},{"time":4,"station_id":"RU","is_transit":false,"station_name":"Rawa Buntu","i_long":106.675475,"line":6,"distance":2413,"i_lat":-6.314823,"transit":false},{"station_name":"Sudimara","distance":4566,"transit":false,"i_lat":-6.296963,"i_long":106.712277,"line":6,"time":6,"is_transit":false,"station_id":"SDM"},{"station_name":"Jurangmangu","is_transit":false,"line":6,"station_id":"JMU","time":4,"distance":1994,"i_lat":-6.288927,"i_long":106.728916,"transit":false},{"station_name":"Pondokranji","station_id":"PDJ","i_long":106.74273,"transit":false,"time":3,"distance":2179,"i_lat":-6.276362,"is_transit":false,"line":6},{"i_long":106.780334,"transit":false,"station_id":"KBY","i_lat":-6.237242,"station_name":"Kebayoran","distance":6218,"is_transit":false,"time":8,"line":6},{"i_long":106.79689,"transit":false,"is_transit":false,"time":7,"station_id":"PLM","line":6,"station_name":"Palmerah","i_lat":-6.207404,"distance":3737},{"station_name":"Tanah Abang","station_id":"THB","time":6,"i_long":106.811091,"is_transit":true,"i_lat":-6.185545,"distance":3191,"transit":true,"line":1},{"station_id":"DU","time":8,"station_name":"Duri","distance":3632,"is_transit":false,"line":1,"transit":false,"i_lat":-6.155215,"i_long":106.800832},{"i_lat":-6.144674,"line":1,"transit":false,"is_transit":false,"station_id":"AK","time":4,"i_long":106.79867,"station_name":"Angke","distance":1230},{"is_transit":true,"i_long":106.826365,"line":4,"distance":4102,"time":9,"transit":true,"station_name":"Kampung Bandan","i_lat":-6.132549,"station_id":"KPB"},{"i_lat":-6.14505,"distance":1444,"time":3,"line":11,"is_transit":false,"i_long":106.836569,"transit":false,"station_name":"Rajawali","station_id":"RJW"},{"transit":false,"station_id":"KMO","i_long":106.839204,"is_transit":false,"time":5,"line":11,"station_name":"Kemayoran","i_lat":-6.161728,"distance":1901},{"is_transit":false,"distance":1436,"i_long":106.84368,"station_name":"Pasar Senen","station_id":"PSE","transit":false,"time":4,"i_lat":-6.174784,"line":11},{"time":8,"i_long":106.850107,"line":11,"distance":1567,"transit":false,"is_transit":false,"station_name":"Gang Sentiong","station_id":"GST","i_lat":-6.185975},{"station_name":"Kramat","time":1,"station_id":"KMT","is_transit":false,"line":11,"transit":false,"i_lat":-6.193792,"i_long":106.855437,"distance":973},{"is_transit":false,"transit":false,"station_id":"POK","distance":1829,"time":2,"i_lat":-6.209188,"line":11,"station_name":"Pondok Jati","i_long":106.861737},{"station_name":"Jatinegara","line":1,"is_transit":true,"station_id":"JNG","distance":1236,"transit":true,"i_lat":-6.215091,"i_long":106.86807400000001,"time":9},{"station_name":"Klender","line":1,"station_id":"KLD","time":3,"transit":false,"i_long":106.899548,"is_transit":false,"i_lat":-6.2135,"distance":3395},{"i_lat":-6.215568,"time":2,"i_long":106.922662,"distance":3100,"is_transit":false,"transit":false,"station_id":"BUA","station_name":"Buaran","line":1},{"station_id":"KLDB","station_name":"Klenderbaru","i_lat":-6.217455,"i_long":106.939679,"time":1,"line":1,"distance":1305,"transit":false,"is_transit":false},{"station_id":"CUK","i_lat":-6.219053,"distance":1385,"is_transit":false,"i_long":106.951283,"station_name":"Cakung","time":8,"transit":false,"line":1},{"i_long":106.977657,"line":1,"transit":false,"station_id":"KRI","station_name":"Kranji","time":3,"is_transit":false,"distance":3097,"i_lat":-6.224515}],[{"line":6,"i_lat":-6.3441410000000005,"transit":false,"distance":0,"is_transit":false,"station_name":"Parung Panjang","i_long":106.568863,"station_id":"PRP","time":0},{"station_name":"Cicayur","is_transit":false,"transit":false,"time":8,"i_lat":-6.329547,"i_long":106.617853,"distance":5968,"line":3,"station_id":"CC"},{"transit":false,"i_lat":-6.32484,"station_name":"Cisauk","time":4,"line":3,"station_id":"CSK","i_long":106.640411,"distance":2519,"is_transit":false},{"station_name":"Serpong","station_id":"SRP","distance":1784,"time":4,"transit":false,"i_long":106.66566,"is_transit":false,"i_lat":-6.319871,"line":6},{"i_long":106.675475,"line":6,"is_transit":false,"i_lat":-6.314823,"station_id":"RU","time":4,"transit":false,"distance":2413,"station_name":"Rawa Buntu"},{"line":6,"time":6,"transit":false,"station_id":"SDM","station_name":"Sudimara","i_long":106.712277,"distance":4566,"i_lat":-6.296963,"is_transit":false},{"is_transit":false,"time":4,"i_long":106.728916,"distance":1994,"line":6,"transit":false,"i_lat":-6.288927,"station_id":"JMU","station_name":"Jurangmangu"},{"i_lat":-6.276362,"line":6,"i_long":106.74273,"station_name":"Pondokranji","time":3,"distance":2179,"station_id":"PDJ","is_transit":false,"transit":false},{"transit":false,"i_long":106.780334,"distance":6218,"is_transit":false,"i_lat":-6.237242,"station_id":"KBY","time":8,"line":6,"station_name":"Kebayoran"},{"station_id":"PLM","line":6,"i_lat":-6.207404,"transit":false,"is_transit":false,"time":7,"i_long":106.79689,"distance":3737,"station_name":"Palmerah"},{"transit":true,"is_transit":true,"i_lat":-6.185545,"station_id":"THB","i_long":106.811091,"station_name":"Tanah Abang","distance":3191,"time":6,"line":1},{"transit":false,"i_lat":-6.155215,"i_long":106.800832,"station_name":"Duri","line":1,"distance":3632,"time":8,"is_transit":false,"station_id":"DU"},{"is_transit":false,"transit":false,"station_name":"Angke","time":4,"i_lat":-6.144674,"line":1,"i_long":106.79867,"distance":1230,"station_id":"AK"},{"is_transit":true,"transit":true,"distance":4102,"time":9,"i_lat":-6.132549,"i_long":106.826365,"station_id":"KPB","line":4,"station_name":"Kampung Bandan"},{"station_name":"Jakarta Kota","is_transit":true,"distance":1364,"time":3,"i_lat":-6.137569,"i_long":106.812439,"station_id":"JAKK","transit":true,"line":2},{"i_lat":-6.141205,"line":2,"distance":1264,"i_long":106.820901,"station_id":"JAY","is_transit":false,"time":4,"station_name":"Jayakarta","transit":false},{"line":2,"distance":1080,"station_id":"MGB","is_transit":false,"station_name":"Manggabesar","i_lat":-6.149769,"time":2,"i_long":106.82482,"transit":false},{"station_name":"Sawah Besar","i_long":106.827103,"is_transit":false,"transit":false,"time":2,"station_id":"SW","i_lat":-6.160725,"line":2,"distance":906},{"i_lat":-6.166716,"transit":false,"line":2,"station_name":"Juanda","is_transit":false,"time":2,"i_long":106.828284,"station_id":"JUA","distance":1149},{"time":4,"transit":false,"distance":2015,"station_id":"GDD","station_name":"Gondangdia","is_transit":false,"i_long":106.832183,"line":2,"i_lat":-6.186295},{"is_transit":false,"i_long":106.840169,"line":2,"i_lat":-6.198556,"station_name":"Cikini","transit":false,"time":3,"distance":1750,"station_id":"CKI"},{"station_name":"Manggarai","is_transit":true,"time":4,"distance":1590,"transit":true,"station_id":"MRI","i_lat":-6.209883,"line":2,"i_long":106.84912},{"i_long":106.858896,"distance":1275,"transit":false,"line":1,"i_lat":-6.212485,"station_name":"Matraman","is_transit":false,"station_id":"MTR","time":2},{"distance":1377,"i_long":106.86807400000001,"is_transit":false,"station_id":"JNG","time":8,"transit":false,"i_lat":-6.215091,"station_name":"Jatinegara","line":1},{"time":3,"station_name":"Klender","i_long":106.899548,"is_transit":false,"line":1,"station_id":"KLD","i_lat":-6.2135,"distance":3395,"transit":false},{"i_long":106.922662,"line":1,"is_transit":false,"station_id":"BUA","distance":3100,"i_lat":-6.215568,"transit":false,"station_name":"Buaran","time":2},{"transit":false,"distance":1305,"i_lat":-6.217455,"station_name":"Klenderbaru","i_long":106.939679,"is_transit":false,"line":1,"station_id":"KLDB","time":1},{"station_name":"Cakung","time":8,"line":1,"transit":false,"distance":1385,"station_id":"CUK","i_lat":-6.219053,"is_transit":false,"i_long":106.951283},{"time":3,"line":1,"i_long":106.977657,"station_id":"KRI","i_lat":-6.224515,"station_name":"Kranji","is_transit":false,"transit":false,"distance":3097}],[{"station_id":"PRP","is_transit":false,"transit":false,"station_name":"Parung Panjang","time":0,"i_lat":-6.3441410000000005,"line":6,"distance":0,"i_long":106.568863},{"i_long":106.617853,"distance":5968,"transit":false,"line":3,"time":8,"station_name":"Cicayur","i_lat":-6.329547,"is_transit":false,"station_id":"CC"},{"distance":2519,"station_name":"Cisauk","station_id":"CSK","time":4,"i_long":106.640411,"i_lat":-6.32484,"transit":false,"is_transit":false,"line":3},{"distance":1784,"i_long":106.66566,"transit":false,"i_lat":-6.319871,"line":6,"time":4,"is_transit":false,"station_id":"SRP","station_name":"Serpong"},{"time":4,"line":6,"station_name":"Rawa Buntu","transit":false,"is_transit":false,"distance":2413,"i_lat":-6.314823,"i_long":106.675475,"station_id":"RU"},{"station_name":"Sudimara","distance":4566,"i_lat":-6.296963,"station_id":"SDM","is_transit":false,"i_long":106.712277,"time":6,"transit":false,"line":6},{"station_id":"JMU","transit":false,"is_transit":false,"time":4,"distance":1994,"station_name":"Jurangmangu","i_lat":-6.288927,"i_long":106.728916,"line":6},{"distance":2179,"is_transit":false,"station_id":"PDJ","station_name":"Pondokranji","i_lat":-6.276362,"line":6,"time":3,"transit":false,"i_long":106.74273},{"is_transit":false,"i_lat":-6.237242,"station_name":"Kebayoran","transit":false,"station_id":"KBY","time":8,"i_long":106.780334,"line":6,"distance":6218},{"station_id":"PLM","distance":3737,"i_lat":-6.207404,"transit":false,"time":7,"line":6,"station_name":"Palmerah","i_long":106.79689,"is_transit":false},{"distance":3191,"station_name":"Tanah Abang","line":1,"i_long":106.811091,"station_id":"THB","transit":true,"is_transit":true,"time":6,"i_lat":-6.185545},{"distance":2029,"is_transit":false,"time":5,"station_name":"Karet","transit":false,"i_lat":-6.20132,"station_id":"KAT","i_long":106.816351,"line":1},{"distance":471,"is_transit":false,"i_long":106.819881,"station_id":"SUDB","i_lat":-6.201433,"time":1,"station_name":"Sudirman Baru","transit":false,"line":1},{"station_name":"Sudirman","distance":280,"line":1,"transit":false,"i_lat":-6.202263,"station_id":"SUD","i_long":106.822649,"time":1,"is_transit":false},{"i_lat":-6.209883,"station_id":"MRI","is_transit":true,"transit":true,"i_long":106.84912,"time":4,"station_name":"Manggarai","line":2,"distance":3186},{"i_lat":-6.198556,"i_long":106.840169,"transit":false,"time":4,"line":2,"station_id":"CKI","is_transit":false,"distance":1590,"station_name":"Cikini"},{"station_name":"Gondangdia","line":2,"transit":false,"station_id":"GDD","is_transit":false,"distance":1750,"time":3,"i_long":106.832183,"i_lat":-6.186295},{"transit":false,"station_id":"JUA","i_long":106.828284,"station_name":"Juanda","time":4,"is_transit":false,"line":2,"i_lat":-6.166716,"distance":2015},{"is_transit":false,"station_name":"Sawah Besar","i_lat":-6.160725,"distance":1149,"time":2,"i_long":106.827103,"transit":false,"line":2,"station_id":"SW"},{"is_transit":false,"station_name":"Manggabesar","time":2,"i_long":106.82482,"line":2,"i_lat":-6.149769,"station_id":"MGB","transit":false,"distance":906},{"i_long":106.820901,"station_id":"JAY","station_name":"Jayakarta","i_lat":-6.141205,"line":2,"distance":1080,"is_transit":false,"transit":false,"time":2},{"station_name":"Jakarta Kota","line":2,"transit":true,"station_id":"JAKK","is_transit":true,"time":4,"i_lat":-6.137569,"i_long":106.812439,"distance":1264},{"i_lat":-6.132549,"i_long":106.826365,"line":4,"station_id":"KPB","is_transit":true,"time":3,"station_name":"Kampung Bandan","distance":1364,"transit":true},{"time":3,"transit":false,"station_id":"RJW","station_name":"Rajawali","i_lat":-6.14505,"distance":1444,"is_transit":false,"line":11,"i_long":106.836569},{"transit":false,"station_id":"KMO","is_transit":false,"station_name":"Kemayoran","time":5,"distance":1901,"line":11,"i_lat":-6.161728,"i_long":106.839204},{"distance":1436,"transit":false,"is_transit":false,"station_name":"Pasar Senen","i_lat":-6.174784,"station_id":"PSE","time":4,"line":11,"i_long":106.84368},{"i_lat":-6.185975,"i_long":106.850107,"line":11,"is_transit":false,"time":8,"station_id":"GST","transit":false,"station_name":"Gang Sentiong","distance":1567},{"is_transit":false,"station_name":"Kramat","transit":false,"time":1,"line":11,"i_lat":-6.193792,"station_id":"KMT","i_long":106.855437,"distance":973},{"i_lat":-6.209188,"line":11,"transit":false,"station_name":"Pondok Jati","i_long":106.861737,"is_transit":false,"time":2,"station_id":"POK","distance":1829},{"line":1,"transit":true,"station_id":"JNG","station_name":"Jatinegara","i_lat":-6.215091,"distance":1236,"is_transit":true,"time":9,"i_long":106.86807400000001},{"line":1,"i_long":106.899548,"transit":false,"i_lat":-6.2135,"distance":3395,"is_transit":false,"station_name":"Klender","station_id":"KLD","time":3},{"is_transit":false,"transit":false,"station_id":"BUA","station_name":"Buaran","time":2,"i_lat":-6.215568,"line":1,"i_long":106.922662,"distance":3100},{"is_transit":false,"line":1,"transit":false,"time":1,"station_name":"Klenderbaru","i_long":106.939679,"distance":1305,"i_lat":-6.217455,"station_id":"KLDB"},{"station_id":"CUK","time":8,"distance":1385,"is_transit":false,"i_long":106.951283,"i_lat":-6.219053,"transit":false,"station_name":"Cakung","line":1},{"is_transit":false,"i_lat":-6.224515,"transit":false,"station_name":"Kranji","distance":3097,"time":3,"line":1,"station_id":"KRI","i_long":106.977657}]]}