{"data":[[{"time":0,"i_long":106.568863,"station_name":"Parung Panjang","line":6,"is_transit":false,"distance":0,"i_lat":-6.3441410000000005,"transit":false,"station_id":"PRP"},{"line":0,"i_long":106.617853,"distance":5968,"is_transit":false,"i_lat":-6.329547,"station_id":"CC","station_name":"Cicayur","transit":false,"time":8},{"distance":2519,"i_lat":-6.32484,"i_long":106.640411,"line":0,"station_name":"Cisauk","is_transit":false,"station_id":"CSK","transit":false,"time":4},{"line":6,"time":4,"is_transit":false,"i_lat":-6.319871,"station_id":"SRP","distance":1784,"station_name":"Serpong","i_long":106.66566,"transit":false},{"i_long":106.675475,"distance":2413,"is_transit":false,"station_id":"RU","line":6,"transit":false,"i_lat":-6.314823,"station_name":"Rawa Buntu","time":4},{"line":6,"is_transit":false,"transit":false,"time":6,"i_lat":-6.296963,"station_id":"SDM","i_long":106.712277,"distance":4566,"station_name":"Sudimara"},{"time":4,"i_lat":-6.288927,"transit":false,"distance":1994,"i_long":106.728916,"is_transit":false,"line":6,"station_id":"JMU","station_name":"Jurangmangu"},{"station_id":"PDJ","time":3,"is_transit":false,"i_long":106.74273,"distance":2179,"i_lat":-6.276362,"transit":false,"line":6,"station_name":"Pondokranji"},{"station_name":"Kebayoran","transit":false,"station_id":"KBY","line":6,"is_transit":false,"time":8,"i_lat":-6.237242,"i_long":106.780334,"distance":6218},{"time":7,"is_transit":false,"station_id":"PLM","i_lat":-6.207404,"i_long":106.79689,"distance":3737,"transit":false,"line":6,"station_name":"Palmerah"},{"distance":3191,"time":6,"line":1,"i_lat":-6.185545,"station_id":"THB","is_transit":true,"station_name":"Tanah Abang","i_long":106.811091,"transit":true},{"distance":2029,"station_id":"KAT","i_lat":-6.20132,"is_transit":false,"transit":false,"i_long":106.816351,"station_name":"Karet","time":5,"line":1},{"is_transit":false,"i_long":106.819881,"station_name":"Sudirman Baru","time":1,"transit":false,"i_lat":-6.201433,"distance":471,"station_id":"SUDB","line":1},{"distance":280,"i_lat":-6.202263,"station_name":"Sudirman","transit":false,"is_transit":false,"time":1,"station_id":"SUD","i_long":106.822649,"line":1},{"station_id":"MRI","station_name":"Manggarai","distance":3186,"transit":false,"i_lat":-6.209883,"line":0,"is_transit":true,"time":4,"i_long":106.84912},{"line":1,"is_transit":false,"station_id":"MTR","transit":false,"distance":1275,"i_long":106.858896,"station_name":"Matraman","i_lat":-6.212485,"time":2},{"i_lat":-6.215091,"line":0,"is_transit":true,"station_id":"JNG","time":8,"distance":1377,"station_name":"Jatinegara","i_long":106.86807400000001,"transit":false},{"i_long":106.899548,"station_name":"Klender","is_transit":false,"transit":false,"line":1,"station_id":"KLD","i_lat":-6.2135,"time":3,"distance":3395},{"i_lat":-6.215568,"i_long":106.922662,"station_name":"Buaran","line":0,"station_id":"BUA","transit":false,"time":2,"is_transit":false,"distance":3100},{"station_id":"KLDB","line":1,"transit":false,"time":1,"is_transit":false,"i_long":106.939679,"i_lat":-6.217455,"distance":1305,"station_name":"Klenderbaru"},{"station_id":"CUK","i_lat":-6.219053,"transit":false,"i_long":106.951283,"line":0,"station_name":"Cakung","distance":1385,"time":8,"is_transit":false},{"is_transit":false,"transit":false,"station_id":"KRI","i_long":106.977657,"distance":3097,"line":1,"time":3,"i_lat":-6.224515,"station_name":"Kranji"},{"transit":false,"i_lat":-6.236616,"station_id":"BKS","is_transit":false,"distance":2520,"time":4,"station_name":"Bekasi","line":0,"i_long":106.997013}],[{"transit":false,"i_lat":-6.3441410000000005,"station_name":"Parung Panjang","i_long":106.568863,"line":6,"time":0,"distance":0,"is_transit":false,"station_id":"PRP"},{"distance":5968,"station_name":"Cicayur","is_transit":false,"i_lat":-6.329547,"i_long":106.617853,"transit":false,"station_id":"CC","time":8,"line":0},{"is_transit":false,"station_name":"Cisauk","i_lat":-6.32484,"i_long":106.640411,"time":4,"transit":false,"distance":2519,"station_id":"CSK","line":0},{"distance":1784,"station_id":"SRP","station_name":"Serpong","time":4,"transit":false,"line":6,"i_long":106.66566,"i_lat":-6.319871,"is_transit":false},{"is_transit":false,"station_name":"Rawa Buntu","distance":2413,"station_id":"RU","transit":false,"line":6,"time":4,"i_lat":-6.314823,"i_long":106.675475},{"transit":false,"line":6,"time":6,"station_name":"Sudimara","i_lat":-6.296963,"distance":4566,"is_transit":false,"i_long":106.712277,"station_id":"SDM"},{"station_name":"Jurangmangu","i_lat":-6.288927,"station_id":"JMU","time":4,"distance":1994,"i_long":106.728916,"line":6,"is_transit":false,"transit":false},{"i_lat":-6.276362,"line":6,"i_long":106.74273,"is_transit":false,"distance":2179,"station_id":"PDJ","station_name":"Pondokranji","transit":false,"time":3},{"line":6,"time":8,"i_lat":-6.237242,"station_id":"KBY","transit":false,"is_transit":false,"i_long":106.780334,"distance":6218,"station_name":"Kebayoran"},{"is_transit":false,"line":6,"i_long":106.79689,"transit":false,"time":7,"i_lat":-6.207404,"distance":3737,"station_id":"PLM","station_name":"Palmerah"},{"distance":3191,"station_name":"Tanah Abang","i_long":106.811091,"is_transit":true,"transit":true,"line":1,"station_id":"THB","time":6,"i_lat":-6.185545},{"i_lat":-6.155215,"is_transit":true,"transit":true,"station_id":"DU","time":8,"line":1,"i_long":106.800832,"distance":3632,"station_name":"Duri"},{"distance":1230,"station_id":"AK","is_transit":false,"transit":false,"time":4,"i_lat":-6.144674,"line":0,"station_name":"Angke","i_long":106.79867},{"is_transit":true,"i_long":106.826365,"distance":4102,"station_id":"KPB","i_lat":-6.132549,"line":0,"station_name":"Kampung Bandan","time":9,"transit":true},{"distance":1444,"station_name":"Rajawali","line":11,"is_transit":false,"i_lat":-6.14505,"i_long":106.836569,"time":3,"transit":false,"station_id":"RJW"},{"time":5,"i_lat":-6.161728,"distance":1901,"station_id":"KMO","is_transit":false,"station_name":"Kemayoran","transit":false,"i_long":106.839204,"line":11},{"station_id":"PSE","i_lat":-6.174784,"line":11,"distance":1436,"is_transit":false,"station_name":"Pasar Senen","time":4,"i_long":106.84368,"transit":false},{"is_transit":false,"transit":false,"time":8,"i_lat":-6.185975,"line":11,"station_name":"Gang Sentiong","i_long":106.850107,"station_id":"GST","distance":1567},{"time":1,"station_id":"KMT","distance":973,"transit":false,"is_transit":false,"line":11,"station_name":"Kramat","i_lat":-6.193792,"i_long":106.855437},{"line":11,"station_id":"POK","distance":1829,"time":2,"is_transit":false,"i_lat":-6.209188,"transit":false,"i_long":106.861737,"station_name":"Pondok Jati"},{"line":0,"station_name":"Jatinegara","distance":1236,"is_transit":true,"station_id":"JNG","transit":true,"time":9,"i_lat":-6.215091,"i_long":106.86807400000001},{"i_lat":-6.2135,"station_id":"KLD","is_transit":false,"station_name":"Klender","transit":false,"distance":3395,"i_long":106.899548,"time":3,"line":1},{"is_transit":false,"time":2,"i_long":106.922662,"i_lat":-6.215568,"distance":3100,"line":0,"station_name":"Buaran","station_id":"BUA","transit":false},{"i_lat":-6.217455,"station_id":"KLDB","i_long":106.939679,"is_transit":false,"distance":1305,"transit":false,"station_name":"Klenderbaru","time":1,"line":1},{"distance":1385,"station_name":"Cakung","line":0,"transit":false,"i_long":106.951283,"is_transit":false,"station_id":"CUK","time":8,"i_lat":-6.219053},{"station_name":"Kranji","station_id":"KRI","i_lat":-6.224515,"line":1,"distance":3097,"is_transit":false,"time":3,"transit":false,"i_long":106.977657},{"line":0,"time":4,"i_lat":-6.236616,"is_transit":false,"distance":2520,"transit":false,"station_id":"BKS","i_long":106.997013,"station_name":"Bekasi"}],[{"station_id":"PRP","is_transit":false,"i_lat":-6.3441410000000005,"line":6,"transit":false,"time":0,"i_long":106.568863,"station_name":"Parung Panjang","distance":0},{"time":8,"is_transit":false,"line":0,"transit":false,"i_long":106.617853,"distance":5968,"station_id":"CC","station_name":"Cicayur","i_lat":-6.329547},{"station_name":"Cisauk","time":4,"i_lat":-6.32484,"transit":false,"line":0,"i_long":106.640411,"is_transit":false,"station_id":"CSK","distance":2519},{"is_transit":false,"distance":1784,"station_name":"Serpong","transit":false,"line":6,"station_id":"SRP","i_lat":-6.319871,"time":4,"i_long":106.66566},{"is_transit":false,"i_lat":-6.314823,"distance":2413,"station_id":"RU","i_long":106.675475,"station_name":"Rawa Buntu","time":4,"transit":false,"line":6},{"i_lat":-6.296963,"i_long":106.712277,"time":6,"station_name":"Sudimara","line":6,"is_transit":false,"station_id":"SDM","distance":4566,"transit":false},{"time":4,"is_transit":false,"i_long":106.728916,"line":6,"i_lat":-6.288927,"station_id":"JMU","transit":false,"station_name":"Jurangmangu","distance":1994},{"time":3,"i_lat":-6.276362,"station_id":"PDJ","is_transit":false,"i_long":106.74273,"line":6,"station_name":"Pondokranji","transit":false,"distance":2179},{"station_name":"Kebayoran","station_id":"KBY","distance":6218,"is_transit":false,"time":8,"transit":false,"i_long":106.780334,"i_lat":-6.237242,"line":6},{"is_transit":false,"time":7,"transit":false,"line":6,"i_long":106.79689,"station_name":"Palmerah","station_id":"PLM","i_lat":-6.207404,"distance":3737},{"transit":true,"i_long":106.811091,"is_transit":true,"time":6,"i_lat":-6.185545,"station_id":"THB","line":1,"station_name":"Tanah Abang","distance":3191},{"line":1,"i_lat":-6.155215,"time":8,"distance":3632,"station_name":"Duri","station_id":"DU","i_long":106.800832,"transit":true,"is_transit":true},{"distance":1230,"transit":false,"station_id":"AK","station_name":"Angke","time":4,"i_lat":-6.144674,"i_long":106.79867,"line":0,"is_transit":false},{"is_transit":true,"i_lat":-6.132549,"distance":4102,"station_id":"KPB","transit":false,"line":0,"station_name":"Kampung Bandan","i_long":106.826365,"time":9},{"station_id":"JAKK","i_long":106.812439,"line":0,"transit":true,"station_name":"Jakarta Kota","is_transit":true,"distance":1364,"i_lat":-6.137569,"time":3},{"station_id":"JAY","distance":1264,"station_name":"Jayakarta","i_lat":-6.141205,"time":4,"is_transit":false,"transit":false,"line":7,"i_long":106.820901},{"time":2,"station_id":"MGB","i_lat":-6.149769,"station_name":"Manggabesar","distance":1080,"is_transit":false,"transit":false,"i_long":106.82482,"line":2},{"i_long":106.827103,"transit":false,"distance":906,"i_lat":-6.160725,"line":2,"is_transit":false,"station_id":"SW","station_name":"Sawah Besar","time":2},{"distance":1149,"time":2,"station_name":"Juanda","i_long":106.828284,"is_transit":false,"transit":false,"station_id":"JUA","i_lat":-6.166716,"line":2},{"transit":false,"station_name":"Gondangdia","i_lat":-6.186295,"line":2,"i_long":106.832183,"distance":2015,"is_transit":false,"station_id":"GDD","time":4},{"station_id":"CKI","i_lat":-6.198556,"i_long":106.840169,"time":3,"is_transit":false,"line":0,"transit":false,"distance":1750,"station_name":"Cikini"},{"i_lat":-6.209883,"line":0,"time":4,"is_transit":true,"i_long":106.84912,"station_id":"MRI","station_name":"Manggarai","transit":true,"distance":1590},{"is_transit":false,"i_long":106.858896,"i_lat":-6.212485,"transit":false,"station_id":"MTR","line":1,"station_name":"Matraman","distance":1275,"time":2},{"station_id":"JNG","station_name":"Jatinegara","i_long":106.86807400000001,"line":0,"transit":false,"is_transit":true,"distance":1377,"i_lat":-6.215091,"time":8},{"distance":3395,"i_lat":-6.2135,"is_transit":false,"station_id":"KLD","station_name":"Klender","transit":false,"i_long":106.899548,"line":1,"time":3},{"distance":3100,"line":0,"is_transit":false,"i_long":106.922662,"station_name":"Buaran","station_id":"BUA","time":2,"transit":false,"i_lat":-6.215568},{"i_long":106.939679,"distance":1305,"station_name":"Klenderbaru","time":1,"i_lat":-6.217455,"is_transit":false,"station_id":"KLDB","line":1,"transit":false},{"i_long":106.951283,"station_id":"CUK","is_transit":false,"station_name":"Cakung","line":0,"distance":1385,"time":8,"i_lat":-6.219053,"transit":false},{"is_transit":false,"station_name":"Kranji","time":3,"i_long":106.977657,"station_id":"KRI","distance":3097,"transit":false,"i_lat":-6.224515,"line":1},{"station_name":"Bekasi","i_lat":-6.236616,"time":4,"distance":2520,"station_id":"BKS","line":0,"is_transit":false,"transit":false,"i_long":106.997013}],[{"line":6,"is_transit":false,"station_id":"PRP","time":0,"transit":false,"i_long":106.568863,"distance":0,"station_name":"Parung Panjang","i_lat":-6.3441410000000005},{"transit":false,"i_lat":-6.329547,"i_long":106.617853,"is_transit":false,"station_name":"Cicayur","time":8,"station_id":"CC","distance":5968,"line":0},{"distance":2519,"transit":false,"i_lat":-6.32484,"station_id":"CSK","i_long":106.640411,"line":0,"is_transit":false,"station_name":"Cisauk","time":4},{"station_id":"SRP","transit":false,"time":4,"station_name":"Serpong","line":6,"i_long":106.66566,"i_lat":-6.319871,"distance":1784,"is_transit":false},{"time":4,"station_name":"Rawa Buntu","is_transit":false,"distance":2413,"transit":false,"station_id":"RU","i_lat":-6.314823,"i_long":106.675475,"line":6},{"line":6,"station_name":"Sudimara","is_transit":false,"distance":4566,"station_id":"SDM","transit":false,"i_lat":-6.296963,"time":6,"i_long":106.712277},{"line":6,"distance":1994,"station_name":"Jurangmangu","time":4,"i_lat":-6.288927,"i_long":106.728916,"transit":false,"station_id":"JMU","is_transit":false},{"distance":2179,"transit":false,"is_transit":false,"line":6,"station_name":"Pondokranji","i_lat":-6.276362,"station_id":"PDJ","time":3,"i_long":106.74273},{"time":8,"transit":false,"i_lat":-6.237242,"distance":6218,"line":6,"i_long":106.780334,"station_name":"Kebayoran","is_transit":false,"station_id":"KBY"},{"station_name":"Palmerah","i_lat":-6.207404,"i_long":106.79689,"line":6,"station_id":"PLM","is_transit":false,"time":7,"distance":3737,"transit":false},{"i_long":106.811091,"line":1,"distance":3191,"i_lat":-6.185545,"is_transit":true,"station_name":"Tanah Abang","station_id":"THB","time":6,"transit":true},{"distance":2029,"station_id":"KAT","station_name":"Karet","transit":false,"i_lat":-6.20132,"i_long":106.816351,"line":1,"time":5,"is_transit":false},{"time":1,"i_long":106.819881,"station_id":"SUDB","i_lat":-6.201433,"line":1,"is_transit":false,"station_name":"Sudirman Baru","transit":false,"distance":471},{"is_transit":false,"station_name":"Sudirman","transit":false,"i_lat":-6.202263,"station_id":"SUD","i_long":106.822649,"line":1,"distance":280,"time":1},{"transit":true,"is_transit":true,"time":4,"station_id":"MRI","station_name":"Manggarai","i_lat":-6.209883,"i_long":106.84912,"line":0,"distance":3186},{"station_id":"CKI","is_transit":false,"distance":1590,"i_long":106.840169,"line":0,"transit":false,"i_lat":-6.198556,"time":4,"station_name":"Cikini"},{"line":2,"station_id":"GDD","station_name":"Gondangdia","time":3,"distance":1750,"is_transit":false,"i_lat":-6.186295,"transit":false,"i_long":106.832183},{"station_name":"Juanda","is_transit":false,"station_id":"JUA","distance":2015,"transit":false,"time":4,"line":2,"i_long":106.828284,"i_lat":-6.166716},{"transit":false,"distance":1149,"is_transit":false,"i_long":106.827103,"station_name":"Sawah Besar","station_id":"SW","line":2,"i_lat":-6.160725,"time":2},{"line":2,"station_name":"Manggabesar","distance":906,"i_lat":-6.149769,"transit":false,"time":2,"station_id":"MGB","i_long":106.82482,"is_transit":false},{"station_id":"JAY","is_transit":false,"i_long":106.820901,"station_name":"Jayakarta","i_lat":-6.141205,"time":2,"distance":1080,"transit":false,"line":7},{"station_name":"Jakarta Kota","is_transit":true,"distance":1264,"i_lat":-6.137569,"i_long":106.812439,"line":0,"transit":true,"time":4,"station_id":"JAKK"},{"distance":1364,"time":3,"i_long":106.826365,"line":0,"i_lat":-6.132549,"station_name":"Kampung Bandan","transit":true,"is_transit":true,"station_id":"KPB"},{"i_long":106.836569,"station_name":"Rajawali","transit":false,"is_transit":false,"time":3,"i_lat":-6.14505,"distance":1444,"line":11,"station_id":"RJW"},{"i_long":106.839204,"station_id":"KMO","station_name":"Kemayoran","distance":1901,"is_transit":false,"transit":false,"i_lat":-6.161728,"time":5,"line":11},{"time":4,"station_id":"PSE","is_transit":false,"station_name":"Pasar Senen","i_lat":-6.174784,"transit":false,"i_long":106.84368,"distance":1436,"line":11},{"i_lat":-6.185975,"station_id":"GST","station_name":"Gang Sentiong","i_long":106.850107,"is_transit":false,"line":11,"distance":1567,"transit":false,"time":8},{"line":11,"i_lat":-6.193792,"station_name":"Kramat","transit":false,"distance":973,"station_id":"KMT","time":1,"is_transit":false,"i_long":106.855437},{"line":11,"i_long":106.861737,"is_transit":false,"station_name":"Pondok Jati","i_lat":-6.209188,"distance":1829,"station_id":"POK","time":2,"transit":false},{"transit":true,"is_transit":true,"station_id":"JNG","i_long":106.86807400000001,"i_lat":-6.215091,"distance":1236,"station_name":"Jatinegara","time":9,"line":0},{"is_transit":false,"i_lat":-6.2135,"transit":false,"i_long":106.899548,"line":1,"distance":3395,"station_id":"KLD","time":3,"station_name":"Klender"},{"distance":3100,"transit":false,"station_name":"Buaran","i_lat":-6.215568,"line":0,"station_id":"BUA","i_long":106.922662,"time":2,"is_transit":false},{"station_name":"Klenderbaru","time":1,"distance":1305,"i_lat":-6.217455,"i_long":106.939679,"transit":false,"line":1,"is_transit":false,"station_id":"KLDB"},{"time":8,"station_name":"Cakung","transit":false,"distance":1385,"i_long":106.951283,"line":0,"station_id":"CUK","i_lat":-6.219053,"is_transit":false},{"station_id":"KRI","station_name":"Kranji","distance":3097,"is_transit":false,"i_long":106.977657,"time":3,"line":1,"transit":false,"i_lat":-6.224515},{"i_lat":-6.236616,"station_id":"BKS","distance":2520,"is_transit":false,"i_long":106.997013,"line":0,"station_name":"Bekasi","time":4,"transit":false}]]}