{"data":[[{"station_id":"PRP","time":0,"station_name":"Parung Panjang","i_lat":-6.3441410000000005,"i_long":106.568863,"line":6,"is_transit":false,"transit":false,"distance":0},{"station_name":"Cicayur","distance":5968,"is_transit":false,"i_lat":-6.329547,"transit":false,"time":8,"station_id":"CC","i_long":106.617853,"line":3},{"i_lat":-6.32484,"time":4,"i_long":106.640411,"line":3,"station_name":"Cisauk","distance":2519,"station_id":"CSK","is_transit":false,"transit":false},{"is_transit":false,"station_name":"Serpong","i_lat":-6.319871,"time":4,"line":6,"distance":1784,"station_id":"SRP","i_long":106.66566,"transit":false},{"time":4,"i_long":106.675475,"distance":2413,"line":6,"is_transit":false,"i_lat":-6.314823,"transit":false,"station_name":"Rawa Buntu","station_id":"RU"},{"distance":4566,"is_transit":false,"i_lat":-6.296963,"line":6,"station_name":"Sudimara","i_long":106.712277,"time":6,"station_id":"SDM","transit":false},{"is_transit":false,"distance":1994,"station_id":"JMU","transit":false,"station_name":"Jurangmangu","time":4,"i_lat":-6.288927,"i_long":106.728916,"line":6},{"i_lat":-6.276362,"line":6,"distance":2179,"transit":false,"time":3,"i_long":106.74273,"is_transit":false,"station_id":"PDJ","station_name":"Pondokranji"},{"line":6,"i_lat":-6.237242,"station_name":"Kebayoran","distance":6218,"is_transit":false,"time":8,"station_id":"KBY","transit":false,"i_long":106.780334},{"is_transit":false,"i_lat":-6.207404,"line":6,"distance":3737,"i_long":106.79689,"station_id":"PLM","station_name":"Palmerah","transit":false,"time":7},{"i_long":106.811091,"transit":true,"station_id":"THB","line":1,"time":6,"is_transit":true,"station_name":"Tanah Abang","i_lat":-6.185545,"distance":3191},{"time":5,"station_id":"KAT","transit":false,"station_name":"Karet","distance":2029,"is_transit":false,"i_long":106.816351,"line":1,"i_lat":-6.20132},{"is_transit":false,"i_long":106.819881,"line":1,"station_id":"SUDB","station_name":"Sudirman Baru","time":1,"i_lat":-6.201433,"distance":471,"transit":false},{"distance":280,"transit":false,"is_transit":false,"station_id":"SUD","i_lat":-6.202263,"i_long":106.822649,"time":1,"station_name":"Sudirman","line":1},{"time":4,"i_long":106.84912,"line":2,"distance":3186,"transit":true,"is_transit":true,"station_id":"MRI","i_lat":-6.209883,"station_name":"Manggarai"},{"time":4,"station_id":"TEB","distance":2610,"i_lat":-6.226659,"is_transit":false,"line":2,"station_name":"Tebet","transit":false,"i_long":106.857948},{"distance":1230,"station_name":"Cawang","transit":false,"station_id":"CW","i_long":106.856607,"time":2,"i_lat":-6.242512,"line":2,"is_transit":false},{"station_name":"Duren Kalibata","transit":false,"is_transit":false,"station_id":"DRN","time":3,"distance":1546,"i_lat":-6.255332,"i_long":106.85449,"line":2},{"transit":false,"is_transit":false,"line":2,"station_id":"PSMB","i_lat":-6.263214,"station_name":"Pasar Minggu Baru","time":2,"i_long":106.851577,"distance":824},{"transit":false,"i_lat":-6.2842400000000005,"is_transit":false,"station_id":"PSM","station_name":"Pasar Minggu","line":2,"time":2,"distance":2380,"i_long":106.843999},{"line":2,"station_id":"TNT","i_long":106.838896,"is_transit":false,"time":4,"transit":false,"distance":2820,"i_lat":-6.3080680000000005,"station_name":"Tanjung Barat"},{"station_id":"LNA","is_transit":false,"line":2,"time":3,"i_long":106.832616,"distance":2671,"transit":false,"i_lat":-6.330363,"station_name":"Lenteng Agung"},{"time":2,"i_lat":-6.339291,"station_name":"Univ. Pancasila","i_long":106.834175,"distance":1029,"line":2,"transit":false,"is_transit":false,"station_id":"UP"},{"line":2,"distance":2264,"time":3,"station_id":"UI","station_name":"Univ. Indonesia","transit":false,"is_transit":false,"i_long":106.831474,"i_lat":-6.360749},{"time":2,"transit":false,"station_name":"Pondok Cina","line":2,"i_lat":-6.369073,"i_long":106.831114,"station_id":"POC","is_transit":false,"distance":1109},{"transit":false,"i_long":106.819451,"time":4,"station_id":"DPB","line":2,"is_transit":false,"i_lat":-6.391065,"distance":2727,"station_name":"Depokbaru"},{"i_lat":-6.405256,"i_long":106.816926,"is_transit":false,"line":2,"distance":1584,"station_name":"Depok","transit":false,"time":3,"station_id":"DP"},{"time":6,"is_transit":false,"line":2,"i_lat":-6.448811,"distance":5084,"transit":false,"i_long":106.800298,"station_name":"Citayam","station_id":"CTA"}],[{"i_lat":-6.3441410000000005,"transit":false,"time":0,"station_id":"PRP","station_name":"Parung Panjang","distance":0,"i_long":106.568863,"is_transit":false,"line":6},{"time":8,"i_long":106.617853,"i_lat":-6.329547,"transit":false,"is_transit":false,"line":3,"distance":5968,"station_id":"CC","station_name":"Cicayur"},{"station_id":"CSK","line":3,"time":4,"i_lat":-6.32484,"distance":2519,"transit":false,"is_transit":false,"station_name":"Cisauk","i_long":106.640411},{"line":6,"transit":false,"station_name":"Serpong","distance":1784,"station_id":"SRP","i_long":106.66566,"time":4,"is_transit":false,"i_lat":-6.319871},{"station_id":"RU","is_transit":false,"i_lat":-6.314823,"distance":2413,"line":6,"station_name":"Rawa Buntu","transit":false,"time":4,"i_long":106.675475},{"time":6,"station_name":"Sudimara","distance":4566,"is_transit":false,"station_id":"SDM","i_lat":-6.296963,"i_long":106.712277,"transit":false,"line":6},{"i_long":106.728916,"transit":false,"distance":1994,"line":6,"station_id":"JMU","is_transit":false,"i_lat":-6.288927,"station_name":"Jurangmangu","time":4},{"station_name":"Pondokranji","transit":false,"time":3,"i_long":106.74273,"line":6,"station_id":"PDJ","distance":2179,"is_transit":false,"i_lat":-6.276362},{"transit":false,"station_name":"Kebayoran","time":8,"distance":6218,"station_id":"KBY","i_long":106.780334,"is_transit":false,"i_lat":-6.237242,"line":6},{"time":7,"is_transit":false,"station_id":"PLM","station_name":"Palmerah","transit":false,"i_lat":-6.207404,"line":6,"i_long":106.79689,"distance":3737},{"i_lat":-6.185545,"distance":3191,"station_id":"THB","line":1,"transit":true,"i_long":106.811091,"time":6,"is_transit":true,"station_name":"Tanah Abang"},{"i_long":106.800832,"line":1,"distance":3632,"station_name":"Duri","is_transit":false,"time":8,"station_id":"DU","i_lat":-6.155215,"transit":false},{"station_name":"Angke","station_id":"AK","distance":1230,"transit":false,"i_long":106.79867,"is_transit":false,"i_lat":-6.144674,"time":4,"line":1},{"time":9,"distance":4102,"line":4,"station_name":"Kampung Bandan","is_transit":true,"i_long":106.826365,"station_id":"KPB","i_lat":-6.132549,"transit":true},{"line":2,"i_lat":-6.137569,"is_transit":true,"station_id":"JAKK","distance":1364,"station_name":"Jakarta Kota","i_long":106.812439,"transit":true,"time":3},{"station_name":"Jayakarta","distance":1264,"time":4,"is_transit":false,"i_lat":-6.141205,"transit":false,"station_id":"JAY","line":2,"i_long":106.820901},{"station_name":"Manggabesar","i_long":106.82482,"line":2,"is_transit":false,"transit":false,"time":2,"i_lat":-6.149769,"station_id":"MGB","distance":1080},{"line":2,"distance":906,"station_name":"Sawah Besar","i_long":106.827103,"is_transit":false,"transit":false,"time":2,"station_id":"SW","i_lat":-6.160725},{"i_lat":-6.166716,"is_transit":false,"station_id":"JUA","time":2,"transit":false,"distance":1149,"i_long":106.828284,"station_name":"Juanda","line":2},{"time":4,"i_lat":-6.186295,"distance":2015,"station_id":"GDD","line":2,"i_long":106.832183,"transit":false,"station_name":"Gondangdia","is_transit":false},{"station_name":"Cikini","i_long":106.840169,"line":2,"distance":1750,"transit":false,"is_transit":false,"station_id":"CKI","time":3,"i_lat":-6.198556},{"station_id":"MRI","i_lat":-6.209883,"distance":1590,"i_long":106.84912,"line":2,"transit":false,"station_name":"Manggarai","time":4,"is_transit":false},{"distance":2610,"is_transit":false,"i_lat":-6.226659,"transit":false,"station_id":"TEB","i_long":106.857948,"station_name":"Tebet","line":2,"time":4},{"time":2,"is_transit":false,"line":2,"station_id":"CW","station_name":"Cawang","i_lat":-6.242512,"i_long":106.856607,"distance":1230,"transit":false},{"station_id":"DRN","line":2,"i_lat":-6.255332,"distance":1546,"time":3,"station_name":"Duren Kalibata","is_transit":false,"transit":false,"i_long":106.85449},{"line":2,"transit":false,"i_lat":-6.263214,"is_transit":false,"station_id":"PSMB","time":2,"i_long":106.851577,"station_name":"Pasar Minggu Baru","distance":824},{"i_lat":-6.2842400000000005,"i_long":106.843999,"station_id":"PSM","station_name":"Pasar Minggu","transit":false,"time":2,"line":2,"distance":2380,"is_transit":false},{"station_id":"TNT","distance":2820,"station_name":"Tanjung Barat","time":4,"is_transit":false,"i_lat":-6.3080680000000005,"i_long":106.838896,"line":2,"transit":false},{"is_transit":false,"line":2,"distance":2671,"station_id":"LNA","i_long":106.832616,"time":3,"transit":false,"station_name":"Lenteng Agung","i_lat":-6.330363},{"station_id":"UP","transit":false,"i_lat":-6.339291,"i_long":106.834175,"station_name":"Univ. Pancasila","distance":1029,"is_transit":false,"time":2,"line":2},{"i_long":106.831474,"transit":false,"line":2,"is_transit":false,"distance":2264,"station_name":"Univ. Indonesia","i_lat":-6.360749,"station_id":"UI","time":3},{"transit":false,"distance":1109,"station_id":"POC","station_name":"Pondok Cina","is_transit":false,"i_long":106.831114,"time":2,"i_lat":-6.369073,"line":2},{"i_long":106.819451,"station_name":"Depokbaru","distance":2727,"i_lat":-6.391065,"time":4,"transit":false,"is_transit":false,"station_id":"DPB","line":2},{"is_transit":false,"station_id":"DP","distance":1584,"i_lat":-6.405256,"time":3,"transit":false,"i_long":106.816926,"station_name":"Depok","line":2},{"i_lat":-6.448811,"line":2,"transit":false,"is_transit":false,"station_id":"CTA","station_name":"Citayam","i_long":106.800298,"time":6,"distance":5084}],[{"i_lat":-6.3441410000000005,"transit":false,"station_id":"PRP","line":6,"distance":0,"station_name":"Parung Panjang","is_transit":false,"time":0,"i_long":106.568863},{"distance":5968,"station_id":"CC","line":3,"transit":false,"station_name":"Cicayur","time":8,"i_long":106.617853,"is_transit":false,"i_lat":-6.329547},{"i_lat":-6.32484,"time":4,"distance":2519,"transit":false,"station_name":"Cisauk","station_id":"CSK","is_transit":false,"i_long":106.640411,"line":3},{"distance":1784,"transit":false,"time":4,"line":6,"i_lat":-6.319871,"station_name":"Serpong","is_transit":false,"i_long":106.66566,"station_id":"SRP"},{"station_id":"RU","transit":false,"is_transit":false,"station_name":"Rawa Buntu","distance":2413,"i_long":106.675475,"i_lat":-6.314823,"time":4,"line":6},{"distance":4566,"line":6,"i_long":106.712277,"transit":false,"time":6,"is_transit":false,"i_lat":-6.296963,"station_name":"Sudimara","station_id":"SDM"},{"line":6,"transit":false,"i_long":106.728916,"station_id":"JMU","station_name":"Jurangmangu","time":4,"is_transit":false,"distance":1994,"i_lat":-6.288927},{"is_transit":false,"i_long":106.74273,"station_id":"PDJ","distance":2179,"time":3,"i_lat":-6.276362,"line":6,"transit":false,"station_name":"Pondokranji"},{"station_name":"Kebayoran","station_id":"KBY","line":6,"i_long":106.780334,"is_transit":false,"distance":6218,"transit":false,"time":8,"i_lat":-6.237242},{"time":7,"distance":3737,"is_transit":false,"i_long":106.79689,"i_lat":-6.207404,"station_id":"PLM","line":6,"station_name":"Palmerah","transit":false},{"time":6,"is_transit":true,"station_name":"Tanah Abang","i_lat":-6.185545,"distance":3191,"line":1,"station_id":"THB","transit":true,"i_long":106.811091},{"time":8,"station_id":"DU","i_long":106.800832,"station_name":"Duri","transit":false,"distance":3632,"is_transit":false,"i_lat":-6.155215,"line":1},{"transit":false,"is_transit":false,"station_id":"AK","time":4,"station_name":"Angke","i_long":106.79867,"distance":1230,"i_lat":-6.144674,"line":1},{"station_id":"KPB","i_lat":-6.132549,"is_transit":true,"station_name":"Kampung Bandan","distance":4102,"transit":true,"i_long":106.826365,"time":9,"line":4},{"station_id":"RJW","is_transit":false,"transit":false,"i_lat":-6.14505,"line":11,"distance":1444,"i_long":106.836569,"station_name":"Rajawali","time":3},{"station_name":"Kemayoran","transit":false,"station_id":"KMO","distance":1901,"time":5,"is_transit":false,"i_lat":-6.161728,"line":11,"i_long":106.839204},{"station_id":"PSE","is_transit":false,"line":11,"time":4,"distance":1436,"station_name":"Pasar Senen","transit":false,"i_long":106.84368,"i_lat":-6.174784},{"station_name":"Gang Sentiong","transit":false,"is_transit":false,"i_long":106.850107,"time":8,"line":11,"distance":1567,"i_lat":-6.185975,"station_id":"GST"},{"transit":false,"time":1,"is_transit":false,"distance":973,"station_id":"KMT","i_lat":-6.193792,"station_name":"Kramat","line":11,"i_long":106.855437},{"transit":false,"is_transit":false,"i_long":106.861737,"distance":1829,"i_lat":-6.209188,"station_id":"POK","station_name":"Pondok Jati","line":11,"time":2},{"i_lat":-6.215091,"is_transit":true,"i_long":106.86807400000001,"line":1,"station_id":"JNG","distance":1236,"station_name":"Jatinegara","transit":true,"time":9},{"is_transit":false,"i_lat":-6.212485,"distance":1377,"time":2,"station_id":"MTR","transit":false,"station_name":"Matraman","i_long":106.858896,"line":1},{"i_lat":-6.209883,"is_transit":true,"distance":1275,"transit":true,"station_name":"Manggarai","time":2,"station_id":"MRI","i_long":106.84912,"line":2},{"transit":false,"distance":2610,"time":4,"i_lat":-6.226659,"station_name":"Tebet","i_long":106.857948,"line":2,"station_id":"TEB","is_transit":false},{"is_transit":false,"i_lat":-6.242512,"station_id":"CW","station_name":"Cawang","distance":1230,"time":2,"line":2,"i_long":106.856607,"transit":false},{"time":3,"is_transit":false,"station_id":"DRN","distance":1546,"i_lat":-6.255332,"line":2,"i_long":106.85449,"station_name":"Duren Kalibata","transit":false},{"distance":824,"is_transit":false,"i_lat":-6.263214,"i_long":106.851577,"station_id":"PSMB","time":2,"line":2,"station_name":"Pasar Minggu Baru","transit":false},{"is_transit":false,"line":2,"i_lat":-6.2842400000000005,"station_id":"PSM","distance":2380,"time":2,"transit":false,"i_long":106.843999,"station_name":"Pasar Minggu"},{"line":2,"distance":2820,"transit":false,"i_long":106.838896,"station_id":"TNT","is_transit":false,"station_name":"Tanjung Barat","i_lat":-6.3080680000000005,"time":4},{"distance":2671,"time":3,"transit":false,"is_transit":false,"i_long":106.832616,"station_id":"LNA","station_name":"Lenteng Agung","i_lat":-6.330363,"line":2},{"is_transit":false,"distance":1029,"station_id":"UP","station_name":"Univ. Pancasila","i_lat":-6.339291,"transit":false,"time":2,"line":2,"i_long":106.834175},{"i_lat":-6.360749,"line":2,"i_long":106.831474,"distance":2264,"time":3,"is_transit":false,"station_name":"Univ. Indonesia","transit":false,"station_id":"UI"},{"station_id":"POC","is_transit":false,"transit":false,"station_name":"Pondok Cina","i_lat":-6.369073,"line":2,"distance":1109,"time":2,"i_long":106.831114},{"i_lat":-6.391065,"station_id":"DPB","transit":false,"i_long":106.819451,"is_transit":false,"line":2,"time":4,"distance":2727,"station_name":"Depokbaru"},{"station_id":"DP","is_transit":false,"station_name":"Depok","time":3,"i_lat":-6.405256,"distance":1584,"i_long":106.816926,"line":2,"transit":false},{"transit":false,"time":6,"i_long":106.800298,"station_id":"CTA","line":2,"distance":5084,"station_name":"Citayam","is_transit":false,"i_lat":-6.448811}]]}