{"data":[[{"transit":false,"line":6,"time":0,"distance":0,"is_transit":false,"i_lat":-6.3441410000000005,"station_name":"Parung Panjang","i_long":106.568863,"station_id":"PRP"},{"time":8,"i_long":106.617853,"line":3,"i_lat":-6.329547,"distance":5968,"station_name":"Cicayur","station_id":"CC","transit":false,"is_transit":false},{"i_lat":-6.32484,"distance":2519,"is_transit":false,"station_name":"Cisauk","time":4,"i_long":106.640411,"transit":false,"station_id":"CSK","line":3},{"transit":false,"time":4,"i_lat":-6.319871,"station_name":"Serpong","line":6,"i_long":106.66566,"station_id":"SRP","distance":1784,"is_transit":false},{"time":4,"transit":false,"station_id":"RU","is_transit":false,"distance":2413,"station_name":"Rawa Buntu","i_lat":-6.314823,"i_long":106.675475,"line":6},{"time":6,"line":6,"transit":false,"distance":4566,"station_id":"SDM","station_name":"Sudimara","i_long":106.712277,"is_transit":false,"i_lat":-6.296963},{"station_id":"JMU","transit":false,"is_transit":false,"station_name":"Jurangmangu","i_lat":-6.288927,"line":6,"distance":1994,"i_long":106.728916,"time":4},{"station_id":"PDJ","distance":2179,"i_long":106.74273,"i_lat":-6.276362,"line":6,"transit":false,"station_name":"Pondokranji","time":3,"is_transit":false},{"i_long":106.780334,"station_id":"KBY","transit":false,"line":6,"is_transit":false,"station_name":"Kebayoran","i_lat":-6.237242,"distance":6218,"time":8},{"distance":3737,"transit":false,"is_transit":false,"time":7,"i_long":106.79689,"station_id":"PLM","i_lat":-6.207404,"station_name":"Palmerah","line":6},{"i_lat":-6.185545,"line":1,"i_long":106.811091,"station_name":"Tanah Abang","time":6,"distance":3191,"is_transit":true,"transit":true,"station_id":"THB"},{"i_long":106.800832,"time":8,"station_name":"Duri","line":1,"station_id":"DU","is_transit":true,"transit":true,"distance":3632,"i_lat":-6.155215},{"line":5,"transit":false,"is_transit":false,"distance":1700,"i_lat":-6.162021,"i_long":106.788277,"station_id":"GRG","time":3,"station_name":"Grogol"},{"station_id":"PSG","station_name":"Pesing","time":2,"i_lat":-6.161433,"is_transit":false,"distance":2036,"i_long":106.771379,"line":5,"transit":false},{"i_lat":-6.1587309999999995,"time":2,"transit":false,"station_id":"TKO","line":5,"station_name":"Taman Kota","distance":1614,"i_long":106.756522,"is_transit":false},{"station_id":"BOI","transit":false,"time":2,"i_long":106.737035,"line":5,"is_transit":false,"station_name":"Bojongindah","distance":2334,"i_lat":-6.159876},{"station_id":"RW","i_long":106.723064,"station_name":"Rawa Buaya","is_transit":false,"line":5,"i_lat":-6.162758,"time":4,"distance":1152,"transit":false},{"station_id":"KDS","is_transit":false,"i_lat":-6.166068,"i_long":106.701612,"distance":2504,"time":3,"station_name":"Kalideres","line":5,"transit":false}],[{"transit":false,"i_lat":-6.3441410000000005,"is_transit":false,"distance":0,"station_id":"PRP","station_name":"Parung Panjang","i_long":106.568863,"time":0,"line":6},{"time":8,"station_name":"Cicayur","distance":5968,"i_long":106.617853,"transit":false,"i_lat":-6.329547,"line":3,"is_transit":false,"station_id":"CC"},{"station_id":"CSK","i_long":106.640411,"station_name":"Cisauk","transit":false,"i_lat":-6.32484,"distance":2519,"line":3,"time":4,"is_transit":false},{"i_lat":-6.319871,"i_long":106.66566,"distance":1784,"station_id":"SRP","station_name":"Serpong","line":6,"is_transit":false,"transit":false,"time":4},{"time":4,"i_lat":-6.314823,"is_transit":false,"i_long":106.675475,"distance":2413,"line":6,"station_id":"RU","transit":false,"station_name":"Rawa Buntu"},{"transit":false,"distance":4566,"is_transit":false,"i_lat":-6.296963,"line":6,"time":6,"i_long":106.712277,"station_name":"Sudimara","station_id":"SDM"},{"line":6,"i_lat":-6.288927,"time":4,"i_long":106.728916,"distance":1994,"station_id":"JMU","station_name":"Jurangmangu","is_transit":false,"transit":false},{"i_long":106.74273,"station_name":"Pondokranji","is_transit":false,"line":6,"i_lat":-6.276362,"distance":2179,"time":3,"transit":false,"station_id":"PDJ"},{"i_lat":-6.237242,"station_id":"KBY","i_long":106.780334,"transit":false,"time":8,"distance":6218,"line":6,"station_name":"Kebayoran","is_transit":false},{"time":7,"transit":false,"distance":3737,"station_name":"Palmerah","i_lat":-6.207404,"i_long":106.79689,"is_transit":false,"station_id":"PLM","line":6},{"time":6,"is_transit":true,"distance":3191,"station_id":"THB","station_name":"Tanah Abang","transit":true,"i_lat":-6.185545,"line":1,"i_long":106.811091},{"time":5,"transit":false,"line":1,"station_id":"KAT","is_transit":false,"i_long":106.816351,"distance":2029,"station_name":"Karet","i_lat":-6.20132},{"is_transit":false,"transit":false,"i_long":106.819881,"station_id":"SUDB","time":1,"station_name":"Sudirman Baru","distance":471,"line":1,"i_lat":-6.201433},{"station_name":"Sudirman","transit":false,"time":1,"is_transit":false,"distance":280,"i_long":106.822649,"i_lat":-6.202263,"line":1,"station_id":"SUD"},{"distance":3186,"station_id":"MRI","i_lat":-6.209883,"station_name":"Manggarai","time":4,"is_transit":true,"line":2,"i_long":106.84912,"transit":true},{"is_transit":false,"i_long":106.840169,"station_id":"CKI","transit":false,"line":2,"time":4,"i_lat":-6.198556,"station_name":"Cikini","distance":1590},{"i_lat":-6.186295,"line":2,"station_id":"GDD","time":3,"station_name":"Gondangdia","is_transit":false,"distance":1750,"transit":false,"i_long":106.832183},{"station_name":"Juanda","i_lat":-6.166716,"station_id":"JUA","distance":2015,"time":4,"transit":false,"i_long":106.828284,"line":2,"is_transit":false},{"time":2,"distance":1149,"transit":false,"station_name":"Sawah Besar","line":2,"i_long":106.827103,"station_id":"SW","is_transit":false,"i_lat":-6.160725},{"station_name":"Manggabesar","is_transit":false,"station_id":"MGB","distance":906,"i_lat":-6.149769,"time":2,"transit":false,"i_long":106.82482,"line":2},{"line":2,"distance":1080,"time":2,"transit":false,"station_name":"Jayakarta","is_transit":false,"i_lat":-6.141205,"i_long":106.820901,"station_id":"JAY"},{"transit":true,"i_long":106.812439,"is_transit":true,"station_name":"Jakarta Kota","distance":1264,"time":4,"i_lat":-6.137569,"line":2,"station_id":"JAKK"},{"station_id":"KPB","i_lat":-6.132549,"line":4,"distance":1364,"time":3,"i_long":106.826365,"is_transit":true,"station_name":"Kampung Bandan","transit":true},{"station_name":"Angke","distance":4102,"transit":false,"line":1,"station_id":"AK","i_lat":-6.144674,"is_transit":false,"time":9,"i_long":106.79867},{"i_lat":-6.155215,"is_transit":true,"time":4,"transit":true,"station_id":"DU","line":1,"station_name":"Duri","distance":1230,"i_long":106.800832},{"transit":false,"i_long":106.788277,"distance":1700,"station_name":"Grogol","station_id":"GRG","time":3,"is_transit":false,"line":5,"i_lat":-6.162021},{"i_lat":-6.161433,"i_long":106.771379,"line":5,"station_name":"Pesing","time":2,"is_transit":false,"station_id":"PSG","distance":2036,"transit":false},{"distance":1614,"i_long":106.756522,"transit":false,"station_id":"TKO","line":5,"time":2,"station_name":"Taman Kota","i_lat":-6.1587309999999995,"is_transit":false},{"transit":false,"station_id":"BOI","distance":2334,"line":5,"station_name":"Bojongindah","time":2,"i_long":106.737035,"is_transit":false,"i_lat":-6.159876},{"distance":1152,"i_long":106.723064,"i_lat":-6.162758,"station_id":"RW","time":4,"transit":false,"station_name":"Rawa Buaya","line":5,"is_transit":false},{"line":5,"station_id":"KDS","is_transit":false,"time":3,"transit":false,"i_lat":-6.166068,"distance":2504,"i_long":106.701612,"station_name":"Kalideres"}],[{"is_transit":false,"transit":false,"i_long":106.568863,"station_id":"PRP","time":0,"station_name":"Parung Panjang","distance":0,"i_lat":-6.3441410000000005,"line":6},{"line":3,"time":8,"station_name":"Cicayur","is_transit":false,"station_id":"CC","i_long":106.617853,"distance":5968,"transit":false,"i_lat":-6.329547},{"time":4,"is_transit":false,"station_name":"Cisauk","distance":2519,"transit":false,"i_long":106.640411,"line":3,"i_lat":-6.32484,"station_id":"CSK"},{"time":4,"i_long":106.66566,"station_id":"SRP","is_transit":false,"station_name":"Serpong","line":6,"transit":false,"i_lat":-6.319871,"distance":1784},{"distance":2413,"i_lat":-6.314823,"station_name":"Rawa Buntu","station_id":"RU","is_transit":false,"time":4,"i_long":106.675475,"line":6,"transit":false},{"is_transit":false,"transit":false,"station_id":"SDM","station_name":"Sudimara","i_long":106.712277,"line":6,"time":6,"i_lat":-6.296963,"distance":4566},{"transit":false,"i_lat":-6.288927,"is_transit":false,"i_long":106.728916,"line":6,"station_id":"JMU","time":4,"station_name":"Jurangmangu","distance":1994},{"line":6,"time":3,"station_name":"Pondokranji","is_transit":false,"station_id":"PDJ","distance":2179,"transit":false,"i_long":106.74273,"i_lat":-6.276362},{"i_long":106.780334,"line":6,"time":8,"i_lat":-6.237242,"transit":false,"station_name":"Kebayoran","station_id":"KBY","is_transit":false,"distance":6218},{"i_lat":-6.207404,"is_transit":false,"transit":false,"distance":3737,"line":6,"time":7,"station_id":"PLM","i_long":106.79689,"station_name":"Palmerah"},{"station_name":"Tanah Abang","i_lat":-6.185545,"i_long":106.811091,"distance":3191,"transit":true,"station_id":"THB","line":1,"is_transit":true,"time":6},{"i_lat":-6.20132,"station_name":"Karet","station_id":"KAT","transit":false,"i_long":106.816351,"line":1,"time":5,"is_transit":false,"distance":2029},{"station_id":"SUDB","station_name":"Sudirman Baru","i_lat":-6.201433,"line":1,"transit":false,"time":1,"distance":471,"is_transit":false,"i_long":106.819881},{"i_lat":-6.202263,"is_transit":false,"distance":280,"station_id":"SUD","transit":false,"i_long":106.822649,"line":1,"station_name":"Sudirman","time":1},{"transit":false,"station_id":"MRI","i_long":106.84912,"i_lat":-6.209883,"distance":3186,"line":2,"station_name":"Manggarai","time":4,"is_transit":false},{"is_transit":false,"distance":1275,"station_id":"MTR","i_long":106.858896,"i_lat":-6.212485,"transit":false,"line":1,"time":2,"station_name":"Matraman"},{"station_name":"Jatinegara","is_transit":true,"transit":true,"i_long":106.86807400000001,"distance":1377,"i_lat":-6.215091,"station_id":"JNG","line":1,"time":8},{"station_id":"POK","transit":false,"i_long":106.861737,"time":2,"line":11,"distance":1236,"i_lat":-6.209188,"station_name":"Pondok Jati","is_transit":false},{"i_lat":-6.193792,"time":2,"transit":false,"is_transit":false,"station_name":"Kramat","line":11,"i_long":106.855437,"distance":1829,"station_id":"KMT"},{"station_id":"GST","line":11,"time":1,"i_lat":-6.185975,"transit":false,"i_long":106.850107,"station_name":"Gang Sentiong","distance":973,"is_transit":false},{"station_id":"PSE","line":11,"i_lat":-6.174784,"i_long":106.84368,"time":8,"is_transit":false,"transit":false,"station_name":"Pasar Senen","distance":1567},{"is_transit":false,"distance":1436,"line":11,"station_name":"Kemayoran","station_id":"KMO","time":4,"transit":false,"i_long":106.839204,"i_lat":-6.161728},{"i_long":106.836569,"distance":1901,"time":5,"transit":false,"station_name":"Rajawali","is_transit":false,"line":11,"station_id":"RJW","i_lat":-6.14505},{"i_long":106.826365,"time":3,"station_name":"Kampung Bandan","line":4,"station_id":"KPB","distance":1444,"transit":true,"i_lat":-6.132549,"is_transit":true},{"i_lat":-6.144674,"i_long":106.79867,"station_name":"Angke","time":9,"station_id":"AK","is_transit":false,"distance":4102,"line":1,"transit":false},{"station_name":"Duri","station_id":"DU","distance":1230,"time":4,"transit":true,"line":1,"is_transit":true,"i_long":106.800832,"i_lat":-6.155215},{"transit":false,"i_lat":-6.162021,"distance":1700,"i_long":106.788277,"is_transit":false,"station_id":"GRG","station_name":"Grogol","line":5,"time":3},{"i_long":106.771379,"time":2,"is_transit":false,"transit":false,"i_lat":-6.161433,"line":5,"station_id":"PSG","station_name":"Pesing","distance":2036},{"line":5,"transit":false,"i_long":106.756522,"station_id":"TKO","station_name":"Taman Kota","is_transit":false,"distance":1614,"time":2,"i_lat":-6.1587309999999995},{"line":5,"transit":false,"station_name":"Bojongindah","time":2,"i_lat":-6.159876,"i_long":106.737035,"is_transit":false,"distance":2334,"station_id":"BOI"},{"line":5,"is_transit":false,"station_name":"Rawa Buaya","transit":false,"distance":1152,"i_lat":-6.162758,"station_id":"RW","i_long":106.723064,"time":4},{"i_long":106.701612,"is_transit":false,"time":3,"distance":2504,"transit":false,"line":5,"station_id":"KDS","i_lat":-6.166068,"station_name":"Kalideres"}]]}