{"data":[[{"station_name":"Parung Panjang","station_id":"PRP","i_long":106.568863,"distance":0,"line":6,"transit":false,"time":0,"is_transit":false,"i_lat":-6.3441410000000005},{"time":8,"station_name":"Cicayur","station_id":"CC","transit":false,"distance":5968,"i_long":106.617853,"i_lat":-6.329547,"line":0,"is_transit":false},{"distance":2519,"transit":false,"time":4,"line":0,"i_lat":-6.32484,"station_id":"CSK","i_long":106.640411,"is_transit":false,"station_name":"Cisauk"},{"line":6,"i_lat":-6.319871,"station_name":"Serpong","is_transit":false,"i_long":106.66566,"station_id":"SRP","time":4,"transit":false,"distance":1784},{"i_long":106.675475,"i_lat":-6.314823,"is_transit":false,"time":4,"station_name":"Rawa Buntu","line":6,"station_id":"RU","transit":false,"distance":2413},{"i_long":106.712277,"is_transit":false,"station_name":"Sudimara","distance":4566,"i_lat":-6.296963,"station_id":"SDM","time":6,"line":6,"transit":false},{"time":4,"i_long":106.728916,"distance":1994,"station_name":"Jurangmangu","station_id":"JMU","is_transit":false,"transit":false,"i_lat":-6.288927,"line":6},{"i_long":106.74273,"transit":false,"distance":2179,"i_lat":-6.276362,"line":6,"is_transit":false,"station_id":"PDJ","station_name":"Pondokranji","time":3}]]}