{"data":[[{"is_transit":false,"i_lat":-6.3441410000000005,"transit":false,"station_id":"PRP","i_long":106.568863,"station_name":"Parung Panjang","line":6,"time":0,"distance":0},{"i_lat":-6.329547,"station_name":"Cicayur","distance":5968,"transit":false,"i_long":106.617853,"station_id":"CC","time":8,"line":3,"is_transit":false},{"i_lat":-6.32484,"line":3,"is_transit":false,"transit":false,"distance":2519,"i_long":106.640411,"station_name":"Cisauk","station_id":"CSK","time":4},{"time":4,"station_name":"Serpong","i_lat":-6.319871,"distance":1784,"line":6,"i_long":106.66566,"transit":false,"station_id":"SRP","is_transit":false},{"station_name":"Rawa Buntu","is_transit":false,"time":4,"station_id":"RU","line":6,"distance":2413,"i_lat":-6.314823,"transit":false,"i_long":106.675475},{"transit":false,"station_name":"Sudimara","station_id":"SDM","is_transit":false,"i_lat":-6.296963,"i_long":106.712277,"time":6,"distance":4566,"line":6},{"i_lat":-6.288927,"i_long":106.728916,"transit":false,"time":4,"distance":1994,"station_id":"JMU","line":6,"is_transit":false,"station_name":"Jurangmangu"},{"transit":false,"time":3,"distance":2179,"i_lat":-6.276362,"station_name":"Pondokranji","line":6,"station_id":"PDJ","is_transit":false,"i_long":106.74273},{"i_long":106.780334,"transit":false,"is_transit":false,"line":6,"station_name":"Kebayoran","time":8,"distance":6218,"i_lat":-6.237242,"station_id":"KBY"},{"i_lat":-6.207404,"i_long":106.79689,"station_name":"Palmerah","line":6,"station_id":"PLM","transit":false,"is_transit":false,"time":7,"distance":3737},{"transit":true,"station_name":"Tanah Abang","i_long":106.811091,"time":6,"station_id":"THB","is_transit":true,"line":1,"i_lat":-6.185545,"distance":3191},{"station_name":"Karet","i_long":106.816351,"distance":2029,"i_lat":-6.20132,"is_transit":false,"time":5,"station_id":"KAT","line":1,"transit":false},{"distance":471,"transit":false,"station_name":"Sudirman Baru","i_lat":-6.201433,"i_long":106.819881,"line":1,"station_id":"SUDB","is_transit":false,"time":1},{"transit":false,"time":1,"is_transit":false,"i_lat":-6.202263,"station_name":"Sudirman","distance":280,"line":1,"station_id":"SUD","i_long":106.822649},{"line":2,"time":4,"i_long":106.84912,"transit":true,"station_name":"Manggarai","station_id":"MRI","is_transit":true,"i_lat":-6.209883,"distance":3186},{"time":4,"transit":false,"i_long":106.857948,"line":2,"i_lat":-6.226659,"station_name":"Tebet","station_id":"TEB","distance":2610,"is_transit":false},{"distance":1230,"i_long":106.856607,"station_name":"Cawang","i_lat":-6.242512,"station_id":"CW","line":2,"transit":false,"is_transit":false,"time":2},{"time":3,"transit":false,"i_lat":-6.255332,"station_id":"DRN","is_transit":false,"i_long":106.85449,"line":2,"distance":1546,"station_name":"Duren Kalibata"},{"i_lat":-6.263214,"station_id":"PSMB","is_transit":false,"line":2,"i_long":106.851577,"station_name":"Pasar Minggu Baru","time":2,"transit":false,"distance":824},{"transit":false,"station_name":"Pasar Minggu","station_id":"PSM","i_lat":-6.2842400000000005,"is_transit":false,"line":2,"time":2,"distance":2380,"i_long":106.843999},{"line":2,"transit":false,"time":4,"is_transit":false,"distance":2820,"station_name":"Tanjung Barat","i_lat":-6.3080680000000005,"i_long":106.838896,"station_id":"TNT"},{"i_lat":-6.330363,"is_transit":false,"station_id":"LNA","line":2,"i_long":106.832616,"station_name":"Lenteng Agung","transit":false,"distance":2671,"time":3},{"i_lat":-6.339291,"transit":false,"station_name":"Univ. Pancasila","distance":1029,"station_id":"UP","time":2,"line":2,"is_transit":false,"i_long":106.834175},{"is_transit":false,"i_lat":-6.360749,"i_long":106.831474,"station_name":"Univ. Indonesia","distance":2264,"station_id":"UI","line":2,"time":3,"transit":false},{"is_transit":false,"time":2,"i_long":106.831114,"i_lat":-6.369073,"station_id":"POC","station_name":"Pondok Cina","line":2,"distance":1109,"transit":false},{"line":2,"station_id":"DPB","transit":false,"is_transit":false,"time":4,"i_lat":-6.391065,"i_long":106.819451,"station_name":"Depokbaru","distance":2727},{"transit":false,"is_transit":false,"line":2,"distance":1584,"station_name":"Depok","i_lat":-6.405256,"time":3,"station_id":"DP","i_long":106.816926},{"line":2,"i_long":106.800298,"station_id":"CTA","time":6,"station_name":"Citayam","transit":true,"is_transit":true,"distance":5084,"i_lat":-6.448811},{"i_lat":-6.460735,"transit":false,"distance":0,"station_id":"PDRG","line":21,"time":0,"station_name":"Pondok Rajeg","is_transit":false,"i_long":106.824374}],[{"transit":false,"is_transit":false,"distance":0,"i_lat":-6.3441410000000005,"i_long":106.568863,"time":0,"line":6,"station_id":"PRP","station_name":"Parung Panjang"},{"station_name":"Cicayur","transit":false,"station_id":"CC","i_lat":-6.329547,"line":3,"time":8,"is_transit":false,"distance":5968,"i_long":106.617853},{"time":4,"i_lat":-6.32484,"is_transit":false,"i_long":106.640411,"distance":2519,"line":3,"station_id":"CSK","transit":false,"station_name":"Cisauk"},{"transit":false,"line":6,"station_id":"SRP","is_transit":false,"i_lat":-6.319871,"station_name":"Serpong","time":4,"distance":1784,"i_long":106.66566},{"i_long":106.675475,"station_id":"RU","distance":2413,"is_transit":false,"transit":false,"time":4,"i_lat":-6.314823,"station_name":"Rawa Buntu","line":6},{"time":6,"distance":4566,"i_lat":-6.296963,"i_long":106.712277,"line":6,"station_name":"Sudimara","station_id":"SDM","transit":false,"is_transit":false},{"time":4,"distance":1994,"transit":false,"i_long":106.728916,"station_id":"JMU","station_name":"Jurangmangu","line":6,"i_lat":-6.288927,"is_transit":false},{"i_long":106.74273,"line":6,"is_transit":false,"station_id":"PDJ","distance":2179,"i_lat":-6.276362,"station_name":"Pondokranji","time":3,"transit":false},{"is_transit":false,"distance":6218,"transit":false,"station_id":"KBY","i_long":106.780334,"station_name":"Kebayoran","i_lat":-6.237242,"time":8,"line":6},{"station_name":"Palmerah","is_transit":false,"i_lat":-6.207404,"station_id":"PLM","time":7,"i_long":106.79689,"line":6,"distance":3737,"transit":false},{"i_long":106.811091,"time":6,"line":1,"station_id":"THB","is_transit":true,"station_name":"Tanah Abang","transit":true,"distance":3191,"i_lat":-6.185545},{"station_id":"DU","distance":3632,"station_name":"Duri","line":1,"i_lat":-6.155215,"time":8,"is_transit":false,"transit":false,"i_long":106.800832},{"distance":1230,"i_long":106.79867,"transit":false,"station_name":"Angke","time":4,"station_id":"AK","is_transit":false,"i_lat":-6.144674,"line":1},{"time":9,"i_long":106.826365,"transit":true,"line":4,"is_transit":true,"i_lat":-6.132549,"distance":4102,"station_name":"Kampung Bandan","station_id":"KPB"},{"station_id":"JAKK","i_long":106.812439,"station_name":"Jakarta Kota","is_transit":true,"transit":true,"line":2,"time":3,"distance":1364,"i_lat":-6.137569},{"distance":1264,"is_transit":false,"line":2,"station_id":"JAY","transit":false,"i_lat":-6.141205,"time":4,"station_name":"Jayakarta","i_long":106.820901},{"i_lat":-6.149769,"i_long":106.82482,"line":2,"time":2,"transit":false,"is_transit":false,"station_name":"Manggabesar","station_id":"MGB","distance":1080},{"line":2,"distance":906,"is_transit":false,"transit":false,"i_long":106.827103,"i_lat":-6.160725,"time":2,"station_id":"SW","station_name":"Sawah Besar"},{"is_transit":false,"i_long":106.828284,"station_name":"Juanda","station_id":"JUA","time":2,"distance":1149,"line":2,"i_lat":-6.166716,"transit":false},{"time":4,"i_lat":-6.186295,"i_long":106.832183,"transit":false,"distance":2015,"line":2,"station_id":"GDD","is_transit":false,"station_name":"Gondangdia"},{"line":2,"time":3,"station_id":"CKI","i_long":106.840169,"transit":false,"is_transit":false,"distance":1750,"station_name":"Cikini","i_lat":-6.198556},{"station_name":"Manggarai","i_long":106.84912,"line":2,"station_id":"MRI","i_lat":-6.209883,"distance":1590,"time":4,"transit":false,"is_transit":false},{"i_long":106.857948,"distance":2610,"i_lat":-6.226659,"line":2,"time":4,"station_name":"Tebet","is_transit":false,"transit":false,"station_id":"TEB"},{"line":2,"station_name":"Cawang","time":2,"distance":1230,"is_transit":false,"i_long":106.856607,"transit":false,"station_id":"CW","i_lat":-6.242512},{"station_name":"Duren Kalibata","station_id":"DRN","is_transit":false,"time":3,"line":2,"transit":false,"i_long":106.85449,"distance":1546,"i_lat":-6.255332},{"transit":false,"is_transit":false,"time":2,"distance":824,"i_lat":-6.263214,"station_id":"PSMB","i_long":106.851577,"line":2,"station_name":"Pasar Minggu Baru"},{"transit":false,"distance":2380,"is_transit":false,"i_long":106.843999,"line":2,"station_id":"PSM","time":2,"station_name":"Pasar Minggu","i_lat":-6.2842400000000005},{"station_id":"TNT","time":4,"station_name":"Tanjung Barat","i_lat":-6.3080680000000005,"line":2,"is_transit":false,"distance":2820,"transit":false,"i_long":106.838896},{"station_name":"Lenteng Agung","line":2,"i_long":106.832616,"distance":2671,"is_transit":false,"i_lat":-6.330363,"time":3,"transit":false,"station_id":"LNA"},{"line":2,"time":2,"is_transit":false,"i_long":106.834175,"station_name":"Univ. Pancasila","distance":1029,"station_id":"UP","transit":false,"i_lat":-6.339291},{"station_name":"Univ. Indonesia","i_long":106.831474,"is_transit":false,"line":2,"station_id":"UI","time":3,"i_lat":-6.360749,"transit":false,"distance":2264},{"i_lat":-6.369073,"is_transit":false,"distance":1109,"transit":false,"station_name":"Pondok Cina","time":2,"i_long":106.831114,"line":2,"station_id":"POC"},{"station_name":"Depokbaru","i_lat":-6.391065,"distance":2727,"station_id":"DPB","time":4,"transit":false,"is_transit":false,"i_long":106.819451,"line":2},{"line":2,"transit":false,"is_transit":false,"distance":1584,"i_long":106.816926,"time":3,"station_name":"Depok","station_id":"DP","i_lat":-6.405256},{"station_id":"CTA","line":2,"distance":5084,"is_transit":true,"i_long":106.800298,"i_lat":-6.448811,"time":6,"station_name":"Citayam","transit":true},{"transit":false,"station_name":"Pondok Rajeg","station_id":"PDRG","time":0,"i_lat":-6.460735,"line":21,"i_long":106.824374,"distance":0,"is_transit":false}],[{"station_name":"Parung Panjang","station_id":"PRP","i_lat":-6.3441410000000005,"transit":false,"time":0,"distance":0,"line":6,"is_transit":false,"i_long":106.568863},{"distance":5968,"i_lat":-6.329547,"station_id":"CC","time":8,"line":3,"transit":false,"station_name":"Cicayur","is_transit":false,"i_long":106.617853},{"station_id":"CSK","distance":2519,"time":4,"i_lat":-6.32484,"station_name":"Cisauk","i_long":106.640411,"transit":false,"is_transit":false,"line":3},{"station_name":"Serpong","time":4,"station_id":"SRP","distance":1784,"transit":false,"is_transit":false,"i_lat":-6.319871,"line":6,"i_long":106.66566},{"i_long":106.675475,"line":6,"distance":2413,"is_transit":false,"time":4,"transit":false,"station_name":"Rawa Buntu","station_id":"RU","i_lat":-6.314823},{"is_transit":false,"line":6,"station_name":"Sudimara","station_id":"SDM","i_lat":-6.296963,"time":6,"transit":false,"i_long":106.712277,"distance":4566},{"station_name":"Jurangmangu","is_transit":false,"transit":false,"station_id":"JMU","time":4,"distance":1994,"i_lat":-6.288927,"line":6,"i_long":106.728916},{"time":3,"distance":2179,"i_lat":-6.276362,"station_name":"Pondokranji","is_transit":false,"i_long":106.74273,"line":6,"station_id":"PDJ","transit":false},{"station_name":"Kebayoran","is_transit":false,"time":8,"i_long":106.780334,"line":6,"station_id":"KBY","i_lat":-6.237242,"transit":false,"distance":6218},{"distance":3737,"transit":false,"i_lat":-6.207404,"station_id":"PLM","i_long":106.79689,"line":6,"time":7,"is_transit":false,"station_name":"Palmerah"},{"station_name":"Tanah Abang","i_lat":-6.185545,"line":1,"i_long":106.811091,"station_id":"THB","is_transit":true,"transit":true,"distance":3191,"time":6},{"is_transit":false,"time":8,"i_long":106.800832,"transit":false,"line":1,"station_name":"Duri","distance":3632,"station_id":"DU","i_lat":-6.155215},{"is_transit":false,"time":4,"i_lat":-6.144674,"line":1,"transit":false,"distance":1230,"station_name":"Angke","station_id":"AK","i_long":106.79867},{"distance":4102,"line":4,"i_long":106.826365,"transit":true,"is_transit":true,"time":9,"i_lat":-6.132549,"station_id":"KPB","station_name":"Kampung Bandan"},{"time":3,"i_lat":-6.14505,"station_name":"Rajawali","transit":false,"station_id":"RJW","distance":1444,"i_long":106.836569,"is_transit":false,"line":11},{"transit":false,"is_transit":false,"time":5,"i_lat":-6.161728,"line":11,"distance":1901,"station_name":"Kemayoran","station_id":"KMO","i_long":106.839204},{"i_long":106.84368,"line":11,"distance":1436,"is_transit":false,"transit":false,"station_id":"PSE","station_name":"Pasar Senen","i_lat":-6.174784,"time":4},{"distance":1567,"is_transit":false,"station_name":"Gang Sentiong","time":8,"i_lat":-6.185975,"transit":false,"station_id":"GST","i_long":106.850107,"line":11},{"line":11,"transit":false,"is_transit":false,"time":1,"station_name":"Kramat","i_lat":-6.193792,"station_id":"KMT","distance":973,"i_long":106.855437},{"distance":1829,"time":2,"station_name":"Pondok Jati","line":11,"transit":false,"i_lat":-6.209188,"is_transit":false,"station_id":"POK","i_long":106.861737},{"i_lat":-6.215091,"time":9,"station_name":"Jatinegara","transit":true,"is_transit":true,"station_id":"JNG","distance":1236,"i_long":106.86807400000001,"line":1},{"line":1,"time":2,"station_name":"Matraman","station_id":"MTR","distance":1377,"is_transit":false,"i_lat":-6.212485,"transit":false,"i_long":106.858896},{"distance":1275,"station_id":"MRI","station_name":"Manggarai","is_transit":true,"i_lat":-6.209883,"i_long":106.84912,"line":2,"transit":true,"time":2},{"station_id":"TEB","station_name":"Tebet","transit":false,"is_transit":false,"i_long":106.857948,"i_lat":-6.226659,"line":2,"time":4,"distance":2610},{"station_name":"Cawang","station_id":"CW","is_transit":false,"i_lat":-6.242512,"line":2,"i_long":106.856607,"time":2,"distance":1230,"transit":false},{"transit":false,"is_transit":false,"distance":1546,"i_long":106.85449,"i_lat":-6.255332,"station_id":"DRN","time":3,"station_name":"Duren Kalibata","line":2},{"transit":false,"station_name":"Pasar Minggu Baru","station_id":"PSMB","i_long":106.851577,"line":2,"distance":824,"time":2,"i_lat":-6.263214,"is_transit":false},{"i_long":106.843999,"is_transit":false,"station_id":"PSM","station_name":"Pasar Minggu","i_lat":-6.2842400000000005,"line":2,"transit":false,"time":2,"distance":2380},{"i_lat":-6.3080680000000005,"time":4,"line":2,"is_transit":false,"distance":2820,"i_long":106.838896,"station_name":"Tanjung Barat","station_id":"TNT","transit":false},{"station_name":"Lenteng Agung","station_id":"LNA","distance":2671,"transit":false,"i_lat":-6.330363,"time":3,"i_long":106.832616,"line":2,"is_transit":false},{"time":2,"line":2,"i_long":106.834175,"transit":false,"is_transit":false,"station_id":"UP","station_name":"Univ. Pancasila","distance":1029,"i_lat":-6.339291},{"is_transit":false,"transit":false,"distance":2264,"i_lat":-6.360749,"station_name":"Univ. Indonesia","time":3,"station_id":"UI","line":2,"i_long":106.831474},{"line":2,"station_id":"POC","station_name":"Pondok Cina","distance":1109,"i_long":106.831114,"time":2,"i_lat":-6.369073,"transit":false,"is_transit":false},{"station_name":"Depokbaru","station_id":"DPB","i_lat":-6.391065,"line":2,"i_long":106.819451,"time":4,"distance":2727,"transit":false,"is_transit":false},{"is_transit":false,"i_long":106.816926,"line":2,"station_name":"Depok","transit":false,"station_id":"DP","time":3,"distance":1584,"i_lat":-6.405256},{"station_id":"CTA","i_lat":-6.448811,"line":2,"transit":true,"time":6,"distance":5084,"station_name":"Citayam","i_long":106.800298,"is_transit":true},{"transit":false,"distance":0,"station_name":"Pondok Rajeg","i_long":106.824374,"line":21,"time":0,"station_id":"PDRG","is_transit":false,"i_lat":-6.460735}]]}