{"data":[[{"transit":false,"station_id":"PRP","station_name":"Parung Panjang","i_long":106.568863,"line":6,"distance":0,"time":0,"i_lat":-6.3441410000000005,"is_transit":false},{"i_lat":-6.354349,"i_long":106.508482,"line":3,"time":9,"station_id":"CJT","is_transit":false,"transit":false,"station_name":"Cilejit","distance":7025},{"is_transit":false,"time":6,"distance":2675,"transit":false,"station_name":"Daru","station_id":"DAR","i_lat":-6.338021,"i_long":106.491338,"line":0},{"i_long":106.460812,"i_lat":-6.327251,"station_id":"TEJ","line":6,"is_transit":false,"time":5,"transit":false,"station_name":"Tenjo","distance":3902},{"i_lat":-6.328533,"time":5,"station_id":"TGS","transit":false,"station_name":"Tigaraksa","i_long":106.425991,"distance":2974,"line":6,"is_transit":false}]]}