{"data":[[{"transit":false,"i_long":106.568863,"i_lat":-6.3441410000000005,"distance":0,"station_name":"Parung Panjang","line":6,"is_transit":false,"time":0,"station_id":"PRP"},{"line":0,"is_transit":false,"time":8,"distance":5968,"station_id":"CC","station_name":"Cicayur","transit":false,"i_lat":-6.329547,"i_long":106.617853},{"line":0,"station_id":"CSK","is_transit":false,"time":4,"distance":2519,"station_name":"Cisauk","transit":false,"i_lat":-6.32484,"i_long":106.640411},{"station_name":"Serpong","time":4,"transit":false,"i_lat":-6.319871,"line":6,"distance":1784,"is_transit":false,"station_id":"SRP","i_long":106.66566},{"i_long":106.675475,"is_transit":false,"transit":false,"station_id":"RU","distance":2413,"station_name":"Rawa Buntu","time":4,"line":6,"i_lat":-6.314823},{"i_long":106.712277,"distance":4566,"is_transit":false,"station_id":"SDM","line":6,"station_name":"Sudimara","transit":false,"time":6,"i_lat":-6.296963}]]}