{"data":[[{"i_lat":-6.3441410000000005,"distance":0,"station_id":"PRP","i_long":106.568863,"line":6,"station_name":"Parung Panjang","time":0,"transit":false,"is_transit":false},{"distance":5968,"i_lat":-6.329547,"transit":false,"station_id":"CC","line":0,"is_transit":false,"time":8,"i_long":106.617853,"station_name":"Cicayur"},{"is_transit":false,"station_name":"Cisauk","i_lat":-6.32484,"i_long":106.640411,"station_id":"CSK","time":4,"distance":2519,"transit":false,"line":0},{"is_transit":false,"time":4,"station_id":"SRP","i_long":106.66566,"i_lat":-6.319871,"line":6,"station_name":"Serpong","transit":false,"distance":1784},{"transit":false,"i_lat":-6.314823,"line":6,"distance":2413,"station_id":"RU","station_name":"Rawa Buntu","time":4,"is_transit":false,"i_long":106.675475},{"transit":false,"time":6,"i_lat":-6.296963,"distance":4566,"line":6,"i_long":106.712277,"station_id":"SDM","is_transit":false,"station_name":"Sudimara"},{"i_long":106.728916,"station_id":"JMU","transit":false,"time":4,"line":6,"distance":1994,"is_transit":false,"i_lat":-6.288927,"station_name":"Jurangmangu"},{"is_transit":false,"distance":2179,"time":3,"i_long":106.74273,"transit":false,"i_lat":-6.276362,"line":6,"station_name":"Pondokranji","station_id":"PDJ"},{"is_transit":false,"station_name":"Kebayoran","distance":6218,"station_id":"KBY","transit":false,"line":6,"time":8,"i_lat":-6.237242,"i_long":106.780334},{"transit":false,"line":6,"time":7,"station_name":"Palmerah","i_lat":-6.207404,"distance":3737,"is_transit":false,"i_long":106.79689,"station_id":"PLM"},{"station_name":"Tanah Abang","i_lat":-6.185545,"station_id":"THB","time":6,"distance":3191,"i_long":106.811091,"line":1,"is_transit":true,"transit":true},{"i_lat":-6.20132,"line":1,"i_long":106.816351,"is_transit":false,"distance":2029,"station_id":"KAT","station_name":"Karet","transit":false,"time":5},{"line":1,"time":1,"i_lat":-6.201433,"station_id":"SUDB","transit":false,"is_transit":false,"i_long":106.819881,"distance":471,"station_name":"Sudirman Baru"},{"is_transit":false,"line":1,"i_long":106.822649,"transit":false,"time":1,"i_lat":-6.202263,"distance":280,"station_id":"SUD","station_name":"Sudirman"},{"distance":3186,"station_name":"Manggarai","i_long":106.84912,"is_transit":true,"transit":true,"line":0,"station_id":"MRI","time":4,"i_lat":-6.209883},{"i_lat":-6.226659,"is_transit":false,"transit":false,"station_id":"TEB","time":4,"line":2,"i_long":106.857948,"distance":2610,"station_name":"Tebet"},{"distance":1230,"station_id":"CW","is_transit":false,"transit":false,"time":2,"i_lat":-6.242512,"line":0,"station_name":"Cawang","i_long":106.856607},{"station_id":"DRN","line":0,"time":3,"distance":1546,"is_transit":false,"transit":false,"i_long":106.85449,"i_lat":-6.255332,"station_name":"Duren Kalibata"},{"i_lat":-6.263214,"i_long":106.851577,"line":2,"station_name":"Pasar Minggu Baru","distance":824,"station_id":"PSMB","is_transit":false,"transit":false,"time":2},{"is_transit":false,"line":2,"distance":2380,"i_lat":-6.2842400000000005,"i_long":106.843999,"time":2,"station_name":"Pasar Minggu","station_id":"PSM","transit":false},{"is_transit":false,"i_lat":-6.3080680000000005,"transit":false,"i_long":106.838896,"station_name":"Tanjung Barat","time":4,"line":2,"distance":2820,"station_id":"TNT"},{"i_long":106.832616,"is_transit":false,"station_id":"LNA","transit":false,"time":3,"distance":2671,"station_name":"Lenteng Agung","line":2,"i_lat":-6.330363},{"i_long":106.834175,"time":2,"is_transit":false,"station_id":"UP","distance":1029,"i_lat":-6.339291,"transit":false,"line":2,"station_name":"Univ. Pancasila"},{"distance":2264,"station_id":"UI","i_long":106.831474,"line":2,"is_transit":false,"i_lat":-6.360749,"station_name":"Univ. Indonesia","transit":false,"time":3},{"line":2,"i_long":106.831114,"is_transit":false,"transit":false,"distance":1109,"station_id":"POC","time":2,"station_name":"Pondok Cina","i_lat":-6.369073},{"station_id":"DPB","i_long":106.819451,"line":0,"station_name":"Depokbaru","distance":2727,"transit":false,"i_lat":-6.391065,"time":4,"is_transit":false},{"distance":1584,"is_transit":false,"i_lat":-6.405256,"i_long":106.816926,"transit":false,"line":0,"station_id":"DP","time":3,"station_name":"Depok"},{"i_lat":-6.448811,"i_long":106.800298,"is_transit":true,"station_id":"CTA","distance":5084,"station_name":"Citayam","time":6,"transit":false,"line":1}],[{"is_transit":false,"station_id":"PRP","i_lat":-6.3441410000000005,"line":6,"distance":0,"transit":false,"station_name":"Parung Panjang","i_long":106.568863,"time":0},{"station_id":"CC","time":8,"i_lat":-6.329547,"distance":5968,"transit":false,"station_name":"Cicayur","is_transit":false,"i_long":106.617853,"line":0},{"line":0,"i_lat":-6.32484,"station_name":"Cisauk","distance":2519,"is_transit":false,"i_long":106.640411,"time":4,"transit":false,"station_id":"CSK"},{"i_lat":-6.319871,"i_long":106.66566,"distance":1784,"station_id":"SRP","is_transit":false,"transit":false,"time":4,"line":6,"station_name":"Serpong"},{"line":6,"time":4,"i_lat":-6.314823,"is_transit":false,"transit":false,"i_long":106.675475,"distance":2413,"station_id":"RU","station_name":"Rawa Buntu"},{"station_id":"SDM","time":6,"is_transit":false,"distance":4566,"line":6,"transit":false,"station_name":"Sudimara","i_lat":-6.296963,"i_long":106.712277},{"is_transit":false,"station_name":"Jurangmangu","distance":1994,"i_long":106.728916,"i_lat":-6.288927,"time":4,"line":6,"station_id":"JMU","transit":false},{"i_long":106.74273,"line":6,"i_lat":-6.276362,"time":3,"is_transit":false,"station_id":"PDJ","station_name":"Pondokranji","transit":false,"distance":2179},{"time":8,"station_name":"Kebayoran","transit":false,"station_id":"KBY","i_lat":-6.237242,"i_long":106.780334,"distance":6218,"is_transit":false,"line":6},{"time":7,"line":6,"distance":3737,"is_transit":false,"transit":false,"i_lat":-6.207404,"i_long":106.79689,"station_id":"PLM","station_name":"Palmerah"},{"station_name":"Tanah Abang","line":1,"is_transit":true,"station_id":"THB","i_lat":-6.185545,"transit":true,"distance":3191,"time":6,"i_long":106.811091},{"is_transit":true,"i_lat":-6.155215,"station_name":"Duri","station_id":"DU","distance":3632,"transit":true,"time":8,"line":1,"i_long":106.800832},{"transit":false,"distance":1230,"station_name":"Angke","line":0,"time":4,"i_long":106.79867,"i_lat":-6.144674,"is_transit":false,"station_id":"AK"},{"station_name":"Kampung Bandan","station_id":"KPB","i_long":106.826365,"distance":4102,"line":0,"transit":false,"time":9,"is_transit":true,"i_lat":-6.132549},{"time":3,"station_name":"Jakarta Kota","station_id":"JAKK","transit":true,"distance":1364,"i_long":106.812439,"i_lat":-6.137569,"line":0,"is_transit":true},{"distance":1264,"transit":false,"time":4,"line":7,"i_lat":-6.141205,"station_id":"JAY","i_long":106.820901,"is_transit":false,"station_name":"Jayakarta"},{"line":2,"i_lat":-6.149769,"station_name":"Manggabesar","is_transit":false,"i_long":106.82482,"station_id":"MGB","time":2,"transit":false,"distance":1080},{"i_lat":-6.160725,"i_long":106.827103,"line":2,"station_id":"SW","distance":906,"station_name":"Sawah Besar","time":2,"transit":false,"is_transit":false},{"i_long":106.828284,"line":2,"distance":1149,"i_lat":-6.166716,"is_transit":false,"station_id":"JUA","station_name":"Juanda","transit":false,"time":2},{"distance":2015,"is_transit":false,"station_id":"GDD","transit":false,"i_long":106.832183,"line":2,"station_name":"Gondangdia","i_lat":-6.186295,"time":4},{"i_lat":-6.198556,"i_long":106.840169,"station_name":"Cikini","station_id":"CKI","transit":false,"is_transit":false,"time":3,"distance":1750,"line":0},{"is_transit":true,"station_name":"Manggarai","line":0,"distance":1590,"station_id":"MRI","i_long":106.84912,"transit":true,"time":4,"i_lat":-6.209883},{"distance":2610,"i_long":106.857948,"station_id":"TEB","i_lat":-6.226659,"line":2,"station_name":"Tebet","time":4,"is_transit":false,"transit":false},{"distance":1230,"transit":false,"time":2,"i_long":106.856607,"is_transit":false,"station_id":"CW","line":0,"i_lat":-6.242512,"station_name":"Cawang"},{"line":0,"i_long":106.85449,"distance":1546,"is_transit":false,"station_id":"DRN","i_lat":-6.255332,"station_name":"Duren Kalibata","time":3,"transit":false},{"station_id":"PSMB","station_name":"Pasar Minggu Baru","line":2,"i_lat":-6.263214,"transit":false,"time":2,"is_transit":false,"i_long":106.851577,"distance":824},{"i_lat":-6.2842400000000005,"is_transit":false,"station_name":"Pasar Minggu","distance":2380,"time":2,"i_long":106.843999,"station_id":"PSM","line":2,"transit":false},{"line":2,"station_id":"TNT","transit":false,"time":4,"distance":2820,"is_transit":false,"station_name":"Tanjung Barat","i_lat":-6.3080680000000005,"i_long":106.838896},{"station_name":"Lenteng Agung","line":2,"distance":2671,"i_long":106.832616,"is_transit":false,"station_id":"LNA","i_lat":-6.330363,"time":3,"transit":false},{"distance":1029,"station_id":"UP","time":2,"transit":false,"station_name":"Univ. Pancasila","is_transit":false,"i_long":106.834175,"line":2,"i_lat":-6.339291},{"i_long":106.831474,"transit":false,"is_transit":false,"line":2,"station_name":"Univ. Indonesia","station_id":"UI","time":3,"i_lat":-6.360749,"distance":2264},{"distance":1109,"station_name":"Pondok Cina","i_lat":-6.369073,"station_id":"POC","time":2,"i_long":106.831114,"line":2,"is_transit":false,"transit":false},{"is_transit":false,"station_name":"Depokbaru","station_id":"DPB","i_lat":-6.391065,"line":0,"transit":false,"distance":2727,"time":4,"i_long":106.819451},{"i_lat":-6.405256,"is_transit":false,"station_id":"DP","station_name":"Depok","line":0,"distance":1584,"transit":false,"time":3,"i_long":106.816926},{"is_transit":true,"i_long":106.800298,"time":6,"station_name":"Citayam","line":1,"station_id":"CTA","distance":5084,"transit":false,"i_lat":-6.448811}],[{"transit":false,"time":0,"is_transit":false,"distance":0,"station_id":"PRP","i_long":106.568863,"station_name":"Parung Panjang","line":6,"i_lat":-6.3441410000000005},{"station_name":"Cicayur","i_long":106.617853,"distance":5968,"transit":false,"time":8,"i_lat":-6.329547,"is_transit":false,"line":0,"station_id":"CC"},{"distance":2519,"time":4,"is_transit":false,"i_long":106.640411,"station_id":"CSK","transit":false,"station_name":"Cisauk","i_lat":-6.32484,"line":0},{"is_transit":false,"station_id":"SRP","transit":false,"i_lat":-6.319871,"time":4,"i_long":106.66566,"line":6,"station_name":"Serpong","distance":1784},{"transit":false,"is_transit":false,"station_id":"RU","station_name":"Rawa Buntu","time":4,"distance":2413,"i_lat":-6.314823,"i_long":106.675475,"line":6},{"station_name":"Sudimara","station_id":"SDM","time":6,"line":6,"i_long":106.712277,"distance":4566,"transit":false,"is_transit":false,"i_lat":-6.296963},{"i_lat":-6.288927,"line":6,"station_id":"JMU","distance":1994,"station_name":"Jurangmangu","transit":false,"is_transit":false,"i_long":106.728916,"time":4},{"transit":false,"i_lat":-6.276362,"distance":2179,"is_transit":false,"line":6,"station_name":"Pondokranji","station_id":"PDJ","time":3,"i_long":106.74273},{"i_lat":-6.237242,"distance":6218,"line":6,"transit":false,"station_id":"KBY","time":8,"station_name":"Kebayoran","is_transit":false,"i_long":106.780334},{"is_transit":false,"station_name":"Palmerah","time":7,"i_lat":-6.207404,"i_long":106.79689,"line":6,"station_id":"PLM","distance":3737,"transit":false},{"is_transit":true,"line":1,"distance":3191,"i_lat":-6.185545,"station_name":"Tanah Abang","i_long":106.811091,"transit":true,"time":6,"station_id":"THB"},{"is_transit":true,"distance":3632,"station_name":"Duri","station_id":"DU","line":1,"time":8,"i_long":106.800832,"transit":true,"i_lat":-6.155215},{"i_long":106.79867,"i_lat":-6.144674,"is_transit":false,"line":0,"station_id":"AK","time":4,"station_name":"Angke","transit":false,"distance":1230},{"i_long":106.826365,"station_name":"Kampung Bandan","time":9,"station_id":"KPB","is_transit":true,"transit":true,"distance":4102,"i_lat":-6.132549,"line":0},{"station_id":"RJW","transit":false,"distance":1444,"station_name":"Rajawali","time":3,"is_transit":false,"i_lat":-6.14505,"i_long":106.836569,"line":11},{"i_long":106.839204,"line":11,"time":5,"transit":false,"distance":1901,"station_id":"KMO","i_lat":-6.161728,"is_transit":false,"station_name":"Kemayoran"},{"distance":1436,"transit":false,"line":11,"i_long":106.84368,"is_transit":false,"i_lat":-6.174784,"time":4,"station_name":"Pasar Senen","station_id":"PSE"},{"i_lat":-6.185975,"distance":1567,"i_long":106.850107,"is_transit":false,"transit":false,"station_name":"Gang Sentiong","line":11,"station_id":"GST","time":8},{"is_transit":false,"line":11,"distance":973,"station_id":"KMT","i_long":106.855437,"transit":false,"station_name":"Kramat","i_lat":-6.193792,"time":1},{"station_id":"POK","station_name":"Pondok Jati","time":2,"i_lat":-6.209188,"distance":1829,"transit":false,"is_transit":false,"i_long":106.861737,"line":11},{"station_id":"JNG","line":0,"is_transit":true,"i_lat":-6.215091,"transit":true,"time":9,"station_name":"Jatinegara","i_long":106.86807400000001,"distance":1236},{"i_lat":-6.212485,"distance":1377,"line":1,"i_long":106.858896,"station_name":"Matraman","station_id":"MTR","is_transit":false,"time":2,"transit":false},{"transit":true,"i_lat":-6.209883,"station_name":"Manggarai","is_transit":true,"i_long":106.84912,"line":0,"station_id":"MRI","distance":1275,"time":2},{"station_name":"Tebet","transit":false,"time":4,"i_long":106.857948,"is_transit":false,"station_id":"TEB","line":2,"i_lat":-6.226659,"distance":2610},{"is_transit":false,"line":0,"station_name":"Cawang","station_id":"CW","i_long":106.856607,"time":2,"i_lat":-6.242512,"transit":false,"distance":1230},{"i_long":106.85449,"station_name":"Duren Kalibata","line":0,"station_id":"DRN","distance":1546,"transit":false,"i_lat":-6.255332,"is_transit":false,"time":3},{"station_name":"Pasar Minggu Baru","is_transit":false,"station_id":"PSMB","distance":824,"i_lat":-6.263214,"i_long":106.851577,"transit":false,"time":2,"line":2},{"i_long":106.843999,"is_transit":false,"line":2,"i_lat":-6.2842400000000005,"station_name":"Pasar Minggu","station_id":"PSM","transit":false,"time":2,"distance":2380},{"is_transit":false,"distance":2820,"station_id":"TNT","transit":false,"station_name":"Tanjung Barat","i_long":106.838896,"line":2,"time":4,"i_lat":-6.3080680000000005},{"time":3,"i_lat":-6.330363,"line":2,"i_long":106.832616,"station_id":"LNA","distance":2671,"station_name":"Lenteng Agung","is_transit":false,"transit":false},{"distance":1029,"transit":false,"line":2,"is_transit":false,"station_name":"Univ. Pancasila","time":2,"i_lat":-6.339291,"i_long":106.834175,"station_id":"UP"},{"is_transit":false,"i_long":106.831474,"transit":false,"distance":2264,"i_lat":-6.360749,"station_name":"Univ. Indonesia","station_id":"UI","line":2,"time":3},{"station_id":"POC","i_lat":-6.369073,"line":2,"distance":1109,"station_name":"Pondok Cina","time":2,"transit":false,"i_long":106.831114,"is_transit":false},{"station_id":"DPB","transit":false,"station_name":"Depokbaru","distance":2727,"i_long":106.819451,"i_lat":-6.391065,"is_transit":false,"line":0,"time":4},{"station_id":"DP","time":3,"transit":false,"i_long":106.816926,"line":0,"distance":1584,"is_transit":false,"station_name":"Depok","i_lat":-6.405256},{"is_transit":true,"transit":false,"station_name":"Citayam","distance":5084,"time":6,"i_lat":-6.448811,"station_id":"CTA","i_long":106.800298,"line":1}]]}