{"data":[[{"station_id":"PRP","station_name":"Parung Panjang","transit":false,"line":6,"distance":0,"is_transit":false,"i_long":106.568863,"time":0,"i_lat":-6.3441410000000005},{"is_transit":false,"transit":false,"i_lat":-6.329547,"station_name":"Cicayur","i_long":106.617853,"line":3,"distance":5968,"time":8,"station_id":"CC"},{"station_id":"CSK","time":4,"i_lat":-6.32484,"transit":false,"distance":2519,"station_name":"Cisauk","i_long":106.640411,"line":3,"is_transit":false},{"distance":1784,"station_id":"SRP","time":4,"i_long":106.66566,"i_lat":-6.319871,"station_name":"Serpong","line":6,"transit":false,"is_transit":false},{"i_lat":-6.314823,"i_long":106.675475,"station_name":"Rawa Buntu","distance":2413,"station_id":"RU","is_transit":false,"transit":false,"line":6,"time":4},{"i_lat":-6.296963,"is_transit":false,"station_name":"Sudimara","station_id":"SDM","transit":false,"time":6,"distance":4566,"i_long":106.712277,"line":6},{"i_long":106.728916,"station_id":"JMU","station_name":"Jurangmangu","i_lat":-6.288927,"line":6,"transit":false,"distance":1994,"time":4,"is_transit":false},{"time":3,"transit":false,"station_id":"PDJ","i_long":106.74273,"line":6,"station_name":"Pondokranji","i_lat":-6.276362,"distance":2179,"is_transit":false},{"transit":false,"i_long":106.780334,"distance":6218,"station_id":"KBY","i_lat":-6.237242,"time":8,"station_name":"Kebayoran","is_transit":false,"line":6},{"i_long":106.79689,"distance":3737,"time":7,"is_transit":false,"transit":false,"i_lat":-6.207404,"line":6,"station_name":"Palmerah","station_id":"PLM"},{"time":6,"i_lat":-6.185545,"line":1,"station_id":"THB","station_name":"Tanah Abang","distance":3191,"i_long":106.811091,"transit":true,"is_transit":true},{"station_name":"Karet","station_id":"KAT","line":1,"time":5,"i_lat":-6.20132,"i_long":106.816351,"is_transit":false,"distance":2029,"transit":false},{"i_lat":-6.201433,"transit":false,"time":1,"station_name":"Sudirman Baru","line":1,"station_id":"SUDB","distance":471,"i_long":106.819881,"is_transit":false},{"i_lat":-6.202263,"station_id":"SUD","distance":280,"time":1,"i_long":106.822649,"is_transit":false,"line":1,"station_name":"Sudirman","transit":false},{"is_transit":true,"i_lat":-6.209883,"line":2,"time":4,"transit":true,"distance":3186,"station_id":"MRI","i_long":106.84912,"station_name":"Manggarai"},{"i_long":106.857948,"line":2,"station_id":"TEB","distance":2610,"is_transit":false,"time":4,"station_name":"Tebet","i_lat":-6.226659,"transit":false},{"line":2,"station_id":"CW","transit":false,"station_name":"Cawang","is_transit":false,"i_lat":-6.242512,"distance":1230,"time":2,"i_long":106.856607},{"station_id":"DRN","i_lat":-6.255332,"station_name":"Duren Kalibata","time":3,"transit":false,"i_long":106.85449,"line":2,"is_transit":false,"distance":1546},{"i_lat":-6.263214,"i_long":106.851577,"distance":824,"time":2,"is_transit":false,"station_id":"PSMB","transit":false,"station_name":"Pasar Minggu Baru","line":2},{"i_lat":-6.2842400000000005,"line":2,"station_name":"Pasar Minggu","transit":false,"is_transit":false,"distance":2380,"i_long":106.843999,"station_id":"PSM","time":2},{"distance":2820,"line":2,"i_long":106.838896,"transit":false,"station_id":"TNT","is_transit":false,"time":4,"station_name":"Tanjung Barat","i_lat":-6.3080680000000005},{"i_lat":-6.330363,"station_id":"LNA","transit":false,"distance":2671,"time":3,"is_transit":false,"station_name":"Lenteng Agung","line":2,"i_long":106.832616},{"time":2,"station_id":"UP","i_lat":-6.339291,"transit":false,"distance":1029,"i_long":106.834175,"line":2,"is_transit":false,"station_name":"Univ. Pancasila"},{"station_id":"UI","station_name":"Univ. Indonesia","transit":false,"time":3,"line":2,"i_long":106.831474,"distance":2264,"i_lat":-6.360749,"is_transit":false},{"line":2,"distance":1109,"station_id":"POC","transit":false,"i_lat":-6.369073,"i_long":106.831114,"is_transit":false,"station_name":"Pondok Cina","time":2},{"time":4,"station_name":"Depokbaru","line":2,"is_transit":false,"transit":false,"i_long":106.819451,"station_id":"DPB","distance":2727,"i_lat":-6.391065},{"i_long":106.816926,"station_name":"Depok","is_transit":false,"transit":false,"line":2,"i_lat":-6.405256,"distance":1584,"station_id":"DP","time":3},{"time":6,"line":2,"i_lat":-6.448811,"transit":true,"station_id":"CTA","is_transit":true,"i_long":106.800298,"station_name":"Citayam","distance":5084},{"station_id":"PDRG","station_name":"Pondok Rajeg","transit":false,"i_long":106.824374,"distance":0,"i_lat":-6.460735,"is_transit":false,"line":21,"time":0}],[{"is_transit":false,"distance":0,"i_lat":-6.3441410000000005,"i_long":106.568863,"transit":false,"line":6,"station_id":"PRP","time":0,"station_name":"Parung Panjang"},{"distance":5968,"station_name":"Cicayur","i_lat":-6.329547,"transit":false,"station_id":"CC","i_long":106.617853,"is_transit":false,"time":8,"line":3},{"is_transit":false,"time":4,"line":3,"transit":false,"station_id":"CSK","i_lat":-6.32484,"station_name":"Cisauk","i_long":106.640411,"distance":2519},{"transit":false,"i_lat":-6.319871,"station_name":"Serpong","i_long":106.66566,"distance":1784,"time":4,"line":6,"is_transit":false,"station_id":"SRP"},{"time":4,"i_lat":-6.314823,"distance":2413,"line":6,"transit":false,"is_transit":false,"station_id":"RU","station_name":"Rawa Buntu","i_long":106.675475},{"transit":false,"line":6,"i_long":106.712277,"distance":4566,"station_id":"SDM","is_transit":false,"time":6,"station_name":"Sudimara","i_lat":-6.296963},{"is_transit":false,"i_lat":-6.288927,"station_name":"Jurangmangu","transit":false,"line":6,"i_long":106.728916,"station_id":"JMU","time":4,"distance":1994},{"station_id":"PDJ","station_name":"Pondokranji","distance":2179,"i_lat":-6.276362,"i_long":106.74273,"transit":false,"line":6,"time":3,"is_transit":false},{"line":6,"i_lat":-6.237242,"distance":6218,"time":8,"station_id":"KBY","transit":false,"station_name":"Kebayoran","i_long":106.780334,"is_transit":false},{"distance":3737,"i_lat":-6.207404,"station_id":"PLM","transit":false,"is_transit":false,"time":7,"station_name":"Palmerah","line":6,"i_long":106.79689},{"station_name":"Tanah Abang","i_lat":-6.185545,"line":1,"distance":3191,"station_id":"THB","is_transit":true,"transit":true,"time":6,"i_long":106.811091},{"station_id":"DU","transit":false,"line":1,"i_long":106.800832,"is_transit":false,"station_name":"Duri","time":8,"distance":3632,"i_lat":-6.155215},{"transit":false,"line":1,"is_transit":false,"distance":1230,"i_long":106.79867,"station_name":"Angke","i_lat":-6.144674,"station_id":"AK","time":4},{"i_long":106.826365,"station_id":"KPB","transit":true,"time":9,"station_name":"Kampung Bandan","line":4,"distance":4102,"is_transit":true,"i_lat":-6.132549},{"time":3,"i_lat":-6.137569,"is_transit":true,"station_name":"Jakarta Kota","station_id":"JAKK","distance":1364,"i_long":106.812439,"transit":true,"line":2},{"line":2,"is_transit":false,"distance":1264,"time":4,"i_long":106.820901,"transit":false,"i_lat":-6.141205,"station_id":"JAY","station_name":"Jayakarta"},{"i_lat":-6.149769,"transit":false,"time":2,"is_transit":false,"station_name":"Manggabesar","line":2,"i_long":106.82482,"distance":1080,"station_id":"MGB"},{"i_long":106.827103,"transit":false,"line":2,"station_id":"SW","distance":906,"station_name":"Sawah Besar","is_transit":false,"time":2,"i_lat":-6.160725},{"line":2,"i_long":106.828284,"distance":1149,"time":2,"station_id":"JUA","station_name":"Juanda","i_lat":-6.166716,"transit":false,"is_transit":false},{"station_name":"Gondangdia","i_lat":-6.186295,"line":2,"station_id":"GDD","transit":false,"i_long":106.832183,"is_transit":false,"distance":2015,"time":4},{"time":3,"i_lat":-6.198556,"i_long":106.840169,"transit":false,"station_name":"Cikini","station_id":"CKI","line":2,"is_transit":false,"distance":1750},{"line":2,"station_id":"MRI","is_transit":false,"time":4,"i_long":106.84912,"station_name":"Manggarai","i_lat":-6.209883,"distance":1590,"transit":false},{"i_long":106.857948,"transit":false,"distance":2610,"station_name":"Tebet","station_id":"TEB","line":2,"is_transit":false,"time":4,"i_lat":-6.226659},{"distance":1230,"time":2,"i_long":106.856607,"station_id":"CW","line":2,"transit":false,"is_transit":false,"station_name":"Cawang","i_lat":-6.242512},{"transit":false,"is_transit":false,"distance":1546,"time":3,"line":2,"station_id":"DRN","station_name":"Duren Kalibata","i_long":106.85449,"i_lat":-6.255332},{"line":2,"i_long":106.851577,"is_transit":false,"transit":false,"distance":824,"station_name":"Pasar Minggu Baru","station_id":"PSMB","time":2,"i_lat":-6.263214},{"transit":false,"station_name":"Pasar Minggu","distance":2380,"time":2,"i_long":106.843999,"line":2,"i_lat":-6.2842400000000005,"station_id":"PSM","is_transit":false},{"i_long":106.838896,"transit":false,"is_transit":false,"station_id":"TNT","distance":2820,"line":2,"time":4,"i_lat":-6.3080680000000005,"station_name":"Tanjung Barat"},{"line":2,"station_id":"LNA","time":3,"is_transit":false,"i_long":106.832616,"transit":false,"i_lat":-6.330363,"station_name":"Lenteng Agung","distance":2671},{"station_name":"Univ. Pancasila","time":2,"line":2,"is_transit":false,"i_long":106.834175,"transit":false,"i_lat":-6.339291,"distance":1029,"station_id":"UP"},{"station_id":"UI","i_long":106.831474,"distance":2264,"transit":false,"time":3,"is_transit":false,"line":2,"i_lat":-6.360749,"station_name":"Univ. Indonesia"},{"line":2,"is_transit":false,"distance":1109,"transit":false,"i_long":106.831114,"i_lat":-6.369073,"station_name":"Pondok Cina","time":2,"station_id":"POC"},{"distance":2727,"line":2,"transit":false,"time":4,"is_transit":false,"i_long":106.819451,"station_name":"Depokbaru","i_lat":-6.391065,"station_id":"DPB"},{"transit":false,"station_id":"DP","i_lat":-6.405256,"time":3,"i_long":106.816926,"station_name":"Depok","is_transit":false,"distance":1584,"line":2},{"is_transit":true,"distance":5084,"i_lat":-6.448811,"i_long":106.800298,"time":6,"transit":true,"line":2,"station_id":"CTA","station_name":"Citayam"},{"is_transit":false,"transit":false,"time":0,"i_lat":-6.460735,"i_long":106.824374,"line":21,"station_id":"PDRG","distance":0,"station_name":"Pondok Rajeg"}],[{"station_id":"PRP","distance":0,"i_long":106.568863,"time":0,"i_lat":-6.3441410000000005,"transit":false,"is_transit":false,"station_name":"Parung Panjang","line":6},{"is_transit":false,"distance":5968,"station_name":"Cicayur","i_lat":-6.329547,"station_id":"CC","time":8,"line":3,"transit":false,"i_long":106.617853},{"station_id":"CSK","i_lat":-6.32484,"is_transit":false,"time":4,"line":3,"transit":false,"i_long":106.640411,"distance":2519,"station_name":"Cisauk"},{"transit":false,"station_name":"Serpong","station_id":"SRP","i_lat":-6.319871,"line":6,"i_long":106.66566,"time":4,"is_transit":false,"distance":1784},{"distance":2413,"transit":false,"is_transit":false,"time":4,"i_lat":-6.314823,"i_long":106.675475,"line":6,"station_id":"RU","station_name":"Rawa Buntu"},{"transit":false,"i_lat":-6.296963,"time":6,"i_long":106.712277,"is_transit":false,"station_id":"SDM","distance":4566,"line":6,"station_name":"Sudimara"},{"line":6,"i_lat":-6.288927,"station_id":"JMU","transit":false,"station_name":"Jurangmangu","is_transit":false,"time":4,"distance":1994,"i_long":106.728916},{"distance":2179,"time":3,"station_name":"Pondokranji","i_lat":-6.276362,"i_long":106.74273,"station_id":"PDJ","line":6,"transit":false,"is_transit":false},{"is_transit":false,"i_long":106.780334,"line":6,"transit":false,"station_name":"Kebayoran","station_id":"KBY","distance":6218,"time":8,"i_lat":-6.237242},{"i_lat":-6.207404,"station_name":"Palmerah","line":6,"i_long":106.79689,"distance":3737,"time":7,"transit":false,"station_id":"PLM","is_transit":false},{"station_name":"Tanah Abang","i_lat":-6.185545,"i_long":106.811091,"line":1,"station_id":"THB","transit":true,"distance":3191,"is_transit":true,"time":6},{"i_long":106.800832,"time":8,"i_lat":-6.155215,"is_transit":false,"station_name":"Duri","line":1,"station_id":"DU","transit":false,"distance":3632},{"distance":1230,"time":4,"i_lat":-6.144674,"station_id":"AK","line":1,"is_transit":false,"i_long":106.79867,"station_name":"Angke","transit":false},{"i_long":106.826365,"time":9,"transit":true,"is_transit":true,"i_lat":-6.132549,"line":4,"station_id":"KPB","distance":4102,"station_name":"Kampung Bandan"},{"station_name":"Rajawali","i_long":106.836569,"is_transit":false,"i_lat":-6.14505,"line":11,"station_id":"RJW","transit":false,"distance":1444,"time":3},{"is_transit":false,"i_long":106.839204,"station_name":"Kemayoran","i_lat":-6.161728,"station_id":"KMO","line":11,"time":5,"transit":false,"distance":1901},{"distance":1436,"time":4,"station_id":"PSE","line":11,"station_name":"Pasar Senen","i_long":106.84368,"is_transit":false,"i_lat":-6.174784,"transit":false},{"time":8,"i_long":106.850107,"station_name":"Gang Sentiong","line":11,"station_id":"GST","transit":false,"is_transit":false,"distance":1567,"i_lat":-6.185975},{"time":1,"transit":false,"line":11,"is_transit":false,"distance":973,"station_id":"KMT","i_lat":-6.193792,"station_name":"Kramat","i_long":106.855437},{"transit":false,"is_transit":false,"time":2,"station_name":"Pondok Jati","line":11,"i_lat":-6.209188,"distance":1829,"i_long":106.861737,"station_id":"POK"},{"transit":true,"is_transit":true,"distance":1236,"line":1,"i_long":106.86807400000001,"i_lat":-6.215091,"station_id":"JNG","time":9,"station_name":"Jatinegara"},{"station_name":"Matraman","is_transit":false,"i_lat":-6.212485,"station_id":"MTR","transit":false,"time":2,"distance":1377,"i_long":106.858896,"line":1},{"transit":true,"is_transit":true,"station_name":"Manggarai","i_lat":-6.209883,"station_id":"MRI","distance":1275,"i_long":106.84912,"line":2,"time":2},{"transit":false,"is_transit":false,"station_name":"Tebet","line":2,"i_lat":-6.226659,"time":4,"i_long":106.857948,"distance":2610,"station_id":"TEB"},{"station_id":"CW","line":2,"station_name":"Cawang","i_lat":-6.242512,"transit":false,"time":2,"is_transit":false,"distance":1230,"i_long":106.856607},{"time":3,"is_transit":false,"i_long":106.85449,"distance":1546,"station_id":"DRN","transit":false,"station_name":"Duren Kalibata","i_lat":-6.255332,"line":2},{"station_id":"PSMB","is_transit":false,"station_name":"Pasar Minggu Baru","i_long":106.851577,"transit":false,"line":2,"i_lat":-6.263214,"time":2,"distance":824},{"i_long":106.843999,"station_name":"Pasar Minggu","i_lat":-6.2842400000000005,"line":2,"distance":2380,"time":2,"transit":false,"station_id":"PSM","is_transit":false},{"station_name":"Tanjung Barat","station_id":"TNT","is_transit":false,"distance":2820,"i_lat":-6.3080680000000005,"line":2,"i_long":106.838896,"time":4,"transit":false},{"transit":false,"is_transit":false,"station_id":"LNA","time":3,"i_lat":-6.330363,"distance":2671,"i_long":106.832616,"station_name":"Lenteng Agung","line":2},{"station_name":"Univ. Pancasila","station_id":"UP","is_transit":false,"line":2,"transit":false,"distance":1029,"time":2,"i_lat":-6.339291,"i_long":106.834175},{"station_id":"UI","station_name":"Univ. Indonesia","transit":false,"time":3,"line":2,"is_transit":false,"i_lat":-6.360749,"distance":2264,"i_long":106.831474},{"is_transit":false,"line":2,"transit":false,"distance":1109,"i_long":106.831114,"station_id":"POC","i_lat":-6.369073,"station_name":"Pondok Cina","time":2},{"station_name":"Depokbaru","transit":false,"is_transit":false,"distance":2727,"time":4,"i_long":106.819451,"line":2,"i_lat":-6.391065,"station_id":"DPB"},{"transit":false,"is_transit":false,"distance":1584,"i_lat":-6.405256,"line":2,"station_name":"Depok","i_long":106.816926,"time":3,"station_id":"DP"},{"station_id":"CTA","transit":true,"line":2,"is_transit":true,"station_name":"Citayam","distance":5084,"i_lat":-6.448811,"time":6,"i_long":106.800298},{"station_id":"PDRG","station_name":"Pondok Rajeg","time":0,"transit":false,"is_transit":false,"i_long":106.824374,"i_lat":-6.460735,"line":21,"distance":0}]]}