{"data":[[{"station_id":"PRP","transit":false,"time":0,"line":6,"distance":0,"i_long":106.568863,"station_name":"Parung Panjang","is_transit":false,"i_lat":-6.3441410000000005},{"station_id":"CC","distance":5968,"i_long":106.617853,"transit":false,"is_transit":false,"time":8,"line":3,"i_lat":-6.329547,"station_name":"Cicayur"},{"is_transit":false,"transit":false,"i_long":106.640411,"station_id":"CSK","i_lat":-6.32484,"station_name":"Cisauk","distance":2519,"time":4,"line":3},{"station_id":"SRP","i_long":106.66566,"time":4,"distance":1784,"is_transit":false,"transit":false,"station_name":"Serpong","i_lat":-6.319871,"line":6},{"distance":2413,"transit":false,"station_name":"Rawa Buntu","is_transit":false,"i_long":106.675475,"time":4,"station_id":"RU","i_lat":-6.314823,"line":6},{"line":6,"distance":4566,"station_id":"SDM","is_transit":false,"transit":false,"time":6,"station_name":"Sudimara","i_lat":-6.296963,"i_long":106.712277},{"transit":false,"distance":1994,"i_lat":-6.288927,"i_long":106.728916,"line":6,"station_id":"JMU","is_transit":false,"station_name":"Jurangmangu","time":4},{"time":3,"station_name":"Pondokranji","is_transit":false,"distance":2179,"station_id":"PDJ","i_lat":-6.276362,"transit":false,"i_long":106.74273,"line":6},{"transit":false,"distance":6218,"i_lat":-6.237242,"line":6,"station_name":"Kebayoran","station_id":"KBY","is_transit":false,"time":8,"i_long":106.780334},{"transit":false,"is_transit":false,"distance":3737,"station_name":"Palmerah","station_id":"PLM","time":7,"i_lat":-6.207404,"line":6,"i_long":106.79689},{"station_name":"Tanah Abang","transit":false,"distance":3191,"is_transit":false,"time":6,"i_lat":-6.185545,"station_id":"THB","i_long":106.811091,"line":1}]]}