{"data":[[{"is_transit":false,"time":0,"station_name":"Parung Panjang","distance":0,"i_lat":-6.3441410000000005,"i_long":106.568863,"line":6,"station_id":"PRP","transit":false},{"station_name":"Cicayur","transit":false,"station_id":"CC","is_transit":false,"time":8,"distance":5968,"i_lat":-6.329547,"line":3,"i_long":106.617853},{"distance":2519,"is_transit":false,"i_long":106.640411,"i_lat":-6.32484,"station_id":"CSK","time":4,"line":3,"transit":false,"station_name":"Cisauk"},{"transit":false,"time":4,"station_name":"Serpong","distance":1784,"station_id":"SRP","line":6,"i_long":106.66566,"is_transit":false,"i_lat":-6.319871},{"distance":2413,"transit":false,"i_lat":-6.314823,"station_name":"Rawa Buntu","time":4,"i_long":106.675475,"line":6,"station_id":"RU","is_transit":false},{"is_transit":false,"i_long":106.712277,"line":6,"time":6,"station_name":"Sudimara","transit":false,"station_id":"SDM","distance":4566,"i_lat":-6.296963},{"line":6,"i_long":106.728916,"time":4,"station_name":"Jurangmangu","is_transit":false,"distance":1994,"i_lat":-6.288927,"transit":false,"station_id":"JMU"},{"station_id":"PDJ","transit":false,"i_long":106.74273,"line":6,"is_transit":false,"station_name":"Pondokranji","i_lat":-6.276362,"time":3,"distance":2179},{"line":6,"transit":false,"is_transit":false,"station_name":"Kebayoran","time":8,"i_long":106.780334,"station_id":"KBY","i_lat":-6.237242,"distance":6218},{"is_transit":false,"time":7,"i_lat":-6.207404,"transit":false,"station_id":"PLM","station_name":"Palmerah","distance":3737,"i_long":106.79689,"line":6},{"i_lat":-6.185545,"is_transit":true,"line":1,"station_name":"Tanah Abang","transit":true,"i_long":106.811091,"station_id":"THB","time":6,"distance":3191},{"transit":false,"time":5,"i_lat":-6.20132,"distance":2029,"station_id":"KAT","line":1,"is_transit":false,"station_name":"Karet","i_long":106.816351},{"station_name":"Sudirman Baru","distance":471,"is_transit":false,"i_long":106.819881,"time":1,"transit":false,"i_lat":-6.201433,"station_id":"SUDB","line":1},{"distance":280,"i_long":106.822649,"transit":false,"station_name":"Sudirman","is_transit":false,"time":1,"station_id":"SUD","i_lat":-6.202263,"line":1},{"i_long":106.84912,"line":2,"i_lat":-6.209883,"station_id":"MRI","time":4,"station_name":"Manggarai","distance":3186,"is_transit":true,"transit":true},{"i_lat":-6.198556,"i_long":106.840169,"station_id":"CKI","line":2,"is_transit":false,"transit":false,"distance":1590,"station_name":"Cikini","time":4},{"i_lat":-6.186295,"transit":false,"station_id":"GDD","station_name":"Gondangdia","is_transit":false,"time":3,"distance":1750,"i_long":106.832183,"line":2}],[{"is_transit":false,"time":0,"station_id":"PRP","i_lat":-6.3441410000000005,"transit":false,"i_long":106.568863,"line":6,"distance":0,"station_name":"Parung Panjang"},{"station_id":"CC","line":3,"time":8,"i_lat":-6.329547,"transit":false,"is_transit":false,"station_name":"Cicayur","i_long":106.617853,"distance":5968},{"transit":false,"is_transit":false,"station_id":"CSK","i_lat":-6.32484,"i_long":106.640411,"distance":2519,"time":4,"line":3,"station_name":"Cisauk"},{"distance":1784,"station_name":"Serpong","station_id":"SRP","transit":false,"i_long":106.66566,"time":4,"line":6,"i_lat":-6.319871,"is_transit":false},{"time":4,"transit":false,"distance":2413,"i_long":106.675475,"is_transit":false,"station_id":"RU","line":6,"i_lat":-6.314823,"station_name":"Rawa Buntu"},{"distance":4566,"station_id":"SDM","transit":false,"time":6,"station_name":"Sudimara","is_transit":false,"i_lat":-6.296963,"line":6,"i_long":106.712277},{"i_lat":-6.288927,"station_name":"Jurangmangu","is_transit":false,"line":6,"transit":false,"station_id":"JMU","i_long":106.728916,"time":4,"distance":1994},{"distance":2179,"i_lat":-6.276362,"i_long":106.74273,"line":6,"transit":false,"station_id":"PDJ","station_name":"Pondokranji","time":3,"is_transit":false},{"i_lat":-6.237242,"i_long":106.780334,"time":8,"distance":6218,"station_id":"KBY","line":6,"is_transit":false,"transit":false,"station_name":"Kebayoran"},{"time":7,"i_long":106.79689,"station_name":"Palmerah","distance":3737,"transit":false,"line":6,"is_transit":false,"station_id":"PLM","i_lat":-6.207404},{"i_long":106.811091,"transit":true,"line":1,"time":6,"distance":3191,"station_id":"THB","is_transit":true,"station_name":"Tanah Abang","i_lat":-6.185545},{"time":8,"is_transit":false,"station_id":"DU","i_lat":-6.155215,"line":1,"distance":3632,"station_name":"Duri","transit":false,"i_long":106.800832},{"distance":1230,"station_name":"Angke","i_lat":-6.144674,"i_long":106.79867,"time":4,"station_id":"AK","is_transit":false,"transit":false,"line":1},{"transit":true,"time":9,"line":4,"i_long":106.826365,"distance":4102,"station_name":"Kampung Bandan","is_transit":true,"i_lat":-6.132549,"station_id":"KPB"},{"distance":1364,"transit":true,"is_transit":true,"i_lat":-6.137569,"station_name":"Jakarta Kota","i_long":106.812439,"station_id":"JAKK","time":3,"line":2},{"transit":false,"station_name":"Jayakarta","distance":1264,"i_lat":-6.141205,"line":2,"station_id":"JAY","is_transit":false,"i_long":106.820901,"time":4},{"i_lat":-6.149769,"time":2,"station_name":"Manggabesar","transit":false,"distance":1080,"i_long":106.82482,"station_id":"MGB","line":2,"is_transit":false},{"transit":false,"i_lat":-6.160725,"line":2,"i_long":106.827103,"distance":906,"is_transit":false,"station_name":"Sawah Besar","time":2,"station_id":"SW"},{"station_name":"Juanda","line":2,"distance":1149,"is_transit":false,"station_id":"JUA","time":2,"transit":false,"i_long":106.828284,"i_lat":-6.166716},{"station_id":"GDD","transit":false,"distance":2015,"i_long":106.832183,"time":4,"i_lat":-6.186295,"is_transit":false,"line":2,"station_name":"Gondangdia"}],[{"line":6,"distance":0,"is_transit":false,"station_id":"PRP","i_lat":-6.3441410000000005,"transit":false,"i_long":106.568863,"station_name":"Parung Panjang","time":0},{"station_id":"CC","i_lat":-6.329547,"line":3,"station_name":"Cicayur","i_long":106.617853,"distance":5968,"time":8,"is_transit":false,"transit":false},{"distance":2519,"line":3,"transit":false,"station_name":"Cisauk","is_transit":false,"time":4,"i_lat":-6.32484,"station_id":"CSK","i_long":106.640411},{"is_transit":false,"i_lat":-6.319871,"line":6,"time":4,"transit":false,"station_name":"Serpong","i_long":106.66566,"station_id":"SRP","distance":1784},{"station_name":"Rawa Buntu","time":4,"line":6,"station_id":"RU","is_transit":false,"i_long":106.675475,"i_lat":-6.314823,"transit":false,"distance":2413},{"time":6,"i_lat":-6.296963,"distance":4566,"station_id":"SDM","transit":false,"line":6,"is_transit":false,"i_long":106.712277,"station_name":"Sudimara"},{"line":6,"station_id":"JMU","time":4,"i_lat":-6.288927,"i_long":106.728916,"distance":1994,"is_transit":false,"transit":false,"station_name":"Jurangmangu"},{"line":6,"i_lat":-6.276362,"distance":2179,"station_id":"PDJ","station_name":"Pondokranji","i_long":106.74273,"time":3,"transit":false,"is_transit":false},{"time":8,"transit":false,"i_long":106.780334,"line":6,"i_lat":-6.237242,"station_id":"KBY","is_transit":false,"station_name":"Kebayoran","distance":6218},{"station_id":"PLM","distance":3737,"is_transit":false,"time":7,"transit":false,"station_name":"Palmerah","i_lat":-6.207404,"i_long":106.79689,"line":6},{"station_name":"Tanah Abang","transit":true,"i_long":106.811091,"line":1,"time":6,"station_id":"THB","distance":3191,"i_lat":-6.185545,"is_transit":true},{"station_name":"Duri","transit":false,"station_id":"DU","i_lat":-6.155215,"i_long":106.800832,"line":1,"distance":3632,"time":8,"is_transit":false},{"station_id":"AK","distance":1230,"transit":false,"i_lat":-6.144674,"time":4,"is_transit":false,"station_name":"Angke","line":1,"i_long":106.79867},{"time":9,"distance":4102,"is_transit":true,"station_name":"Kampung Bandan","i_lat":-6.132549,"transit":true,"i_long":106.826365,"line":4,"station_id":"KPB"},{"i_lat":-6.14505,"transit":false,"station_name":"Rajawali","i_long":106.836569,"is_transit":false,"line":11,"time":3,"distance":1444,"station_id":"RJW"},{"station_id":"KMO","i_lat":-6.161728,"i_long":106.839204,"station_name":"Kemayoran","line":11,"time":5,"transit":false,"is_transit":false,"distance":1901},{"distance":1436,"time":4,"i_lat":-6.174784,"line":11,"station_id":"PSE","is_transit":false,"station_name":"Pasar Senen","i_long":106.84368,"transit":false},{"station_id":"GST","distance":1567,"transit":false,"is_transit":false,"i_lat":-6.185975,"time":8,"station_name":"Gang Sentiong","i_long":106.850107,"line":11},{"line":11,"station_name":"Kramat","station_id":"KMT","distance":973,"is_transit":false,"i_lat":-6.193792,"transit":false,"time":1,"i_long":106.855437},{"time":2,"is_transit":false,"i_long":106.861737,"distance":1829,"line":11,"transit":false,"i_lat":-6.209188,"station_name":"Pondok Jati","station_id":"POK"},{"i_lat":-6.215091,"is_transit":true,"line":1,"transit":true,"time":9,"i_long":106.86807400000001,"station_name":"Jatinegara","distance":1236,"station_id":"JNG"},{"i_long":106.858896,"station_name":"Matraman","line":1,"is_transit":false,"time":2,"station_id":"MTR","distance":1377,"transit":false,"i_lat":-6.212485},{"is_transit":true,"transit":true,"i_long":106.84912,"i_lat":-6.209883,"time":2,"distance":1275,"station_id":"MRI","station_name":"Manggarai","line":2},{"line":2,"station_name":"Cikini","i_long":106.840169,"i_lat":-6.198556,"transit":false,"distance":1590,"is_transit":false,"station_id":"CKI","time":4},{"i_long":106.832183,"is_transit":false,"distance":1750,"station_name":"Gondangdia","line":2,"transit":false,"time":3,"station_id":"GDD","i_lat":-6.186295}],[{"is_transit":false,"line":6,"i_long":106.568863,"transit":false,"time":0,"distance":0,"station_id":"PRP","station_name":"Parung Panjang","i_lat":-6.3441410000000005},{"transit":false,"station_id":"CC","station_name":"Cicayur","i_lat":-6.329547,"i_long":106.617853,"distance":5968,"line":3,"is_transit":false,"time":8},{"line":3,"is_transit":false,"i_long":106.640411,"time":4,"transit":false,"i_lat":-6.32484,"station_id":"CSK","distance":2519,"station_name":"Cisauk"},{"transit":false,"station_id":"SRP","station_name":"Serpong","i_lat":-6.319871,"time":4,"distance":1784,"line":6,"i_long":106.66566,"is_transit":false},{"i_long":106.675475,"distance":2413,"is_transit":false,"station_id":"RU","time":4,"transit":false,"station_name":"Rawa Buntu","line":6,"i_lat":-6.314823},{"line":6,"station_id":"SDM","distance":4566,"time":6,"transit":false,"station_name":"Sudimara","i_lat":-6.296963,"i_long":106.712277,"is_transit":false},{"distance":1994,"i_long":106.728916,"line":6,"station_id":"JMU","i_lat":-6.288927,"station_name":"Jurangmangu","transit":false,"is_transit":false,"time":4},{"i_long":106.74273,"distance":2179,"is_transit":false,"i_lat":-6.276362,"line":6,"time":3,"station_id":"PDJ","transit":false,"station_name":"Pondokranji"},{"time":8,"distance":6218,"i_long":106.780334,"station_id":"KBY","station_name":"Kebayoran","is_transit":false,"transit":false,"i_lat":-6.237242,"line":6},{"time":7,"station_name":"Palmerah","station_id":"PLM","i_long":106.79689,"i_lat":-6.207404,"distance":3737,"line":6,"is_transit":false,"transit":false},{"station_id":"THB","transit":true,"distance":3191,"i_long":106.811091,"is_transit":true,"i_lat":-6.185545,"line":1,"station_name":"Tanah Abang","time":6},{"transit":false,"station_name":"Karet","i_lat":-6.20132,"time":5,"distance":2029,"line":1,"i_long":106.816351,"is_transit":false,"station_id":"KAT"},{"i_long":106.819881,"station_name":"Sudirman Baru","station_id":"SUDB","line":1,"i_lat":-6.201433,"transit":false,"time":1,"distance":471,"is_transit":false},{"station_name":"Sudirman","is_transit":false,"i_lat":-6.202263,"line":1,"transit":false,"station_id":"SUD","i_long":106.822649,"time":1,"distance":280},{"i_long":106.84912,"transit":false,"is_transit":false,"i_lat":-6.209883,"station_id":"MRI","station_name":"Manggarai","line":2,"time":4,"distance":3186},{"station_id":"MTR","time":2,"transit":false,"is_transit":false,"distance":1275,"station_name":"Matraman","i_lat":-6.212485,"i_long":106.858896,"line":1},{"transit":true,"i_long":106.86807400000001,"is_transit":true,"i_lat":-6.215091,"station_name":"Jatinegara","station_id":"JNG","line":1,"time":8,"distance":1377},{"line":11,"distance":1236,"transit":false,"station_id":"POK","station_name":"Pondok Jati","is_transit":false,"time":2,"i_lat":-6.209188,"i_long":106.861737},{"station_name":"Kramat","i_lat":-6.193792,"station_id":"KMT","distance":1829,"i_long":106.855437,"time":2,"line":11,"transit":false,"is_transit":false},{"transit":false,"station_name":"Gang Sentiong","distance":973,"i_long":106.850107,"is_transit":false,"line":11,"station_id":"GST","i_lat":-6.185975,"time":1},{"distance":1567,"station_name":"Pasar Senen","line":11,"time":8,"transit":false,"is_transit":false,"i_lat":-6.174784,"i_long":106.84368,"station_id":"PSE"},{"transit":false,"is_transit":false,"time":4,"i_lat":-6.161728,"i_long":106.839204,"station_name":"Kemayoran","station_id":"KMO","distance":1436,"line":11},{"time":5,"distance":1901,"i_lat":-6.14505,"is_transit":false,"station_name":"Rajawali","i_long":106.836569,"station_id":"RJW","transit":false,"line":11},{"is_transit":true,"i_lat":-6.132549,"time":3,"transit":true,"station_name":"Kampung Bandan","distance":1444,"line":4,"station_id":"KPB","i_long":106.826365},{"is_transit":true,"i_lat":-6.137569,"line":2,"i_long":106.812439,"distance":1364,"time":3,"station_name":"Jakarta Kota","transit":true,"station_id":"JAKK"},{"distance":1264,"is_transit":false,"transit":false,"time":4,"line":2,"station_id":"JAY","station_name":"Jayakarta","i_long":106.820901,"i_lat":-6.141205},{"is_transit":false,"line":2,"time":2,"station_id":"MGB","station_name":"Manggabesar","transit":false,"distance":1080,"i_lat":-6.149769,"i_long":106.82482},{"station_name":"Sawah Besar","i_lat":-6.160725,"station_id":"SW","i_long":106.827103,"is_transit":false,"time":2,"transit":false,"distance":906,"line":2},{"is_transit":false,"line":2,"station_name":"Juanda","i_lat":-6.166716,"time":2,"distance":1149,"transit":false,"station_id":"JUA","i_long":106.828284},{"i_long":106.832183,"transit":false,"is_transit":false,"station_name":"Gondangdia","distance":2015,"time":4,"station_id":"GDD","i_lat":-6.186295,"line":2}]]}