{"data":[[{"transit":false,"station_name":"Parung Panjang","is_transit":false,"i_lat":-6.3441410000000005,"distance":0,"station_id":"PRP","time":0,"line":6,"i_long":106.568863},{"time":8,"i_lat":-6.329547,"transit":false,"distance":5968,"station_name":"Cicayur","is_transit":false,"i_long":106.617853,"line":3,"station_id":"CC"},{"i_lat":-6.32484,"station_name":"Cisauk","i_long":106.640411,"distance":2519,"time":4,"line":3,"is_transit":false,"station_id":"CSK","transit":false},{"station_id":"SRP","i_long":106.66566,"time":4,"transit":false,"line":6,"i_lat":-6.319871,"station_name":"Serpong","distance":1784,"is_transit":false},{"station_name":"Rawa Buntu","station_id":"RU","transit":false,"i_long":106.675475,"is_transit":false,"distance":2413,"i_lat":-6.314823,"line":6,"time":4},{"i_long":106.712277,"station_name":"Sudimara","station_id":"SDM","i_lat":-6.296963,"transit":false,"is_transit":false,"time":6,"line":6,"distance":4566},{"i_lat":-6.288927,"is_transit":false,"time":4,"distance":1994,"station_id":"JMU","line":6,"transit":false,"station_name":"Jurangmangu","i_long":106.728916},{"station_name":"Pondokranji","is_transit":false,"transit":false,"time":3,"station_id":"PDJ","distance":2179,"i_long":106.74273,"line":6,"i_lat":-6.276362},{"is_transit":false,"time":8,"distance":6218,"station_name":"Kebayoran","i_long":106.780334,"i_lat":-6.237242,"transit":false,"station_id":"KBY","line":6},{"is_transit":false,"station_id":"PLM","time":7,"i_lat":-6.207404,"i_long":106.79689,"line":6,"distance":3737,"transit":false,"station_name":"Palmerah"},{"station_id":"THB","is_transit":true,"time":6,"distance":3191,"i_lat":-6.185545,"i_long":106.811091,"line":1,"station_name":"Tanah Abang","transit":true},{"is_transit":true,"i_lat":-6.155215,"line":1,"station_id":"DU","distance":3632,"station_name":"Duri","time":8,"i_long":106.800832,"transit":true},{"station_id":"GGL","is_transit":false,"distance":1700,"i_lat":-6.162021,"transit":false,"station_name":"Grogol","time":3,"line":5,"i_long":106.788277},{"station_name":"Pesing","i_lat":-6.161433,"transit":false,"distance":2036,"station_id":"PSG","i_long":106.771379,"time":2,"line":5,"is_transit":false},{"station_name":"Taman Kota","is_transit":false,"i_lat":-6.1587309999999995,"distance":1614,"station_id":"TKO","i_long":106.756522,"line":5,"transit":false,"time":2},{"i_lat":-6.159876,"line":5,"station_id":"BOI","time":2,"i_long":106.737035,"transit":false,"distance":2334,"station_name":"Bojongindah","is_transit":false},{"i_lat":-6.162758,"distance":1152,"station_name":"Rawa Buaya","station_id":"RW","is_transit":false,"transit":false,"time":4,"i_long":106.723064,"line":5},{"station_id":"KDS","is_transit":false,"i_long":106.701612,"line":5,"i_lat":-6.166068,"transit":false,"time":3,"distance":2504,"station_name":"Kalideres"}],[{"station_id":"PRP","line":6,"distance":0,"i_long":106.568863,"transit":false,"station_name":"Parung Panjang","is_transit":false,"time":0,"i_lat":-6.3441410000000005},{"station_name":"Cicayur","is_transit":false,"line":3,"i_lat":-6.329547,"transit":false,"station_id":"CC","distance":5968,"i_long":106.617853,"time":8},{"i_lat":-6.32484,"transit":false,"station_id":"CSK","time":4,"station_name":"Cisauk","is_transit":false,"i_long":106.640411,"line":3,"distance":2519},{"distance":1784,"line":6,"is_transit":false,"time":4,"transit":false,"i_lat":-6.319871,"station_id":"SRP","i_long":106.66566,"station_name":"Serpong"},{"station_name":"Rawa Buntu","station_id":"RU","transit":false,"line":6,"distance":2413,"i_long":106.675475,"time":4,"is_transit":false,"i_lat":-6.314823},{"station_id":"SDM","time":6,"transit":false,"i_lat":-6.296963,"station_name":"Sudimara","is_transit":false,"distance":4566,"line":6,"i_long":106.712277},{"i_long":106.728916,"distance":1994,"line":6,"station_id":"JMU","is_transit":false,"time":4,"i_lat":-6.288927,"transit":false,"station_name":"Jurangmangu"},{"station_name":"Pondokranji","station_id":"PDJ","is_transit":false,"time":3,"distance":2179,"line":6,"transit":false,"i_lat":-6.276362,"i_long":106.74273},{"station_name":"Kebayoran","time":8,"transit":false,"station_id":"KBY","is_transit":false,"distance":6218,"i_lat":-6.237242,"i_long":106.780334,"line":6},{"distance":3737,"station_name":"Palmerah","i_long":106.79689,"station_id":"PLM","transit":false,"time":7,"i_lat":-6.207404,"line":6,"is_transit":false},{"transit":true,"station_name":"Tanah Abang","is_transit":true,"i_long":106.811091,"line":1,"time":6,"distance":3191,"station_id":"THB","i_lat":-6.185545},{"distance":2029,"line":1,"transit":false,"i_lat":-6.20132,"station_id":"KAT","is_transit":false,"time":5,"i_long":106.816351,"station_name":"Karet"},{"i_lat":-6.201433,"i_long":106.819881,"distance":471,"transit":false,"station_name":"Sudirman Baru","station_id":"SUDB","is_transit":false,"line":1,"time":1},{"distance":280,"transit":false,"i_lat":-6.202263,"i_long":106.822649,"line":1,"time":1,"is_transit":false,"station_id":"SUD","station_name":"Sudirman"},{"i_long":106.84912,"station_id":"MRI","station_name":"Manggarai","line":2,"transit":true,"is_transit":true,"distance":3186,"time":4,"i_lat":-6.209883},{"line":2,"station_id":"CKI","i_lat":-6.198556,"transit":false,"time":4,"is_transit":false,"distance":1590,"i_long":106.840169,"station_name":"Cikini"},{"line":2,"transit":false,"station_name":"Gondangdia","i_lat":-6.186295,"i_long":106.832183,"distance":1750,"station_id":"GDD","is_transit":false,"time":3},{"station_id":"JUA","time":4,"station_name":"Juanda","distance":2015,"i_long":106.828284,"is_transit":false,"transit":false,"i_lat":-6.166716,"line":2},{"i_lat":-6.160725,"station_id":"SW","is_transit":false,"transit":false,"time":2,"distance":1149,"line":2,"station_name":"Sawah Besar","i_long":106.827103},{"i_long":106.82482,"is_transit":false,"transit":false,"i_lat":-6.149769,"line":2,"station_id":"MGB","time":2,"station_name":"Manggabesar","distance":906},{"distance":1080,"transit":false,"station_name":"Jayakarta","line":2,"i_lat":-6.141205,"i_long":106.820901,"station_id":"JAY","is_transit":false,"time":2},{"i_lat":-6.137569,"is_transit":true,"transit":true,"distance":1264,"i_long":106.812439,"station_id":"JAKK","line":2,"station_name":"Jakarta Kota","time":4},{"i_long":106.826365,"station_id":"KPB","is_transit":true,"line":4,"time":3,"distance":1364,"transit":true,"station_name":"Kampung Bandan","i_lat":-6.132549},{"i_lat":-6.144674,"transit":false,"time":9,"i_long":106.79867,"station_name":"Angke","is_transit":false,"distance":4102,"line":1,"station_id":"AK"},{"i_lat":-6.155215,"station_name":"Duri","station_id":"DU","transit":true,"time":4,"i_long":106.800832,"line":1,"is_transit":true,"distance":1230},{"line":5,"is_transit":false,"transit":false,"time":3,"i_lat":-6.162021,"station_name":"Grogol","station_id":"GGL","distance":1700,"i_long":106.788277},{"is_transit":false,"station_id":"PSG","i_lat":-6.161433,"i_long":106.771379,"transit":false,"station_name":"Pesing","time":2,"distance":2036,"line":5},{"station_id":"TKO","is_transit":false,"transit":false,"i_long":106.756522,"station_name":"Taman Kota","distance":1614,"i_lat":-6.1587309999999995,"line":5,"time":2},{"distance":2334,"is_transit":false,"i_long":106.737035,"station_id":"BOI","i_lat":-6.159876,"transit":false,"station_name":"Bojongindah","line":5,"time":2},{"time":4,"distance":1152,"i_long":106.723064,"station_id":"RW","line":5,"i_lat":-6.162758,"transit":false,"station_name":"Rawa Buaya","is_transit":false},{"i_lat":-6.166068,"station_id":"KDS","is_transit":false,"time":3,"distance":2504,"transit":false,"line":5,"i_long":106.701612,"station_name":"Kalideres"}],[{"is_transit":false,"station_name":"Parung Panjang","line":6,"distance":0,"station_id":"PRP","i_long":106.568863,"transit":false,"time":0,"i_lat":-6.3441410000000005},{"time":8,"transit":false,"station_name":"Cicayur","station_id":"CC","i_lat":-6.329547,"distance":5968,"line":3,"is_transit":false,"i_long":106.617853},{"station_id":"CSK","i_lat":-6.32484,"i_long":106.640411,"transit":false,"station_name":"Cisauk","line":3,"distance":2519,"time":4,"is_transit":false},{"station_name":"Serpong","transit":false,"is_transit":false,"time":4,"distance":1784,"line":6,"i_long":106.66566,"station_id":"SRP","i_lat":-6.319871},{"station_name":"Rawa Buntu","is_transit":false,"i_lat":-6.314823,"line":6,"distance":2413,"time":4,"i_long":106.675475,"transit":false,"station_id":"RU"},{"is_transit":false,"i_lat":-6.296963,"i_long":106.712277,"station_name":"Sudimara","station_id":"SDM","time":6,"line":6,"transit":false,"distance":4566},{"i_lat":-6.288927,"transit":false,"distance":1994,"i_long":106.728916,"line":6,"is_transit":false,"time":4,"station_name":"Jurangmangu","station_id":"JMU"},{"time":3,"transit":false,"station_name":"Pondokranji","i_long":106.74273,"i_lat":-6.276362,"line":6,"station_id":"PDJ","distance":2179,"is_transit":false},{"station_name":"Kebayoran","distance":6218,"station_id":"KBY","transit":false,"is_transit":false,"i_lat":-6.237242,"line":6,"i_long":106.780334,"time":8},{"i_long":106.79689,"is_transit":false,"distance":3737,"station_id":"PLM","transit":false,"i_lat":-6.207404,"time":7,"line":6,"station_name":"Palmerah"},{"time":6,"transit":true,"is_transit":true,"distance":3191,"station_id":"THB","line":1,"i_long":106.811091,"station_name":"Tanah Abang","i_lat":-6.185545},{"line":1,"time":5,"station_name":"Karet","i_lat":-6.20132,"transit":false,"station_id":"KAT","is_transit":false,"distance":2029,"i_long":106.816351},{"i_long":106.819881,"i_lat":-6.201433,"station_name":"Sudirman Baru","is_transit":false,"distance":471,"time":1,"line":1,"station_id":"SUDB","transit":false},{"line":1,"transit":false,"time":1,"is_transit":false,"i_long":106.822649,"station_id":"SUD","distance":280,"i_lat":-6.202263,"station_name":"Sudirman"},{"station_id":"MRI","distance":3186,"i_long":106.84912,"is_transit":false,"time":4,"i_lat":-6.209883,"line":2,"transit":false,"station_name":"Manggarai"},{"time":2,"distance":1275,"transit":false,"station_id":"MTR","i_long":106.858896,"station_name":"Matraman","line":1,"is_transit":false,"i_lat":-6.212485},{"time":8,"distance":1377,"station_name":"Jatinegara","transit":true,"is_transit":true,"line":1,"station_id":"JNG","i_long":106.86807400000001,"i_lat":-6.215091},{"is_transit":false,"i_long":106.861737,"station_name":"Pondok Jati","transit":false,"distance":1236,"line":11,"time":2,"station_id":"POK","i_lat":-6.209188},{"is_transit":false,"time":2,"distance":1829,"station_name":"Kramat","transit":false,"i_lat":-6.193792,"line":11,"i_long":106.855437,"station_id":"KMT"},{"i_long":106.850107,"is_transit":false,"distance":973,"line":11,"station_name":"Gang Sentiong","station_id":"GST","time":1,"transit":false,"i_lat":-6.185975},{"i_lat":-6.174784,"is_transit":false,"distance":1567,"station_id":"PSE","line":11,"transit":false,"time":8,"station_name":"Pasar Senen","i_long":106.84368},{"i_lat":-6.161728,"time":4,"station_name":"Kemayoran","i_long":106.839204,"station_id":"KMO","transit":false,"is_transit":false,"distance":1436,"line":11},{"i_lat":-6.14505,"is_transit":false,"distance":1901,"transit":false,"station_id":"RJW","time":5,"line":11,"station_name":"Rajawali","i_long":106.836569},{"line":4,"distance":1444,"i_lat":-6.132549,"transit":true,"is_transit":true,"i_long":106.826365,"station_name":"Kampung Bandan","station_id":"KPB","time":3},{"time":9,"station_id":"AK","station_name":"Angke","line":1,"distance":4102,"i_lat":-6.144674,"is_transit":false,"i_long":106.79867,"transit":false},{"station_id":"DU","i_long":106.800832,"distance":1230,"station_name":"Duri","transit":true,"is_transit":true,"line":1,"i_lat":-6.155215,"time":4},{"time":3,"is_transit":false,"station_id":"GGL","distance":1700,"i_lat":-6.162021,"station_name":"Grogol","line":5,"transit":false,"i_long":106.788277},{"time":2,"i_long":106.771379,"line":5,"station_name":"Pesing","station_id":"PSG","transit":false,"i_lat":-6.161433,"is_transit":false,"distance":2036},{"is_transit":false,"i_long":106.756522,"i_lat":-6.1587309999999995,"line":5,"transit":false,"distance":1614,"time":2,"station_name":"Taman Kota","station_id":"TKO"},{"transit":false,"i_lat":-6.159876,"line":5,"station_name":"Bojongindah","is_transit":false,"time":2,"i_long":106.737035,"station_id":"BOI","distance":2334},{"is_transit":false,"i_long":106.723064,"time":4,"i_lat":-6.162758,"line":5,"distance":1152,"station_id":"RW","station_name":"Rawa Buaya","transit":false},{"transit":false,"distance":2504,"i_lat":-6.166068,"i_long":106.701612,"time":3,"station_id":"KDS","line":5,"station_name":"Kalideres","is_transit":false}]]}