{"data":[[{"transit":false,"time":0,"i_long":106.568863,"line":6,"station_name":"Parung Panjang","i_lat":-6.3441410000000005,"distance":0,"station_id":"PRP","is_transit":false},{"station_id":"CC","i_lat":-6.329547,"station_name":"Cicayur","transit":false,"i_long":106.617853,"line":0,"distance":5968,"time":8,"is_transit":false},{"i_long":106.640411,"station_id":"CSK","transit":false,"distance":2519,"station_name":"Cisauk","line":0,"time":4,"i_lat":-6.32484,"is_transit":false},{"is_transit":false,"distance":1784,"transit":false,"station_id":"SRP","time":4,"station_name":"Serpong","i_long":106.66566,"i_lat":-6.319871,"line":6},{"time":4,"transit":false,"line":6,"distance":2413,"is_transit":false,"station_id":"RU","station_name":"Rawa Buntu","i_lat":-6.314823,"i_long":106.675475},{"is_transit":false,"distance":4566,"station_name":"Sudimara","time":6,"i_long":106.712277,"line":6,"i_lat":-6.296963,"station_id":"SDM","transit":false},{"i_long":106.728916,"distance":1994,"transit":false,"line":6,"i_lat":-6.288927,"station_id":"JMU","station_name":"Jurangmangu","time":4,"is_transit":false},{"time":3,"i_long":106.74273,"is_transit":false,"station_name":"Pondokranji","line":6,"transit":false,"station_id":"PDJ","distance":2179,"i_lat":-6.276362},{"is_transit":false,"time":8,"transit":false,"i_long":106.780334,"distance":6218,"line":6,"i_lat":-6.237242,"station_name":"Kebayoran","station_id":"KBY"},{"is_transit":false,"i_long":106.79689,"line":6,"distance":3737,"station_name":"Palmerah","transit":false,"i_lat":-6.207404,"time":7,"station_id":"PLM"},{"distance":3191,"time":6,"station_id":"THB","i_long":106.811091,"is_transit":true,"transit":true,"line":1,"station_name":"Tanah Abang","i_lat":-6.185545},{"transit":true,"line":1,"i_lat":-6.155215,"station_id":"DU","distance":3632,"is_transit":true,"station_name":"Duri","time":8,"i_long":106.800832},{"is_transit":false,"station_name":"Grogol","i_long":106.788277,"line":5,"time":3,"i_lat":-6.162021,"transit":false,"distance":1700,"station_id":"GGL"},{"line":5,"i_lat":-6.161433,"station_name":"Pesing","i_long":106.771379,"distance":2036,"station_id":"PSG","is_transit":false,"transit":false,"time":2},{"station_id":"TKO","transit":false,"i_long":106.756522,"line":5,"i_lat":-6.1587309999999995,"is_transit":false,"station_name":"Taman Kota","time":2,"distance":1614},{"transit":false,"line":0,"is_transit":false,"time":2,"station_id":"BOI","station_name":"Bojongindah","distance":2334,"i_long":106.737035,"i_lat":-6.159876},{"transit":false,"line":5,"i_lat":-6.162758,"time":4,"distance":1152,"is_transit":false,"i_long":106.723064,"station_id":"RW","station_name":"Rawa Buaya"},{"i_lat":-6.166068,"line":5,"station_name":"Kalideres","i_long":106.701612,"is_transit":false,"station_id":"KDS","time":3,"distance":2504,"transit":false},{"is_transit":false,"time":3,"i_long":106.679458,"line":5,"distance":2548,"station_name":"Poris","transit":false,"station_id":"PI","i_lat":-6.169933},{"distance":1834,"line":0,"i_long":106.665036,"station_name":"Batuceper","i_lat":-6.171811,"station_id":"BPR","transit":false,"time":3,"is_transit":false},{"i_long":106.64657,"i_lat":-6.17331,"station_id":"TTI","time":3,"distance":2028,"is_transit":false,"transit":false,"line":5,"station_name":"Tanah Tinggi"},{"station_name":"Tangerang","transit":false,"station_id":"TNG","i_long":106.632761,"i_lat":-6.176583,"time":3,"line":5,"distance":1547,"is_transit":false}],[{"transit":false,"i_lat":-6.3441410000000005,"i_long":106.568863,"station_name":"Parung Panjang","time":0,"line":6,"is_transit":false,"station_id":"PRP","distance":0},{"is_transit":false,"i_lat":-6.329547,"transit":false,"station_id":"CC","station_name":"Cicayur","time":8,"i_long":106.617853,"distance":5968,"line":0},{"distance":2519,"i_long":106.640411,"station_id":"CSK","transit":false,"time":4,"line":0,"station_name":"Cisauk","i_lat":-6.32484,"is_transit":false},{"station_name":"Serpong","station_id":"SRP","line":6,"distance":1784,"transit":false,"i_long":106.66566,"is_transit":false,"time":4,"i_lat":-6.319871},{"is_transit":false,"i_lat":-6.314823,"i_long":106.675475,"distance":2413,"transit":false,"station_name":"Rawa Buntu","line":6,"time":4,"station_id":"RU"},{"line":6,"station_id":"SDM","transit":false,"distance":4566,"time":6,"is_transit":false,"i_long":106.712277,"i_lat":-6.296963,"station_name":"Sudimara"},{"time":4,"i_lat":-6.288927,"transit":false,"station_name":"Jurangmangu","i_long":106.728916,"is_transit":false,"distance":1994,"line":6,"station_id":"JMU"},{"i_long":106.74273,"station_id":"PDJ","is_transit":false,"distance":2179,"station_name":"Pondokranji","transit":false,"line":6,"i_lat":-6.276362,"time":3},{"time":8,"distance":6218,"transit":false,"i_long":106.780334,"is_transit":false,"station_id":"KBY","station_name":"Kebayoran","line":6,"i_lat":-6.237242},{"time":7,"is_transit":false,"station_name":"Palmerah","distance":3737,"station_id":"PLM","transit":false,"i_lat":-6.207404,"i_long":106.79689,"line":6},{"station_id":"THB","i_lat":-6.185545,"time":6,"distance":3191,"line":1,"station_name":"Tanah Abang","is_transit":true,"transit":true,"i_long":106.811091},{"station_id":"KAT","time":5,"is_transit":false,"i_long":106.816351,"distance":2029,"station_name":"Karet","transit":false,"i_lat":-6.20132,"line":1},{"time":1,"i_lat":-6.201433,"station_name":"Sudirman Baru","station_id":"SUDB","transit":false,"distance":471,"i_long":106.819881,"line":1,"is_transit":false},{"transit":false,"i_lat":-6.202263,"i_long":106.822649,"station_name":"Sudirman","line":1,"distance":280,"time":1,"station_id":"SUD","is_transit":false},{"i_long":106.84912,"line":0,"station_id":"MRI","station_name":"Manggarai","transit":true,"distance":3186,"time":4,"i_lat":-6.209883,"is_transit":true},{"distance":1590,"station_name":"Cikini","is_transit":false,"transit":false,"i_long":106.840169,"line":0,"i_lat":-6.198556,"station_id":"CKI","time":4},{"station_name":"Gondangdia","transit":false,"line":2,"distance":1750,"time":3,"i_lat":-6.186295,"i_long":106.832183,"is_transit":false,"station_id":"GDD"},{"time":4,"is_transit":false,"line":2,"transit":false,"i_lat":-6.166716,"distance":2015,"station_id":"JUA","station_name":"Juanda","i_long":106.828284},{"distance":1149,"station_name":"Sawah Besar","transit":false,"i_lat":-6.160725,"station_id":"SW","line":2,"is_transit":false,"time":2,"i_long":106.827103},{"line":2,"transit":false,"i_lat":-6.149769,"distance":906,"is_transit":false,"station_id":"MGB","station_name":"Manggabesar","i_long":106.82482,"time":2},{"i_long":106.820901,"time":2,"line":7,"station_name":"Jayakarta","transit":false,"distance":1080,"i_lat":-6.141205,"station_id":"JAY","is_transit":false},{"distance":1264,"is_transit":true,"station_id":"JAKK","i_long":106.812439,"transit":true,"station_name":"Jakarta Kota","time":4,"i_lat":-6.137569,"line":0},{"station_id":"KPB","time":3,"station_name":"Kampung Bandan","is_transit":true,"line":0,"transit":false,"i_lat":-6.132549,"distance":1364,"i_long":106.826365},{"i_lat":-6.144674,"line":0,"is_transit":false,"transit":false,"time":9,"i_long":106.79867,"distance":4102,"station_id":"AK","station_name":"Angke"},{"station_name":"Duri","is_transit":true,"station_id":"DU","distance":1230,"transit":true,"time":4,"i_lat":-6.155215,"line":1,"i_long":106.800832},{"i_long":106.788277,"station_id":"GGL","transit":false,"distance":1700,"is_transit":false,"i_lat":-6.162021,"station_name":"Grogol","time":3,"line":5},{"is_transit":false,"distance":2036,"station_id":"PSG","line":5,"time":2,"i_long":106.771379,"transit":false,"station_name":"Pesing","i_lat":-6.161433},{"time":2,"i_long":106.756522,"station_name":"Taman Kota","i_lat":-6.1587309999999995,"distance":1614,"station_id":"TKO","is_transit":false,"line":5,"transit":false},{"is_transit":false,"distance":2334,"transit":false,"i_lat":-6.159876,"time":2,"line":0,"station_id":"BOI","station_name":"Bojongindah","i_long":106.737035},{"station_id":"RW","station_name":"Rawa Buaya","is_transit":false,"time":4,"line":5,"i_long":106.723064,"transit":false,"i_lat":-6.162758,"distance":1152},{"is_transit":false,"distance":2504,"station_id":"KDS","i_lat":-6.166068,"line":5,"transit":false,"station_name":"Kalideres","time":3,"i_long":106.701612},{"transit":false,"time":3,"i_lat":-6.169933,"is_transit":false,"station_name":"Poris","station_id":"PI","distance":2548,"line":5,"i_long":106.679458},{"distance":1834,"i_long":106.665036,"line":0,"station_id":"BPR","time":3,"transit":false,"station_name":"Batuceper","is_transit":false,"i_lat":-6.171811},{"transit":false,"is_transit":false,"station_name":"Tanah Tinggi","i_long":106.64657,"station_id":"TTI","time":3,"i_lat":-6.17331,"line":5,"distance":2028},{"is_transit":false,"station_name":"Tangerang","line":5,"i_long":106.632761,"i_lat":-6.176583,"distance":1547,"time":3,"transit":false,"station_id":"TNG"}],[{"time":0,"i_lat":-6.3441410000000005,"is_transit":false,"i_long":106.568863,"station_id":"PRP","distance":0,"station_name":"Parung Panjang","line":6,"transit":false},{"station_name":"Cicayur","time":8,"distance":5968,"transit":false,"i_lat":-6.329547,"i_long":106.617853,"station_id":"CC","is_transit":false,"line":0},{"i_lat":-6.32484,"is_transit":false,"station_id":"CSK","station_name":"Cisauk","distance":2519,"time":4,"line":0,"transit":false,"i_long":106.640411},{"distance":1784,"transit":false,"i_lat":-6.319871,"is_transit":false,"time":4,"i_long":106.66566,"station_name":"Serpong","station_id":"SRP","line":6},{"time":4,"i_lat":-6.314823,"line":6,"distance":2413,"station_name":"Rawa Buntu","transit":false,"i_long":106.675475,"is_transit":false,"station_id":"RU"},{"station_name":"Sudimara","i_lat":-6.296963,"distance":4566,"station_id":"SDM","time":6,"is_transit":false,"transit":false,"i_long":106.712277,"line":6},{"transit":false,"i_lat":-6.288927,"i_long":106.728916,"distance":1994,"is_transit":false,"time":4,"line":6,"station_id":"JMU","station_name":"Jurangmangu"},{"station_name":"Pondokranji","transit":false,"i_lat":-6.276362,"i_long":106.74273,"station_id":"PDJ","time":3,"line":6,"is_transit":false,"distance":2179},{"line":6,"distance":6218,"time":8,"station_name":"Kebayoran","station_id":"KBY","is_transit":false,"i_lat":-6.237242,"transit":false,"i_long":106.780334},{"line":6,"station_id":"PLM","is_transit":false,"station_name":"Palmerah","time":7,"distance":3737,"i_long":106.79689,"transit":false,"i_lat":-6.207404},{"distance":3191,"station_id":"THB","i_long":106.811091,"transit":true,"i_lat":-6.185545,"time":6,"line":1,"station_name":"Tanah Abang","is_transit":true},{"transit":false,"line":1,"distance":2029,"time":5,"i_lat":-6.20132,"is_transit":false,"station_id":"KAT","station_name":"Karet","i_long":106.816351},{"line":1,"is_transit":false,"transit":false,"distance":471,"station_name":"Sudirman Baru","station_id":"SUDB","i_lat":-6.201433,"time":1,"i_long":106.819881},{"i_lat":-6.202263,"station_name":"Sudirman","transit":false,"station_id":"SUD","time":1,"distance":280,"is_transit":false,"i_long":106.822649,"line":1},{"transit":false,"station_id":"MRI","i_long":106.84912,"is_transit":true,"station_name":"Manggarai","distance":3186,"i_lat":-6.209883,"time":4,"line":0},{"is_transit":false,"i_long":106.858896,"distance":1275,"time":2,"i_lat":-6.212485,"station_id":"MTR","station_name":"Matraman","transit":false,"line":1},{"station_id":"JNG","line":0,"i_lat":-6.215091,"station_name":"Jatinegara","transit":true,"time":8,"is_transit":true,"i_long":106.86807400000001,"distance":1377},{"station_name":"Pondok Jati","distance":1236,"i_lat":-6.209188,"is_transit":false,"line":11,"i_long":106.861737,"transit":false,"station_id":"POK","time":2},{"station_id":"KMT","i_lat":-6.193792,"distance":1829,"i_long":106.855437,"transit":false,"line":11,"is_transit":false,"station_name":"Kramat","time":2},{"station_id":"GST","time":1,"i_lat":-6.185975,"line":11,"i_long":106.850107,"distance":973,"is_transit":false,"station_name":"Gang Sentiong","transit":false},{"transit":false,"line":11,"is_transit":false,"station_name":"Pasar Senen","time":8,"i_lat":-6.174784,"i_long":106.84368,"distance":1567,"station_id":"PSE"},{"time":4,"station_id":"KMO","station_name":"Kemayoran","line":11,"i_long":106.839204,"is_transit":false,"transit":false,"distance":1436,"i_lat":-6.161728},{"station_id":"RJW","is_transit":false,"transit":false,"time":5,"distance":1901,"station_name":"Rajawali","i_lat":-6.14505,"line":11,"i_long":106.836569},{"time":3,"station_name":"Kampung Bandan","line":0,"i_long":106.826365,"distance":1444,"is_transit":true,"transit":true,"station_id":"KPB","i_lat":-6.132549},{"line":0,"is_transit":false,"station_id":"AK","station_name":"Angke","i_long":106.79867,"transit":false,"distance":4102,"i_lat":-6.144674,"time":9},{"distance":1230,"transit":true,"line":1,"i_lat":-6.155215,"station_id":"DU","time":4,"station_name":"Duri","i_long":106.800832,"is_transit":true},{"station_id":"GGL","station_name":"Grogol","is_transit":false,"transit":false,"time":3,"line":5,"distance":1700,"i_lat":-6.162021,"i_long":106.788277},{"station_id":"PSG","station_name":"Pesing","time":2,"distance":2036,"i_lat":-6.161433,"i_long":106.771379,"is_transit":false,"transit":false,"line":5},{"distance":1614,"transit":false,"i_long":106.756522,"i_lat":-6.1587309999999995,"line":5,"station_id":"TKO","is_transit":false,"station_name":"Taman Kota","time":2},{"distance":2334,"is_transit":false,"station_id":"BOI","station_name":"Bojongindah","i_lat":-6.159876,"line":0,"transit":false,"time":2,"i_long":106.737035},{"transit":false,"i_long":106.723064,"station_name":"Rawa Buaya","station_id":"RW","line":5,"is_transit":false,"i_lat":-6.162758,"distance":1152,"time":4},{"is_transit":false,"distance":2504,"station_name":"Kalideres","i_lat":-6.166068,"time":3,"station_id":"KDS","transit":false,"i_long":106.701612,"line":5},{"station_id":"PI","transit":false,"line":5,"is_transit":false,"time":3,"i_lat":-6.169933,"i_long":106.679458,"distance":2548,"station_name":"Poris"},{"i_lat":-6.171811,"transit":false,"time":3,"i_long":106.665036,"line":0,"distance":1834,"station_id":"BPR","station_name":"Batuceper","is_transit":false},{"i_long":106.64657,"time":3,"station_name":"Tanah Tinggi","i_lat":-6.17331,"transit":false,"is_transit":false,"line":5,"distance":2028,"station_id":"TTI"},{"line":5,"is_transit":false,"station_name":"Tangerang","distance":1547,"transit":false,"time":3,"station_id":"TNG","i_lat":-6.176583,"i_long":106.632761}]]}