{"data":[[{"distance":0,"line":6,"time":0,"station_id":"PRP","is_transit":false,"transit":false,"i_lat":-6.3441410000000005,"i_long":106.568863,"station_name":"Parung Panjang"},{"station_name":"Cicayur","transit":false,"i_lat":-6.329547,"distance":5968,"line":3,"station_id":"CC","i_long":106.617853,"is_transit":false,"time":8},{"i_lat":-6.32484,"time":4,"station_id":"CSK","distance":2519,"station_name":"Cisauk","transit":false,"i_long":106.640411,"is_transit":false,"line":3},{"line":6,"i_lat":-6.319871,"distance":1784,"i_long":106.66566,"station_name":"Serpong","is_transit":false,"transit":false,"station_id":"SRP","time":4},{"distance":2413,"i_long":106.675475,"time":4,"station_id":"RU","transit":false,"i_lat":-6.314823,"line":6,"station_name":"Rawa Buntu","is_transit":false},{"distance":4566,"transit":false,"i_long":106.712277,"is_transit":false,"station_id":"SDM","station_name":"Sudimara","line":6,"i_lat":-6.296963,"time":6},{"time":4,"distance":1994,"line":6,"station_id":"JMU","station_name":"Jurangmangu","i_long":106.728916,"is_transit":false,"transit":false,"i_lat":-6.288927},{"i_lat":-6.276362,"transit":false,"station_id":"PDJ","station_name":"Pondokranji","is_transit":false,"distance":2179,"line":6,"time":3,"i_long":106.74273},{"time":8,"station_name":"Kebayoran","transit":false,"i_long":106.780334,"is_transit":false,"station_id":"KBY","i_lat":-6.237242,"distance":6218,"line":6},{"is_transit":false,"transit":false,"i_long":106.79689,"station_name":"Palmerah","distance":3737,"line":6,"i_lat":-6.207404,"time":7,"station_id":"PLM"},{"station_name":"Tanah Abang","is_transit":true,"line":1,"i_long":106.811091,"station_id":"THB","time":6,"distance":3191,"i_lat":-6.185545,"transit":true},{"i_lat":-6.155215,"transit":false,"distance":3632,"station_name":"Duri","line":1,"time":8,"is_transit":false,"station_id":"DU","i_long":106.800832},{"transit":false,"i_long":106.79867,"time":4,"distance":1230,"station_name":"Angke","i_lat":-6.144674,"station_id":"AK","is_transit":false,"line":1},{"transit":true,"station_name":"Kampung Bandan","distance":4102,"i_long":106.826365,"time":9,"is_transit":true,"station_id":"KPB","i_lat":-6.132549,"line":4},{"is_transit":false,"i_lat":-6.128023,"line":4,"i_long":106.84464,"time":4,"distance":2185,"station_id":"AC","transit":false,"station_name":"Ancol"}],[{"i_long":106.568863,"i_lat":-6.3441410000000005,"time":0,"distance":0,"is_transit":false,"line":6,"station_id":"PRP","station_name":"Parung Panjang","transit":false},{"i_lat":-6.329547,"i_long":106.617853,"line":3,"station_id":"CC","is_transit":false,"time":8,"distance":5968,"station_name":"Cicayur","transit":false},{"station_name":"Cisauk","distance":2519,"time":4,"is_transit":false,"i_long":106.640411,"station_id":"CSK","i_lat":-6.32484,"transit":false,"line":3},{"i_long":106.66566,"station_name":"Serpong","line":6,"i_lat":-6.319871,"transit":false,"distance":1784,"is_transit":false,"time":4,"station_id":"SRP"},{"station_name":"Rawa Buntu","distance":2413,"transit":false,"i_long":106.675475,"i_lat":-6.314823,"line":6,"station_id":"RU","time":4,"is_transit":false},{"i_lat":-6.296963,"transit":false,"i_long":106.712277,"is_transit":false,"line":6,"distance":4566,"time":6,"station_id":"SDM","station_name":"Sudimara"},{"time":4,"distance":1994,"i_lat":-6.288927,"is_transit":false,"i_long":106.728916,"line":6,"station_id":"JMU","station_name":"Jurangmangu","transit":false},{"line":6,"i_lat":-6.276362,"i_long":106.74273,"station_id":"PDJ","distance":2179,"transit":false,"is_transit":false,"station_name":"Pondokranji","time":3},{"transit":false,"i_long":106.780334,"station_id":"KBY","time":8,"i_lat":-6.237242,"line":6,"station_name":"Kebayoran","is_transit":false,"distance":6218},{"is_transit":false,"i_lat":-6.207404,"time":7,"line":6,"station_id":"PLM","i_long":106.79689,"distance":3737,"transit":false,"station_name":"Palmerah"},{"distance":3191,"i_long":106.811091,"station_name":"Tanah Abang","is_transit":true,"line":1,"transit":true,"time":6,"station_id":"THB","i_lat":-6.185545},{"i_lat":-6.20132,"distance":2029,"station_id":"KAT","is_transit":false,"line":1,"station_name":"Karet","i_long":106.816351,"transit":false,"time":5},{"time":1,"i_long":106.819881,"transit":false,"station_id":"SUDB","distance":471,"station_name":"Sudirman Baru","i_lat":-6.201433,"line":1,"is_transit":false},{"line":1,"distance":280,"i_long":106.822649,"i_lat":-6.202263,"station_id":"SUD","station_name":"Sudirman","time":1,"is_transit":false,"transit":false},{"time":4,"is_transit":true,"i_long":106.84912,"station_id":"MRI","station_name":"Manggarai","i_lat":-6.209883,"line":2,"transit":true,"distance":3186},{"station_name":"Cikini","is_transit":false,"station_id":"CKI","i_lat":-6.198556,"time":4,"line":2,"i_long":106.840169,"distance":1590,"transit":false},{"is_transit":false,"transit":false,"distance":1750,"i_lat":-6.186295,"i_long":106.832183,"station_name":"Gondangdia","time":3,"line":2,"station_id":"GDD"},{"distance":2015,"time":4,"station_id":"JUA","transit":false,"i_lat":-6.166716,"line":2,"i_long":106.828284,"station_name":"Juanda","is_transit":false},{"station_id":"SW","i_long":106.827103,"time":2,"transit":false,"station_name":"Sawah Besar","distance":1149,"i_lat":-6.160725,"is_transit":false,"line":2},{"i_lat":-6.149769,"i_long":106.82482,"time":2,"transit":false,"station_name":"Manggabesar","line":2,"distance":906,"is_transit":false,"station_id":"MGB"},{"i_lat":-6.141205,"distance":1080,"transit":false,"station_name":"Jayakarta","i_long":106.820901,"line":2,"time":2,"is_transit":false,"station_id":"JAY"},{"distance":1264,"time":4,"station_id":"JAKK","transit":true,"i_lat":-6.137569,"is_transit":true,"station_name":"Jakarta Kota","i_long":106.812439,"line":2},{"i_long":106.826365,"station_name":"Kampung Bandan","is_transit":true,"line":4,"transit":true,"time":3,"distance":1364,"station_id":"KPB","i_lat":-6.132549},{"i_long":106.84464,"time":4,"distance":2185,"is_transit":false,"i_lat":-6.128023,"transit":false,"line":4,"station_id":"AC","station_name":"Ancol"}],[{"i_long":106.568863,"line":6,"station_id":"PRP","distance":0,"i_lat":-6.3441410000000005,"is_transit":false,"time":0,"transit":false,"station_name":"Parung Panjang"},{"distance":5968,"station_name":"Cicayur","i_lat":-6.329547,"transit":false,"is_transit":false,"station_id":"CC","i_long":106.617853,"line":3,"time":8},{"time":4,"distance":2519,"transit":false,"station_name":"Cisauk","is_transit":false,"line":3,"i_lat":-6.32484,"i_long":106.640411,"station_id":"CSK"},{"station_name":"Serpong","i_long":106.66566,"distance":1784,"line":6,"transit":false,"is_transit":false,"station_id":"SRP","i_lat":-6.319871,"time":4},{"i_long":106.675475,"is_transit":false,"distance":2413,"transit":false,"time":4,"station_name":"Rawa Buntu","line":6,"station_id":"RU","i_lat":-6.314823},{"station_id":"SDM","is_transit":false,"line":6,"transit":false,"distance":4566,"i_long":106.712277,"station_name":"Sudimara","i_lat":-6.296963,"time":6},{"station_name":"Jurangmangu","station_id":"JMU","i_lat":-6.288927,"is_transit":false,"distance":1994,"transit":false,"line":6,"time":4,"i_long":106.728916},{"i_lat":-6.276362,"i_long":106.74273,"station_id":"PDJ","line":6,"is_transit":false,"transit":false,"time":3,"distance":2179,"station_name":"Pondokranji"},{"is_transit":false,"time":8,"station_id":"KBY","i_long":106.780334,"distance":6218,"line":6,"i_lat":-6.237242,"station_name":"Kebayoran","transit":false},{"time":7,"transit":false,"station_id":"PLM","is_transit":false,"station_name":"Palmerah","distance":3737,"i_lat":-6.207404,"line":6,"i_long":106.79689},{"i_long":106.811091,"station_name":"Tanah Abang","distance":3191,"line":1,"i_lat":-6.185545,"transit":true,"station_id":"THB","is_transit":true,"time":6},{"station_id":"KAT","i_long":106.816351,"distance":2029,"is_transit":false,"time":5,"station_name":"Karet","line":1,"i_lat":-6.20132,"transit":false},{"i_long":106.819881,"line":1,"i_lat":-6.201433,"is_transit":false,"transit":false,"time":1,"station_id":"SUDB","distance":471,"station_name":"Sudirman Baru"},{"i_long":106.822649,"i_lat":-6.202263,"is_transit":false,"distance":280,"transit":false,"station_id":"SUD","line":1,"time":1,"station_name":"Sudirman"},{"distance":3186,"transit":false,"i_lat":-6.209883,"i_long":106.84912,"line":2,"station_name":"Manggarai","time":4,"station_id":"MRI","is_transit":false},{"is_transit":false,"i_lat":-6.212485,"station_id":"MTR","transit":false,"station_name":"Matraman","time":2,"distance":1275,"line":1,"i_long":106.858896},{"transit":true,"station_name":"Jatinegara","station_id":"JNG","i_lat":-6.215091,"i_long":106.86807400000001,"line":1,"distance":1377,"time":8,"is_transit":true},{"station_name":"Pondok Jati","i_long":106.861737,"station_id":"POK","is_transit":false,"line":11,"transit":false,"i_lat":-6.209188,"time":2,"distance":1236},{"station_name":"Kramat","time":2,"i_long":106.855437,"i_lat":-6.193792,"distance":1829,"transit":false,"line":11,"is_transit":false,"station_id":"KMT"},{"station_name":"Gang Sentiong","station_id":"GST","transit":false,"is_transit":false,"line":11,"time":1,"i_lat":-6.185975,"distance":973,"i_long":106.850107},{"i_long":106.84368,"station_name":"Pasar Senen","line":11,"i_lat":-6.174784,"distance":1567,"transit":false,"time":8,"station_id":"PSE","is_transit":false},{"station_id":"KMO","is_transit":false,"station_name":"Kemayoran","transit":false,"time":4,"i_lat":-6.161728,"line":11,"i_long":106.839204,"distance":1436},{"transit":false,"i_long":106.836569,"distance":1901,"time":5,"line":11,"station_name":"Rajawali","station_id":"RJW","is_transit":false,"i_lat":-6.14505},{"transit":true,"i_long":106.826365,"time":3,"distance":1444,"is_transit":true,"station_name":"Kampung Bandan","i_lat":-6.132549,"line":4,"station_id":"KPB"},{"transit":false,"line":4,"i_lat":-6.128023,"station_name":"Ancol","i_long":106.84464,"distance":2185,"station_id":"AC","is_transit":false,"time":4}]]}