{"data":[[{"distance":0,"transit":false,"time":0,"i_lat":-6.3441410000000005,"i_long":106.568863,"line":6,"station_name":"Parung Panjang","station_id":"PRP","is_transit":false},{"i_long":106.617853,"is_transit":false,"line":3,"transit":false,"station_id":"CC","time":8,"distance":5968,"station_name":"Cicayur","i_lat":-6.329547},{"station_name":"Cisauk","i_long":106.640411,"time":4,"station_id":"CSK","line":3,"is_transit":false,"transit":false,"i_lat":-6.32484,"distance":2519},{"transit":false,"station_name":"Serpong","is_transit":false,"station_id":"SRP","distance":1784,"time":4,"i_lat":-6.319871,"i_long":106.66566,"line":6},{"i_long":106.675475,"time":4,"line":6,"distance":2413,"station_id":"RU","transit":false,"station_name":"Rawa Buntu","is_transit":false,"i_lat":-6.314823},{"time":6,"i_long":106.712277,"station_name":"Sudimara","line":6,"station_id":"SDM","i_lat":-6.296963,"distance":4566,"is_transit":false,"transit":false},{"is_transit":false,"distance":1994,"station_id":"JMU","transit":false,"station_name":"Jurangmangu","time":4,"i_long":106.728916,"line":6,"i_lat":-6.288927},{"transit":false,"station_name":"Pondokranji","line":6,"distance":2179,"station_id":"PDJ","i_long":106.74273,"is_transit":false,"time":3,"i_lat":-6.276362},{"transit":false,"station_name":"Kebayoran","distance":6218,"i_long":106.780334,"time":8,"station_id":"KBY","line":6,"is_transit":false,"i_lat":-6.237242},{"distance":3737,"transit":false,"station_name":"Palmerah","i_lat":-6.207404,"time":7,"station_id":"PLM","i_long":106.79689,"line":6,"is_transit":false},{"transit":true,"time":6,"station_name":"Tanah Abang","distance":3191,"station_id":"THB","i_long":106.811091,"line":1,"is_transit":true,"i_lat":-6.185545},{"station_name":"Karet","transit":false,"line":1,"is_transit":false,"time":5,"station_id":"KAT","i_long":106.816351,"i_lat":-6.20132,"distance":2029},{"distance":471,"i_long":106.819881,"line":1,"transit":false,"station_id":"SUDB","station_name":"Sudirman Baru","time":1,"i_lat":-6.201433,"is_transit":false},{"time":1,"line":1,"distance":280,"i_lat":-6.202263,"is_transit":false,"station_id":"SUD","station_name":"Sudirman","transit":false,"i_long":106.822649},{"line":2,"time":4,"station_name":"Manggarai","transit":false,"station_id":"MRI","distance":3186,"is_transit":false,"i_long":106.84912,"i_lat":-6.209883},{"station_id":"MTR","station_name":"Matraman","distance":1275,"transit":false,"i_lat":-6.212485,"time":2,"i_long":106.858896,"line":1,"is_transit":false},{"i_long":106.86807400000001,"station_name":"Jatinegara","line":1,"time":8,"distance":1377,"is_transit":false,"i_lat":-6.215091,"station_id":"JNG","transit":false},{"time":3,"transit":false,"station_name":"Klender","is_transit":false,"line":1,"i_long":106.899548,"i_lat":-6.2135,"distance":3395,"station_id":"KLD"},{"station_name":"Buaran","station_id":"BUA","distance":3100,"is_transit":false,"time":2,"line":1,"i_lat":-6.215568,"i_long":106.922662,"transit":false},{"i_lat":-6.217455,"line":1,"station_name":"Klenderbaru","station_id":"KLDB","time":1,"i_long":106.939679,"transit":false,"distance":1305,"is_transit":false},{"distance":1385,"line":1,"is_transit":false,"i_lat":-6.219053,"i_long":106.951283,"transit":false,"station_name":"Cakung","station_id":"CUK","time":8},{"i_lat":-6.224515,"line":1,"station_name":"Kranji","distance":3097,"transit":false,"time":3,"i_long":106.977657,"is_transit":false,"station_id":"KRI"},{"transit":false,"station_name":"Bekasi","station_id":"BKS","is_transit":false,"time":4,"distance":2520,"i_lat":-6.236616,"i_long":106.997013,"line":1},{"distance":2368,"i_long":107.016735,"time":2,"transit":false,"line":1,"station_id":"BKST","station_name":"Bekasi Timur","i_lat":-6.248029,"is_transit":false}],[{"station_id":"PRP","i_long":106.568863,"line":6,"transit":false,"time":0,"is_transit":false,"i_lat":-6.3441410000000005,"distance":0,"station_name":"Parung Panjang"},{"line":3,"i_long":106.617853,"time":8,"transit":false,"station_name":"Cicayur","distance":5968,"i_lat":-6.329547,"is_transit":false,"station_id":"CC"},{"i_lat":-6.32484,"transit":false,"time":4,"line":3,"is_transit":false,"station_name":"Cisauk","station_id":"CSK","distance":2519,"i_long":106.640411},{"i_lat":-6.319871,"station_id":"SRP","distance":1784,"is_transit":false,"transit":false,"time":4,"i_long":106.66566,"station_name":"Serpong","line":6},{"is_transit":false,"time":4,"station_name":"Rawa Buntu","station_id":"RU","i_lat":-6.314823,"line":6,"i_long":106.675475,"distance":2413,"transit":false},{"i_long":106.712277,"time":6,"station_name":"Sudimara","is_transit":false,"distance":4566,"transit":false,"line":6,"station_id":"SDM","i_lat":-6.296963},{"station_name":"Jurangmangu","station_id":"JMU","distance":1994,"i_long":106.728916,"line":6,"transit":false,"i_lat":-6.288927,"is_transit":false,"time":4},{"station_name":"Pondokranji","distance":2179,"is_transit":false,"transit":false,"time":3,"station_id":"PDJ","i_long":106.74273,"i_lat":-6.276362,"line":6},{"distance":6218,"i_lat":-6.237242,"i_long":106.780334,"station_name":"Kebayoran","is_transit":false,"line":6,"transit":false,"station_id":"KBY","time":8},{"time":7,"station_name":"Palmerah","distance":3737,"line":6,"transit":false,"is_transit":false,"i_long":106.79689,"i_lat":-6.207404,"station_id":"PLM"},{"line":1,"i_long":106.811091,"time":6,"transit":true,"i_lat":-6.185545,"station_name":"Tanah Abang","is_transit":true,"station_id":"THB","distance":3191},{"line":1,"i_lat":-6.155215,"i_long":106.800832,"is_transit":false,"time":8,"distance":3632,"transit":false,"station_id":"DU","station_name":"Duri"},{"station_id":"AK","i_lat":-6.144674,"is_transit":false,"station_name":"Angke","time":4,"transit":false,"i_long":106.79867,"distance":1230,"line":1},{"line":4,"station_name":"Kampung Bandan","station_id":"KPB","i_lat":-6.132549,"is_transit":true,"i_long":106.826365,"transit":true,"time":9,"distance":4102},{"i_long":106.836569,"is_transit":false,"station_name":"Rajawali","time":3,"i_lat":-6.14505,"transit":false,"line":11,"station_id":"RJW","distance":1444},{"transit":false,"station_name":"Kemayoran","is_transit":false,"time":5,"station_id":"KMO","i_long":106.839204,"i_lat":-6.161728,"distance":1901,"line":11},{"station_id":"PSE","transit":false,"is_transit":false,"station_name":"Pasar Senen","line":11,"i_lat":-6.174784,"time":4,"i_long":106.84368,"distance":1436},{"is_transit":false,"time":8,"i_lat":-6.185975,"distance":1567,"transit":false,"line":11,"i_long":106.850107,"station_id":"GST","station_name":"Gang Sentiong"},{"distance":973,"line":11,"time":1,"i_lat":-6.193792,"i_long":106.855437,"is_transit":false,"station_name":"Kramat","station_id":"KMT","transit":false},{"transit":false,"station_id":"POK","station_name":"Pondok Jati","is_transit":false,"time":2,"i_lat":-6.209188,"i_long":106.861737,"distance":1829,"line":11},{"i_lat":-6.215091,"time":9,"line":1,"station_name":"Jatinegara","i_long":106.86807400000001,"station_id":"JNG","is_transit":true,"distance":1236,"transit":true},{"transit":false,"i_lat":-6.2135,"line":1,"station_id":"KLD","time":3,"station_name":"Klender","is_transit":false,"distance":3395,"i_long":106.899548},{"is_transit":false,"station_id":"BUA","line":1,"transit":false,"time":2,"distance":3100,"i_lat":-6.215568,"i_long":106.922662,"station_name":"Buaran"},{"transit":false,"line":1,"is_transit":false,"station_id":"KLDB","station_name":"Klenderbaru","time":1,"i_long":106.939679,"i_lat":-6.217455,"distance":1305},{"transit":false,"time":8,"is_transit":false,"distance":1385,"line":1,"station_name":"Cakung","i_lat":-6.219053,"i_long":106.951283,"station_id":"CUK"},{"station_id":"KRI","i_long":106.977657,"transit":false,"i_lat":-6.224515,"line":1,"is_transit":false,"time":3,"station_name":"Kranji","distance":3097},{"time":4,"i_long":106.997013,"i_lat":-6.236616,"distance":2520,"station_id":"BKS","line":1,"station_name":"Bekasi","is_transit":false,"transit":false},{"i_long":107.016735,"transit":false,"time":2,"station_name":"Bekasi Timur","is_transit":false,"i_lat":-6.248029,"line":1,"station_id":"BKST","distance":2368}],[{"i_lat":-6.3441410000000005,"time":0,"i_long":106.568863,"is_transit":false,"line":6,"station_id":"PRP","transit":false,"station_name":"Parung Panjang","distance":0},{"i_long":106.617853,"distance":5968,"i_lat":-6.329547,"station_name":"Cicayur","transit":false,"line":3,"time":8,"station_id":"CC","is_transit":false},{"transit":false,"is_transit":false,"i_lat":-6.32484,"line":3,"station_id":"CSK","distance":2519,"time":4,"station_name":"Cisauk","i_long":106.640411},{"time":4,"distance":1784,"i_long":106.66566,"transit":false,"station_id":"SRP","is_transit":false,"station_name":"Serpong","line":6,"i_lat":-6.319871},{"time":4,"is_transit":false,"station_id":"RU","station_name":"Rawa Buntu","i_long":106.675475,"transit":false,"line":6,"distance":2413,"i_lat":-6.314823},{"is_transit":false,"station_name":"Sudimara","time":6,"i_long":106.712277,"i_lat":-6.296963,"station_id":"SDM","transit":false,"line":6,"distance":4566},{"i_long":106.728916,"time":4,"transit":false,"i_lat":-6.288927,"is_transit":false,"line":6,"station_name":"Jurangmangu","station_id":"JMU","distance":1994},{"station_id":"PDJ","transit":false,"is_transit":false,"time":3,"distance":2179,"i_long":106.74273,"i_lat":-6.276362,"station_name":"Pondokranji","line":6},{"i_long":106.780334,"is_transit":false,"line":6,"station_name":"Kebayoran","station_id":"KBY","transit":false,"time":8,"distance":6218,"i_lat":-6.237242},{"station_id":"PLM","distance":3737,"i_long":106.79689,"time":7,"is_transit":false,"transit":false,"i_lat":-6.207404,"station_name":"Palmerah","line":6},{"transit":true,"i_long":106.811091,"station_name":"Tanah Abang","is_transit":true,"distance":3191,"line":1,"station_id":"THB","time":6,"i_lat":-6.185545},{"is_transit":false,"time":8,"station_id":"DU","i_lat":-6.155215,"i_long":106.800832,"station_name":"Duri","transit":false,"distance":3632,"line":1},{"station_name":"Angke","i_lat":-6.144674,"transit":false,"time":4,"station_id":"AK","line":1,"i_long":106.79867,"is_transit":false,"distance":1230},{"line":4,"station_name":"Kampung Bandan","station_id":"KPB","is_transit":true,"distance":4102,"time":9,"transit":true,"i_long":106.826365,"i_lat":-6.132549},{"is_transit":true,"transit":true,"time":3,"distance":1364,"i_lat":-6.137569,"station_name":"Jakarta Kota","line":2,"i_long":106.812439,"station_id":"JAKK"},{"i_lat":-6.141205,"station_name":"Jayakarta","is_transit":false,"distance":1264,"transit":false,"i_long":106.820901,"station_id":"JAY","time":4,"line":2},{"station_name":"Manggabesar","distance":1080,"transit":false,"station_id":"MGB","i_lat":-6.149769,"line":2,"i_long":106.82482,"time":2,"is_transit":false},{"station_name":"Sawah Besar","distance":906,"is_transit":false,"transit":false,"station_id":"SW","i_lat":-6.160725,"time":2,"i_long":106.827103,"line":2},{"line":2,"i_long":106.828284,"i_lat":-6.166716,"time":2,"is_transit":false,"distance":1149,"station_id":"JUA","station_name":"Juanda","transit":false},{"i_long":106.832183,"is_transit":false,"station_id":"GDD","i_lat":-6.186295,"line":2,"station_name":"Gondangdia","distance":2015,"transit":false,"time":4},{"line":2,"distance":1750,"is_transit":false,"i_lat":-6.198556,"time":3,"transit":false,"station_name":"Cikini","station_id":"CKI","i_long":106.840169},{"i_long":106.84912,"time":4,"transit":true,"i_lat":-6.209883,"station_name":"Manggarai","station_id":"MRI","is_transit":true,"distance":1590,"line":2},{"i_lat":-6.212485,"distance":1275,"time":2,"is_transit":false,"transit":false,"i_long":106.858896,"station_name":"Matraman","line":1,"station_id":"MTR"},{"time":8,"i_lat":-6.215091,"i_long":106.86807400000001,"transit":false,"distance":1377,"station_name":"Jatinegara","is_transit":false,"line":1,"station_id":"JNG"},{"i_lat":-6.2135,"line":1,"is_transit":false,"station_name":"Klender","time":3,"transit":false,"distance":3395,"station_id":"KLD","i_long":106.899548},{"i_lat":-6.215568,"station_name":"Buaran","distance":3100,"time":2,"transit":false,"line":1,"station_id":"BUA","is_transit":false,"i_long":106.922662},{"station_name":"Klenderbaru","transit":false,"line":1,"i_lat":-6.217455,"i_long":106.939679,"station_id":"KLDB","is_transit":false,"time":1,"distance":1305},{"time":8,"station_id":"CUK","distance":1385,"i_lat":-6.219053,"i_long":106.951283,"line":1,"station_name":"Cakung","is_transit":false,"transit":false},{"station_id":"KRI","time":3,"line":1,"station_name":"Kranji","is_transit":false,"distance":3097,"i_long":106.977657,"transit":false,"i_lat":-6.224515},{"time":4,"distance":2520,"station_name":"Bekasi","is_transit":false,"line":1,"transit":false,"i_long":106.997013,"i_lat":-6.236616,"station_id":"BKS"},{"is_transit":false,"line":1,"i_lat":-6.248029,"transit":false,"time":2,"i_long":107.016735,"station_name":"Bekasi Timur","distance":2368,"station_id":"BKST"}],[{"i_long":106.568863,"station_id":"PRP","is_transit":false,"time":0,"i_lat":-6.3441410000000005,"line":6,"transit":false,"distance":0,"station_name":"Parung Panjang"},{"station_name":"Cicayur","i_long":106.617853,"is_transit":false,"line":3,"i_lat":-6.329547,"station_id":"CC","time":8,"distance":5968,"transit":false},{"station_name":"Cisauk","station_id":"CSK","i_long":106.640411,"is_transit":false,"transit":false,"i_lat":-6.32484,"line":3,"time":4,"distance":2519},{"station_id":"SRP","transit":false,"time":4,"distance":1784,"is_transit":false,"i_lat":-6.319871,"station_name":"Serpong","i_long":106.66566,"line":6},{"transit":false,"station_name":"Rawa Buntu","is_transit":false,"distance":2413,"station_id":"RU","time":4,"i_lat":-6.314823,"line":6,"i_long":106.675475},{"line":6,"i_lat":-6.296963,"time":6,"distance":4566,"station_id":"SDM","is_transit":false,"i_long":106.712277,"station_name":"Sudimara","transit":false},{"i_lat":-6.288927,"time":4,"distance":1994,"i_long":106.728916,"station_id":"JMU","station_name":"Jurangmangu","is_transit":false,"transit":false,"line":6},{"station_name":"Pondokranji","is_transit":false,"distance":2179,"station_id":"PDJ","i_lat":-6.276362,"transit":false,"i_long":106.74273,"line":6,"time":3},{"station_name":"Kebayoran","time":8,"distance":6218,"i_lat":-6.237242,"station_id":"KBY","line":6,"i_long":106.780334,"transit":false,"is_transit":false},{"time":7,"i_lat":-6.207404,"i_long":106.79689,"distance":3737,"station_id":"PLM","line":6,"station_name":"Palmerah","is_transit":false,"transit":false},{"i_long":106.811091,"line":1,"is_transit":true,"transit":true,"time":6,"station_id":"THB","station_name":"Tanah Abang","distance":3191,"i_lat":-6.185545},{"transit":false,"i_long":106.816351,"distance":2029,"station_id":"KAT","is_transit":false,"line":1,"station_name":"Karet","time":5,"i_lat":-6.20132},{"station_id":"SUDB","time":1,"i_long":106.819881,"distance":471,"is_transit":false,"line":1,"i_lat":-6.201433,"transit":false,"station_name":"Sudirman Baru"},{"line":1,"i_lat":-6.202263,"is_transit":false,"station_id":"SUD","time":1,"transit":false,"station_name":"Sudirman","distance":280,"i_long":106.822649},{"station_id":"MRI","i_long":106.84912,"time":4,"station_name":"Manggarai","i_lat":-6.209883,"is_transit":true,"transit":true,"distance":3186,"line":2},{"station_id":"CKI","distance":1590,"i_long":106.840169,"station_name":"Cikini","is_transit":false,"transit":false,"i_lat":-6.198556,"time":4,"line":2},{"i_long":106.832183,"time":3,"station_name":"Gondangdia","station_id":"GDD","is_transit":false,"distance":1750,"line":2,"transit":false,"i_lat":-6.186295},{"i_lat":-6.166716,"time":4,"line":2,"i_long":106.828284,"transit":false,"distance":2015,"station_name":"Juanda","station_id":"JUA","is_transit":false},{"i_long":106.827103,"line":2,"station_id":"SW","transit":false,"station_name":"Sawah Besar","is_transit":false,"distance":1149,"time":2,"i_lat":-6.160725},{"time":2,"station_id":"MGB","i_long":106.82482,"i_lat":-6.149769,"line":2,"station_name":"Manggabesar","distance":906,"is_transit":false,"transit":false},{"line":2,"distance":1080,"i_long":106.820901,"transit":false,"time":2,"station_id":"JAY","i_lat":-6.141205,"is_transit":false,"station_name":"Jayakarta"},{"time":4,"i_long":106.812439,"transit":true,"is_transit":true,"distance":1264,"station_id":"JAKK","i_lat":-6.137569,"station_name":"Jakarta Kota","line":2},{"distance":1364,"i_long":106.826365,"line":4,"transit":true,"is_transit":true,"station_id":"KPB","time":3,"station_name":"Kampung Bandan","i_lat":-6.132549},{"transit":false,"distance":1444,"i_long":106.836569,"is_transit":false,"i_lat":-6.14505,"station_name":"Rajawali","time":3,"line":11,"station_id":"RJW"},{"is_transit":false,"i_lat":-6.161728,"distance":1901,"station_name":"Kemayoran","time":5,"line":11,"i_long":106.839204,"transit":false,"station_id":"KMO"},{"line":11,"i_lat":-6.174784,"station_name":"Pasar Senen","time":4,"transit":false,"is_transit":false,"i_long":106.84368,"distance":1436,"station_id":"PSE"},{"time":8,"station_name":"Gang Sentiong","distance":1567,"i_lat":-6.185975,"station_id":"GST","line":11,"i_long":106.850107,"transit":false,"is_transit":false},{"i_long":106.855437,"is_transit":false,"line":11,"distance":973,"time":1,"transit":false,"i_lat":-6.193792,"station_id":"KMT","station_name":"Kramat"},{"line":11,"station_name":"Pondok Jati","i_lat":-6.209188,"is_transit":false,"time":2,"i_long":106.861737,"transit":false,"distance":1829,"station_id":"POK"},{"station_id":"JNG","is_transit":true,"station_name":"Jatinegara","time":9,"i_long":106.86807400000001,"transit":true,"line":1,"distance":1236,"i_lat":-6.215091},{"time":3,"distance":3395,"i_lat":-6.2135,"is_transit":false,"line":1,"i_long":106.899548,"transit":false,"station_name":"Klender","station_id":"KLD"},{"i_long":106.922662,"line":1,"time":2,"station_id":"BUA","is_transit":false,"station_name":"Buaran","distance":3100,"i_lat":-6.215568,"transit":false},{"station_id":"KLDB","distance":1305,"time":1,"line":1,"i_lat":-6.217455,"transit":false,"station_name":"Klenderbaru","i_long":106.939679,"is_transit":false},{"time":8,"station_name":"Cakung","i_lat":-6.219053,"distance":1385,"line":1,"i_long":106.951283,"transit":false,"station_id":"CUK","is_transit":false},{"i_long":106.977657,"station_id":"KRI","line":1,"time":3,"transit":false,"distance":3097,"station_name":"Kranji","i_lat":-6.224515,"is_transit":false},{"i_lat":-6.236616,"distance":2520,"station_name":"Bekasi","transit":false,"i_long":106.997013,"time":4,"line":1,"station_id":"BKS","is_transit":false},{"station_name":"Bekasi Timur","distance":2368,"time":2,"line":1,"station_id":"BKST","transit":false,"is_transit":false,"i_lat":-6.248029,"i_long":107.016735}]]}