{"data":[[{"i_long":106.568863,"is_transit":false,"distance":0,"line":6,"station_name":"Parung Panjang","transit":false,"station_id":"PRP","time":0,"i_lat":-6.3441410000000005},{"is_transit":false,"station_id":"CC","time":8,"distance":5968,"i_lat":-6.329547,"station_name":"Cicayur","transit":false,"line":3,"i_long":106.617853},{"i_lat":-6.32484,"time":4,"station_id":"CSK","line":3,"i_long":106.640411,"distance":2519,"station_name":"Cisauk","is_transit":false,"transit":false},{"i_lat":-6.319871,"i_long":106.66566,"is_transit":false,"station_id":"SRP","time":4,"distance":1784,"station_name":"Serpong","transit":false,"line":6},{"distance":2413,"time":4,"is_transit":false,"transit":false,"line":6,"i_lat":-6.314823,"station_name":"Rawa Buntu","station_id":"RU","i_long":106.675475},{"time":6,"distance":4566,"line":6,"i_long":106.712277,"station_name":"Sudimara","transit":false,"station_id":"SDM","is_transit":false,"i_lat":-6.296963},{"transit":false,"is_transit":false,"i_long":106.728916,"i_lat":-6.288927,"station_name":"Jurangmangu","time":4,"distance":1994,"station_id":"JMU","line":6},{"i_long":106.74273,"station_id":"PDJ","i_lat":-6.276362,"line":6,"is_transit":false,"time":3,"station_name":"Pondokranji","distance":2179,"transit":false},{"is_transit":false,"distance":6218,"time":8,"transit":false,"station_name":"Kebayoran","i_long":106.780334,"station_id":"KBY","line":6,"i_lat":-6.237242},{"distance":3737,"i_long":106.79689,"station_id":"PLM","i_lat":-6.207404,"station_name":"Palmerah","is_transit":false,"transit":false,"time":7,"line":6},{"station_name":"Tanah Abang","i_long":106.811091,"transit":true,"station_id":"THB","is_transit":true,"i_lat":-6.185545,"line":1,"time":6,"distance":3191},{"time":5,"transit":false,"line":1,"station_id":"KAT","is_transit":false,"i_long":106.816351,"distance":2029,"i_lat":-6.20132,"station_name":"Karet"},{"i_long":106.819881,"distance":471,"station_name":"Sudirman Baru","station_id":"SUDB","is_transit":false,"line":1,"i_lat":-6.201433,"transit":false,"time":1},{"distance":280,"transit":false,"station_id":"SUD","station_name":"Sudirman","is_transit":false,"line":1,"i_long":106.822649,"i_lat":-6.202263,"time":1},{"time":4,"station_name":"Manggarai","line":2,"distance":3186,"i_long":106.84912,"station_id":"MRI","i_lat":-6.209883,"is_transit":false,"transit":false},{"station_id":"MTR","line":1,"transit":false,"station_name":"Matraman","i_long":106.858896,"i_lat":-6.212485,"distance":1275,"time":2,"is_transit":false},{"time":8,"i_long":106.86807400000001,"station_id":"JNG","line":1,"i_lat":-6.215091,"distance":1377,"transit":false,"is_transit":false,"station_name":"Jatinegara"},{"is_transit":false,"transit":false,"i_long":106.899548,"station_id":"KLD","time":3,"station_name":"Klender","line":1,"i_lat":-6.2135,"distance":3395},{"i_lat":-6.215568,"is_transit":false,"station_id":"BUA","i_long":106.922662,"line":1,"transit":false,"time":2,"distance":3100,"station_name":"Buaran"},{"line":1,"i_lat":-6.217455,"station_name":"Klenderbaru","is_transit":false,"time":1,"station_id":"KLDB","i_long":106.939679,"distance":1305,"transit":false},{"distance":1385,"transit":false,"station_id":"CUK","line":1,"is_transit":false,"time":8,"station_name":"Cakung","i_lat":-6.219053,"i_long":106.951283},{"i_long":106.977657,"transit":false,"time":3,"line":1,"is_transit":false,"station_id":"KRI","i_lat":-6.224515,"distance":3097,"station_name":"Kranji"},{"i_long":106.997013,"time":4,"station_id":"BKS","i_lat":-6.236616,"distance":2520,"is_transit":false,"transit":false,"line":1,"station_name":"Bekasi"}],[{"distance":0,"i_lat":-6.3441410000000005,"line":6,"is_transit":false,"time":0,"station_name":"Parung Panjang","transit":false,"station_id":"PRP","i_long":106.568863},{"i_lat":-6.329547,"transit":false,"line":3,"time":8,"is_transit":false,"station_name":"Cicayur","station_id":"CC","i_long":106.617853,"distance":5968},{"transit":false,"i_long":106.640411,"is_transit":false,"station_name":"Cisauk","time":4,"i_lat":-6.32484,"distance":2519,"station_id":"CSK","line":3},{"is_transit":false,"time":4,"transit":false,"i_lat":-6.319871,"distance":1784,"line":6,"i_long":106.66566,"station_name":"Serpong","station_id":"SRP"},{"time":4,"station_name":"Rawa Buntu","i_long":106.675475,"line":6,"station_id":"RU","distance":2413,"transit":false,"i_lat":-6.314823,"is_transit":false},{"station_id":"SDM","station_name":"Sudimara","distance":4566,"i_long":106.712277,"transit":false,"i_lat":-6.296963,"line":6,"time":6,"is_transit":false},{"time":4,"station_id":"JMU","transit":false,"i_long":106.728916,"line":6,"station_name":"Jurangmangu","is_transit":false,"i_lat":-6.288927,"distance":1994},{"distance":2179,"transit":false,"time":3,"station_name":"Pondokranji","station_id":"PDJ","is_transit":false,"i_lat":-6.276362,"i_long":106.74273,"line":6},{"station_id":"KBY","station_name":"Kebayoran","line":6,"time":8,"is_transit":false,"transit":false,"i_lat":-6.237242,"i_long":106.780334,"distance":6218},{"is_transit":false,"line":6,"time":7,"i_long":106.79689,"station_id":"PLM","transit":false,"distance":3737,"station_name":"Palmerah","i_lat":-6.207404},{"transit":true,"is_transit":true,"station_id":"THB","station_name":"Tanah Abang","time":6,"i_long":106.811091,"line":1,"i_lat":-6.185545,"distance":3191},{"line":1,"is_transit":false,"distance":3632,"i_lat":-6.155215,"time":8,"station_id":"DU","station_name":"Duri","transit":false,"i_long":106.800832},{"distance":1230,"time":4,"i_lat":-6.144674,"line":1,"station_name":"Angke","i_long":106.79867,"is_transit":false,"station_id":"AK","transit":false},{"transit":true,"station_id":"KPB","i_long":106.826365,"time":9,"is_transit":true,"i_lat":-6.132549,"line":4,"station_name":"Kampung Bandan","distance":4102},{"time":3,"transit":false,"station_id":"RJW","station_name":"Rajawali","is_transit":false,"i_lat":-6.14505,"i_long":106.836569,"distance":1444,"line":11},{"station_id":"KMO","i_lat":-6.161728,"is_transit":false,"i_long":106.839204,"line":11,"transit":false,"time":5,"distance":1901,"station_name":"Kemayoran"},{"line":11,"is_transit":false,"time":4,"i_long":106.84368,"i_lat":-6.174784,"station_id":"PSE","station_name":"Pasar Senen","distance":1436,"transit":false},{"transit":false,"time":8,"line":11,"station_name":"Gang Sentiong","i_long":106.850107,"is_transit":false,"station_id":"GST","i_lat":-6.185975,"distance":1567},{"station_name":"Kramat","distance":973,"i_long":106.855437,"i_lat":-6.193792,"station_id":"KMT","line":11,"transit":false,"time":1,"is_transit":false},{"time":2,"is_transit":false,"transit":false,"i_long":106.861737,"line":11,"station_id":"POK","station_name":"Pondok Jati","i_lat":-6.209188,"distance":1829},{"i_long":106.86807400000001,"transit":true,"time":9,"is_transit":true,"line":1,"station_id":"JNG","distance":1236,"i_lat":-6.215091,"station_name":"Jatinegara"},{"transit":false,"station_name":"Klender","time":3,"is_transit":false,"distance":3395,"i_long":106.899548,"line":1,"station_id":"KLD","i_lat":-6.2135},{"station_id":"BUA","station_name":"Buaran","i_long":106.922662,"line":1,"distance":3100,"transit":false,"time":2,"is_transit":false,"i_lat":-6.215568},{"station_id":"KLDB","is_transit":false,"distance":1305,"time":1,"i_lat":-6.217455,"i_long":106.939679,"line":1,"station_name":"Klenderbaru","transit":false},{"i_lat":-6.219053,"i_long":106.951283,"line":1,"station_name":"Cakung","is_transit":false,"time":8,"distance":1385,"station_id":"CUK","transit":false},{"i_long":106.977657,"distance":3097,"i_lat":-6.224515,"is_transit":false,"station_name":"Kranji","station_id":"KRI","time":3,"transit":false,"line":1},{"transit":false,"i_lat":-6.236616,"is_transit":false,"distance":2520,"line":1,"station_id":"BKS","station_name":"Bekasi","i_long":106.997013,"time":4}],[{"station_name":"Parung Panjang","time":0,"transit":false,"is_transit":false,"distance":0,"i_lat":-6.3441410000000005,"line":6,"i_long":106.568863,"station_id":"PRP"},{"transit":false,"i_lat":-6.329547,"i_long":106.617853,"is_transit":false,"time":8,"station_id":"CC","line":3,"distance":5968,"station_name":"Cicayur"},{"i_lat":-6.32484,"i_long":106.640411,"station_id":"CSK","station_name":"Cisauk","transit":false,"distance":2519,"is_transit":false,"time":4,"line":3},{"time":4,"i_lat":-6.319871,"i_long":106.66566,"transit":false,"station_name":"Serpong","distance":1784,"line":6,"station_id":"SRP","is_transit":false},{"time":4,"i_lat":-6.314823,"station_name":"Rawa Buntu","is_transit":false,"distance":2413,"i_long":106.675475,"station_id":"RU","transit":false,"line":6},{"is_transit":false,"distance":4566,"i_lat":-6.296963,"station_id":"SDM","station_name":"Sudimara","transit":false,"time":6,"i_long":106.712277,"line":6},{"transit":false,"time":4,"is_transit":false,"line":6,"i_long":106.728916,"station_name":"Jurangmangu","i_lat":-6.288927,"station_id":"JMU","distance":1994},{"distance":2179,"time":3,"line":6,"station_id":"PDJ","is_transit":false,"i_lat":-6.276362,"i_long":106.74273,"station_name":"Pondokranji","transit":false},{"station_id":"KBY","time":8,"i_lat":-6.237242,"i_long":106.780334,"distance":6218,"is_transit":false,"line":6,"transit":false,"station_name":"Kebayoran"},{"line":6,"i_long":106.79689,"transit":false,"station_id":"PLM","station_name":"Palmerah","distance":3737,"i_lat":-6.207404,"time":7,"is_transit":false},{"time":6,"i_long":106.811091,"transit":true,"i_lat":-6.185545,"line":1,"station_name":"Tanah Abang","distance":3191,"station_id":"THB","is_transit":true},{"line":1,"i_long":106.800832,"station_id":"DU","transit":false,"time":8,"i_lat":-6.155215,"is_transit":false,"distance":3632,"station_name":"Duri"},{"station_name":"Angke","distance":1230,"i_lat":-6.144674,"is_transit":false,"line":1,"transit":false,"time":4,"i_long":106.79867,"station_id":"AK"},{"i_lat":-6.132549,"station_name":"Kampung Bandan","station_id":"KPB","i_long":106.826365,"transit":true,"is_transit":true,"time":9,"distance":4102,"line":4},{"time":3,"i_lat":-6.137569,"station_name":"Jakarta Kota","transit":true,"line":2,"distance":1364,"is_transit":true,"station_id":"JAKK","i_long":106.812439},{"is_transit":false,"station_id":"JAY","distance":1264,"line":2,"time":4,"station_name":"Jayakarta","i_long":106.820901,"transit":false,"i_lat":-6.141205},{"time":2,"line":2,"station_id":"MGB","transit":false,"station_name":"Manggabesar","is_transit":false,"distance":1080,"i_long":106.82482,"i_lat":-6.149769},{"i_long":106.827103,"distance":906,"transit":false,"station_id":"SW","i_lat":-6.160725,"is_transit":false,"time":2,"line":2,"station_name":"Sawah Besar"},{"i_lat":-6.166716,"transit":false,"station_id":"JUA","is_transit":false,"time":2,"distance":1149,"i_long":106.828284,"line":2,"station_name":"Juanda"},{"is_transit":false,"station_id":"GDD","i_long":106.832183,"time":4,"i_lat":-6.186295,"distance":2015,"transit":false,"station_name":"Gondangdia","line":2},{"is_transit":false,"line":2,"time":3,"i_lat":-6.198556,"station_id":"CKI","i_long":106.840169,"transit":false,"distance":1750,"station_name":"Cikini"},{"is_transit":true,"time":4,"i_long":106.84912,"station_id":"MRI","distance":1590,"i_lat":-6.209883,"station_name":"Manggarai","transit":true,"line":2},{"transit":false,"time":2,"station_name":"Matraman","distance":1275,"is_transit":false,"i_lat":-6.212485,"line":1,"station_id":"MTR","i_long":106.858896},{"transit":false,"is_transit":false,"line":1,"station_id":"JNG","time":8,"station_name":"Jatinegara","distance":1377,"i_lat":-6.215091,"i_long":106.86807400000001},{"time":3,"i_lat":-6.2135,"is_transit":false,"station_name":"Klender","distance":3395,"i_long":106.899548,"line":1,"station_id":"KLD","transit":false},{"station_id":"BUA","is_transit":false,"i_long":106.922662,"line":1,"distance":3100,"transit":false,"station_name":"Buaran","time":2,"i_lat":-6.215568},{"is_transit":false,"station_id":"KLDB","time":1,"i_lat":-6.217455,"transit":false,"distance":1305,"station_name":"Klenderbaru","i_long":106.939679,"line":1},{"distance":1385,"is_transit":false,"time":8,"i_lat":-6.219053,"transit":false,"i_long":106.951283,"line":1,"station_id":"CUK","station_name":"Cakung"},{"time":3,"distance":3097,"i_lat":-6.224515,"station_name":"Kranji","is_transit":false,"transit":false,"station_id":"KRI","i_long":106.977657,"line":1},{"distance":2520,"time":4,"is_transit":false,"i_lat":-6.236616,"station_id":"BKS","transit":false,"i_long":106.997013,"station_name":"Bekasi","line":1}],[{"is_transit":false,"time":0,"distance":0,"station_name":"Parung Panjang","i_long":106.568863,"i_lat":-6.3441410000000005,"line":6,"transit":false,"station_id":"PRP"},{"is_transit":false,"i_long":106.617853,"i_lat":-6.329547,"station_id":"CC","line":3,"distance":5968,"transit":false,"station_name":"Cicayur","time":8},{"i_long":106.640411,"is_transit":false,"time":4,"line":3,"station_id":"CSK","station_name":"Cisauk","i_lat":-6.32484,"transit":false,"distance":2519},{"is_transit":false,"transit":false,"i_long":106.66566,"time":4,"line":6,"distance":1784,"station_name":"Serpong","station_id":"SRP","i_lat":-6.319871},{"time":4,"line":6,"station_id":"RU","is_transit":false,"station_name":"Rawa Buntu","i_long":106.675475,"transit":false,"distance":2413,"i_lat":-6.314823},{"is_transit":false,"distance":4566,"station_name":"Sudimara","station_id":"SDM","i_long":106.712277,"i_lat":-6.296963,"time":6,"line":6,"transit":false},{"is_transit":false,"line":6,"distance":1994,"i_lat":-6.288927,"transit":false,"time":4,"i_long":106.728916,"station_id":"JMU","station_name":"Jurangmangu"},{"i_lat":-6.276362,"station_name":"Pondokranji","transit":false,"is_transit":false,"time":3,"station_id":"PDJ","line":6,"distance":2179,"i_long":106.74273},{"time":8,"i_long":106.780334,"line":6,"transit":false,"distance":6218,"is_transit":false,"i_lat":-6.237242,"station_id":"KBY","station_name":"Kebayoran"},{"time":7,"station_id":"PLM","i_lat":-6.207404,"i_long":106.79689,"is_transit":false,"distance":3737,"transit":false,"line":6,"station_name":"Palmerah"},{"transit":true,"i_long":106.811091,"time":6,"line":1,"station_id":"THB","distance":3191,"is_transit":true,"station_name":"Tanah Abang","i_lat":-6.185545},{"transit":false,"time":5,"distance":2029,"i_long":106.816351,"station_id":"KAT","i_lat":-6.20132,"station_name":"Karet","line":1,"is_transit":false},{"i_long":106.819881,"time":1,"transit":false,"station_id":"SUDB","station_name":"Sudirman Baru","is_transit":false,"distance":471,"i_lat":-6.201433,"line":1},{"distance":280,"i_lat":-6.202263,"is_transit":false,"station_id":"SUD","i_long":106.822649,"line":1,"station_name":"Sudirman","transit":false,"time":1},{"transit":true,"station_id":"MRI","is_transit":true,"time":4,"station_name":"Manggarai","i_long":106.84912,"line":2,"i_lat":-6.209883,"distance":3186},{"line":2,"i_long":106.840169,"distance":1590,"station_id":"CKI","transit":false,"i_lat":-6.198556,"station_name":"Cikini","time":4,"is_transit":false},{"transit":false,"is_transit":false,"station_id":"GDD","time":3,"distance":1750,"i_lat":-6.186295,"station_name":"Gondangdia","i_long":106.832183,"line":2},{"is_transit":false,"transit":false,"i_lat":-6.166716,"time":4,"station_id":"JUA","station_name":"Juanda","i_long":106.828284,"line":2,"distance":2015},{"i_lat":-6.160725,"station_name":"Sawah Besar","is_transit":false,"i_long":106.827103,"time":2,"line":2,"transit":false,"station_id":"SW","distance":1149},{"time":2,"i_long":106.82482,"is_transit":false,"station_name":"Manggabesar","station_id":"MGB","distance":906,"i_lat":-6.149769,"line":2,"transit":false},{"station_id":"JAY","i_long":106.820901,"time":2,"i_lat":-6.141205,"transit":false,"is_transit":false,"line":2,"distance":1080,"station_name":"Jayakarta"},{"distance":1264,"station_name":"Jakarta Kota","line":2,"transit":true,"i_lat":-6.137569,"is_transit":true,"time":4,"station_id":"JAKK","i_long":106.812439},{"transit":true,"station_name":"Kampung Bandan","i_lat":-6.132549,"i_long":106.826365,"time":3,"station_id":"KPB","distance":1364,"line":4,"is_transit":true},{"station_id":"RJW","i_lat":-6.14505,"distance":1444,"transit":false,"is_transit":false,"i_long":106.836569,"line":11,"station_name":"Rajawali","time":3},{"is_transit":false,"i_long":106.839204,"station_id":"KMO","time":5,"transit":false,"i_lat":-6.161728,"distance":1901,"line":11,"station_name":"Kemayoran"},{"time":4,"is_transit":false,"distance":1436,"station_id":"PSE","transit":false,"i_lat":-6.174784,"i_long":106.84368,"line":11,"station_name":"Pasar Senen"},{"station_id":"GST","line":11,"station_name":"Gang Sentiong","time":8,"i_long":106.850107,"is_transit":false,"transit":false,"distance":1567,"i_lat":-6.185975},{"station_name":"Kramat","time":1,"is_transit":false,"line":11,"station_id":"KMT","i_lat":-6.193792,"i_long":106.855437,"transit":false,"distance":973},{"transit":false,"is_transit":false,"station_name":"Pondok Jati","i_lat":-6.209188,"time":2,"i_long":106.861737,"station_id":"POK","line":11,"distance":1829},{"station_id":"JNG","is_transit":true,"i_long":106.86807400000001,"transit":true,"i_lat":-6.215091,"station_name":"Jatinegara","distance":1236,"line":1,"time":9},{"distance":3395,"i_lat":-6.2135,"line":1,"station_name":"Klender","i_long":106.899548,"is_transit":false,"transit":false,"station_id":"KLD","time":3},{"is_transit":false,"i_lat":-6.215568,"station_id":"BUA","time":2,"i_long":106.922662,"station_name":"Buaran","distance":3100,"transit":false,"line":1},{"is_transit":false,"time":1,"i_long":106.939679,"i_lat":-6.217455,"station_id":"KLDB","line":1,"distance":1305,"station_name":"Klenderbaru","transit":false},{"i_lat":-6.219053,"i_long":106.951283,"distance":1385,"station_id":"CUK","time":8,"is_transit":false,"line":1,"transit":false,"station_name":"Cakung"},{"is_transit":false,"distance":3097,"transit":false,"station_name":"Kranji","time":3,"i_long":106.977657,"station_id":"KRI","i_lat":-6.224515,"line":1},{"is_transit":false,"line":1,"i_lat":-6.236616,"distance":2520,"station_name":"Bekasi","i_long":106.997013,"time":4,"station_id":"BKS","transit":false}]]}