{"data":[[{"station_name":"Parung Panjang","i_long":106.568863,"is_transit":false,"transit":false,"i_lat":-6.3441410000000005,"station_id":"PRP","distance":0,"time":0,"line":6},{"line":3,"station_id":"CC","i_long":106.617853,"distance":5968,"transit":false,"station_name":"Cicayur","i_lat":-6.329547,"time":8,"is_transit":false},{"line":3,"transit":false,"is_transit":false,"distance":2519,"station_name":"Cisauk","i_lat":-6.32484,"time":4,"station_id":"CSK","i_long":106.640411},{"transit":false,"distance":1784,"time":4,"line":6,"i_lat":-6.319871,"i_long":106.66566,"is_transit":false,"station_id":"SRP","station_name":"Serpong"},{"line":6,"transit":false,"is_transit":false,"i_long":106.675475,"distance":2413,"station_id":"RU","station_name":"Rawa Buntu","time":4,"i_lat":-6.314823},{"transit":false,"i_lat":-6.296963,"station_name":"Sudimara","i_long":106.712277,"time":6,"distance":4566,"station_id":"SDM","is_transit":false,"line":6},{"is_transit":false,"i_lat":-6.288927,"time":4,"line":6,"transit":false,"station_id":"JMU","i_long":106.728916,"distance":1994,"station_name":"Jurangmangu"},{"i_long":106.74273,"i_lat":-6.276362,"is_transit":false,"transit":false,"line":6,"station_name":"Pondokranji","station_id":"PDJ","time":3,"distance":2179},{"time":8,"distance":6218,"station_name":"Kebayoran","is_transit":false,"station_id":"KBY","i_lat":-6.237242,"line":6,"transit":false,"i_long":106.780334},{"i_long":106.79689,"line":6,"distance":3737,"is_transit":false,"station_name":"Palmerah","time":7,"i_lat":-6.207404,"transit":false,"station_id":"PLM"},{"station_name":"Tanah Abang","is_transit":true,"station_id":"THB","i_long":106.811091,"transit":true,"distance":3191,"line":1,"time":6,"i_lat":-6.185545},{"is_transit":false,"i_lat":-6.20132,"time":5,"i_long":106.816351,"station_id":"KAT","line":1,"transit":false,"distance":2029,"station_name":"Karet"},{"i_long":106.819881,"station_name":"Sudirman Baru","transit":false,"distance":471,"station_id":"SUDB","time":1,"is_transit":false,"i_lat":-6.201433,"line":1},{"station_name":"Sudirman","i_lat":-6.202263,"station_id":"SUD","time":1,"distance":280,"line":1,"i_long":106.822649,"transit":false,"is_transit":false},{"is_transit":false,"i_lat":-6.209883,"transit":false,"i_long":106.84912,"line":2,"station_id":"MRI","distance":3186,"station_name":"Manggarai","time":4},{"is_transit":false,"station_id":"MTR","i_lat":-6.212485,"distance":1275,"station_name":"Matraman","transit":false,"time":2,"i_long":106.858896,"line":1},{"time":8,"station_id":"JNG","i_lat":-6.215091,"line":1,"distance":1377,"is_transit":false,"transit":false,"station_name":"Jatinegara","i_long":106.86807400000001},{"i_long":106.899548,"time":3,"is_transit":false,"i_lat":-6.2135,"distance":3395,"transit":false,"line":1,"station_id":"KLD","station_name":"Klender"},{"transit":false,"time":2,"distance":3100,"is_transit":false,"station_id":"BUA","i_lat":-6.215568,"i_long":106.922662,"station_name":"Buaran","line":1},{"time":1,"distance":1305,"station_id":"KLDB","i_lat":-6.217455,"i_long":106.939679,"line":1,"transit":false,"station_name":"Klenderbaru","is_transit":false},{"is_transit":false,"i_lat":-6.219053,"time":8,"station_name":"Cakung","i_long":106.951283,"distance":1385,"transit":false,"station_id":"CUK","line":1},{"line":1,"distance":3097,"i_lat":-6.224515,"i_long":106.977657,"transit":false,"station_id":"KRI","station_name":"Kranji","time":3,"is_transit":false},{"time":4,"line":1,"station_id":"BKS","is_transit":false,"i_lat":-6.236616,"transit":false,"distance":2520,"i_long":106.997013,"station_name":"Bekasi"},{"distance":2368,"line":1,"station_name":"Bekasi Timur","transit":false,"station_id":"BKST","i_lat":-6.248029,"is_transit":false,"time":2,"i_long":107.016735},{"transit":false,"station_id":"TB","time":7,"is_transit":false,"i_long":107.055722,"distance":4460,"station_name":"Tambun","i_lat":-6.258864,"line":1},{"station_name":"Cibitung","is_transit":false,"transit":false,"i_long":107.083084,"line":1,"time":3,"distance":3420,"i_lat":-6.261877,"station_id":"CIT"},{"i_lat":-6.262938,"line":1,"station_id":"TLM","i_long":107.093313,"distance":2800,"transit":false,"station_name":"Metland Telaga Murni","time":2,"is_transit":false}],[{"station_name":"Parung Panjang","distance":0,"station_id":"PRP","time":0,"is_transit":false,"i_lat":-6.3441410000000005,"transit":false,"i_long":106.568863,"line":6},{"line":3,"station_id":"CC","station_name":"Cicayur","transit":false,"distance":5968,"is_transit":false,"i_lat":-6.329547,"i_long":106.617853,"time":8},{"line":3,"station_name":"Cisauk","transit":false,"is_transit":false,"station_id":"CSK","i_lat":-6.32484,"time":4,"distance":2519,"i_long":106.640411},{"i_long":106.66566,"transit":false,"station_id":"SRP","distance":1784,"station_name":"Serpong","time":4,"is_transit":false,"line":6,"i_lat":-6.319871},{"transit":false,"is_transit":false,"station_name":"Rawa Buntu","distance":2413,"station_id":"RU","i_lat":-6.314823,"time":4,"i_long":106.675475,"line":6},{"i_long":106.712277,"line":6,"station_name":"Sudimara","transit":false,"time":6,"distance":4566,"is_transit":false,"i_lat":-6.296963,"station_id":"SDM"},{"transit":false,"station_name":"Jurangmangu","is_transit":false,"i_lat":-6.288927,"i_long":106.728916,"line":6,"distance":1994,"station_id":"JMU","time":4},{"line":6,"distance":2179,"station_id":"PDJ","station_name":"Pondokranji","is_transit":false,"transit":false,"i_lat":-6.276362,"i_long":106.74273,"time":3},{"time":8,"i_lat":-6.237242,"station_id":"KBY","station_name":"Kebayoran","i_long":106.780334,"line":6,"transit":false,"is_transit":false,"distance":6218},{"distance":3737,"i_lat":-6.207404,"transit":false,"i_long":106.79689,"line":6,"station_id":"PLM","station_name":"Palmerah","time":7,"is_transit":false},{"is_transit":true,"i_lat":-6.185545,"time":6,"distance":3191,"i_long":106.811091,"line":1,"transit":true,"station_name":"Tanah Abang","station_id":"THB"},{"line":1,"is_transit":false,"time":8,"station_id":"DU","transit":false,"distance":3632,"station_name":"Duri","i_lat":-6.155215,"i_long":106.800832},{"i_long":106.79867,"i_lat":-6.144674,"line":1,"time":4,"is_transit":false,"transit":false,"station_name":"Angke","distance":1230,"station_id":"AK"},{"i_lat":-6.132549,"is_transit":true,"station_id":"KPB","time":9,"i_long":106.826365,"line":4,"distance":4102,"transit":true,"station_name":"Kampung Bandan"},{"distance":1444,"station_name":"Rajawali","is_transit":false,"line":11,"transit":false,"station_id":"RJW","time":3,"i_lat":-6.14505,"i_long":106.836569},{"distance":1901,"i_long":106.839204,"time":5,"station_id":"KMO","i_lat":-6.161728,"station_name":"Kemayoran","transit":false,"is_transit":false,"line":11},{"line":11,"i_long":106.84368,"station_id":"PSE","station_name":"Pasar Senen","transit":false,"is_transit":false,"time":4,"distance":1436,"i_lat":-6.174784},{"i_lat":-6.185975,"line":11,"i_long":106.850107,"distance":1567,"station_id":"GST","transit":false,"station_name":"Gang Sentiong","time":8,"is_transit":false},{"i_lat":-6.193792,"distance":973,"transit":false,"time":1,"line":11,"i_long":106.855437,"is_transit":false,"station_id":"KMT","station_name":"Kramat"},{"is_transit":false,"distance":1829,"station_id":"POK","time":2,"line":11,"i_long":106.861737,"i_lat":-6.209188,"transit":false,"station_name":"Pondok Jati"},{"transit":true,"is_transit":true,"distance":1236,"station_id":"JNG","i_lat":-6.215091,"time":9,"i_long":106.86807400000001,"station_name":"Jatinegara","line":1},{"i_long":106.899548,"station_name":"Klender","i_lat":-6.2135,"station_id":"KLD","transit":false,"line":1,"distance":3395,"time":3,"is_transit":false},{"line":1,"is_transit":false,"station_id":"BUA","transit":false,"i_lat":-6.215568,"time":2,"i_long":106.922662,"distance":3100,"station_name":"Buaran"},{"line":1,"transit":false,"time":1,"distance":1305,"station_id":"KLDB","station_name":"Klenderbaru","i_long":106.939679,"is_transit":false,"i_lat":-6.217455},{"distance":1385,"i_lat":-6.219053,"time":8,"i_long":106.951283,"is_transit":false,"line":1,"transit":false,"station_name":"Cakung","station_id":"CUK"},{"transit":false,"i_long":106.977657,"i_lat":-6.224515,"distance":3097,"station_id":"KRI","station_name":"Kranji","time":3,"is_transit":false,"line":1},{"station_id":"BKS","i_lat":-6.236616,"i_long":106.997013,"line":1,"transit":false,"distance":2520,"station_name":"Bekasi","time":4,"is_transit":false},{"station_name":"Bekasi Timur","i_long":107.016735,"station_id":"BKST","time":2,"distance":2368,"transit":false,"i_lat":-6.248029,"line":1,"is_transit":false},{"transit":false,"distance":4460,"station_name":"Tambun","i_long":107.055722,"station_id":"TB","i_lat":-6.258864,"time":7,"is_transit":false,"line":1},{"line":1,"transit":false,"is_transit":false,"i_lat":-6.261877,"i_long":107.083084,"station_name":"Cibitung","station_id":"CIT","distance":3420,"time":3},{"i_long":107.093313,"transit":false,"time":2,"station_id":"TLM","i_lat":-6.262938,"station_name":"Metland Telaga Murni","distance":2800,"is_transit":false,"line":1}],[{"station_name":"Parung Panjang","distance":0,"station_id":"PRP","i_lat":-6.3441410000000005,"time":0,"is_transit":false,"i_long":106.568863,"line":6,"transit":false},{"line":3,"i_lat":-6.329547,"i_long":106.617853,"is_transit":false,"distance":5968,"transit":false,"station_id":"CC","station_name":"Cicayur","time":8},{"station_name":"Cisauk","is_transit":false,"i_long":106.640411,"time":4,"distance":2519,"station_id":"CSK","transit":false,"i_lat":-6.32484,"line":3},{"station_id":"SRP","i_lat":-6.319871,"line":6,"time":4,"i_long":106.66566,"is_transit":false,"transit":false,"station_name":"Serpong","distance":1784},{"transit":false,"i_long":106.675475,"distance":2413,"station_id":"RU","i_lat":-6.314823,"station_name":"Rawa Buntu","is_transit":false,"time":4,"line":6},{"station_name":"Sudimara","station_id":"SDM","time":6,"is_transit":false,"distance":4566,"line":6,"i_long":106.712277,"transit":false,"i_lat":-6.296963},{"distance":1994,"i_long":106.728916,"i_lat":-6.288927,"transit":false,"time":4,"station_name":"Jurangmangu","line":6,"station_id":"JMU","is_transit":false},{"is_transit":false,"distance":2179,"station_id":"PDJ","i_lat":-6.276362,"station_name":"Pondokranji","time":3,"i_long":106.74273,"line":6,"transit":false},{"line":6,"i_long":106.780334,"i_lat":-6.237242,"station_id":"KBY","station_name":"Kebayoran","distance":6218,"time":8,"transit":false,"is_transit":false},{"i_lat":-6.207404,"is_transit":false,"distance":3737,"i_long":106.79689,"time":7,"line":6,"station_name":"Palmerah","transit":false,"station_id":"PLM"},{"distance":3191,"i_long":106.811091,"line":1,"is_transit":true,"transit":true,"station_id":"THB","i_lat":-6.185545,"time":6,"station_name":"Tanah Abang"},{"is_transit":false,"i_lat":-6.155215,"transit":false,"time":8,"i_long":106.800832,"station_name":"Duri","line":1,"distance":3632,"station_id":"DU"},{"station_id":"AK","time":4,"station_name":"Angke","i_lat":-6.144674,"line":1,"transit":false,"is_transit":false,"distance":1230,"i_long":106.79867},{"transit":true,"time":9,"distance":4102,"station_name":"Kampung Bandan","i_long":106.826365,"line":4,"is_transit":true,"station_id":"KPB","i_lat":-6.132549},{"time":3,"is_transit":true,"i_long":106.812439,"line":2,"i_lat":-6.137569,"station_name":"Jakarta Kota","distance":1364,"transit":true,"station_id":"JAKK"},{"station_id":"JAY","i_lat":-6.141205,"i_long":106.820901,"distance":1264,"time":4,"is_transit":false,"line":2,"transit":false,"station_name":"Jayakarta"},{"is_transit":false,"transit":false,"station_id":"MGB","line":2,"distance":1080,"time":2,"i_long":106.82482,"station_name":"Manggabesar","i_lat":-6.149769},{"is_transit":false,"time":2,"line":2,"transit":false,"i_long":106.827103,"station_id":"SW","distance":906,"i_lat":-6.160725,"station_name":"Sawah Besar"},{"time":2,"transit":false,"station_id":"JUA","line":2,"i_long":106.828284,"distance":1149,"station_name":"Juanda","is_transit":false,"i_lat":-6.166716},{"transit":false,"station_id":"GDD","time":4,"i_lat":-6.186295,"is_transit":false,"station_name":"Gondangdia","i_long":106.832183,"distance":2015,"line":2},{"time":3,"i_lat":-6.198556,"transit":false,"is_transit":false,"distance":1750,"line":2,"station_id":"CKI","station_name":"Cikini","i_long":106.840169},{"distance":1590,"transit":true,"station_id":"MRI","time":4,"is_transit":true,"station_name":"Manggarai","i_long":106.84912,"i_lat":-6.209883,"line":2},{"transit":false,"distance":1275,"time":2,"is_transit":false,"line":1,"i_long":106.858896,"station_id":"MTR","station_name":"Matraman","i_lat":-6.212485},{"i_lat":-6.215091,"distance":1377,"line":1,"time":8,"is_transit":false,"station_id":"JNG","transit":false,"station_name":"Jatinegara","i_long":106.86807400000001},{"station_id":"KLD","station_name":"Klender","i_lat":-6.2135,"line":1,"is_transit":false,"transit":false,"time":3,"i_long":106.899548,"distance":3395},{"distance":3100,"transit":false,"station_id":"BUA","time":2,"station_name":"Buaran","is_transit":false,"i_long":106.922662,"i_lat":-6.215568,"line":1},{"station_name":"Klenderbaru","i_long":106.939679,"line":1,"time":1,"distance":1305,"i_lat":-6.217455,"is_transit":false,"transit":false,"station_id":"KLDB"},{"transit":false,"i_long":106.951283,"station_id":"CUK","distance":1385,"station_name":"Cakung","i_lat":-6.219053,"time":8,"is_transit":false,"line":1},{"time":3,"station_name":"Kranji","i_lat":-6.224515,"station_id":"KRI","i_long":106.977657,"transit":false,"line":1,"is_transit":false,"distance":3097},{"time":4,"distance":2520,"line":1,"i_lat":-6.236616,"station_id":"BKS","station_name":"Bekasi","is_transit":false,"i_long":106.997013,"transit":false},{"station_id":"BKST","line":1,"is_transit":false,"station_name":"Bekasi Timur","transit":false,"time":2,"i_lat":-6.248029,"i_long":107.016735,"distance":2368},{"distance":4460,"station_id":"TB","line":1,"station_name":"Tambun","time":7,"transit":false,"is_transit":false,"i_lat":-6.258864,"i_long":107.055722},{"line":1,"i_long":107.083084,"station_name":"Cibitung","time":3,"i_lat":-6.261877,"is_transit":false,"distance":3420,"transit":false,"station_id":"CIT"},{"i_lat":-6.262938,"i_long":107.093313,"line":1,"transit":false,"distance":2800,"time":2,"station_id":"TLM","is_transit":false,"station_name":"Metland Telaga Murni"}],[{"distance":0,"transit":false,"is_transit":false,"i_lat":-6.3441410000000005,"i_long":106.568863,"line":6,"station_name":"Parung Panjang","station_id":"PRP","time":0},{"time":8,"i_lat":-6.329547,"transit":false,"is_transit":false,"station_id":"CC","distance":5968,"station_name":"Cicayur","line":3,"i_long":106.617853},{"i_long":106.640411,"distance":2519,"i_lat":-6.32484,"transit":false,"station_id":"CSK","time":4,"station_name":"Cisauk","is_transit":false,"line":3},{"time":4,"station_name":"Serpong","i_lat":-6.319871,"station_id":"SRP","i_long":106.66566,"transit":false,"distance":1784,"is_transit":false,"line":6},{"line":6,"distance":2413,"station_name":"Rawa Buntu","is_transit":false,"transit":false,"i_lat":-6.314823,"i_long":106.675475,"station_id":"RU","time":4},{"distance":4566,"line":6,"i_long":106.712277,"station_name":"Sudimara","time":6,"transit":false,"station_id":"SDM","is_transit":false,"i_lat":-6.296963},{"time":4,"is_transit":false,"i_lat":-6.288927,"transit":false,"i_long":106.728916,"distance":1994,"line":6,"station_name":"Jurangmangu","station_id":"JMU"},{"distance":2179,"transit":false,"station_id":"PDJ","is_transit":false,"i_long":106.74273,"line":6,"station_name":"Pondokranji","i_lat":-6.276362,"time":3},{"transit":false,"station_id":"KBY","distance":6218,"i_long":106.780334,"station_name":"Kebayoran","time":8,"line":6,"i_lat":-6.237242,"is_transit":false},{"transit":false,"station_id":"PLM","is_transit":false,"station_name":"Palmerah","i_lat":-6.207404,"time":7,"i_long":106.79689,"line":6,"distance":3737},{"station_name":"Tanah Abang","is_transit":true,"distance":3191,"transit":true,"i_long":106.811091,"line":1,"time":6,"i_lat":-6.185545,"station_id":"THB"},{"distance":2029,"line":1,"i_long":106.816351,"is_transit":false,"i_lat":-6.20132,"station_name":"Karet","transit":false,"station_id":"KAT","time":5},{"i_long":106.819881,"distance":471,"i_lat":-6.201433,"line":1,"is_transit":false,"station_name":"Sudirman Baru","station_id":"SUDB","transit":false,"time":1},{"station_id":"SUD","line":1,"distance":280,"time":1,"transit":false,"station_name":"Sudirman","i_lat":-6.202263,"is_transit":false,"i_long":106.822649},{"i_lat":-6.209883,"is_transit":true,"time":4,"line":2,"transit":true,"distance":3186,"station_id":"MRI","station_name":"Manggarai","i_long":106.84912},{"station_name":"Cikini","is_transit":false,"i_lat":-6.198556,"i_long":106.840169,"transit":false,"line":2,"distance":1590,"station_id":"CKI","time":4},{"station_id":"GDD","line":2,"time":3,"distance":1750,"station_name":"Gondangdia","is_transit":false,"i_lat":-6.186295,"transit":false,"i_long":106.832183},{"time":4,"i_long":106.828284,"station_id":"JUA","i_lat":-6.166716,"distance":2015,"station_name":"Juanda","line":2,"transit":false,"is_transit":false},{"i_long":106.827103,"distance":1149,"is_transit":false,"station_id":"SW","line":2,"station_name":"Sawah Besar","transit":false,"time":2,"i_lat":-6.160725},{"i_long":106.82482,"is_transit":false,"time":2,"line":2,"distance":906,"transit":false,"station_id":"MGB","station_name":"Manggabesar","i_lat":-6.149769},{"line":2,"transit":false,"is_transit":false,"distance":1080,"station_name":"Jayakarta","i_lat":-6.141205,"time":2,"station_id":"JAY","i_long":106.820901},{"is_transit":true,"transit":true,"station_id":"JAKK","station_name":"Jakarta Kota","time":4,"line":2,"distance":1264,"i_long":106.812439,"i_lat":-6.137569},{"time":3,"station_id":"KPB","distance":1364,"transit":true,"i_long":106.826365,"is_transit":true,"i_lat":-6.132549,"station_name":"Kampung Bandan","line":4},{"station_name":"Rajawali","line":11,"i_lat":-6.14505,"station_id":"RJW","is_transit":false,"i_long":106.836569,"transit":false,"time":3,"distance":1444},{"distance":1901,"i_long":106.839204,"time":5,"is_transit":false,"line":11,"station_id":"KMO","transit":false,"station_name":"Kemayoran","i_lat":-6.161728},{"distance":1436,"transit":false,"line":11,"is_transit":false,"station_name":"Pasar Senen","i_lat":-6.174784,"station_id":"PSE","time":4,"i_long":106.84368},{"distance":1567,"station_id":"GST","time":8,"i_lat":-6.185975,"i_long":106.850107,"line":11,"station_name":"Gang Sentiong","transit":false,"is_transit":false},{"station_id":"KMT","i_long":106.855437,"time":1,"station_name":"Kramat","line":11,"i_lat":-6.193792,"is_transit":false,"transit":false,"distance":973},{"i_lat":-6.209188,"i_long":106.861737,"line":11,"station_name":"Pondok Jati","is_transit":false,"distance":1829,"time":2,"transit":false,"station_id":"POK"},{"station_name":"Jatinegara","station_id":"JNG","time":9,"is_transit":true,"transit":true,"i_lat":-6.215091,"i_long":106.86807400000001,"line":1,"distance":1236},{"station_name":"Klender","i_lat":-6.2135,"station_id":"KLD","is_transit":false,"i_long":106.899548,"distance":3395,"transit":false,"time":3,"line":1},{"line":1,"station_name":"Buaran","station_id":"BUA","i_long":106.922662,"i_lat":-6.215568,"distance":3100,"transit":false,"time":2,"is_transit":false},{"transit":false,"is_transit":false,"time":1,"i_long":106.939679,"station_id":"KLDB","i_lat":-6.217455,"station_name":"Klenderbaru","line":1,"distance":1305},{"i_lat":-6.219053,"transit":false,"station_name":"Cakung","is_transit":false,"line":1,"i_long":106.951283,"time":8,"distance":1385,"station_id":"CUK"},{"is_transit":false,"distance":3097,"transit":false,"station_id":"KRI","line":1,"time":3,"i_long":106.977657,"station_name":"Kranji","i_lat":-6.224515},{"time":4,"is_transit":false,"i_lat":-6.236616,"i_long":106.997013,"distance":2520,"station_name":"Bekasi","line":1,"station_id":"BKS","transit":false},{"is_transit":false,"line":1,"transit":false,"i_long":107.016735,"distance":2368,"station_name":"Bekasi Timur","time":2,"i_lat":-6.248029,"station_id":"BKST"},{"station_id":"TB","time":7,"distance":4460,"transit":false,"line":1,"station_name":"Tambun","i_long":107.055722,"i_lat":-6.258864,"is_transit":false},{"station_id":"CIT","transit":false,"i_long":107.083084,"line":1,"time":3,"station_name":"Cibitung","distance":3420,"is_transit":false,"i_lat":-6.261877},{"station_id":"TLM","time":2,"i_long":107.093313,"station_name":"Metland Telaga Murni","distance":2800,"i_lat":-6.262938,"is_transit":false,"line":1,"transit":false}]]}