{"data":[[{"transit":false,"line":6,"station_name":"Parung Panjang","is_transit":false,"i_long":106.568863,"distance":0,"i_lat":-6.3441410000000005,"station_id":"PRP","time":0},{"is_transit":false,"time":8,"line":3,"i_long":106.617853,"distance":5968,"station_id":"CC","transit":false,"station_name":"Cicayur","i_lat":-6.329547},{"i_long":106.640411,"i_lat":-6.32484,"time":4,"station_name":"Cisauk","distance":2519,"transit":false,"line":3,"station_id":"CSK","is_transit":false},{"is_transit":false,"line":6,"station_name":"Serpong","distance":1784,"i_long":106.66566,"station_id":"SRP","transit":false,"i_lat":-6.319871,"time":4},{"station_name":"Rawa Buntu","station_id":"RU","transit":false,"i_lat":-6.314823,"i_long":106.675475,"distance":2413,"line":6,"is_transit":false,"time":4},{"is_transit":false,"i_lat":-6.296963,"line":6,"i_long":106.712277,"transit":false,"distance":4566,"station_name":"Sudimara","time":6,"station_id":"SDM"},{"i_lat":-6.288927,"i_long":106.728916,"is_transit":false,"transit":false,"line":6,"station_name":"Jurangmangu","time":4,"distance":1994,"station_id":"JMU"},{"is_transit":false,"station_name":"Pondokranji","time":3,"i_long":106.74273,"i_lat":-6.276362,"station_id":"PDJ","line":6,"transit":false,"distance":2179},{"i_lat":-6.237242,"distance":6218,"station_id":"KBY","transit":false,"is_transit":false,"i_long":106.780334,"line":6,"time":8,"station_name":"Kebayoran"},{"transit":false,"distance":3737,"station_name":"Palmerah","i_long":106.79689,"line":6,"is_transit":false,"station_id":"PLM","i_lat":-6.207404,"time":7},{"station_id":"THB","i_lat":-6.185545,"i_long":106.811091,"is_transit":true,"line":1,"transit":true,"time":6,"distance":3191,"station_name":"Tanah Abang"},{"i_long":106.800832,"time":8,"distance":3632,"station_name":"Duri","is_transit":false,"line":1,"transit":false,"station_id":"DU","i_lat":-6.155215},{"i_lat":-6.144674,"transit":false,"station_id":"AK","i_long":106.79867,"line":1,"time":4,"is_transit":false,"station_name":"Angke","distance":1230}],[{"i_long":106.568863,"time":0,"station_id":"PRP","distance":0,"i_lat":-6.3441410000000005,"line":6,"transit":false,"is_transit":false,"station_name":"Parung Panjang"},{"station_id":"CC","transit":false,"is_transit":false,"distance":5968,"station_name":"Cicayur","i_lat":-6.329547,"time":8,"line":3,"i_long":106.617853},{"i_lat":-6.32484,"station_id":"CSK","station_name":"Cisauk","distance":2519,"line":3,"transit":false,"i_long":106.640411,"time":4,"is_transit":false},{"distance":1784,"is_transit":false,"i_lat":-6.319871,"station_id":"SRP","station_name":"Serpong","transit":false,"i_long":106.66566,"time":4,"line":6},{"station_id":"RU","station_name":"Rawa Buntu","distance":2413,"is_transit":false,"transit":false,"i_lat":-6.314823,"i_long":106.675475,"line":6,"time":4},{"is_transit":false,"time":6,"distance":4566,"transit":false,"i_lat":-6.296963,"line":6,"station_name":"Sudimara","station_id":"SDM","i_long":106.712277},{"i_long":106.728916,"station_id":"JMU","time":4,"is_transit":false,"line":6,"station_name":"Jurangmangu","distance":1994,"transit":false,"i_lat":-6.288927},{"time":3,"distance":2179,"station_id":"PDJ","line":6,"is_transit":false,"station_name":"Pondokranji","i_lat":-6.276362,"i_long":106.74273,"transit":false},{"time":8,"station_id":"KBY","distance":6218,"is_transit":false,"i_lat":-6.237242,"line":6,"station_name":"Kebayoran","i_long":106.780334,"transit":false},{"time":7,"station_id":"PLM","distance":3737,"i_lat":-6.207404,"transit":false,"station_name":"Palmerah","i_long":106.79689,"line":6,"is_transit":false},{"station_id":"THB","station_name":"Tanah Abang","time":6,"i_long":106.811091,"transit":true,"line":1,"distance":3191,"is_transit":true,"i_lat":-6.185545},{"time":5,"station_id":"KAT","is_transit":false,"station_name":"Karet","i_long":106.816351,"distance":2029,"transit":false,"i_lat":-6.20132,"line":1},{"station_id":"SUDB","line":1,"is_transit":false,"transit":false,"station_name":"Sudirman Baru","time":1,"distance":471,"i_lat":-6.201433,"i_long":106.819881},{"is_transit":false,"time":1,"line":1,"station_id":"SUD","distance":280,"station_name":"Sudirman","i_lat":-6.202263,"transit":false,"i_long":106.822649},{"is_transit":true,"i_lat":-6.209883,"station_id":"MRI","station_name":"Manggarai","transit":true,"time":4,"distance":3186,"i_long":106.84912,"line":2},{"time":4,"line":2,"i_lat":-6.198556,"distance":1590,"station_id":"CKI","transit":false,"is_transit":false,"i_long":106.840169,"station_name":"Cikini"},{"station_id":"GDD","i_long":106.832183,"time":3,"station_name":"Gondangdia","line":2,"distance":1750,"is_transit":false,"i_lat":-6.186295,"transit":false},{"distance":2015,"station_id":"JUA","station_name":"Juanda","time":4,"i_lat":-6.166716,"i_long":106.828284,"line":2,"transit":false,"is_transit":false},{"station_id":"SW","station_name":"Sawah Besar","time":2,"line":2,"is_transit":false,"i_long":106.827103,"distance":1149,"i_lat":-6.160725,"transit":false},{"i_long":106.82482,"time":2,"station_name":"Manggabesar","line":2,"is_transit":false,"transit":false,"i_lat":-6.149769,"distance":906,"station_id":"MGB"},{"line":2,"transit":false,"station_id":"JAY","i_lat":-6.141205,"station_name":"Jayakarta","time":2,"distance":1080,"is_transit":false,"i_long":106.820901},{"station_name":"Jakarta Kota","line":2,"distance":1264,"time":4,"i_lat":-6.137569,"i_long":106.812439,"station_id":"JAKK","transit":true,"is_transit":true},{"station_id":"KPB","is_transit":true,"i_lat":-6.132549,"time":3,"distance":1364,"i_long":106.826365,"transit":true,"line":4,"station_name":"Kampung Bandan"},{"time":9,"i_long":106.79867,"station_id":"AK","station_name":"Angke","distance":4102,"transit":false,"is_transit":false,"i_lat":-6.144674,"line":1}],[{"station_name":"Parung Panjang","is_transit":false,"i_lat":-6.3441410000000005,"i_long":106.568863,"station_id":"PRP","transit":false,"distance":0,"time":0,"line":6},{"is_transit":false,"station_id":"CC","transit":false,"i_long":106.617853,"distance":5968,"line":3,"time":8,"station_name":"Cicayur","i_lat":-6.329547},{"station_id":"CSK","line":3,"transit":false,"station_name":"Cisauk","i_long":106.640411,"i_lat":-6.32484,"time":4,"distance":2519,"is_transit":false},{"time":4,"transit":false,"is_transit":false,"station_name":"Serpong","i_long":106.66566,"distance":1784,"station_id":"SRP","line":6,"i_lat":-6.319871},{"station_id":"RU","station_name":"Rawa Buntu","is_transit":false,"distance":2413,"transit":false,"line":6,"time":4,"i_lat":-6.314823,"i_long":106.675475},{"is_transit":false,"station_id":"SDM","line":6,"time":6,"i_lat":-6.296963,"transit":false,"station_name":"Sudimara","distance":4566,"i_long":106.712277},{"is_transit":false,"i_lat":-6.288927,"distance":1994,"i_long":106.728916,"line":6,"station_name":"Jurangmangu","time":4,"transit":false,"station_id":"JMU"},{"distance":2179,"line":6,"station_name":"Pondokranji","i_long":106.74273,"station_id":"PDJ","time":3,"is_transit":false,"transit":false,"i_lat":-6.276362},{"i_long":106.780334,"time":8,"line":6,"distance":6218,"is_transit":false,"i_lat":-6.237242,"station_id":"KBY","transit":false,"station_name":"Kebayoran"},{"is_transit":false,"i_long":106.79689,"time":7,"distance":3737,"station_id":"PLM","transit":false,"i_lat":-6.207404,"line":6,"station_name":"Palmerah"},{"time":6,"transit":true,"station_id":"THB","distance":3191,"is_transit":true,"i_long":106.811091,"station_name":"Tanah Abang","line":1,"i_lat":-6.185545},{"transit":false,"i_long":106.816351,"time":5,"distance":2029,"is_transit":false,"i_lat":-6.20132,"station_id":"KAT","line":1,"station_name":"Karet"},{"transit":false,"station_id":"SUDB","is_transit":false,"distance":471,"station_name":"Sudirman Baru","time":1,"i_lat":-6.201433,"i_long":106.819881,"line":1},{"i_lat":-6.202263,"line":1,"is_transit":false,"transit":false,"station_id":"SUD","time":1,"distance":280,"station_name":"Sudirman","i_long":106.822649},{"i_long":106.84912,"time":4,"is_transit":false,"distance":3186,"station_id":"MRI","transit":false,"line":2,"station_name":"Manggarai","i_lat":-6.209883},{"station_name":"Matraman","i_lat":-6.212485,"i_long":106.858896,"line":1,"distance":1275,"station_id":"MTR","transit":false,"time":2,"is_transit":false},{"is_transit":true,"line":1,"station_name":"Jatinegara","distance":1377,"i_long":106.86807400000001,"transit":true,"time":8,"i_lat":-6.215091,"station_id":"JNG"},{"time":2,"i_long":106.861737,"station_id":"POK","distance":1236,"is_transit":false,"station_name":"Pondok Jati","line":11,"transit":false,"i_lat":-6.209188},{"time":2,"i_lat":-6.193792,"distance":1829,"is_transit":false,"station_id":"KMT","i_long":106.855437,"transit":false,"station_name":"Kramat","line":11},{"distance":973,"i_lat":-6.185975,"i_long":106.850107,"line":11,"time":1,"station_id":"GST","station_name":"Gang Sentiong","transit":false,"is_transit":false},{"i_long":106.84368,"is_transit":false,"station_id":"PSE","i_lat":-6.174784,"transit":false,"line":11,"time":8,"station_name":"Pasar Senen","distance":1567},{"station_id":"KMO","i_long":106.839204,"is_transit":false,"distance":1436,"station_name":"Kemayoran","transit":false,"i_lat":-6.161728,"time":4,"line":11},{"station_name":"Rajawali","transit":false,"distance":1901,"line":11,"is_transit":false,"station_id":"RJW","i_lat":-6.14505,"i_long":106.836569,"time":5},{"distance":1444,"station_name":"Kampung Bandan","i_long":106.826365,"time":3,"is_transit":true,"station_id":"KPB","transit":true,"line":4,"i_lat":-6.132549},{"is_transit":false,"transit":false,"i_lat":-6.144674,"distance":4102,"station_id":"AK","station_name":"Angke","i_long":106.79867,"time":9,"line":1}]]}