{"data":[[{"i_long":106.568863,"station_id":"PRP","time":0,"transit":false,"station_name":"Parung Panjang","line":6,"i_lat":-6.3441410000000005,"distance":0,"is_transit":false},{"i_long":106.617853,"time":8,"station_id":"CC","station_name":"Cicayur","distance":5968,"line":3,"i_lat":-6.329547,"is_transit":false,"transit":false},{"station_id":"CSK","distance":2519,"time":4,"i_long":106.640411,"transit":false,"is_transit":false,"station_name":"Cisauk","i_lat":-6.32484,"line":3},{"station_name":"Serpong","i_long":106.66566,"distance":1784,"is_transit":false,"i_lat":-6.319871,"transit":false,"time":4,"line":6,"station_id":"SRP"},{"time":4,"line":6,"transit":false,"station_id":"RU","is_transit":false,"distance":2413,"i_lat":-6.314823,"station_name":"Rawa Buntu","i_long":106.675475},{"i_long":106.712277,"station_name":"Sudimara","time":6,"transit":false,"distance":4566,"station_id":"SDM","i_lat":-6.296963,"line":6,"is_transit":false},{"is_transit":false,"distance":1994,"time":4,"station_id":"JMU","transit":false,"station_name":"Jurangmangu","i_lat":-6.288927,"i_long":106.728916,"line":6},{"is_transit":false,"station_id":"PDJ","i_lat":-6.276362,"station_name":"Pondokranji","time":3,"distance":2179,"i_long":106.74273,"line":6,"transit":false},{"distance":6218,"station_id":"KBY","i_long":106.780334,"line":6,"station_name":"Kebayoran","transit":false,"is_transit":false,"i_lat":-6.237242,"time":8},{"station_id":"PLM","distance":3737,"transit":false,"line":6,"i_lat":-6.207404,"is_transit":false,"time":7,"station_name":"Palmerah","i_long":106.79689},{"transit":true,"station_id":"THB","is_transit":true,"time":6,"i_long":106.811091,"i_lat":-6.185545,"line":1,"station_name":"Tanah Abang","distance":3191},{"line":1,"station_name":"Duri","distance":3632,"i_long":106.800832,"is_transit":false,"station_id":"DU","time":8,"i_lat":-6.155215,"transit":false},{"i_long":106.79867,"line":1,"transit":false,"i_lat":-6.144674,"time":4,"is_transit":false,"distance":1230,"station_name":"Angke","station_id":"AK"},{"transit":true,"is_transit":true,"time":9,"i_long":106.826365,"station_name":"Kampung Bandan","line":4,"i_lat":-6.132549,"distance":4102,"station_id":"KPB"},{"distance":2185,"station_name":"Ancol","is_transit":false,"time":4,"i_long":106.84464,"line":4,"i_lat":-6.128023,"transit":false,"station_id":"AC"}],[{"station_id":"PRP","distance":0,"i_long":106.568863,"time":0,"i_lat":-6.3441410000000005,"line":6,"is_transit":false,"transit":false,"station_name":"Parung Panjang"},{"distance":5968,"time":8,"is_transit":false,"line":3,"i_lat":-6.329547,"station_id":"CC","station_name":"Cicayur","transit":false,"i_long":106.617853},{"station_name":"Cisauk","is_transit":false,"distance":2519,"transit":false,"station_id":"CSK","time":4,"line":3,"i_lat":-6.32484,"i_long":106.640411},{"station_id":"SRP","i_lat":-6.319871,"is_transit":false,"distance":1784,"i_long":106.66566,"transit":false,"station_name":"Serpong","time":4,"line":6},{"time":4,"station_name":"Rawa Buntu","station_id":"RU","distance":2413,"line":6,"i_long":106.675475,"transit":false,"is_transit":false,"i_lat":-6.314823},{"is_transit":false,"time":6,"i_long":106.712277,"line":6,"i_lat":-6.296963,"transit":false,"station_name":"Sudimara","station_id":"SDM","distance":4566},{"transit":false,"distance":1994,"station_id":"JMU","i_lat":-6.288927,"is_transit":false,"i_long":106.728916,"time":4,"line":6,"station_name":"Jurangmangu"},{"i_long":106.74273,"line":6,"distance":2179,"i_lat":-6.276362,"station_id":"PDJ","is_transit":false,"time":3,"transit":false,"station_name":"Pondokranji"},{"transit":false,"i_long":106.780334,"is_transit":false,"time":8,"distance":6218,"line":6,"station_name":"Kebayoran","station_id":"KBY","i_lat":-6.237242},{"i_lat":-6.207404,"time":7,"i_long":106.79689,"transit":false,"is_transit":false,"distance":3737,"station_name":"Palmerah","line":6,"station_id":"PLM"},{"is_transit":true,"station_id":"THB","i_lat":-6.185545,"distance":3191,"line":1,"station_name":"Tanah Abang","time":6,"transit":true,"i_long":106.811091},{"transit":false,"time":5,"distance":2029,"i_long":106.816351,"is_transit":false,"station_name":"Karet","line":1,"station_id":"KAT","i_lat":-6.20132},{"distance":471,"i_lat":-6.201433,"transit":false,"station_id":"SUDB","time":1,"station_name":"Sudirman Baru","i_long":106.819881,"is_transit":false,"line":1},{"time":1,"distance":280,"station_id":"SUD","station_name":"Sudirman","is_transit":false,"i_long":106.822649,"i_lat":-6.202263,"transit":false,"line":1},{"transit":true,"line":2,"i_lat":-6.209883,"time":4,"station_id":"MRI","station_name":"Manggarai","distance":3186,"is_transit":true,"i_long":106.84912},{"station_id":"CKI","transit":false,"i_lat":-6.198556,"line":2,"distance":1590,"station_name":"Cikini","is_transit":false,"time":4,"i_long":106.840169},{"i_lat":-6.186295,"i_long":106.832183,"distance":1750,"time":3,"station_name":"Gondangdia","station_id":"GDD","line":2,"transit":false,"is_transit":false},{"is_transit":false,"line":2,"distance":2015,"i_lat":-6.166716,"transit":false,"i_long":106.828284,"station_id":"JUA","time":4,"station_name":"Juanda"},{"is_transit":false,"i_long":106.827103,"i_lat":-6.160725,"station_id":"SW","station_name":"Sawah Besar","transit":false,"line":2,"time":2,"distance":1149},{"line":2,"transit":false,"i_long":106.82482,"distance":906,"time":2,"station_name":"Manggabesar","station_id":"MGB","i_lat":-6.149769,"is_transit":false},{"station_name":"Jayakarta","is_transit":false,"time":2,"transit":false,"line":2,"i_lat":-6.141205,"i_long":106.820901,"distance":1080,"station_id":"JAY"},{"time":4,"transit":true,"line":2,"i_lat":-6.137569,"station_name":"Jakarta Kota","station_id":"JAKK","is_transit":true,"distance":1264,"i_long":106.812439},{"station_id":"KPB","i_lat":-6.132549,"station_name":"Kampung Bandan","i_long":106.826365,"is_transit":true,"time":3,"transit":true,"distance":1364,"line":4},{"station_name":"Ancol","is_transit":false,"time":4,"line":4,"i_long":106.84464,"transit":false,"station_id":"AC","i_lat":-6.128023,"distance":2185}],[{"i_long":106.568863,"station_name":"Parung Panjang","line":6,"transit":false,"distance":0,"station_id":"PRP","time":0,"is_transit":false,"i_lat":-6.3441410000000005},{"i_long":106.617853,"line":3,"transit":false,"i_lat":-6.329547,"station_name":"Cicayur","station_id":"CC","is_transit":false,"time":8,"distance":5968},{"station_id":"CSK","time":4,"transit":false,"distance":2519,"is_transit":false,"i_lat":-6.32484,"i_long":106.640411,"line":3,"station_name":"Cisauk"},{"time":4,"is_transit":false,"i_lat":-6.319871,"line":6,"distance":1784,"station_name":"Serpong","transit":false,"station_id":"SRP","i_long":106.66566},{"time":4,"transit":false,"i_long":106.675475,"station_id":"RU","distance":2413,"i_lat":-6.314823,"line":6,"is_transit":false,"station_name":"Rawa Buntu"},{"is_transit":false,"distance":4566,"station_name":"Sudimara","i_lat":-6.296963,"time":6,"i_long":106.712277,"transit":false,"station_id":"SDM","line":6},{"i_long":106.728916,"is_transit":false,"station_name":"Jurangmangu","station_id":"JMU","i_lat":-6.288927,"distance":1994,"transit":false,"time":4,"line":6},{"station_id":"PDJ","transit":false,"is_transit":false,"station_name":"Pondokranji","line":6,"i_lat":-6.276362,"time":3,"i_long":106.74273,"distance":2179},{"distance":6218,"is_transit":false,"transit":false,"time":8,"i_lat":-6.237242,"i_long":106.780334,"line":6,"station_id":"KBY","station_name":"Kebayoran"},{"transit":false,"time":7,"distance":3737,"i_lat":-6.207404,"line":6,"station_name":"Palmerah","station_id":"PLM","is_transit":false,"i_long":106.79689},{"station_name":"Tanah Abang","distance":3191,"transit":true,"time":6,"is_transit":true,"station_id":"THB","i_lat":-6.185545,"i_long":106.811091,"line":1},{"station_id":"KAT","transit":false,"is_transit":false,"time":5,"distance":2029,"i_lat":-6.20132,"station_name":"Karet","i_long":106.816351,"line":1},{"station_name":"Sudirman Baru","time":1,"is_transit":false,"transit":false,"station_id":"SUDB","i_lat":-6.201433,"i_long":106.819881,"line":1,"distance":471},{"i_long":106.822649,"station_name":"Sudirman","transit":false,"station_id":"SUD","line":1,"time":1,"is_transit":false,"i_lat":-6.202263,"distance":280},{"i_lat":-6.209883,"time":4,"is_transit":false,"distance":3186,"station_name":"Manggarai","station_id":"MRI","line":2,"i_long":106.84912,"transit":false},{"station_name":"Matraman","i_long":106.858896,"transit":false,"line":1,"i_lat":-6.212485,"station_id":"MTR","is_transit":false,"time":2,"distance":1275},{"i_lat":-6.215091,"line":1,"station_name":"Jatinegara","station_id":"JNG","distance":1377,"i_long":106.86807400000001,"transit":true,"time":8,"is_transit":true},{"time":2,"i_long":106.861737,"i_lat":-6.209188,"distance":1236,"station_id":"POK","line":11,"station_name":"Pondok Jati","is_transit":false,"transit":false},{"i_long":106.855437,"transit":false,"time":2,"station_name":"Kramat","is_transit":false,"i_lat":-6.193792,"line":11,"station_id":"KMT","distance":1829},{"i_lat":-6.185975,"time":1,"i_long":106.850107,"is_transit":false,"line":11,"station_id":"GST","transit":false,"station_name":"Gang Sentiong","distance":973},{"i_long":106.84368,"distance":1567,"i_lat":-6.174784,"station_name":"Pasar Senen","transit":false,"line":11,"time":8,"station_id":"PSE","is_transit":false},{"transit":false,"is_transit":false,"i_lat":-6.161728,"line":11,"station_id":"KMO","distance":1436,"time":4,"station_name":"Kemayoran","i_long":106.839204},{"time":5,"distance":1901,"i_long":106.836569,"transit":false,"station_id":"RJW","is_transit":false,"station_name":"Rajawali","line":11,"i_lat":-6.14505},{"time":3,"is_transit":true,"station_id":"KPB","station_name":"Kampung Bandan","i_long":106.826365,"transit":true,"line":4,"distance":1444,"i_lat":-6.132549},{"is_transit":false,"station_name":"Ancol","time":4,"i_long":106.84464,"i_lat":-6.128023,"station_id":"AC","transit":false,"line":4,"distance":2185}]]}