{"data":[[{"is_transit":false,"transit":false,"distance":0,"i_lat":-6.3441410000000005,"station_id":"PRP","line":6,"time":0,"station_name":"Parung Panjang","i_long":106.568863},{"is_transit":false,"i_long":106.617853,"line":3,"station_id":"CC","transit":false,"distance":5968,"i_lat":-6.329547,"station_name":"Cicayur","time":8},{"transit":false,"i_lat":-6.32484,"i_long":106.640411,"station_id":"CSK","is_transit":false,"line":3,"time":4,"distance":2519,"station_name":"Cisauk"},{"i_long":106.66566,"is_transit":false,"time":4,"station_name":"Serpong","transit":false,"distance":1784,"line":6,"station_id":"SRP","i_lat":-6.319871},{"time":4,"line":6,"i_long":106.675475,"station_id":"RU","distance":2413,"transit":false,"i_lat":-6.314823,"is_transit":false,"station_name":"Rawa Buntu"},{"line":6,"transit":false,"station_id":"SDM","i_long":106.712277,"station_name":"Sudimara","is_transit":false,"distance":4566,"time":6,"i_lat":-6.296963},{"is_transit":false,"time":4,"station_id":"JMU","station_name":"Jurangmangu","distance":1994,"i_lat":-6.288927,"line":6,"i_long":106.728916,"transit":false},{"station_id":"PDJ","i_lat":-6.276362,"time":3,"transit":false,"station_name":"Pondokranji","distance":2179,"is_transit":false,"i_long":106.74273,"line":6},{"station_id":"KBY","is_transit":false,"time":8,"transit":false,"distance":6218,"i_long":106.780334,"i_lat":-6.237242,"line":6,"station_name":"Kebayoran"},{"station_name":"Palmerah","line":6,"i_lat":-6.207404,"transit":false,"station_id":"PLM","is_transit":false,"distance":3737,"time":7,"i_long":106.79689},{"time":6,"transit":true,"station_name":"Tanah Abang","station_id":"THB","i_lat":-6.185545,"i_long":106.811091,"distance":3191,"line":1,"is_transit":true},{"i_long":106.800832,"line":1,"i_lat":-6.155215,"transit":false,"is_transit":false,"station_id":"DU","time":8,"distance":3632,"station_name":"Duri"},{"transit":false,"line":1,"distance":1230,"station_id":"AK","i_long":106.79867,"time":4,"is_transit":false,"station_name":"Angke","i_lat":-6.144674}],[{"transit":false,"station_id":"PRP","is_transit":false,"i_lat":-6.3441410000000005,"line":6,"station_name":"Parung Panjang","time":0,"distance":0,"i_long":106.568863},{"distance":5968,"station_name":"Cicayur","i_long":106.617853,"station_id":"CC","is_transit":false,"transit":false,"i_lat":-6.329547,"time":8,"line":3},{"station_name":"Cisauk","station_id":"CSK","distance":2519,"transit":false,"i_lat":-6.32484,"time":4,"i_long":106.640411,"is_transit":false,"line":3},{"i_lat":-6.319871,"station_id":"SRP","i_long":106.66566,"distance":1784,"transit":false,"time":4,"line":6,"station_name":"Serpong","is_transit":false},{"is_transit":false,"i_long":106.675475,"station_id":"RU","transit":false,"station_name":"Rawa Buntu","time":4,"i_lat":-6.314823,"distance":2413,"line":6},{"station_id":"SDM","time":6,"is_transit":false,"i_lat":-6.296963,"line":6,"transit":false,"station_name":"Sudimara","distance":4566,"i_long":106.712277},{"time":4,"distance":1994,"is_transit":false,"i_long":106.728916,"line":6,"station_name":"Jurangmangu","station_id":"JMU","transit":false,"i_lat":-6.288927},{"time":3,"station_id":"PDJ","is_transit":false,"i_lat":-6.276362,"transit":false,"i_long":106.74273,"station_name":"Pondokranji","distance":2179,"line":6},{"i_lat":-6.237242,"i_long":106.780334,"station_id":"KBY","is_transit":false,"station_name":"Kebayoran","time":8,"transit":false,"line":6,"distance":6218},{"i_lat":-6.207404,"line":6,"station_name":"Palmerah","station_id":"PLM","i_long":106.79689,"time":7,"is_transit":false,"distance":3737,"transit":false},{"station_name":"Tanah Abang","station_id":"THB","i_long":106.811091,"is_transit":true,"distance":3191,"i_lat":-6.185545,"time":6,"line":1,"transit":true},{"station_id":"KAT","distance":2029,"i_long":106.816351,"is_transit":false,"time":5,"line":1,"station_name":"Karet","transit":false,"i_lat":-6.20132},{"i_lat":-6.201433,"line":1,"station_name":"Sudirman Baru","is_transit":false,"distance":471,"station_id":"SUDB","i_long":106.819881,"time":1,"transit":false},{"line":1,"is_transit":false,"station_id":"SUD","time":1,"i_lat":-6.202263,"transit":false,"station_name":"Sudirman","distance":280,"i_long":106.822649},{"distance":3186,"station_name":"Manggarai","station_id":"MRI","is_transit":true,"line":2,"i_lat":-6.209883,"time":4,"i_long":106.84912,"transit":true},{"line":2,"transit":false,"station_id":"CKI","i_long":106.840169,"time":4,"is_transit":false,"station_name":"Cikini","distance":1590,"i_lat":-6.198556},{"i_lat":-6.186295,"distance":1750,"station_id":"GDD","is_transit":false,"time":3,"transit":false,"line":2,"i_long":106.832183,"station_name":"Gondangdia"},{"is_transit":false,"station_name":"Juanda","time":4,"station_id":"JUA","distance":2015,"transit":false,"i_lat":-6.166716,"line":2,"i_long":106.828284},{"station_id":"SW","transit":false,"is_transit":false,"station_name":"Sawah Besar","i_lat":-6.160725,"distance":1149,"line":2,"time":2,"i_long":106.827103},{"station_id":"MGB","time":2,"distance":906,"is_transit":false,"i_lat":-6.149769,"transit":false,"i_long":106.82482,"station_name":"Manggabesar","line":2},{"i_long":106.820901,"line":2,"time":2,"is_transit":false,"transit":false,"station_name":"Jayakarta","station_id":"JAY","distance":1080,"i_lat":-6.141205},{"i_long":106.812439,"distance":1264,"time":4,"line":2,"i_lat":-6.137569,"transit":true,"is_transit":true,"station_name":"Jakarta Kota","station_id":"JAKK"},{"transit":true,"distance":1364,"station_name":"Kampung Bandan","time":3,"line":4,"is_transit":true,"i_lat":-6.132549,"station_id":"KPB","i_long":106.826365},{"line":1,"is_transit":false,"time":9,"station_id":"AK","distance":4102,"i_lat":-6.144674,"station_name":"Angke","i_long":106.79867,"transit":false}],[{"line":6,"station_name":"Parung Panjang","transit":false,"station_id":"PRP","time":0,"i_lat":-6.3441410000000005,"i_long":106.568863,"distance":0,"is_transit":false},{"transit":false,"station_id":"CC","distance":5968,"i_long":106.617853,"line":3,"i_lat":-6.329547,"time":8,"station_name":"Cicayur","is_transit":false},{"transit":false,"station_id":"CSK","i_long":106.640411,"is_transit":false,"line":3,"time":4,"station_name":"Cisauk","distance":2519,"i_lat":-6.32484},{"line":6,"i_lat":-6.319871,"i_long":106.66566,"station_name":"Serpong","is_transit":false,"distance":1784,"station_id":"SRP","time":4,"transit":false},{"transit":false,"station_id":"RU","line":6,"time":4,"i_lat":-6.314823,"is_transit":false,"station_name":"Rawa Buntu","i_long":106.675475,"distance":2413},{"transit":false,"is_transit":false,"i_lat":-6.296963,"time":6,"i_long":106.712277,"distance":4566,"line":6,"station_name":"Sudimara","station_id":"SDM"},{"transit":false,"station_id":"JMU","time":4,"distance":1994,"is_transit":false,"i_long":106.728916,"i_lat":-6.288927,"station_name":"Jurangmangu","line":6},{"station_id":"PDJ","transit":false,"is_transit":false,"station_name":"Pondokranji","line":6,"i_lat":-6.276362,"time":3,"i_long":106.74273,"distance":2179},{"distance":6218,"is_transit":false,"transit":false,"time":8,"i_lat":-6.237242,"i_long":106.780334,"line":6,"station_id":"KBY","station_name":"Kebayoran"},{"transit":false,"time":7,"distance":3737,"i_lat":-6.207404,"line":6,"station_name":"Palmerah","station_id":"PLM","is_transit":false,"i_long":106.79689},{"station_name":"Tanah Abang","distance":3191,"transit":true,"time":6,"is_transit":true,"station_id":"THB","i_lat":-6.185545,"i_long":106.811091,"line":1},{"station_id":"KAT","transit":false,"is_transit":false,"time":5,"distance":2029,"i_lat":-6.20132,"station_name":"Karet","i_long":106.816351,"line":1},{"station_name":"Sudirman Baru","time":1,"is_transit":false,"transit":false,"station_id":"SUDB","i_lat":-6.201433,"i_long":106.819881,"line":1,"distance":471},{"i_long":106.822649,"station_name":"Sudirman","transit":false,"station_id":"SUD","line":1,"time":1,"is_transit":false,"i_lat":-6.202263,"distance":280},{"i_lat":-6.209883,"time":4,"is_transit":false,"distance":3186,"station_name":"Manggarai","station_id":"MRI","line":2,"i_long":106.84912,"transit":false},{"station_name":"Matraman","i_long":106.858896,"transit":false,"line":1,"i_lat":-6.212485,"station_id":"MTR","is_transit":false,"time":2,"distance":1275},{"i_lat":-6.215091,"line":1,"station_name":"Jatinegara","station_id":"JNG","distance":1377,"i_long":106.86807400000001,"transit":true,"time":8,"is_transit":true},{"i_lat":-6.209188,"i_long":106.861737,"station_name":"Pondok Jati","station_id":"POK","time":2,"line":11,"transit":false,"is_transit":false,"distance":1236},{"station_id":"KMT","line":11,"station_name":"Kramat","time":2,"distance":1829,"transit":false,"i_lat":-6.193792,"is_transit":false,"i_long":106.855437},{"line":11,"i_long":106.850107,"station_id":"GST","station_name":"Gang Sentiong","is_transit":false,"time":1,"distance":973,"i_lat":-6.185975,"transit":false},{"i_lat":-6.174784,"line":11,"station_name":"Pasar Senen","i_long":106.84368,"time":8,"is_transit":false,"transit":false,"distance":1567,"station_id":"PSE"},{"station_name":"Kemayoran","line":11,"transit":false,"is_transit":false,"i_lat":-6.161728,"time":4,"distance":1436,"i_long":106.839204,"station_id":"KMO"},{"time":5,"station_id":"RJW","is_transit":false,"distance":1901,"i_lat":-6.14505,"line":11,"i_long":106.836569,"transit":false,"station_name":"Rajawali"},{"i_long":106.826365,"station_id":"KPB","transit":true,"time":3,"station_name":"Kampung Bandan","line":4,"is_transit":true,"distance":1444,"i_lat":-6.132549},{"station_name":"Angke","transit":false,"is_transit":false,"time":9,"distance":4102,"line":1,"i_lat":-6.144674,"i_long":106.79867,"station_id":"AK"}]]}