{"data":[[{"distance":0,"line":6,"time":0,"transit":false,"station_id":"PRP","is_transit":false,"i_long":106.568863,"station_name":"Parung Panjang","i_lat":-6.3441410000000005},{"i_lat":-6.329547,"transit":false,"distance":5968,"is_transit":false,"station_name":"Cicayur","line":3,"time":8,"station_id":"CC","i_long":106.617853},{"distance":2519,"transit":false,"time":4,"station_name":"Cisauk","i_lat":-6.32484,"station_id":"CSK","i_long":106.640411,"is_transit":false,"line":3},{"time":4,"is_transit":false,"station_name":"Serpong","i_lat":-6.319871,"i_long":106.66566,"distance":1784,"line":6,"transit":false,"station_id":"SRP"},{"is_transit":false,"i_lat":-6.314823,"station_name":"Rawa Buntu","line":6,"transit":false,"station_id":"RU","time":4,"distance":2413,"i_long":106.675475},{"i_lat":-6.296963,"station_id":"SDM","line":6,"transit":false,"station_name":"Sudimara","i_long":106.712277,"time":6,"distance":4566,"is_transit":false},{"transit":false,"station_name":"Jurangmangu","is_transit":false,"i_lat":-6.288927,"i_long":106.728916,"line":6,"time":4,"distance":1994,"station_id":"JMU"},{"distance":2179,"station_id":"PDJ","transit":false,"i_long":106.74273,"line":6,"is_transit":false,"i_lat":-6.276362,"time":3,"station_name":"Pondokranji"}]]}