{"data":[[{"station_name":"Parung Panjang","i_lat":-6.3441410000000005,"station_id":"PRP","is_transit":false,"time":0,"i_long":106.568863,"transit":false,"line":6,"distance":0},{"i_long":106.617853,"station_id":"CC","distance":5968,"i_lat":-6.329547,"time":8,"line":3,"transit":false,"is_transit":false,"station_name":"Cicayur"},{"time":4,"transit":false,"station_name":"Cisauk","distance":2519,"i_long":106.640411,"line":3,"i_lat":-6.32484,"is_transit":false,"station_id":"CSK"},{"line":6,"is_transit":false,"station_id":"SRP","time":4,"i_long":106.66566,"transit":false,"station_name":"Serpong","distance":1784,"i_lat":-6.319871},{"station_name":"Rawa Buntu","line":6,"is_transit":false,"distance":2413,"station_id":"RU","time":4,"transit":false,"i_long":106.675475,"i_lat":-6.314823},{"transit":false,"station_id":"SDM","time":6,"i_lat":-6.296963,"is_transit":false,"i_long":106.712277,"station_name":"Sudimara","line":6,"distance":4566},{"i_lat":-6.288927,"i_long":106.728916,"line":6,"station_name":"Jurangmangu","is_transit":false,"station_id":"JMU","distance":1994,"transit":false,"time":4},{"station_name":"Pondokranji","transit":false,"distance":2179,"is_transit":false,"station_id":"PDJ","i_long":106.74273,"time":3,"i_lat":-6.276362,"line":6}]]}