{"data":[[{"is_transit":false,"i_long":106.568863,"i_lat":-6.3441410000000005,"line":6,"station_name":"Parung Panjang","station_id":"PRP","time":0,"distance":0,"transit":false},{"station_name":"Cilejit","line":3,"i_long":106.508482,"i_lat":-6.354349,"distance":7025,"transit":false,"is_transit":false,"station_id":"CJT","time":9},{"transit":false,"station_id":"DAR","distance":2675,"line":0,"i_long":106.491338,"is_transit":false,"station_name":"Daru","time":6,"i_lat":-6.338021},{"transit":false,"station_id":"TEJ","i_lat":-6.327251,"time":5,"distance":3902,"is_transit":false,"i_long":106.460812,"line":6,"station_name":"Tenjo"},{"transit":false,"station_id":"TGS","distance":2974,"i_lat":-6.328533,"i_long":106.425991,"station_name":"Tigaraksa","line":6,"is_transit":false,"time":5}]]}