{"data":[[{"station_name":"Parung Panjang","transit":false,"station_id":"PRP","i_lat":-6.3441410000000005,"line":6,"distance":0,"is_transit":false,"time":0,"i_long":106.568863},{"station_name":"Cicayur","time":8,"station_id":"CC","i_lat":-6.329547,"i_long":106.617853,"is_transit":false,"distance":5968,"line":3,"transit":false},{"transit":false,"station_id":"CSK","i_lat":-6.32484,"is_transit":false,"time":4,"i_long":106.640411,"line":3,"station_name":"Cisauk","distance":2519},{"transit":false,"station_id":"SRP","i_lat":-6.319871,"is_transit":false,"station_name":"Serpong","line":6,"distance":1784,"i_long":106.66566,"time":4},{"i_lat":-6.314823,"station_name":"Rawa Buntu","station_id":"RU","i_long":106.675475,"line":6,"time":4,"is_transit":false,"transit":false,"distance":2413},{"line":6,"time":6,"is_transit":false,"transit":false,"i_lat":-6.296963,"distance":4566,"i_long":106.712277,"station_id":"SDM","station_name":"Sudimara"},{"station_id":"JMU","line":6,"is_transit":false,"transit":false,"i_long":106.728916,"station_name":"Jurangmangu","time":4,"i_lat":-6.288927,"distance":1994},{"station_id":"PDJ","transit":false,"i_lat":-6.276362,"time":3,"station_name":"Pondokranji","i_long":106.74273,"is_transit":false,"line":6,"distance":2179},{"time":8,"i_lat":-6.237242,"transit":false,"i_long":106.780334,"is_transit":false,"station_name":"Kebayoran","station_id":"KBY","line":6,"distance":6218},{"station_id":"PLM","transit":false,"station_name":"Palmerah","is_transit":false,"i_long":106.79689,"time":7,"i_lat":-6.207404,"line":6,"distance":3737},{"time":6,"i_lat":-6.185545,"i_long":106.811091,"station_id":"THB","station_name":"Tanah Abang","is_transit":true,"distance":3191,"line":1,"transit":true},{"station_name":"Duri","time":8,"is_transit":true,"line":1,"i_long":106.800832,"transit":true,"distance":3632,"station_id":"DU","i_lat":-6.155215},{"is_transit":false,"i_long":106.788277,"station_name":"Grogol","transit":false,"distance":1700,"line":5,"time":3,"station_id":"GGL","i_lat":-6.162021},{"is_transit":false,"time":2,"distance":2036,"station_name":"Pesing","transit":false,"i_lat":-6.161433,"line":5,"i_long":106.771379,"station_id":"PSG"},{"i_long":106.756522,"is_transit":false,"distance":1614,"line":5,"station_name":"Taman Kota","station_id":"TKO","time":2,"transit":false,"i_lat":-6.1587309999999995},{"i_lat":-6.159876,"is_transit":false,"distance":2334,"station_id":"BOI","line":5,"transit":false,"time":2,"station_name":"Bojongindah","i_long":106.737035},{"i_lat":-6.162758,"time":4,"station_name":"Rawa Buaya","i_long":106.723064,"station_id":"RW","transit":false,"is_transit":false,"distance":1152,"line":5},{"i_long":106.701612,"station_id":"KDS","is_transit":false,"time":3,"distance":2504,"i_lat":-6.166068,"line":5,"station_name":"Kalideres","transit":false},{"time":3,"line":5,"distance":2548,"transit":false,"station_id":"PI","i_long":106.679458,"i_lat":-6.169933,"station_name":"Poris","is_transit":false},{"i_long":106.665036,"transit":false,"station_id":"BPR","i_lat":-6.171811,"time":3,"line":5,"station_name":"Batuceper","is_transit":false,"distance":1834},{"is_transit":false,"distance":2028,"time":3,"i_long":106.64657,"i_lat":-6.17331,"station_id":"TTI","transit":false,"station_name":"Tanah Tinggi","line":5},{"i_lat":-6.176583,"transit":false,"station_name":"Tangerang","station_id":"TNG","time":3,"i_long":106.632761,"line":5,"is_transit":false,"distance":1547}],[{"station_name":"Parung Panjang","transit":false,"i_lat":-6.3441410000000005,"i_long":106.568863,"distance":0,"line":6,"is_transit":false,"time":0,"station_id":"PRP"},{"time":8,"i_long":106.617853,"station_name":"Cicayur","distance":5968,"is_transit":false,"i_lat":-6.329547,"transit":false,"station_id":"CC","line":3},{"transit":false,"station_id":"CSK","i_lat":-6.32484,"distance":2519,"line":3,"time":4,"i_long":106.640411,"station_name":"Cisauk","is_transit":false},{"station_name":"Serpong","i_lat":-6.319871,"line":6,"is_transit":false,"time":4,"transit":false,"station_id":"SRP","i_long":106.66566,"distance":1784},{"time":4,"is_transit":false,"station_name":"Rawa Buntu","i_long":106.675475,"line":6,"station_id":"RU","distance":2413,"transit":false,"i_lat":-6.314823},{"i_lat":-6.296963,"is_transit":false,"line":6,"transit":false,"station_id":"SDM","distance":4566,"station_name":"Sudimara","time":6,"i_long":106.712277},{"distance":1994,"station_id":"JMU","transit":false,"is_transit":false,"i_lat":-6.288927,"i_long":106.728916,"station_name":"Jurangmangu","time":4,"line":6},{"is_transit":false,"transit":false,"station_name":"Pondokranji","station_id":"PDJ","line":6,"i_long":106.74273,"distance":2179,"time":3,"i_lat":-6.276362},{"station_id":"KBY","i_long":106.780334,"transit":false,"i_lat":-6.237242,"station_name":"Kebayoran","is_transit":false,"line":6,"distance":6218,"time":8},{"is_transit":false,"i_long":106.79689,"time":7,"transit":false,"station_id":"PLM","distance":3737,"i_lat":-6.207404,"line":6,"station_name":"Palmerah"},{"station_id":"THB","i_long":106.811091,"line":1,"transit":true,"time":6,"i_lat":-6.185545,"station_name":"Tanah Abang","is_transit":true,"distance":3191},{"distance":2029,"is_transit":false,"i_lat":-6.20132,"station_id":"KAT","transit":false,"i_long":106.816351,"line":1,"time":5,"station_name":"Karet"},{"transit":false,"i_lat":-6.201433,"station_id":"SUDB","i_long":106.819881,"is_transit":false,"time":1,"line":1,"station_name":"Sudirman Baru","distance":471},{"station_name":"Sudirman","is_transit":false,"transit":false,"time":1,"i_lat":-6.202263,"i_long":106.822649,"line":1,"distance":280,"station_id":"SUD"},{"time":4,"transit":true,"is_transit":true,"distance":3186,"station_name":"Manggarai","i_long":106.84912,"i_lat":-6.209883,"line":2,"station_id":"MRI"},{"transit":false,"station_name":"Cikini","is_transit":false,"i_lat":-6.198556,"line":2,"station_id":"CKI","time":4,"distance":1590,"i_long":106.840169},{"station_name":"Gondangdia","station_id":"GDD","i_lat":-6.186295,"i_long":106.832183,"time":3,"distance":1750,"is_transit":false,"line":2,"transit":false},{"time":4,"transit":false,"distance":2015,"station_id":"JUA","i_lat":-6.166716,"i_long":106.828284,"station_name":"Juanda","is_transit":false,"line":2},{"line":2,"transit":false,"station_id":"SW","is_transit":false,"i_long":106.827103,"station_name":"Sawah Besar","time":2,"i_lat":-6.160725,"distance":1149},{"transit":false,"station_id":"MGB","i_lat":-6.149769,"station_name":"Manggabesar","time":2,"line":2,"is_transit":false,"distance":906,"i_long":106.82482},{"line":2,"is_transit":false,"station_name":"Jayakarta","transit":false,"station_id":"JAY","time":2,"i_lat":-6.141205,"i_long":106.820901,"distance":1080},{"line":2,"i_lat":-6.137569,"station_name":"Jakarta Kota","station_id":"JAKK","distance":1264,"i_long":106.812439,"transit":true,"is_transit":true,"time":4},{"distance":1364,"i_long":106.826365,"is_transit":true,"station_id":"KPB","time":3,"transit":true,"station_name":"Kampung Bandan","i_lat":-6.132549,"line":4},{"distance":4102,"station_id":"AK","time":9,"i_lat":-6.144674,"transit":false,"station_name":"Angke","is_transit":false,"i_long":106.79867,"line":1},{"transit":true,"is_transit":true,"i_lat":-6.155215,"station_id":"DU","i_long":106.800832,"line":1,"time":4,"station_name":"Duri","distance":1230},{"time":3,"is_transit":false,"distance":1700,"station_name":"Grogol","transit":false,"i_lat":-6.162021,"i_long":106.788277,"station_id":"GGL","line":5},{"i_long":106.771379,"time":2,"transit":false,"station_name":"Pesing","distance":2036,"is_transit":false,"line":5,"station_id":"PSG","i_lat":-6.161433},{"i_lat":-6.1587309999999995,"station_id":"TKO","i_long":106.756522,"is_transit":false,"distance":1614,"transit":false,"station_name":"Taman Kota","time":2,"line":5},{"station_id":"BOI","time":2,"is_transit":false,"station_name":"Bojongindah","distance":2334,"i_long":106.737035,"line":5,"transit":false,"i_lat":-6.159876},{"time":4,"i_long":106.723064,"station_name":"Rawa Buaya","is_transit":false,"line":5,"distance":1152,"station_id":"RW","i_lat":-6.162758,"transit":false},{"station_name":"Kalideres","time":3,"station_id":"KDS","i_lat":-6.166068,"transit":false,"is_transit":false,"distance":2504,"i_long":106.701612,"line":5},{"station_name":"Poris","station_id":"PI","is_transit":false,"time":3,"distance":2548,"i_long":106.679458,"i_lat":-6.169933,"transit":false,"line":5},{"transit":false,"i_long":106.665036,"line":5,"station_id":"BPR","is_transit":false,"time":3,"station_name":"Batuceper","i_lat":-6.171811,"distance":1834},{"line":5,"is_transit":false,"transit":false,"station_name":"Tanah Tinggi","time":3,"distance":2028,"station_id":"TTI","i_lat":-6.17331,"i_long":106.64657},{"station_id":"TNG","i_long":106.632761,"is_transit":false,"transit":false,"i_lat":-6.176583,"station_name":"Tangerang","time":3,"distance":1547,"line":5}],[{"station_name":"Parung Panjang","is_transit":false,"distance":0,"i_long":106.568863,"line":6,"time":0,"transit":false,"station_id":"PRP","i_lat":-6.3441410000000005},{"station_name":"Cicayur","i_long":106.617853,"distance":5968,"i_lat":-6.329547,"station_id":"CC","is_transit":false,"transit":false,"time":8,"line":3},{"time":4,"distance":2519,"station_name":"Cisauk","station_id":"CSK","is_transit":false,"i_lat":-6.32484,"line":3,"transit":false,"i_long":106.640411},{"line":6,"i_lat":-6.319871,"i_long":106.66566,"station_id":"SRP","transit":false,"is_transit":false,"time":4,"distance":1784,"station_name":"Serpong"},{"station_id":"RU","station_name":"Rawa Buntu","time":4,"i_long":106.675475,"is_transit":false,"transit":false,"distance":2413,"i_lat":-6.314823,"line":6},{"line":6,"station_name":"Sudimara","i_long":106.712277,"transit":false,"station_id":"SDM","time":6,"is_transit":false,"distance":4566,"i_lat":-6.296963},{"transit":false,"i_long":106.728916,"line":6,"distance":1994,"time":4,"i_lat":-6.288927,"station_id":"JMU","station_name":"Jurangmangu","is_transit":false},{"i_long":106.74273,"station_name":"Pondokranji","distance":2179,"time":3,"transit":false,"line":6,"is_transit":false,"station_id":"PDJ","i_lat":-6.276362},{"station_name":"Kebayoran","is_transit":false,"distance":6218,"transit":false,"i_lat":-6.237242,"line":6,"i_long":106.780334,"time":8,"station_id":"KBY"},{"is_transit":false,"time":7,"station_id":"PLM","i_long":106.79689,"line":6,"i_lat":-6.207404,"station_name":"Palmerah","transit":false,"distance":3737},{"station_id":"THB","transit":true,"i_lat":-6.185545,"i_long":106.811091,"line":1,"distance":3191,"time":6,"is_transit":true,"station_name":"Tanah Abang"},{"distance":2029,"i_lat":-6.20132,"is_transit":false,"i_long":106.816351,"line":1,"station_name":"Karet","station_id":"KAT","transit":false,"time":5},{"i_long":106.819881,"line":1,"station_id":"SUDB","station_name":"Sudirman Baru","time":1,"is_transit":false,"distance":471,"i_lat":-6.201433,"transit":false},{"time":1,"station_name":"Sudirman","transit":false,"is_transit":false,"i_long":106.822649,"distance":280,"line":1,"station_id":"SUD","i_lat":-6.202263},{"distance":3186,"i_lat":-6.209883,"line":2,"station_name":"Manggarai","is_transit":false,"i_long":106.84912,"transit":false,"station_id":"MRI","time":4},{"station_id":"MTR","distance":1275,"time":2,"station_name":"Matraman","i_lat":-6.212485,"transit":false,"i_long":106.858896,"is_transit":false,"line":1},{"time":8,"station_name":"Jatinegara","is_transit":true,"station_id":"JNG","transit":true,"distance":1377,"i_lat":-6.215091,"i_long":106.86807400000001,"line":1},{"time":2,"line":11,"is_transit":false,"transit":false,"distance":1236,"i_long":106.861737,"station_name":"Pondok Jati","station_id":"POK","i_lat":-6.209188},{"time":2,"i_long":106.855437,"is_transit":false,"line":11,"station_name":"Kramat","station_id":"KMT","transit":false,"i_lat":-6.193792,"distance":1829},{"station_id":"GST","line":11,"transit":false,"is_transit":false,"i_lat":-6.185975,"i_long":106.850107,"station_name":"Gang Sentiong","distance":973,"time":1},{"distance":1567,"i_lat":-6.174784,"i_long":106.84368,"transit":false,"is_transit":false,"station_id":"PSE","line":11,"station_name":"Pasar Senen","time":8},{"station_id":"KMO","station_name":"Kemayoran","line":11,"transit":false,"is_transit":false,"i_lat":-6.161728,"i_long":106.839204,"distance":1436,"time":4},{"i_lat":-6.14505,"distance":1901,"station_name":"Rajawali","is_transit":false,"line":11,"transit":false,"time":5,"i_long":106.836569,"station_id":"RJW"},{"i_lat":-6.132549,"line":4,"transit":true,"i_long":106.826365,"station_id":"KPB","time":3,"station_name":"Kampung Bandan","is_transit":true,"distance":1444},{"station_name":"Angke","is_transit":false,"station_id":"AK","distance":4102,"i_lat":-6.144674,"time":9,"line":1,"transit":false,"i_long":106.79867},{"line":1,"time":4,"station_name":"Duri","station_id":"DU","i_long":106.800832,"i_lat":-6.155215,"transit":true,"distance":1230,"is_transit":true},{"is_transit":false,"transit":false,"station_name":"Grogol","distance":1700,"time":3,"i_lat":-6.162021,"station_id":"GGL","i_long":106.788277,"line":5},{"station_name":"Pesing","distance":2036,"i_long":106.771379,"station_id":"PSG","is_transit":false,"line":5,"time":2,"i_lat":-6.161433,"transit":false},{"line":5,"is_transit":false,"station_id":"TKO","distance":1614,"i_lat":-6.1587309999999995,"transit":false,"time":2,"station_name":"Taman Kota","i_long":106.756522},{"time":2,"distance":2334,"is_transit":false,"i_lat":-6.159876,"station_name":"Bojongindah","i_long":106.737035,"transit":false,"line":5,"station_id":"BOI"},{"is_transit":false,"i_long":106.723064,"time":4,"line":5,"transit":false,"station_id":"RW","distance":1152,"i_lat":-6.162758,"station_name":"Rawa Buaya"},{"line":5,"distance":2504,"time":3,"i_lat":-6.166068,"transit":false,"station_name":"Kalideres","station_id":"KDS","i_long":106.701612,"is_transit":false},{"transit":false,"station_name":"Poris","time":3,"station_id":"PI","distance":2548,"i_lat":-6.169933,"i_long":106.679458,"line":5,"is_transit":false},{"is_transit":false,"i_long":106.665036,"distance":1834,"station_name":"Batuceper","time":3,"station_id":"BPR","line":5,"transit":false,"i_lat":-6.171811},{"station_name":"Tanah Tinggi","is_transit":false,"station_id":"TTI","distance":2028,"i_long":106.64657,"i_lat":-6.17331,"transit":false,"line":5,"time":3},{"time":3,"i_lat":-6.176583,"station_id":"TNG","is_transit":false,"i_long":106.632761,"station_name":"Tangerang","distance":1547,"transit":false,"line":5}]]}