{"data":[[{"station_name":"Parung Panjang","i_lat":-6.3441410000000005,"i_long":106.568863,"transit":false,"is_transit":false,"station_id":"PRP","line":6,"time":0,"distance":0},{"is_transit":false,"i_lat":-6.329547,"distance":5968,"station_name":"Cicayur","time":8,"i_long":106.617853,"line":3,"transit":false,"station_id":"CC"},{"is_transit":false,"i_long":106.640411,"distance":2519,"station_name":"Cisauk","transit":false,"time":4,"i_lat":-6.32484,"line":3,"station_id":"CSK"},{"i_lat":-6.319871,"time":4,"line":6,"station_name":"Serpong","is_transit":false,"distance":1784,"i_long":106.66566,"station_id":"SRP","transit":false},{"transit":false,"station_name":"Rawa Buntu","time":4,"line":6,"is_transit":false,"distance":2413,"i_lat":-6.314823,"station_id":"RU","i_long":106.675475},{"station_id":"SDM","time":6,"i_long":106.712277,"line":6,"is_transit":false,"distance":4566,"i_lat":-6.296963,"transit":false,"station_name":"Sudimara"},{"line":6,"transit":false,"time":4,"station_name":"Jurangmangu","i_long":106.728916,"is_transit":false,"distance":1994,"i_lat":-6.288927,"station_id":"JMU"},{"station_name":"Pondokranji","station_id":"PDJ","i_lat":-6.276362,"transit":false,"is_transit":false,"i_long":106.74273,"time":3,"line":6,"distance":2179},{"transit":false,"distance":6218,"time":8,"station_id":"KBY","i_lat":-6.237242,"i_long":106.780334,"station_name":"Kebayoran","line":6,"is_transit":false},{"i_long":106.79689,"line":6,"is_transit":false,"time":7,"station_id":"PLM","distance":3737,"transit":false,"i_lat":-6.207404,"station_name":"Palmerah"},{"line":1,"distance":3191,"station_name":"Tanah Abang","station_id":"THB","time":6,"is_transit":true,"i_long":106.811091,"transit":true,"i_lat":-6.185545},{"distance":2029,"is_transit":false,"transit":false,"i_lat":-6.20132,"station_id":"KAT","i_long":106.816351,"time":5,"line":1,"station_name":"Karet"},{"line":1,"is_transit":false,"i_lat":-6.201433,"station_name":"Sudirman Baru","i_long":106.819881,"distance":471,"transit":false,"station_id":"SUDB","time":1},{"distance":280,"station_id":"SUD","i_long":106.822649,"line":1,"i_lat":-6.202263,"transit":false,"station_name":"Sudirman","is_transit":false,"time":1},{"station_id":"MRI","station_name":"Manggarai","i_lat":-6.209883,"distance":3186,"transit":false,"time":4,"is_transit":false,"i_long":106.84912,"line":2},{"transit":false,"station_id":"MTR","is_transit":false,"i_long":106.858896,"line":1,"distance":1275,"station_name":"Matraman","i_lat":-6.212485,"time":2},{"transit":false,"station_name":"Jatinegara","time":8,"i_lat":-6.215091,"i_long":106.86807400000001,"line":1,"distance":1377,"station_id":"JNG","is_transit":false},{"is_transit":false,"time":3,"station_id":"KLD","station_name":"Klender","i_long":106.899548,"distance":3395,"line":1,"i_lat":-6.2135,"transit":false},{"i_lat":-6.215568,"time":2,"is_transit":false,"station_name":"Buaran","station_id":"BUA","i_long":106.922662,"transit":false,"line":1,"distance":3100},{"is_transit":false,"i_long":106.939679,"i_lat":-6.217455,"distance":1305,"line":1,"station_id":"KLDB","time":1,"transit":false,"station_name":"Klenderbaru"},{"station_name":"Cakung","i_long":106.951283,"station_id":"CUK","i_lat":-6.219053,"time":8,"distance":1385,"transit":false,"is_transit":false,"line":1},{"station_name":"Kranji","station_id":"KRI","is_transit":false,"time":3,"distance":3097,"transit":false,"i_lat":-6.224515,"line":1,"i_long":106.977657},{"i_long":106.997013,"distance":2520,"i_lat":-6.236616,"is_transit":false,"transit":false,"station_name":"Bekasi","line":1,"time":4,"station_id":"BKS"},{"station_name":"Bekasi Timur","i_long":107.016735,"transit":false,"is_transit":false,"station_id":"BKST","time":2,"i_lat":-6.248029,"distance":2368,"line":1},{"station_id":"TB","i_lat":-6.258864,"line":1,"transit":false,"station_name":"Tambun","distance":4460,"i_long":107.055722,"is_transit":false,"time":7},{"i_long":107.083084,"line":1,"station_name":"Cibitung","i_lat":-6.261877,"distance":3420,"station_id":"CIT","is_transit":false,"time":3,"transit":false},{"distance":2800,"i_long":107.093313,"station_name":"Metland Telaga Murni","time":2,"is_transit":false,"line":1,"transit":false,"station_id":"TLM","i_lat":-6.262938}],[{"station_name":"Parung Panjang","i_long":106.568863,"transit":false,"time":0,"distance":0,"station_id":"PRP","i_lat":-6.3441410000000005,"is_transit":false,"line":6},{"station_name":"Cicayur","station_id":"CC","is_transit":false,"time":8,"distance":5968,"line":3,"i_long":106.617853,"i_lat":-6.329547,"transit":false},{"station_name":"Cisauk","time":4,"transit":false,"is_transit":false,"station_id":"CSK","i_lat":-6.32484,"distance":2519,"line":3,"i_long":106.640411},{"station_name":"Serpong","is_transit":false,"i_long":106.66566,"station_id":"SRP","distance":1784,"transit":false,"i_lat":-6.319871,"time":4,"line":6},{"is_transit":false,"station_id":"RU","i_lat":-6.314823,"time":4,"transit":false,"i_long":106.675475,"line":6,"distance":2413,"station_name":"Rawa Buntu"},{"line":6,"station_id":"SDM","time":6,"i_lat":-6.296963,"i_long":106.712277,"is_transit":false,"station_name":"Sudimara","distance":4566,"transit":false},{"line":6,"is_transit":false,"distance":1994,"i_long":106.728916,"station_id":"JMU","station_name":"Jurangmangu","transit":false,"time":4,"i_lat":-6.288927},{"transit":false,"i_long":106.74273,"is_transit":false,"station_id":"PDJ","time":3,"distance":2179,"i_lat":-6.276362,"line":6,"station_name":"Pondokranji"},{"i_lat":-6.237242,"distance":6218,"station_name":"Kebayoran","i_long":106.780334,"transit":false,"is_transit":false,"station_id":"KBY","line":6,"time":8},{"i_long":106.79689,"line":6,"transit":false,"station_id":"PLM","i_lat":-6.207404,"distance":3737,"is_transit":false,"time":7,"station_name":"Palmerah"},{"time":6,"is_transit":true,"station_name":"Tanah Abang","i_lat":-6.185545,"line":1,"station_id":"THB","transit":true,"distance":3191,"i_long":106.811091},{"i_long":106.800832,"time":8,"line":1,"station_id":"DU","transit":false,"is_transit":false,"distance":3632,"station_name":"Duri","i_lat":-6.155215},{"transit":false,"is_transit":false,"i_lat":-6.144674,"i_long":106.79867,"time":4,"distance":1230,"line":1,"station_id":"AK","station_name":"Angke"},{"transit":true,"i_lat":-6.132549,"line":4,"station_id":"KPB","is_transit":true,"time":9,"distance":4102,"station_name":"Kampung Bandan","i_long":106.826365},{"transit":false,"i_lat":-6.14505,"station_id":"RJW","line":11,"station_name":"Rajawali","is_transit":false,"distance":1444,"time":3,"i_long":106.836569},{"station_name":"Kemayoran","i_lat":-6.161728,"transit":false,"time":5,"is_transit":false,"distance":1901,"line":11,"i_long":106.839204,"station_id":"KMO"},{"time":4,"station_id":"PSE","transit":false,"station_name":"Pasar Senen","is_transit":false,"i_lat":-6.174784,"line":11,"distance":1436,"i_long":106.84368},{"transit":false,"station_id":"GST","is_transit":false,"i_lat":-6.185975,"line":11,"station_name":"Gang Sentiong","time":8,"distance":1567,"i_long":106.850107},{"line":11,"transit":false,"time":1,"distance":973,"i_lat":-6.193792,"i_long":106.855437,"station_id":"KMT","station_name":"Kramat","is_transit":false},{"station_name":"Pondok Jati","station_id":"POK","time":2,"is_transit":false,"i_lat":-6.209188,"i_long":106.861737,"line":11,"distance":1829,"transit":false},{"i_long":106.86807400000001,"i_lat":-6.215091,"distance":1236,"station_name":"Jatinegara","line":1,"station_id":"JNG","is_transit":true,"transit":true,"time":9},{"station_name":"Klender","distance":3395,"i_lat":-6.2135,"time":3,"station_id":"KLD","i_long":106.899548,"line":1,"transit":false,"is_transit":false},{"station_name":"Buaran","time":2,"distance":3100,"i_long":106.922662,"station_id":"BUA","i_lat":-6.215568,"transit":false,"is_transit":false,"line":1},{"station_name":"Klenderbaru","distance":1305,"is_transit":false,"time":1,"transit":false,"i_lat":-6.217455,"station_id":"KLDB","line":1,"i_long":106.939679},{"distance":1385,"i_lat":-6.219053,"i_long":106.951283,"line":1,"is_transit":false,"station_name":"Cakung","time":8,"transit":false,"station_id":"CUK"},{"time":3,"line":1,"station_name":"Kranji","transit":false,"distance":3097,"i_long":106.977657,"station_id":"KRI","i_lat":-6.224515,"is_transit":false},{"i_lat":-6.236616,"line":1,"is_transit":false,"time":4,"station_id":"BKS","distance":2520,"transit":false,"station_name":"Bekasi","i_long":106.997013},{"line":1,"transit":false,"station_id":"BKST","i_lat":-6.248029,"time":2,"distance":2368,"station_name":"Bekasi Timur","i_long":107.016735,"is_transit":false},{"station_name":"Tambun","is_transit":false,"i_long":107.055722,"time":7,"distance":4460,"transit":false,"i_lat":-6.258864,"line":1,"station_id":"TB"},{"is_transit":false,"time":3,"distance":3420,"station_id":"CIT","i_long":107.083084,"line":1,"i_lat":-6.261877,"station_name":"Cibitung","transit":false},{"station_id":"TLM","line":1,"transit":false,"is_transit":false,"time":2,"distance":2800,"station_name":"Metland Telaga Murni","i_long":107.093313,"i_lat":-6.262938}],[{"distance":0,"station_name":"Parung Panjang","is_transit":false,"i_lat":-6.3441410000000005,"i_long":106.568863,"line":6,"transit":false,"station_id":"PRP","time":0},{"line":3,"i_lat":-6.329547,"is_transit":false,"time":8,"distance":5968,"station_id":"CC","transit":false,"i_long":106.617853,"station_name":"Cicayur"},{"is_transit":false,"i_lat":-6.32484,"transit":false,"i_long":106.640411,"line":3,"distance":2519,"station_id":"CSK","station_name":"Cisauk","time":4},{"station_name":"Serpong","i_long":106.66566,"transit":false,"station_id":"SRP","distance":1784,"time":4,"i_lat":-6.319871,"line":6,"is_transit":false},{"line":6,"transit":false,"station_id":"RU","is_transit":false,"i_lat":-6.314823,"i_long":106.675475,"station_name":"Rawa Buntu","time":4,"distance":2413},{"distance":4566,"line":6,"station_id":"SDM","i_lat":-6.296963,"transit":false,"is_transit":false,"time":6,"station_name":"Sudimara","i_long":106.712277},{"station_id":"JMU","i_long":106.728916,"line":6,"distance":1994,"is_transit":false,"time":4,"station_name":"Jurangmangu","i_lat":-6.288927,"transit":false},{"distance":2179,"station_name":"Pondokranji","i_long":106.74273,"station_id":"PDJ","line":6,"i_lat":-6.276362,"transit":false,"is_transit":false,"time":3},{"is_transit":false,"transit":false,"time":8,"distance":6218,"station_id":"KBY","line":6,"i_lat":-6.237242,"i_long":106.780334,"station_name":"Kebayoran"},{"line":6,"transit":false,"distance":3737,"i_long":106.79689,"i_lat":-6.207404,"station_name":"Palmerah","station_id":"PLM","time":7,"is_transit":false},{"station_name":"Tanah Abang","distance":3191,"i_lat":-6.185545,"i_long":106.811091,"line":1,"transit":true,"station_id":"THB","is_transit":true,"time":6},{"i_long":106.800832,"transit":false,"is_transit":false,"station_id":"DU","station_name":"Duri","i_lat":-6.155215,"distance":3632,"line":1,"time":8},{"station_id":"AK","station_name":"Angke","i_lat":-6.144674,"is_transit":false,"i_long":106.79867,"time":4,"line":1,"distance":1230,"transit":false},{"transit":true,"station_id":"KPB","station_name":"Kampung Bandan","time":9,"i_lat":-6.132549,"distance":4102,"i_long":106.826365,"is_transit":true,"line":4},{"is_transit":true,"i_lat":-6.137569,"i_long":106.812439,"transit":true,"distance":1364,"line":2,"station_name":"Jakarta Kota","station_id":"JAKK","time":3},{"is_transit":false,"i_long":106.820901,"line":2,"distance":1264,"i_lat":-6.141205,"time":4,"station_name":"Jayakarta","station_id":"JAY","transit":false},{"station_name":"Manggabesar","is_transit":false,"line":2,"i_lat":-6.149769,"transit":false,"i_long":106.82482,"distance":1080,"station_id":"MGB","time":2},{"i_lat":-6.160725,"time":2,"station_id":"SW","is_transit":false,"i_long":106.827103,"line":2,"station_name":"Sawah Besar","transit":false,"distance":906},{"i_lat":-6.166716,"station_id":"JUA","is_transit":false,"distance":1149,"time":2,"station_name":"Juanda","transit":false,"i_long":106.828284,"line":2},{"station_id":"GDD","is_transit":false,"i_lat":-6.186295,"line":2,"station_name":"Gondangdia","transit":false,"distance":2015,"time":4,"i_long":106.832183},{"transit":false,"i_long":106.840169,"is_transit":false,"distance":1750,"station_name":"Cikini","time":3,"line":2,"station_id":"CKI","i_lat":-6.198556},{"time":4,"distance":1590,"i_lat":-6.209883,"i_long":106.84912,"line":2,"is_transit":true,"station_id":"MRI","station_name":"Manggarai","transit":true},{"station_id":"MTR","i_lat":-6.212485,"distance":1275,"transit":false,"station_name":"Matraman","is_transit":false,"i_long":106.858896,"line":1,"time":2},{"i_lat":-6.215091,"station_id":"JNG","i_long":106.86807400000001,"time":8,"transit":false,"station_name":"Jatinegara","line":1,"distance":1377,"is_transit":false},{"is_transit":false,"transit":false,"station_name":"Klender","station_id":"KLD","i_long":106.899548,"distance":3395,"line":1,"time":3,"i_lat":-6.2135},{"is_transit":false,"time":2,"station_name":"Buaran","distance":3100,"i_long":106.922662,"line":1,"transit":false,"i_lat":-6.215568,"station_id":"BUA"},{"station_name":"Klenderbaru","is_transit":false,"i_long":106.939679,"time":1,"station_id":"KLDB","distance":1305,"line":1,"transit":false,"i_lat":-6.217455},{"station_id":"CUK","i_lat":-6.219053,"time":8,"line":1,"i_long":106.951283,"distance":1385,"transit":false,"is_transit":false,"station_name":"Cakung"},{"station_name":"Kranji","line":1,"time":3,"distance":3097,"station_id":"KRI","is_transit":false,"i_long":106.977657,"i_lat":-6.224515,"transit":false},{"time":4,"transit":false,"station_id":"BKS","i_lat":-6.236616,"line":1,"distance":2520,"is_transit":false,"station_name":"Bekasi","i_long":106.997013},{"time":2,"line":1,"distance":2368,"is_transit":false,"i_lat":-6.248029,"station_name":"Bekasi Timur","station_id":"BKST","transit":false,"i_long":107.016735},{"is_transit":false,"time":7,"line":1,"station_id":"TB","i_lat":-6.258864,"transit":false,"distance":4460,"station_name":"Tambun","i_long":107.055722},{"time":3,"distance":3420,"transit":false,"i_lat":-6.261877,"i_long":107.083084,"is_transit":false,"station_name":"Cibitung","line":1,"station_id":"CIT"},{"transit":false,"i_long":107.093313,"line":1,"station_id":"TLM","is_transit":false,"time":2,"station_name":"Metland Telaga Murni","i_lat":-6.262938,"distance":2800}],[{"i_long":106.568863,"station_name":"Parung Panjang","distance":0,"station_id":"PRP","time":0,"is_transit":false,"transit":false,"i_lat":-6.3441410000000005,"line":6},{"station_id":"CC","time":8,"distance":5968,"line":3,"station_name":"Cicayur","is_transit":false,"i_long":106.617853,"i_lat":-6.329547,"transit":false},{"station_name":"Cisauk","i_lat":-6.32484,"line":3,"station_id":"CSK","distance":2519,"i_long":106.640411,"time":4,"transit":false,"is_transit":false},{"station_id":"SRP","distance":1784,"transit":false,"i_long":106.66566,"time":4,"is_transit":false,"line":6,"station_name":"Serpong","i_lat":-6.319871},{"i_long":106.675475,"is_transit":false,"i_lat":-6.314823,"station_id":"RU","distance":2413,"transit":false,"station_name":"Rawa Buntu","time":4,"line":6},{"station_id":"SDM","transit":false,"i_lat":-6.296963,"station_name":"Sudimara","is_transit":false,"time":6,"distance":4566,"line":6,"i_long":106.712277},{"line":6,"time":4,"i_lat":-6.288927,"transit":false,"distance":1994,"station_name":"Jurangmangu","station_id":"JMU","is_transit":false,"i_long":106.728916},{"distance":2179,"transit":false,"line":6,"station_name":"Pondokranji","station_id":"PDJ","i_lat":-6.276362,"time":3,"i_long":106.74273,"is_transit":false},{"transit":false,"station_name":"Kebayoran","station_id":"KBY","time":8,"is_transit":false,"i_lat":-6.237242,"line":6,"distance":6218,"i_long":106.780334},{"station_name":"Palmerah","station_id":"PLM","is_transit":false,"time":7,"i_lat":-6.207404,"i_long":106.79689,"transit":false,"distance":3737,"line":6},{"time":6,"distance":3191,"station_name":"Tanah Abang","i_long":106.811091,"line":1,"transit":true,"i_lat":-6.185545,"is_transit":true,"station_id":"THB"},{"i_long":106.816351,"line":1,"transit":false,"is_transit":false,"time":5,"distance":2029,"station_name":"Karet","station_id":"KAT","i_lat":-6.20132},{"line":1,"i_lat":-6.201433,"station_name":"Sudirman Baru","time":1,"station_id":"SUDB","distance":471,"i_long":106.819881,"is_transit":false,"transit":false},{"time":1,"i_lat":-6.202263,"station_id":"SUD","is_transit":false,"distance":280,"i_long":106.822649,"line":1,"transit":false,"station_name":"Sudirman"},{"transit":true,"i_lat":-6.209883,"i_long":106.84912,"line":2,"time":4,"station_id":"MRI","is_transit":true,"station_name":"Manggarai","distance":3186},{"station_name":"Cikini","transit":false,"station_id":"CKI","distance":1590,"i_long":106.840169,"line":2,"is_transit":false,"time":4,"i_lat":-6.198556},{"is_transit":false,"station_name":"Gondangdia","station_id":"GDD","time":3,"distance":1750,"line":2,"transit":false,"i_lat":-6.186295,"i_long":106.832183},{"station_name":"Juanda","station_id":"JUA","time":4,"distance":2015,"is_transit":false,"i_long":106.828284,"transit":false,"i_lat":-6.166716,"line":2},{"time":2,"distance":1149,"i_lat":-6.160725,"i_long":106.827103,"station_name":"Sawah Besar","station_id":"SW","is_transit":false,"line":2,"transit":false},{"distance":906,"i_long":106.82482,"transit":false,"time":2,"station_id":"MGB","i_lat":-6.149769,"station_name":"Manggabesar","line":2,"is_transit":false},{"i_long":106.820901,"time":2,"i_lat":-6.141205,"line":2,"is_transit":false,"transit":false,"station_id":"JAY","station_name":"Jayakarta","distance":1080},{"station_name":"Jakarta Kota","i_lat":-6.137569,"transit":true,"i_long":106.812439,"line":2,"station_id":"JAKK","distance":1264,"is_transit":true,"time":4},{"i_lat":-6.132549,"line":4,"station_id":"KPB","i_long":106.826365,"distance":1364,"station_name":"Kampung Bandan","is_transit":true,"transit":true,"time":3},{"transit":false,"station_name":"Rajawali","is_transit":false,"station_id":"RJW","distance":1444,"i_lat":-6.14505,"i_long":106.836569,"time":3,"line":11},{"line":11,"distance":1901,"time":5,"station_id":"KMO","i_lat":-6.161728,"is_transit":false,"transit":false,"i_long":106.839204,"station_name":"Kemayoran"},{"station_name":"Pasar Senen","transit":false,"is_transit":false,"time":4,"i_lat":-6.174784,"distance":1436,"station_id":"PSE","i_long":106.84368,"line":11},{"line":11,"i_lat":-6.185975,"time":8,"transit":false,"station_name":"Gang Sentiong","station_id":"GST","distance":1567,"i_long":106.850107,"is_transit":false},{"is_transit":false,"i_long":106.855437,"station_name":"Kramat","line":11,"transit":false,"time":1,"i_lat":-6.193792,"station_id":"KMT","distance":973},{"is_transit":false,"time":2,"station_id":"POK","distance":1829,"transit":false,"i_long":106.861737,"i_lat":-6.209188,"station_name":"Pondok Jati","line":11},{"is_transit":true,"transit":true,"distance":1236,"i_lat":-6.215091,"i_long":106.86807400000001,"station_id":"JNG","station_name":"Jatinegara","line":1,"time":9},{"time":3,"i_long":106.899548,"is_transit":false,"station_name":"Klender","transit":false,"i_lat":-6.2135,"line":1,"station_id":"KLD","distance":3395},{"line":1,"station_id":"BUA","transit":false,"is_transit":false,"distance":3100,"time":2,"i_long":106.922662,"i_lat":-6.215568,"station_name":"Buaran"},{"station_name":"Klenderbaru","distance":1305,"line":1,"time":1,"station_id":"KLDB","i_lat":-6.217455,"transit":false,"is_transit":false,"i_long":106.939679},{"time":8,"distance":1385,"station_id":"CUK","line":1,"transit":false,"is_transit":false,"i_lat":-6.219053,"i_long":106.951283,"station_name":"Cakung"},{"transit":false,"station_id":"KRI","station_name":"Kranji","i_lat":-6.224515,"line":1,"is_transit":false,"time":3,"distance":3097,"i_long":106.977657},{"transit":false,"line":1,"i_lat":-6.236616,"is_transit":false,"station_name":"Bekasi","station_id":"BKS","distance":2520,"i_long":106.997013,"time":4},{"i_lat":-6.248029,"line":1,"station_id":"BKST","is_transit":false,"time":2,"transit":false,"station_name":"Bekasi Timur","distance":2368,"i_long":107.016735},{"i_lat":-6.258864,"i_long":107.055722,"transit":false,"line":1,"time":7,"station_id":"TB","is_transit":false,"distance":4460,"station_name":"Tambun"},{"i_lat":-6.261877,"station_id":"CIT","transit":false,"time":3,"station_name":"Cibitung","distance":3420,"line":1,"i_long":107.083084,"is_transit":false},{"is_transit":false,"distance":2800,"transit":false,"line":1,"station_id":"TLM","i_lat":-6.262938,"time":2,"i_long":107.093313,"station_name":"Metland Telaga Murni"}]]}