{"data":[[{"i_lat":-6.3441410000000005,"i_long":106.568863,"line":6,"transit":false,"station_name":"Parung Panjang","station_id":"PRP","distance":0,"is_transit":false,"time":0},{"station_id":"CC","i_lat":-6.329547,"line":3,"is_transit":false,"station_name":"Cicayur","distance":5968,"i_long":106.617853,"time":8,"transit":false},{"station_id":"CSK","transit":false,"is_transit":false,"station_name":"Cisauk","distance":2519,"i_lat":-6.32484,"time":4,"i_long":106.640411,"line":3},{"is_transit":false,"distance":1784,"i_lat":-6.319871,"i_long":106.66566,"line":6,"transit":false,"time":4,"station_id":"SRP","station_name":"Serpong"},{"distance":2413,"station_name":"Rawa Buntu","time":4,"station_id":"RU","is_transit":false,"line":6,"transit":false,"i_lat":-6.314823,"i_long":106.675475},{"line":6,"time":6,"i_lat":-6.296963,"i_long":106.712277,"transit":false,"is_transit":false,"distance":4566,"station_name":"Sudimara","station_id":"SDM"},{"is_transit":false,"i_long":106.728916,"line":6,"station_id":"JMU","transit":false,"i_lat":-6.288927,"station_name":"Jurangmangu","distance":1994,"time":4},{"distance":2179,"time":3,"station_name":"Pondokranji","transit":false,"i_lat":-6.276362,"station_id":"PDJ","i_long":106.74273,"is_transit":false,"line":6},{"station_name":"Kebayoran","time":8,"line":6,"i_lat":-6.237242,"i_long":106.780334,"distance":6218,"is_transit":false,"transit":false,"station_id":"KBY"},{"station_id":"PLM","distance":3737,"i_lat":-6.207404,"is_transit":false,"transit":false,"i_long":106.79689,"line":6,"station_name":"Palmerah","time":7},{"transit":true,"distance":3191,"station_id":"THB","i_lat":-6.185545,"is_transit":true,"line":1,"i_long":106.811091,"time":6,"station_name":"Tanah Abang"},{"distance":2029,"time":5,"is_transit":false,"line":1,"station_id":"KAT","station_name":"Karet","i_lat":-6.20132,"i_long":106.816351,"transit":false},{"transit":false,"is_transit":false,"distance":471,"i_lat":-6.201433,"line":1,"time":1,"station_id":"SUDB","station_name":"Sudirman Baru","i_long":106.819881},{"i_long":106.822649,"time":1,"i_lat":-6.202263,"station_id":"SUD","line":1,"transit":false,"distance":280,"is_transit":false,"station_name":"Sudirman"},{"i_lat":-6.209883,"line":2,"transit":true,"distance":3186,"station_name":"Manggarai","i_long":106.84912,"time":4,"station_id":"MRI","is_transit":true},{"distance":1590,"line":2,"time":4,"i_long":106.840169,"station_id":"CKI","i_lat":-6.198556,"is_transit":false,"transit":false,"station_name":"Cikini"},{"transit":false,"time":3,"distance":1750,"i_long":106.832183,"station_id":"GDD","line":2,"i_lat":-6.186295,"station_name":"Gondangdia","is_transit":false}],[{"i_long":106.568863,"station_id":"PRP","i_lat":-6.3441410000000005,"line":6,"distance":0,"time":0,"transit":false,"station_name":"Parung Panjang","is_transit":false},{"i_long":106.617853,"time":8,"station_id":"CC","i_lat":-6.329547,"line":3,"is_transit":false,"station_name":"Cicayur","distance":5968,"transit":false},{"is_transit":false,"time":4,"i_lat":-6.32484,"i_long":106.640411,"station_id":"CSK","station_name":"Cisauk","transit":false,"distance":2519,"line":3},{"distance":1784,"station_name":"Serpong","time":4,"i_long":106.66566,"transit":false,"i_lat":-6.319871,"is_transit":false,"station_id":"SRP","line":6},{"station_id":"RU","i_lat":-6.314823,"i_long":106.675475,"time":4,"transit":false,"line":6,"station_name":"Rawa Buntu","distance":2413,"is_transit":false},{"time":6,"line":6,"station_id":"SDM","transit":false,"is_transit":false,"i_long":106.712277,"distance":4566,"station_name":"Sudimara","i_lat":-6.296963},{"i_lat":-6.288927,"line":6,"time":4,"station_id":"JMU","station_name":"Jurangmangu","transit":false,"is_transit":false,"distance":1994,"i_long":106.728916},{"i_lat":-6.276362,"i_long":106.74273,"time":3,"station_id":"PDJ","transit":false,"line":6,"is_transit":false,"station_name":"Pondokranji","distance":2179},{"i_long":106.780334,"transit":false,"i_lat":-6.237242,"time":8,"station_name":"Kebayoran","station_id":"KBY","is_transit":false,"distance":6218,"line":6},{"line":6,"distance":3737,"time":7,"is_transit":false,"station_id":"PLM","i_lat":-6.207404,"transit":false,"station_name":"Palmerah","i_long":106.79689},{"distance":3191,"line":1,"time":6,"is_transit":true,"transit":true,"i_long":106.811091,"station_id":"THB","station_name":"Tanah Abang","i_lat":-6.185545},{"i_long":106.800832,"station_name":"Duri","distance":3632,"station_id":"DU","i_lat":-6.155215,"line":1,"transit":false,"time":8,"is_transit":false},{"is_transit":false,"distance":1230,"i_lat":-6.144674,"transit":false,"station_name":"Angke","station_id":"AK","i_long":106.79867,"line":1,"time":4},{"transit":true,"time":9,"is_transit":true,"station_name":"Kampung Bandan","line":4,"station_id":"KPB","i_long":106.826365,"i_lat":-6.132549,"distance":4102},{"station_id":"JAKK","line":2,"is_transit":true,"transit":true,"station_name":"Jakarta Kota","distance":1364,"i_lat":-6.137569,"time":3,"i_long":106.812439},{"station_name":"Jayakarta","is_transit":false,"transit":false,"i_lat":-6.141205,"i_long":106.820901,"distance":1264,"time":4,"line":2,"station_id":"JAY"},{"transit":false,"station_id":"MGB","station_name":"Manggabesar","i_long":106.82482,"line":2,"distance":1080,"time":2,"i_lat":-6.149769,"is_transit":false},{"transit":false,"distance":906,"station_name":"Sawah Besar","time":2,"station_id":"SW","i_long":106.827103,"i_lat":-6.160725,"is_transit":false,"line":2},{"line":2,"transit":false,"station_id":"JUA","is_transit":false,"station_name":"Juanda","distance":1149,"time":2,"i_long":106.828284,"i_lat":-6.166716},{"distance":2015,"station_name":"Gondangdia","time":4,"i_long":106.832183,"i_lat":-6.186295,"is_transit":false,"transit":false,"line":2,"station_id":"GDD"}],[{"station_name":"Parung Panjang","i_long":106.568863,"line":6,"time":0,"distance":0,"is_transit":false,"station_id":"PRP","i_lat":-6.3441410000000005,"transit":false},{"station_id":"CC","time":8,"i_lat":-6.329547,"transit":false,"station_name":"Cicayur","is_transit":false,"line":3,"i_long":106.617853,"distance":5968},{"station_id":"CSK","distance":2519,"i_lat":-6.32484,"transit":false,"i_long":106.640411,"is_transit":false,"time":4,"line":3,"station_name":"Cisauk"},{"station_name":"Serpong","time":4,"station_id":"SRP","distance":1784,"i_lat":-6.319871,"is_transit":false,"line":6,"transit":false,"i_long":106.66566},{"is_transit":false,"transit":false,"station_name":"Rawa Buntu","distance":2413,"line":6,"time":4,"station_id":"RU","i_lat":-6.314823,"i_long":106.675475},{"line":6,"station_name":"Sudimara","transit":false,"time":6,"station_id":"SDM","distance":4566,"i_lat":-6.296963,"i_long":106.712277,"is_transit":false},{"station_name":"Jurangmangu","station_id":"JMU","time":4,"is_transit":false,"distance":1994,"i_lat":-6.288927,"i_long":106.728916,"line":6,"transit":false},{"is_transit":false,"station_id":"PDJ","i_lat":-6.276362,"station_name":"Pondokranji","distance":2179,"i_long":106.74273,"line":6,"transit":false,"time":3},{"line":6,"station_id":"KBY","transit":false,"distance":6218,"time":8,"i_long":106.780334,"is_transit":false,"i_lat":-6.237242,"station_name":"Kebayoran"},{"station_id":"PLM","time":7,"is_transit":false,"i_lat":-6.207404,"distance":3737,"transit":false,"station_name":"Palmerah","i_long":106.79689,"line":6},{"i_long":106.811091,"station_id":"THB","transit":true,"time":6,"is_transit":true,"i_lat":-6.185545,"distance":3191,"line":1,"station_name":"Tanah Abang"},{"station_id":"DU","is_transit":false,"line":1,"i_lat":-6.155215,"i_long":106.800832,"time":8,"transit":false,"station_name":"Duri","distance":3632},{"distance":1230,"i_lat":-6.144674,"station_name":"Angke","i_long":106.79867,"line":1,"station_id":"AK","transit":false,"time":4,"is_transit":false},{"transit":true,"time":9,"station_name":"Kampung Bandan","is_transit":true,"i_lat":-6.132549,"station_id":"KPB","distance":4102,"line":4,"i_long":106.826365},{"station_id":"RJW","i_lat":-6.14505,"transit":false,"is_transit":false,"time":3,"i_long":106.836569,"station_name":"Rajawali","distance":1444,"line":11},{"time":5,"station_name":"Kemayoran","line":11,"i_lat":-6.161728,"is_transit":false,"transit":false,"station_id":"KMO","i_long":106.839204,"distance":1901},{"i_long":106.84368,"line":11,"station_id":"PSE","is_transit":false,"transit":false,"station_name":"Pasar Senen","distance":1436,"i_lat":-6.174784,"time":4},{"i_lat":-6.185975,"is_transit":false,"transit":false,"station_name":"Gang Sentiong","time":8,"station_id":"GST","i_long":106.850107,"line":11,"distance":1567},{"is_transit":false,"time":1,"station_id":"KMT","i_long":106.855437,"line":11,"transit":false,"station_name":"Kramat","distance":973,"i_lat":-6.193792},{"station_id":"POK","is_transit":false,"distance":1829,"i_lat":-6.209188,"i_long":106.861737,"time":2,"line":11,"station_name":"Pondok Jati","transit":false},{"transit":true,"station_id":"JNG","time":9,"station_name":"Jatinegara","line":1,"distance":1236,"is_transit":true,"i_lat":-6.215091,"i_long":106.86807400000001},{"i_long":106.858896,"transit":false,"line":1,"station_id":"MTR","station_name":"Matraman","time":2,"is_transit":false,"distance":1377,"i_lat":-6.212485},{"line":2,"station_name":"Manggarai","transit":true,"time":2,"is_transit":true,"i_lat":-6.209883,"i_long":106.84912,"station_id":"MRI","distance":1275},{"station_name":"Cikini","time":4,"line":2,"station_id":"CKI","i_long":106.840169,"distance":1590,"i_lat":-6.198556,"is_transit":false,"transit":false},{"transit":false,"station_name":"Gondangdia","line":2,"station_id":"GDD","i_lat":-6.186295,"i_long":106.832183,"distance":1750,"is_transit":false,"time":3}],[{"station_id":"PRP","i_lat":-6.3441410000000005,"i_long":106.568863,"is_transit":false,"station_name":"Parung Panjang","time":0,"line":6,"transit":false,"distance":0},{"line":3,"transit":false,"i_lat":-6.329547,"distance":5968,"station_id":"CC","station_name":"Cicayur","i_long":106.617853,"is_transit":false,"time":8},{"time":4,"station_name":"Cisauk","i_lat":-6.32484,"station_id":"CSK","transit":false,"distance":2519,"line":3,"i_long":106.640411,"is_transit":false},{"time":4,"station_name":"Serpong","i_lat":-6.319871,"i_long":106.66566,"transit":false,"station_id":"SRP","distance":1784,"is_transit":false,"line":6},{"line":6,"time":4,"i_long":106.675475,"is_transit":false,"i_lat":-6.314823,"transit":false,"station_id":"RU","station_name":"Rawa Buntu","distance":2413},{"i_lat":-6.296963,"time":6,"i_long":106.712277,"transit":false,"station_name":"Sudimara","distance":4566,"is_transit":false,"line":6,"station_id":"SDM"},{"i_lat":-6.288927,"i_long":106.728916,"line":6,"time":4,"station_name":"Jurangmangu","station_id":"JMU","is_transit":false,"transit":false,"distance":1994},{"i_lat":-6.276362,"i_long":106.74273,"is_transit":false,"distance":2179,"transit":false,"line":6,"station_id":"PDJ","station_name":"Pondokranji","time":3},{"station_id":"KBY","distance":6218,"station_name":"Kebayoran","is_transit":false,"transit":false,"time":8,"i_lat":-6.237242,"i_long":106.780334,"line":6},{"i_lat":-6.207404,"station_name":"Palmerah","distance":3737,"line":6,"transit":false,"is_transit":false,"time":7,"i_long":106.79689,"station_id":"PLM"},{"station_id":"THB","line":1,"i_lat":-6.185545,"transit":true,"station_name":"Tanah Abang","time":6,"is_transit":true,"distance":3191,"i_long":106.811091},{"time":5,"station_id":"KAT","is_transit":false,"i_lat":-6.20132,"station_name":"Karet","transit":false,"distance":2029,"i_long":106.816351,"line":1},{"is_transit":false,"i_lat":-6.201433,"time":1,"station_name":"Sudirman Baru","i_long":106.819881,"transit":false,"distance":471,"station_id":"SUDB","line":1},{"station_id":"SUD","i_long":106.822649,"transit":false,"station_name":"Sudirman","i_lat":-6.202263,"line":1,"is_transit":false,"distance":280,"time":1},{"station_id":"MRI","station_name":"Manggarai","is_transit":false,"transit":false,"i_lat":-6.209883,"time":4,"distance":3186,"i_long":106.84912,"line":2},{"transit":false,"station_name":"Matraman","is_transit":false,"time":2,"station_id":"MTR","i_lat":-6.212485,"i_long":106.858896,"distance":1275,"line":1},{"is_transit":true,"station_name":"Jatinegara","line":1,"time":8,"i_lat":-6.215091,"station_id":"JNG","transit":true,"i_long":106.86807400000001,"distance":1377},{"transit":false,"station_name":"Pondok Jati","is_transit":false,"station_id":"POK","distance":1236,"time":2,"i_lat":-6.209188,"i_long":106.861737,"line":11},{"i_long":106.855437,"station_name":"Kramat","line":11,"station_id":"KMT","transit":false,"is_transit":false,"i_lat":-6.193792,"time":2,"distance":1829},{"i_long":106.850107,"station_name":"Gang Sentiong","time":1,"transit":false,"distance":973,"line":11,"station_id":"GST","is_transit":false,"i_lat":-6.185975},{"distance":1567,"i_lat":-6.174784,"station_name":"Pasar Senen","i_long":106.84368,"time":8,"station_id":"PSE","line":11,"transit":false,"is_transit":false},{"distance":1436,"transit":false,"i_long":106.839204,"line":11,"station_name":"Kemayoran","station_id":"KMO","time":4,"i_lat":-6.161728,"is_transit":false},{"transit":false,"station_name":"Rajawali","station_id":"RJW","time":5,"distance":1901,"i_long":106.836569,"line":11,"i_lat":-6.14505,"is_transit":false},{"line":4,"station_name":"Kampung Bandan","distance":1444,"i_long":106.826365,"time":3,"station_id":"KPB","transit":true,"is_transit":true,"i_lat":-6.132549},{"transit":true,"station_id":"JAKK","station_name":"Jakarta Kota","i_long":106.812439,"line":2,"time":3,"is_transit":true,"distance":1364,"i_lat":-6.137569},{"station_name":"Jayakarta","time":4,"i_long":106.820901,"line":2,"is_transit":false,"i_lat":-6.141205,"station_id":"JAY","transit":false,"distance":1264},{"is_transit":false,"station_name":"Manggabesar","transit":false,"line":2,"time":2,"distance":1080,"i_lat":-6.149769,"i_long":106.82482,"station_id":"MGB"},{"is_transit":false,"station_name":"Sawah Besar","i_long":106.827103,"time":2,"transit":false,"distance":906,"station_id":"SW","line":2,"i_lat":-6.160725},{"line":2,"time":2,"station_name":"Juanda","is_transit":false,"i_long":106.828284,"transit":false,"distance":1149,"station_id":"JUA","i_lat":-6.166716},{"line":2,"transit":false,"i_lat":-6.186295,"distance":2015,"is_transit":false,"i_long":106.832183,"station_name":"Gondangdia","station_id":"GDD","time":4}]]}