{"data":[[{"transit":false,"station_id":"PRP","i_long":106.568863,"line":6,"i_lat":-6.3441410000000005,"time":0,"station_name":"Parung Panjang","distance":0,"is_transit":false},{"distance":5968,"line":0,"transit":false,"time":8,"is_transit":false,"station_id":"CC","station_name":"Cicayur","i_lat":-6.329547,"i_long":106.617853},{"i_lat":-6.32484,"time":4,"transit":false,"is_transit":false,"line":0,"station_id":"CSK","distance":2519,"i_long":106.640411,"station_name":"Cisauk"},{"line":6,"i_lat":-6.319871,"i_long":106.66566,"distance":1784,"is_transit":false,"station_id":"SRP","station_name":"Serpong","transit":false,"time":4},{"is_transit":false,"station_id":"RU","i_lat":-6.314823,"i_long":106.675475,"distance":2413,"time":4,"station_name":"Rawa Buntu","line":6,"transit":false},{"is_transit":false,"station_id":"SDM","time":6,"station_name":"Sudimara","distance":4566,"i_lat":-6.296963,"i_long":106.712277,"line":6,"transit":false},{"time":4,"i_lat":-6.288927,"i_long":106.728916,"station_id":"JMU","distance":1994,"line":6,"is_transit":false,"transit":false,"station_name":"Jurangmangu"},{"time":3,"is_transit":false,"station_name":"Pondokranji","transit":false,"station_id":"PDJ","i_lat":-6.276362,"i_long":106.74273,"line":6,"distance":2179},{"distance":6218,"line":6,"time":8,"is_transit":false,"i_lat":-6.237242,"station_id":"KBY","station_name":"Kebayoran","i_long":106.780334,"transit":false},{"is_transit":false,"transit":false,"i_lat":-6.207404,"time":7,"distance":3737,"line":6,"station_name":"Palmerah","station_id":"PLM","i_long":106.79689},{"i_lat":-6.185545,"station_name":"Tanah Abang","transit":true,"station_id":"THB","line":1,"i_long":106.811091,"is_transit":true,"time":6,"distance":3191},{"i_long":106.800832,"line":1,"is_transit":true,"distance":3632,"transit":true,"station_name":"Duri","i_lat":-6.155215,"station_id":"DU","time":8},{"station_name":"Grogol","transit":false,"station_id":"GGL","is_transit":false,"line":5,"time":3,"distance":1700,"i_long":106.788277,"i_lat":-6.162021},{"transit":false,"line":5,"i_long":106.771379,"station_id":"PSG","station_name":"Pesing","distance":2036,"is_transit":false,"i_lat":-6.161433,"time":2},{"time":2,"is_transit":false,"i_lat":-6.1587309999999995,"i_long":106.756522,"line":5,"station_id":"TKO","transit":false,"distance":1614,"station_name":"Taman Kota"},{"station_id":"BOI","transit":false,"station_name":"Bojongindah","time":2,"i_lat":-6.159876,"line":0,"i_long":106.737035,"is_transit":false,"distance":2334},{"station_id":"RW","station_name":"Rawa Buaya","i_lat":-6.162758,"distance":1152,"i_long":106.723064,"line":5,"transit":false,"is_transit":false,"time":4},{"distance":2504,"transit":false,"station_id":"KDS","time":3,"line":5,"i_long":106.701612,"station_name":"Kalideres","i_lat":-6.166068,"is_transit":false}],[{"is_transit":false,"station_id":"PRP","transit":false,"i_long":106.568863,"time":0,"distance":0,"i_lat":-6.3441410000000005,"line":6,"station_name":"Parung Panjang"},{"i_long":106.617853,"station_name":"Cicayur","station_id":"CC","i_lat":-6.329547,"transit":false,"distance":5968,"time":8,"is_transit":false,"line":0},{"i_lat":-6.32484,"i_long":106.640411,"line":0,"is_transit":false,"station_name":"Cisauk","time":4,"transit":false,"distance":2519,"station_id":"CSK"},{"i_lat":-6.319871,"line":6,"is_transit":false,"transit":false,"distance":1784,"station_id":"SRP","station_name":"Serpong","time":4,"i_long":106.66566},{"station_id":"RU","is_transit":false,"line":6,"i_long":106.675475,"transit":false,"distance":2413,"time":4,"station_name":"Rawa Buntu","i_lat":-6.314823},{"distance":4566,"transit":false,"station_name":"Sudimara","i_long":106.712277,"line":6,"station_id":"SDM","is_transit":false,"time":6,"i_lat":-6.296963},{"time":4,"i_long":106.728916,"station_name":"Jurangmangu","transit":false,"is_transit":false,"i_lat":-6.288927,"line":6,"distance":1994,"station_id":"JMU"},{"station_name":"Pondokranji","is_transit":false,"distance":2179,"transit":false,"i_lat":-6.276362,"i_long":106.74273,"station_id":"PDJ","line":6,"time":3},{"line":6,"i_long":106.780334,"transit":false,"i_lat":-6.237242,"station_name":"Kebayoran","is_transit":false,"station_id":"KBY","time":8,"distance":6218},{"station_name":"Palmerah","is_transit":false,"station_id":"PLM","i_lat":-6.207404,"i_long":106.79689,"transit":false,"line":6,"time":7,"distance":3737},{"time":6,"is_transit":true,"station_id":"THB","i_lat":-6.185545,"i_long":106.811091,"distance":3191,"station_name":"Tanah Abang","transit":true,"line":1},{"station_id":"KAT","station_name":"Karet","i_lat":-6.20132,"time":5,"distance":2029,"i_long":106.816351,"line":1,"is_transit":false,"transit":false},{"line":1,"distance":471,"station_name":"Sudirman Baru","is_transit":false,"i_lat":-6.201433,"transit":false,"i_long":106.819881,"time":1,"station_id":"SUDB"},{"time":1,"i_lat":-6.202263,"distance":280,"station_name":"Sudirman","is_transit":false,"line":1,"transit":false,"i_long":106.822649,"station_id":"SUD"},{"transit":true,"station_name":"Manggarai","i_lat":-6.209883,"is_transit":true,"time":4,"distance":3186,"station_id":"MRI","i_long":106.84912,"line":0},{"transit":false,"i_long":106.840169,"i_lat":-6.198556,"distance":1590,"station_name":"Cikini","line":0,"is_transit":false,"time":4,"station_id":"CKI"},{"line":2,"is_transit":false,"time":3,"distance":1750,"station_id":"GDD","station_name":"Gondangdia","transit":false,"i_lat":-6.186295,"i_long":106.832183},{"station_id":"JUA","line":2,"is_transit":false,"station_name":"Juanda","transit":false,"time":4,"i_long":106.828284,"i_lat":-6.166716,"distance":2015},{"is_transit":false,"station_name":"Sawah Besar","transit":false,"station_id":"SW","distance":1149,"time":2,"i_lat":-6.160725,"i_long":106.827103,"line":2},{"station_name":"Manggabesar","is_transit":false,"transit":false,"i_lat":-6.149769,"time":2,"i_long":106.82482,"line":2,"distance":906,"station_id":"MGB"},{"time":2,"i_lat":-6.141205,"is_transit":false,"station_id":"JAY","distance":1080,"station_name":"Jayakarta","transit":false,"i_long":106.820901,"line":7},{"is_transit":true,"transit":true,"i_long":106.812439,"station_name":"Jakarta Kota","time":4,"i_lat":-6.137569,"line":0,"station_id":"JAKK","distance":1264},{"i_lat":-6.132549,"i_long":106.826365,"station_id":"KPB","is_transit":true,"transit":false,"time":3,"station_name":"Kampung Bandan","line":0,"distance":1364},{"station_name":"Angke","distance":4102,"transit":false,"is_transit":false,"station_id":"AK","line":0,"i_lat":-6.144674,"time":9,"i_long":106.79867},{"station_id":"DU","is_transit":true,"time":4,"i_long":106.800832,"transit":true,"line":1,"distance":1230,"station_name":"Duri","i_lat":-6.155215},{"time":3,"transit":false,"distance":1700,"station_name":"Grogol","i_long":106.788277,"line":5,"station_id":"GGL","i_lat":-6.162021,"is_transit":false},{"i_lat":-6.161433,"is_transit":false,"station_name":"Pesing","line":5,"station_id":"PSG","i_long":106.771379,"transit":false,"time":2,"distance":2036},{"distance":1614,"i_long":106.756522,"transit":false,"i_lat":-6.1587309999999995,"station_id":"TKO","line":5,"station_name":"Taman Kota","time":2,"is_transit":false},{"distance":2334,"station_name":"Bojongindah","station_id":"BOI","i_long":106.737035,"line":0,"time":2,"is_transit":false,"i_lat":-6.159876,"transit":false},{"station_name":"Rawa Buaya","is_transit":false,"station_id":"RW","transit":false,"time":4,"distance":1152,"i_long":106.723064,"i_lat":-6.162758,"line":5},{"distance":2504,"station_name":"Kalideres","station_id":"KDS","i_long":106.701612,"time":3,"transit":false,"i_lat":-6.166068,"is_transit":false,"line":5}],[{"i_lat":-6.3441410000000005,"distance":0,"is_transit":false,"i_long":106.568863,"time":0,"transit":false,"station_id":"PRP","line":6,"station_name":"Parung Panjang"},{"i_lat":-6.329547,"distance":5968,"time":8,"line":0,"is_transit":false,"station_name":"Cicayur","i_long":106.617853,"station_id":"CC","transit":false},{"distance":2519,"time":4,"i_long":106.640411,"transit":false,"station_name":"Cisauk","is_transit":false,"station_id":"CSK","line":0,"i_lat":-6.32484},{"distance":1784,"time":4,"i_lat":-6.319871,"line":6,"station_name":"Serpong","transit":false,"is_transit":false,"station_id":"SRP","i_long":106.66566},{"i_lat":-6.314823,"line":6,"distance":2413,"is_transit":false,"station_id":"RU","station_name":"Rawa Buntu","transit":false,"i_long":106.675475,"time":4},{"i_long":106.712277,"transit":false,"line":6,"i_lat":-6.296963,"is_transit":false,"time":6,"distance":4566,"station_id":"SDM","station_name":"Sudimara"},{"is_transit":false,"i_long":106.728916,"station_id":"JMU","distance":1994,"station_name":"Jurangmangu","time":4,"line":6,"i_lat":-6.288927,"transit":false},{"distance":2179,"is_transit":false,"station_name":"Pondokranji","time":3,"i_lat":-6.276362,"i_long":106.74273,"station_id":"PDJ","transit":false,"line":6},{"station_id":"KBY","transit":false,"line":6,"is_transit":false,"station_name":"Kebayoran","i_long":106.780334,"i_lat":-6.237242,"distance":6218,"time":8},{"line":6,"i_long":106.79689,"i_lat":-6.207404,"time":7,"is_transit":false,"station_name":"Palmerah","transit":false,"distance":3737,"station_id":"PLM"},{"i_long":106.811091,"station_id":"THB","time":6,"is_transit":true,"i_lat":-6.185545,"line":1,"distance":3191,"station_name":"Tanah Abang","transit":true},{"is_transit":false,"time":5,"i_lat":-6.20132,"transit":false,"i_long":106.816351,"distance":2029,"line":1,"station_id":"KAT","station_name":"Karet"},{"distance":471,"i_lat":-6.201433,"is_transit":false,"station_name":"Sudirman Baru","time":1,"i_long":106.819881,"station_id":"SUDB","transit":false,"line":1},{"is_transit":false,"line":1,"station_id":"SUD","i_long":106.822649,"i_lat":-6.202263,"time":1,"distance":280,"transit":false,"station_name":"Sudirman"},{"i_long":106.84912,"distance":3186,"transit":false,"station_name":"Manggarai","i_lat":-6.209883,"time":4,"station_id":"MRI","is_transit":true,"line":0},{"time":2,"transit":false,"station_name":"Matraman","distance":1275,"station_id":"MTR","i_long":106.858896,"line":1,"is_transit":false,"i_lat":-6.212485},{"is_transit":true,"transit":true,"station_id":"JNG","i_long":106.86807400000001,"time":8,"station_name":"Jatinegara","distance":1377,"i_lat":-6.215091,"line":0},{"i_lat":-6.209188,"is_transit":false,"station_name":"Pondok Jati","transit":false,"line":11,"time":2,"distance":1236,"station_id":"POK","i_long":106.861737},{"distance":1829,"line":11,"transit":false,"time":2,"station_name":"Kramat","i_lat":-6.193792,"i_long":106.855437,"is_transit":false,"station_id":"KMT"},{"i_lat":-6.185975,"transit":false,"distance":973,"time":1,"station_name":"Gang Sentiong","is_transit":false,"station_id":"GST","line":11,"i_long":106.850107},{"distance":1567,"is_transit":false,"station_name":"Pasar Senen","line":11,"station_id":"PSE","transit":false,"i_long":106.84368,"i_lat":-6.174784,"time":8},{"i_long":106.839204,"station_name":"Kemayoran","distance":1436,"is_transit":false,"transit":false,"i_lat":-6.161728,"station_id":"KMO","line":11,"time":4},{"time":5,"station_name":"Rajawali","station_id":"RJW","distance":1901,"i_long":106.836569,"i_lat":-6.14505,"is_transit":false,"transit":false,"line":11},{"is_transit":true,"station_id":"KPB","time":3,"distance":1444,"station_name":"Kampung Bandan","transit":true,"i_long":106.826365,"line":0,"i_lat":-6.132549},{"transit":false,"i_long":106.79867,"station_id":"AK","i_lat":-6.144674,"line":0,"station_name":"Angke","is_transit":false,"distance":4102,"time":9},{"i_lat":-6.155215,"station_name":"Duri","time":4,"line":1,"transit":true,"i_long":106.800832,"is_transit":true,"distance":1230,"station_id":"DU"},{"line":5,"station_id":"GGL","station_name":"Grogol","transit":false,"i_lat":-6.162021,"time":3,"is_transit":false,"distance":1700,"i_long":106.788277},{"distance":2036,"station_name":"Pesing","i_lat":-6.161433,"line":5,"time":2,"station_id":"PSG","is_transit":false,"transit":false,"i_long":106.771379},{"transit":false,"time":2,"is_transit":false,"i_lat":-6.1587309999999995,"station_id":"TKO","line":5,"distance":1614,"i_long":106.756522,"station_name":"Taman Kota"},{"is_transit":false,"transit":false,"time":2,"i_long":106.737035,"station_name":"Bojongindah","distance":2334,"station_id":"BOI","i_lat":-6.159876,"line":0},{"time":4,"distance":1152,"station_id":"RW","transit":false,"i_long":106.723064,"line":5,"is_transit":false,"station_name":"Rawa Buaya","i_lat":-6.162758},{"station_id":"KDS","line":5,"i_long":106.701612,"i_lat":-6.166068,"distance":2504,"station_name":"Kalideres","is_transit":false,"transit":false,"time":3}]]}