{"data":[[{"station_name":"Parung Panjang","time":0,"is_transit":false,"i_lat":-6.3441410000000005,"transit":false,"line":6,"station_id":"PRP","distance":0,"i_long":106.568863},{"i_lat":-6.354349,"transit":false,"line":3,"time":9,"i_long":106.508482,"station_name":"Cilejit","station_id":"CJT","distance":7025,"is_transit":false},{"line":0,"i_lat":-6.338021,"station_id":"DAR","i_long":106.491338,"station_name":"Daru","distance":2675,"is_transit":false,"transit":false,"time":6},{"line":6,"station_id":"TEJ","transit":false,"station_name":"Tenjo","i_lat":-6.327251,"i_long":106.460812,"distance":3902,"is_transit":false,"time":5},{"i_long":106.425991,"line":6,"station_id":"TGS","time":5,"is_transit":false,"distance":2974,"transit":false,"station_name":"Tigaraksa","i_lat":-6.328533},{"i_lat":-6.33561,"i_long":106.411216,"line":3,"station_name":"Cikoya","is_transit":false,"station_id":"CKY","time":3,"transit":false,"distance":2651},{"distance":1853,"i_lat":-6.332307,"transit":false,"time":4,"i_long":106.394373,"is_transit":false,"station_id":"MJ","station_name":"Maja","line":6}]]}