{"data":[[{"station_id":"PRP","is_transit":false,"i_lat":-6.3441410000000005,"time":0,"transit":false,"i_long":106.568863,"line":6,"station_name":"Parung Panjang","distance":0},{"transit":false,"line":3,"i_long":106.617853,"distance":5968,"is_transit":false,"station_name":"Cicayur","station_id":"CC","i_lat":-6.329547,"time":8},{"distance":2519,"station_id":"CSK","transit":false,"station_name":"Cisauk","i_lat":-6.32484,"time":4,"is_transit":false,"i_long":106.640411,"line":3},{"transit":false,"station_name":"Serpong","time":4,"line":6,"i_long":106.66566,"is_transit":false,"distance":1784,"station_id":"SRP","i_lat":-6.319871},{"line":6,"i_long":106.675475,"time":4,"is_transit":false,"transit":false,"station_id":"RU","distance":2413,"station_name":"Rawa Buntu","i_lat":-6.314823},{"i_long":106.712277,"time":6,"distance":4566,"station_name":"Sudimara","line":6,"transit":false,"is_transit":false,"station_id":"SDM","i_lat":-6.296963},{"i_lat":-6.288927,"time":4,"line":6,"is_transit":false,"station_name":"Jurangmangu","distance":1994,"station_id":"JMU","i_long":106.728916,"transit":false},{"line":6,"station_name":"Pondokranji","transit":false,"i_long":106.74273,"station_id":"PDJ","is_transit":false,"time":3,"distance":2179,"i_lat":-6.276362}]]}