{"data":[[{"is_transit":false,"transit":false,"i_lat":-6.3441410000000005,"i_long":106.568863,"line":6,"time":0,"station_id":"PRP","distance":0,"station_name":"Parung Panjang"},{"transit":false,"station_name":"Cicayur","station_id":"CC","is_transit":false,"line":3,"time":8,"distance":5968,"i_lat":-6.329547,"i_long":106.617853},{"station_name":"Cisauk","line":3,"is_transit":false,"station_id":"CSK","distance":2519,"transit":false,"time":4,"i_long":106.640411,"i_lat":-6.32484},{"is_transit":false,"station_id":"SRP","i_long":106.66566,"line":6,"i_lat":-6.319871,"station_name":"Serpong","time":4,"transit":false,"distance":1784},{"distance":2413,"i_long":106.675475,"station_name":"Rawa Buntu","time":4,"i_lat":-6.314823,"is_transit":false,"line":6,"transit":false,"station_id":"RU"},{"station_name":"Sudimara","distance":4566,"transit":false,"time":6,"i_long":106.712277,"station_id":"SDM","is_transit":false,"i_lat":-6.296963,"line":6}]]}