{"data":[[{"time":0,"is_transit":false,"station_id":"PRP","station_name":"Parung Panjang","i_lat":-6.3441410000000005,"distance":0,"i_long":106.568863,"line":6,"transit":false},{"is_transit":false,"time":8,"i_lat":-6.329547,"i_long":106.617853,"line":0,"transit":false,"station_name":"Cicayur","station_id":"CC","distance":5968},{"i_long":106.640411,"line":0,"i_lat":-6.32484,"is_transit":false,"transit":false,"time":4,"station_name":"Cisauk","distance":2519,"station_id":"CSK"},{"distance":1784,"i_long":106.66566,"line":6,"transit":false,"i_lat":-6.319871,"time":4,"is_transit":false,"station_id":"SRP","station_name":"Serpong"},{"distance":2413,"station_id":"RU","i_long":106.675475,"transit":false,"line":6,"station_name":"Rawa Buntu","i_lat":-6.314823,"is_transit":false,"time":4},{"transit":false,"i_long":106.712277,"is_transit":false,"station_id":"SDM","line":6,"distance":4566,"station_name":"Sudimara","time":6,"i_lat":-6.296963},{"station_name":"Jurangmangu","i_long":106.728916,"i_lat":-6.288927,"time":4,"transit":false,"line":6,"distance":1994,"is_transit":false,"station_id":"JMU"},{"is_transit":false,"line":6,"station_id":"PDJ","transit":false,"station_name":"Pondokranji","i_lat":-6.276362,"distance":2179,"time":3,"i_long":106.74273},{"is_transit":false,"line":6,"i_lat":-6.237242,"time":8,"transit":false,"station_id":"KBY","station_name":"Kebayoran","i_long":106.780334,"distance":6218},{"time":7,"distance":3737,"i_long":106.79689,"station_id":"PLM","station_name":"Palmerah","transit":false,"i_lat":-6.207404,"is_transit":false,"line":6},{"station_id":"THB","station_name":"Tanah Abang","line":1,"time":6,"i_lat":-6.185545,"transit":true,"is_transit":true,"distance":3191,"i_long":106.811091},{"time":5,"i_lat":-6.20132,"distance":2029,"transit":false,"is_transit":false,"station_id":"KAT","station_name":"Karet","line":1,"i_long":106.816351},{"distance":471,"station_name":"Sudirman Baru","station_id":"SUDB","i_long":106.819881,"line":1,"i_lat":-6.201433,"is_transit":false,"transit":false,"time":1},{"station_id":"SUD","time":1,"is_transit":false,"station_name":"Sudirman","i_lat":-6.202263,"line":1,"distance":280,"transit":false,"i_long":106.822649},{"transit":false,"i_lat":-6.209883,"line":0,"station_id":"MRI","i_long":106.84912,"station_name":"Manggarai","is_transit":true,"time":4,"distance":3186},{"line":1,"station_id":"MTR","transit":false,"i_long":106.858896,"distance":1275,"time":2,"i_lat":-6.212485,"station_name":"Matraman","is_transit":false},{"distance":1377,"station_id":"JNG","station_name":"Jatinegara","time":8,"transit":false,"i_lat":-6.215091,"i_long":106.86807400000001,"is_transit":true,"line":0},{"distance":3395,"line":1,"station_id":"KLD","is_transit":false,"time":3,"station_name":"Klender","transit":false,"i_long":106.899548,"i_lat":-6.2135},{"time":2,"i_lat":-6.215568,"station_id":"BUA","distance":3100,"is_transit":false,"transit":false,"i_long":106.922662,"line":0,"station_name":"Buaran"},{"station_name":"Klenderbaru","i_long":106.939679,"is_transit":false,"distance":1305,"transit":false,"line":1,"station_id":"KLDB","time":1,"i_lat":-6.217455},{"distance":1385,"station_id":"CUK","transit":false,"i_lat":-6.219053,"line":0,"station_name":"Cakung","time":8,"is_transit":false,"i_long":106.951283},{"i_lat":-6.224515,"time":3,"is_transit":false,"i_long":106.977657,"station_name":"Kranji","distance":3097,"station_id":"KRI","transit":false,"line":1}],[{"distance":0,"transit":false,"line":6,"time":0,"station_name":"Parung Panjang","is_transit":false,"station_id":"PRP","i_lat":-6.3441410000000005,"i_long":106.568863},{"is_transit":false,"time":8,"i_long":106.617853,"line":0,"station_name":"Cicayur","i_lat":-6.329547,"distance":5968,"transit":false,"station_id":"CC"},{"is_transit":false,"time":4,"distance":2519,"station_name":"Cisauk","transit":false,"i_long":106.640411,"station_id":"CSK","line":0,"i_lat":-6.32484},{"station_name":"Serpong","station_id":"SRP","i_lat":-6.319871,"is_transit":false,"line":6,"transit":false,"time":4,"i_long":106.66566,"distance":1784},{"distance":2413,"i_long":106.675475,"station_id":"RU","station_name":"Rawa Buntu","time":4,"i_lat":-6.314823,"line":6,"transit":false,"is_transit":false},{"station_id":"SDM","line":6,"distance":4566,"transit":false,"station_name":"Sudimara","time":6,"is_transit":false,"i_long":106.712277,"i_lat":-6.296963},{"is_transit":false,"line":6,"station_name":"Jurangmangu","i_lat":-6.288927,"distance":1994,"i_long":106.728916,"station_id":"JMU","transit":false,"time":4},{"time":3,"transit":false,"i_lat":-6.276362,"line":6,"is_transit":false,"distance":2179,"station_id":"PDJ","station_name":"Pondokranji","i_long":106.74273},{"distance":6218,"line":6,"transit":false,"i_lat":-6.237242,"is_transit":false,"i_long":106.780334,"station_id":"KBY","station_name":"Kebayoran","time":8},{"station_name":"Palmerah","station_id":"PLM","transit":false,"time":7,"i_lat":-6.207404,"line":6,"i_long":106.79689,"is_transit":false,"distance":3737},{"time":6,"i_long":106.811091,"station_id":"THB","line":1,"is_transit":true,"station_name":"Tanah Abang","transit":true,"i_lat":-6.185545,"distance":3191},{"is_transit":true,"station_id":"DU","i_long":106.800832,"station_name":"Duri","line":1,"time":8,"i_lat":-6.155215,"transit":true,"distance":3632},{"distance":1230,"station_id":"AK","i_long":106.79867,"i_lat":-6.144674,"transit":false,"line":0,"is_transit":false,"time":4,"station_name":"Angke"},{"station_name":"Kampung Bandan","distance":4102,"transit":true,"time":9,"i_lat":-6.132549,"station_id":"KPB","i_long":106.826365,"is_transit":true,"line":0},{"is_transit":false,"station_id":"RJW","transit":false,"line":11,"distance":1444,"i_lat":-6.14505,"i_long":106.836569,"time":3,"station_name":"Rajawali"},{"i_long":106.839204,"time":5,"station_id":"KMO","station_name":"Kemayoran","transit":false,"line":11,"distance":1901,"is_transit":false,"i_lat":-6.161728},{"is_transit":false,"time":4,"transit":false,"i_lat":-6.174784,"line":11,"i_long":106.84368,"distance":1436,"station_id":"PSE","station_name":"Pasar Senen"},{"line":11,"distance":1567,"i_long":106.850107,"station_id":"GST","is_transit":false,"transit":false,"time":8,"i_lat":-6.185975,"station_name":"Gang Sentiong"},{"distance":973,"time":1,"is_transit":false,"transit":false,"line":11,"station_id":"KMT","i_lat":-6.193792,"station_name":"Kramat","i_long":106.855437},{"station_id":"POK","line":11,"i_lat":-6.209188,"distance":1829,"time":2,"station_name":"Pondok Jati","i_long":106.861737,"transit":false,"is_transit":false},{"line":0,"i_lat":-6.215091,"time":9,"is_transit":true,"distance":1236,"station_id":"JNG","station_name":"Jatinegara","transit":true,"i_long":106.86807400000001},{"i_long":106.899548,"is_transit":false,"transit":false,"time":3,"distance":3395,"station_name":"Klender","i_lat":-6.2135,"line":1,"station_id":"KLD"},{"is_transit":false,"transit":false,"i_lat":-6.215568,"i_long":106.922662,"time":2,"line":0,"station_id":"BUA","distance":3100,"station_name":"Buaran"},{"is_transit":false,"distance":1305,"station_name":"Klenderbaru","i_lat":-6.217455,"time":1,"line":1,"i_long":106.939679,"station_id":"KLDB","transit":false},{"transit":false,"i_long":106.951283,"line":0,"station_id":"CUK","distance":1385,"is_transit":false,"time":8,"i_lat":-6.219053,"station_name":"Cakung"},{"time":3,"station_name":"Kranji","distance":3097,"is_transit":false,"station_id":"KRI","transit":false,"i_long":106.977657,"i_lat":-6.224515,"line":1}],[{"time":0,"station_name":"Parung Panjang","distance":0,"is_transit":false,"transit":false,"i_long":106.568863,"line":6,"i_lat":-6.3441410000000005,"station_id":"PRP"},{"distance":5968,"station_id":"CC","i_lat":-6.329547,"is_transit":false,"station_name":"Cicayur","transit":false,"time":8,"i_long":106.617853,"line":0},{"time":4,"line":0,"i_lat":-6.32484,"distance":2519,"station_id":"CSK","i_long":106.640411,"transit":false,"is_transit":false,"station_name":"Cisauk"},{"i_long":106.66566,"station_name":"Serpong","line":6,"distance":1784,"time":4,"transit":false,"station_id":"SRP","is_transit":false,"i_lat":-6.319871},{"distance":2413,"station_name":"Rawa Buntu","transit":false,"i_lat":-6.314823,"i_long":106.675475,"line":6,"station_id":"RU","time":4,"is_transit":false},{"i_long":106.712277,"transit":false,"distance":4566,"is_transit":false,"station_name":"Sudimara","time":6,"line":6,"i_lat":-6.296963,"station_id":"SDM"},{"i_lat":-6.288927,"is_transit":false,"time":4,"distance":1994,"station_name":"Jurangmangu","i_long":106.728916,"transit":false,"station_id":"JMU","line":6},{"line":6,"distance":2179,"i_long":106.74273,"is_transit":false,"transit":false,"station_name":"Pondokranji","i_lat":-6.276362,"station_id":"PDJ","time":3},{"distance":6218,"i_lat":-6.237242,"line":6,"station_name":"Kebayoran","station_id":"KBY","is_transit":false,"time":8,"transit":false,"i_long":106.780334},{"transit":false,"distance":3737,"is_transit":false,"station_name":"Palmerah","station_id":"PLM","time":7,"i_lat":-6.207404,"line":6,"i_long":106.79689},{"transit":true,"i_long":106.811091,"time":6,"station_name":"Tanah Abang","station_id":"THB","distance":3191,"line":1,"is_transit":true,"i_lat":-6.185545},{"distance":3632,"i_lat":-6.155215,"time":8,"i_long":106.800832,"station_name":"Duri","is_transit":true,"transit":true,"line":1,"station_id":"DU"},{"line":0,"i_lat":-6.144674,"distance":1230,"station_id":"AK","station_name":"Angke","i_long":106.79867,"transit":false,"time":4,"is_transit":false},{"is_transit":true,"i_lat":-6.132549,"distance":4102,"i_long":106.826365,"transit":false,"time":9,"station_id":"KPB","station_name":"Kampung Bandan","line":0},{"station_id":"JAKK","i_long":106.812439,"distance":1364,"is_transit":true,"station_name":"Jakarta Kota","time":3,"line":0,"i_lat":-6.137569,"transit":true},{"is_transit":false,"distance":1264,"transit":false,"station_name":"Jayakarta","station_id":"JAY","time":4,"i_lat":-6.141205,"i_long":106.820901,"line":7},{"line":2,"distance":1080,"is_transit":false,"station_id":"MGB","time":2,"i_lat":-6.149769,"i_long":106.82482,"station_name":"Manggabesar","transit":false},{"station_id":"SW","is_transit":false,"line":2,"i_long":106.827103,"distance":906,"time":2,"station_name":"Sawah Besar","transit":false,"i_lat":-6.160725},{"station_name":"Juanda","i_lat":-6.166716,"distance":1149,"i_long":106.828284,"is_transit":false,"transit":false,"line":2,"time":2,"station_id":"JUA"},{"time":4,"is_transit":false,"i_lat":-6.186295,"station_name":"Gondangdia","station_id":"GDD","distance":2015,"transit":false,"line":2,"i_long":106.832183},{"i_lat":-6.198556,"distance":1750,"station_id":"CKI","i_long":106.840169,"station_name":"Cikini","time":3,"is_transit":false,"transit":false,"line":0},{"is_transit":true,"i_long":106.84912,"station_name":"Manggarai","transit":true,"station_id":"MRI","i_lat":-6.209883,"line":0,"distance":1590,"time":4},{"line":1,"is_transit":false,"station_id":"MTR","station_name":"Matraman","transit":false,"time":2,"i_long":106.858896,"distance":1275,"i_lat":-6.212485},{"distance":1377,"time":8,"line":0,"i_long":106.86807400000001,"is_transit":true,"station_id":"JNG","station_name":"Jatinegara","i_lat":-6.215091,"transit":false},{"distance":3395,"time":3,"is_transit":false,"line":1,"station_id":"KLD","i_lat":-6.2135,"i_long":106.899548,"transit":false,"station_name":"Klender"},{"station_name":"Buaran","time":2,"i_long":106.922662,"line":0,"i_lat":-6.215568,"distance":3100,"is_transit":false,"transit":false,"station_id":"BUA"},{"station_name":"Klenderbaru","time":1,"line":1,"is_transit":false,"transit":false,"i_long":106.939679,"i_lat":-6.217455,"station_id":"KLDB","distance":1305},{"transit":false,"i_long":106.951283,"line":0,"time":8,"distance":1385,"station_id":"CUK","station_name":"Cakung","i_lat":-6.219053,"is_transit":false},{"i_long":106.977657,"line":1,"distance":3097,"transit":false,"station_id":"KRI","station_name":"Kranji","i_lat":-6.224515,"time":3,"is_transit":false}],[{"station_name":"Parung Panjang","transit":false,"line":6,"is_transit":false,"i_lat":-6.3441410000000005,"i_long":106.568863,"station_id":"PRP","time":0,"distance":0},{"time":8,"line":0,"i_lat":-6.329547,"i_long":106.617853,"is_transit":false,"distance":5968,"station_name":"Cicayur","station_id":"CC","transit":false},{"line":0,"station_name":"Cisauk","transit":false,"i_lat":-6.32484,"time":4,"i_long":106.640411,"station_id":"CSK","distance":2519,"is_transit":false},{"distance":1784,"i_lat":-6.319871,"station_name":"Serpong","time":4,"i_long":106.66566,"is_transit":false,"station_id":"SRP","transit":false,"line":6},{"transit":false,"is_transit":false,"time":4,"i_lat":-6.314823,"i_long":106.675475,"line":6,"distance":2413,"station_id":"RU","station_name":"Rawa Buntu"},{"is_transit":false,"i_long":106.712277,"line":6,"distance":4566,"station_id":"SDM","station_name":"Sudimara","i_lat":-6.296963,"time":6,"transit":false},{"i_long":106.728916,"station_id":"JMU","i_lat":-6.288927,"distance":1994,"is_transit":false,"transit":false,"time":4,"line":6,"station_name":"Jurangmangu"},{"time":3,"station_name":"Pondokranji","i_lat":-6.276362,"i_long":106.74273,"line":6,"distance":2179,"is_transit":false,"station_id":"PDJ","transit":false},{"station_name":"Kebayoran","distance":6218,"i_long":106.780334,"i_lat":-6.237242,"line":6,"station_id":"KBY","transit":false,"time":8,"is_transit":false},{"i_lat":-6.207404,"line":6,"station_id":"PLM","is_transit":false,"distance":3737,"station_name":"Palmerah","time":7,"i_long":106.79689,"transit":false},{"i_lat":-6.185545,"is_transit":true,"station_id":"THB","line":1,"time":6,"transit":true,"station_name":"Tanah Abang","i_long":106.811091,"distance":3191},{"i_lat":-6.20132,"transit":false,"line":1,"time":5,"is_transit":false,"distance":2029,"station_name":"Karet","station_id":"KAT","i_long":106.816351},{"i_lat":-6.201433,"i_long":106.819881,"station_id":"SUDB","station_name":"Sudirman Baru","line":1,"distance":471,"transit":false,"is_transit":false,"time":1},{"transit":false,"time":1,"i_lat":-6.202263,"station_name":"Sudirman","line":1,"i_long":106.822649,"distance":280,"is_transit":false,"station_id":"SUD"},{"station_id":"MRI","time":4,"is_transit":true,"line":0,"distance":3186,"transit":true,"station_name":"Manggarai","i_lat":-6.209883,"i_long":106.84912},{"i_long":106.840169,"i_lat":-6.198556,"line":0,"is_transit":false,"station_name":"Cikini","distance":1590,"station_id":"CKI","transit":false,"time":4},{"transit":false,"station_id":"GDD","i_lat":-6.186295,"i_long":106.832183,"distance":1750,"is_transit":false,"time":3,"station_name":"Gondangdia","line":2},{"time":4,"station_id":"JUA","transit":false,"is_transit":false,"distance":2015,"i_lat":-6.166716,"station_name":"Juanda","line":2,"i_long":106.828284},{"is_transit":false,"i_lat":-6.160725,"line":2,"station_id":"SW","transit":false,"station_name":"Sawah Besar","i_long":106.827103,"distance":1149,"time":2},{"station_id":"MGB","station_name":"Manggabesar","time":2,"i_long":106.82482,"transit":false,"line":2,"distance":906,"is_transit":false,"i_lat":-6.149769},{"distance":1080,"time":2,"i_lat":-6.141205,"station_name":"Jayakarta","transit":false,"i_long":106.820901,"is_transit":false,"line":7,"station_id":"JAY"},{"distance":1264,"station_id":"JAKK","time":4,"line":0,"i_lat":-6.137569,"is_transit":true,"station_name":"Jakarta Kota","i_long":106.812439,"transit":true},{"station_id":"KPB","station_name":"Kampung Bandan","line":0,"time":3,"distance":1364,"transit":true,"is_transit":true,"i_long":106.826365,"i_lat":-6.132549},{"distance":1444,"i_long":106.836569,"line":11,"transit":false,"station_name":"Rajawali","is_transit":false,"station_id":"RJW","time":3,"i_lat":-6.14505},{"time":5,"station_name":"Kemayoran","transit":false,"is_transit":false,"i_lat":-6.161728,"i_long":106.839204,"station_id":"KMO","line":11,"distance":1901},{"distance":1436,"transit":false,"i_lat":-6.174784,"station_id":"PSE","is_transit":false,"station_name":"Pasar Senen","i_long":106.84368,"time":4,"line":11},{"time":8,"line":11,"i_long":106.850107,"distance":1567,"transit":false,"station_name":"Gang Sentiong","i_lat":-6.185975,"is_transit":false,"station_id":"GST"},{"distance":973,"time":1,"i_lat":-6.193792,"station_id":"KMT","station_name":"Kramat","i_long":106.855437,"transit":false,"line":11,"is_transit":false},{"is_transit":false,"station_id":"POK","distance":1829,"time":2,"i_long":106.861737,"station_name":"Pondok Jati","line":11,"transit":false,"i_lat":-6.209188},{"is_transit":true,"line":0,"transit":true,"i_lat":-6.215091,"i_long":106.86807400000001,"distance":1236,"station_id":"JNG","station_name":"Jatinegara","time":9},{"station_id":"KLD","i_lat":-6.2135,"is_transit":false,"station_name":"Klender","distance":3395,"time":3,"transit":false,"line":1,"i_long":106.899548},{"is_transit":false,"distance":3100,"time":2,"i_long":106.922662,"line":0,"station_id":"BUA","transit":false,"i_lat":-6.215568,"station_name":"Buaran"},{"station_id":"KLDB","line":1,"transit":false,"station_name":"Klenderbaru","i_long":106.939679,"time":1,"distance":1305,"i_lat":-6.217455,"is_transit":false},{"distance":1385,"time":8,"station_id":"CUK","i_long":106.951283,"line":0,"is_transit":false,"station_name":"Cakung","transit":false,"i_lat":-6.219053},{"i_lat":-6.224515,"i_long":106.977657,"time":3,"station_name":"Kranji","transit":false,"is_transit":false,"line":1,"station_id":"KRI","distance":3097}]]}