{"data":[[{"line":6,"distance":0,"is_transit":false,"i_long":106.568863,"station_id":"PRP","station_name":"Parung Panjang","i_lat":-6.3441410000000005,"time":0,"transit":false},{"is_transit":false,"time":9,"line":0,"i_lat":-6.354349,"i_long":106.508482,"station_name":"Cilejit","transit":false,"distance":7025,"station_id":"CJT"},{"distance":2675,"transit":false,"i_long":106.491338,"line":0,"time":6,"station_name":"Daru","i_lat":-6.338021,"is_transit":false,"station_id":"DAR"},{"line":6,"i_lat":-6.327251,"i_long":106.460812,"transit":false,"distance":3902,"is_transit":false,"station_id":"TEJ","station_name":"Tenjo","time":5},{"transit":false,"line":6,"distance":2974,"i_lat":-6.328533,"station_name":"Tigaraksa","i_long":106.425991,"time":5,"station_id":"TGS","is_transit":false},{"transit":false,"is_transit":false,"station_name":"Cikoya","i_long":106.411216,"i_lat":-6.33561,"station_id":"CKY","time":3,"distance":2651,"line":0},{"is_transit":false,"transit":false,"i_lat":-6.332307,"line":6,"station_name":"Maja","distance":1853,"i_long":106.394373,"time":4,"station_id":"MJ"}]]}