{"data":[[{"line":6,"transit":false,"distance":0,"time":0,"station_name":"Parung Panjang","station_id":"PRP","i_long":106.568863,"is_transit":false,"i_lat":-6.3441410000000005},{"line":3,"distance":5968,"station_id":"CC","i_long":106.617853,"time":8,"transit":false,"is_transit":false,"i_lat":-6.329547,"station_name":"Cicayur"},{"is_transit":false,"time":4,"distance":2519,"station_id":"CSK","transit":false,"i_lat":-6.32484,"i_long":106.640411,"line":3,"station_name":"Cisauk"},{"i_lat":-6.319871,"transit":false,"is_transit":false,"i_long":106.66566,"distance":1784,"station_name":"Serpong","time":4,"station_id":"SRP","line":6},{"line":6,"transit":false,"station_id":"RU","i_long":106.675475,"station_name":"Rawa Buntu","i_lat":-6.314823,"time":4,"distance":2413,"is_transit":false},{"transit":false,"i_long":106.712277,"line":6,"station_name":"Sudimara","i_lat":-6.296963,"distance":4566,"is_transit":false,"station_id":"SDM","time":6},{"station_id":"JMU","transit":false,"is_transit":false,"time":4,"distance":1994,"i_long":106.728916,"i_lat":-6.288927,"station_name":"Jurangmangu","line":6},{"is_transit":false,"station_name":"Pondokranji","distance":2179,"i_lat":-6.276362,"transit":false,"line":6,"i_long":106.74273,"station_id":"PDJ","time":3},{"distance":6218,"station_name":"Kebayoran","line":6,"transit":false,"is_transit":false,"station_id":"KBY","i_long":106.780334,"time":8,"i_lat":-6.237242},{"line":6,"station_id":"PLM","station_name":"Palmerah","is_transit":false,"distance":3737,"transit":false,"time":7,"i_lat":-6.207404,"i_long":106.79689},{"is_transit":true,"line":1,"time":6,"transit":true,"station_id":"THB","station_name":"Tanah Abang","i_long":106.811091,"distance":3191,"i_lat":-6.185545},{"time":5,"line":1,"transit":false,"station_id":"KAT","distance":2029,"is_transit":false,"station_name":"Karet","i_lat":-6.20132,"i_long":106.816351},{"distance":471,"transit":false,"i_long":106.819881,"time":1,"i_lat":-6.201433,"station_id":"SUDB","is_transit":false,"line":1,"station_name":"Sudirman Baru"},{"station_id":"SUD","time":1,"i_long":106.822649,"is_transit":false,"line":1,"i_lat":-6.202263,"transit":false,"station_name":"Sudirman","distance":280},{"i_lat":-6.209883,"line":2,"station_name":"Manggarai","distance":3186,"station_id":"MRI","is_transit":true,"time":4,"transit":true,"i_long":106.84912},{"station_name":"Tebet","i_long":106.857948,"line":2,"time":4,"transit":false,"is_transit":false,"distance":2610,"i_lat":-6.226659,"station_id":"TEB"},{"is_transit":false,"distance":1230,"i_lat":-6.242512,"station_id":"CW","transit":false,"time":2,"station_name":"Cawang","i_long":106.856607,"line":2},{"is_transit":false,"time":3,"i_lat":-6.255332,"transit":false,"station_name":"Duren Kalibata","station_id":"DRN","distance":1546,"i_long":106.85449,"line":2},{"station_id":"PSMB","transit":false,"is_transit":false,"station_name":"Pasar Minggu Baru","line":2,"i_lat":-6.263214,"time":2,"i_long":106.851577,"distance":824},{"distance":2380,"is_transit":false,"transit":false,"time":2,"i_lat":-6.2842400000000005,"i_long":106.843999,"line":2,"station_id":"PSM","station_name":"Pasar Minggu"},{"transit":false,"time":4,"distance":2820,"i_lat":-6.3080680000000005,"line":2,"station_name":"Tanjung Barat","station_id":"TNT","is_transit":false,"i_long":106.838896},{"station_name":"Lenteng Agung","distance":2671,"transit":false,"time":3,"is_transit":false,"station_id":"LNA","i_lat":-6.330363,"i_long":106.832616,"line":2},{"station_id":"UP","transit":false,"is_transit":false,"time":2,"distance":1029,"i_lat":-6.339291,"station_name":"Univ. Pancasila","i_long":106.834175,"line":2},{"station_name":"Univ. Indonesia","time":3,"is_transit":false,"transit":false,"station_id":"UI","i_lat":-6.360749,"i_long":106.831474,"line":2,"distance":2264},{"i_long":106.831114,"station_name":"Pondok Cina","transit":false,"station_id":"POC","line":2,"time":2,"is_transit":false,"i_lat":-6.369073,"distance":1109},{"i_lat":-6.391065,"time":4,"is_transit":false,"distance":2727,"station_name":"Depokbaru","station_id":"DPB","line":2,"i_long":106.819451,"transit":false},{"station_name":"Depok","i_long":106.816926,"transit":false,"line":2,"i_lat":-6.405256,"station_id":"DP","is_transit":false,"time":3,"distance":1584},{"i_lat":-6.448811,"line":2,"station_name":"Citayam","station_id":"CTA","distance":5084,"i_long":106.800298,"transit":false,"time":6,"is_transit":false}],[{"i_lat":-6.3441410000000005,"i_long":106.568863,"station_name":"Parung Panjang","station_id":"PRP","time":0,"line":6,"transit":false,"is_transit":false,"distance":0},{"station_id":"CC","line":3,"station_name":"Cicayur","time":8,"distance":5968,"transit":false,"i_lat":-6.329547,"is_transit":false,"i_long":106.617853},{"line":3,"i_long":106.640411,"station_id":"CSK","station_name":"Cisauk","is_transit":false,"time":4,"distance":2519,"i_lat":-6.32484,"transit":false},{"i_lat":-6.319871,"line":6,"station_name":"Serpong","i_long":106.66566,"time":4,"is_transit":false,"transit":false,"distance":1784,"station_id":"SRP"},{"station_name":"Rawa Buntu","line":6,"transit":false,"is_transit":false,"i_lat":-6.314823,"time":4,"distance":2413,"i_long":106.675475,"station_id":"RU"},{"time":6,"station_id":"SDM","is_transit":false,"distance":4566,"i_lat":-6.296963,"line":6,"i_long":106.712277,"transit":false,"station_name":"Sudimara"},{"i_long":106.728916,"station_id":"JMU","transit":false,"time":4,"station_name":"Jurangmangu","line":6,"is_transit":false,"distance":1994,"i_lat":-6.288927},{"station_name":"Pondokranji","transit":false,"is_transit":false,"time":3,"distance":2179,"line":6,"i_lat":-6.276362,"i_long":106.74273,"station_id":"PDJ"},{"distance":6218,"i_lat":-6.237242,"station_name":"Kebayoran","is_transit":false,"transit":false,"i_long":106.780334,"line":6,"station_id":"KBY","time":8},{"i_lat":-6.207404,"time":7,"distance":3737,"transit":false,"station_name":"Palmerah","is_transit":false,"station_id":"PLM","i_long":106.79689,"line":6},{"is_transit":true,"station_name":"Tanah Abang","i_long":106.811091,"station_id":"THB","distance":3191,"line":1,"time":6,"transit":true,"i_lat":-6.185545},{"time":8,"transit":false,"station_name":"Duri","station_id":"DU","line":1,"i_long":106.800832,"is_transit":false,"distance":3632,"i_lat":-6.155215},{"station_id":"AK","station_name":"Angke","is_transit":false,"i_lat":-6.144674,"i_long":106.79867,"time":4,"distance":1230,"transit":false,"line":1},{"i_long":106.826365,"line":4,"i_lat":-6.132549,"station_id":"KPB","is_transit":true,"distance":4102,"time":9,"station_name":"Kampung Bandan","transit":true},{"distance":1364,"line":2,"is_transit":true,"transit":true,"station_id":"JAKK","i_long":106.812439,"station_name":"Jakarta Kota","i_lat":-6.137569,"time":3},{"transit":false,"line":2,"time":4,"is_transit":false,"station_name":"Jayakarta","i_lat":-6.141205,"i_long":106.820901,"station_id":"JAY","distance":1264},{"i_lat":-6.149769,"station_name":"Manggabesar","distance":1080,"time":2,"transit":false,"i_long":106.82482,"line":2,"station_id":"MGB","is_transit":false},{"i_lat":-6.160725,"station_name":"Sawah Besar","is_transit":false,"distance":906,"transit":false,"i_long":106.827103,"station_id":"SW","time":2,"line":2},{"station_name":"Juanda","distance":1149,"transit":false,"station_id":"JUA","i_lat":-6.166716,"line":2,"i_long":106.828284,"time":2,"is_transit":false},{"i_lat":-6.186295,"line":2,"station_name":"Gondangdia","i_long":106.832183,"time":4,"transit":false,"station_id":"GDD","is_transit":false,"distance":2015},{"time":3,"is_transit":false,"transit":false,"i_long":106.840169,"station_id":"CKI","i_lat":-6.198556,"station_name":"Cikini","line":2,"distance":1750},{"station_name":"Manggarai","line":2,"i_long":106.84912,"time":4,"i_lat":-6.209883,"station_id":"MRI","distance":1590,"is_transit":false,"transit":false},{"i_lat":-6.226659,"station_id":"TEB","is_transit":false,"transit":false,"time":4,"station_name":"Tebet","line":2,"i_long":106.857948,"distance":2610},{"i_long":106.856607,"station_name":"Cawang","i_lat":-6.242512,"line":2,"distance":1230,"is_transit":false,"transit":false,"station_id":"CW","time":2},{"i_long":106.85449,"station_name":"Duren Kalibata","distance":1546,"time":3,"i_lat":-6.255332,"line":2,"transit":false,"is_transit":false,"station_id":"DRN"},{"i_long":106.851577,"i_lat":-6.263214,"line":2,"time":2,"is_transit":false,"station_name":"Pasar Minggu Baru","station_id":"PSMB","transit":false,"distance":824},{"distance":2380,"line":2,"transit":false,"i_long":106.843999,"station_name":"Pasar Minggu","station_id":"PSM","time":2,"is_transit":false,"i_lat":-6.2842400000000005},{"station_id":"TNT","transit":false,"time":4,"i_long":106.838896,"line":2,"i_lat":-6.3080680000000005,"station_name":"Tanjung Barat","is_transit":false,"distance":2820},{"line":2,"station_name":"Lenteng Agung","i_lat":-6.330363,"distance":2671,"transit":false,"station_id":"LNA","time":3,"i_long":106.832616,"is_transit":false},{"i_long":106.834175,"station_id":"UP","time":2,"is_transit":false,"distance":1029,"line":2,"station_name":"Univ. Pancasila","i_lat":-6.339291,"transit":false},{"i_long":106.831474,"line":2,"distance":2264,"i_lat":-6.360749,"is_transit":false,"transit":false,"station_id":"UI","station_name":"Univ. Indonesia","time":3},{"station_name":"Pondok Cina","i_long":106.831114,"transit":false,"is_transit":false,"i_lat":-6.369073,"line":2,"distance":1109,"time":2,"station_id":"POC"},{"station_id":"DPB","time":4,"distance":2727,"i_lat":-6.391065,"i_long":106.819451,"transit":false,"line":2,"is_transit":false,"station_name":"Depokbaru"},{"station_id":"DP","is_transit":false,"station_name":"Depok","time":3,"distance":1584,"transit":false,"i_lat":-6.405256,"i_long":106.816926,"line":2},{"i_lat":-6.448811,"transit":false,"is_transit":false,"i_long":106.800298,"station_name":"Citayam","time":6,"station_id":"CTA","line":2,"distance":5084}],[{"transit":false,"is_transit":false,"i_long":106.568863,"distance":0,"line":6,"time":0,"i_lat":-6.3441410000000005,"station_name":"Parung Panjang","station_id":"PRP"},{"line":3,"i_long":106.617853,"i_lat":-6.329547,"station_name":"Cicayur","distance":5968,"transit":false,"is_transit":false,"time":8,"station_id":"CC"},{"line":3,"i_lat":-6.32484,"transit":false,"station_name":"Cisauk","station_id":"CSK","is_transit":false,"time":4,"i_long":106.640411,"distance":2519},{"time":4,"i_long":106.66566,"station_name":"Serpong","line":6,"distance":1784,"transit":false,"station_id":"SRP","i_lat":-6.319871,"is_transit":false},{"line":6,"station_name":"Rawa Buntu","station_id":"RU","time":4,"distance":2413,"transit":false,"i_lat":-6.314823,"i_long":106.675475,"is_transit":false},{"station_name":"Sudimara","station_id":"SDM","i_long":106.712277,"transit":false,"i_lat":-6.296963,"time":6,"is_transit":false,"distance":4566,"line":6},{"is_transit":false,"station_name":"Jurangmangu","time":4,"i_lat":-6.288927,"transit":false,"i_long":106.728916,"distance":1994,"line":6,"station_id":"JMU"},{"time":3,"station_name":"Pondokranji","is_transit":false,"transit":false,"i_long":106.74273,"distance":2179,"line":6,"i_lat":-6.276362,"station_id":"PDJ"},{"i_long":106.780334,"station_name":"Kebayoran","i_lat":-6.237242,"transit":false,"time":8,"distance":6218,"is_transit":false,"line":6,"station_id":"KBY"},{"transit":false,"line":6,"distance":3737,"i_lat":-6.207404,"station_name":"Palmerah","station_id":"PLM","time":7,"i_long":106.79689,"is_transit":false},{"transit":true,"time":6,"i_lat":-6.185545,"station_id":"THB","distance":3191,"line":1,"i_long":106.811091,"station_name":"Tanah Abang","is_transit":true},{"is_transit":false,"i_lat":-6.155215,"line":1,"station_id":"DU","transit":false,"station_name":"Duri","distance":3632,"time":8,"i_long":106.800832},{"time":4,"distance":1230,"station_id":"AK","is_transit":false,"station_name":"Angke","transit":false,"i_long":106.79867,"i_lat":-6.144674,"line":1},{"line":4,"is_transit":true,"transit":true,"station_id":"KPB","time":9,"station_name":"Kampung Bandan","i_lat":-6.132549,"i_long":106.826365,"distance":4102},{"i_long":106.836569,"station_name":"Rajawali","is_transit":false,"i_lat":-6.14505,"line":11,"transit":false,"station_id":"RJW","time":3,"distance":1444},{"distance":1901,"station_name":"Kemayoran","line":11,"i_long":106.839204,"station_id":"KMO","is_transit":false,"transit":false,"time":5,"i_lat":-6.161728},{"is_transit":false,"i_long":106.84368,"station_name":"Pasar Senen","line":11,"station_id":"PSE","i_lat":-6.174784,"time":4,"distance":1436,"transit":false},{"distance":1567,"i_lat":-6.185975,"station_id":"GST","time":8,"is_transit":false,"i_long":106.850107,"transit":false,"line":11,"station_name":"Gang Sentiong"},{"transit":false,"i_long":106.855437,"distance":973,"line":11,"station_name":"Kramat","is_transit":false,"time":1,"i_lat":-6.193792,"station_id":"KMT"},{"station_id":"POK","i_long":106.861737,"station_name":"Pondok Jati","i_lat":-6.209188,"distance":1829,"is_transit":false,"line":11,"time":2,"transit":false},{"line":1,"is_transit":true,"station_name":"Jatinegara","station_id":"JNG","i_lat":-6.215091,"transit":true,"time":9,"distance":1236,"i_long":106.86807400000001},{"station_id":"MTR","distance":1377,"transit":false,"is_transit":false,"time":2,"i_lat":-6.212485,"line":1,"station_name":"Matraman","i_long":106.858896},{"i_long":106.84912,"time":2,"distance":1275,"i_lat":-6.209883,"station_name":"Manggarai","transit":true,"station_id":"MRI","line":2,"is_transit":true},{"i_long":106.857948,"is_transit":false,"time":4,"distance":2610,"i_lat":-6.226659,"station_id":"TEB","station_name":"Tebet","transit":false,"line":2},{"i_lat":-6.242512,"i_long":106.856607,"is_transit":false,"distance":1230,"line":2,"time":2,"transit":false,"station_name":"Cawang","station_id":"CW"},{"station_name":"Duren Kalibata","transit":false,"is_transit":false,"time":3,"distance":1546,"station_id":"DRN","i_lat":-6.255332,"i_long":106.85449,"line":2},{"transit":false,"station_name":"Pasar Minggu Baru","is_transit":false,"time":2,"i_long":106.851577,"station_id":"PSMB","distance":824,"i_lat":-6.263214,"line":2},{"transit":false,"i_long":106.843999,"i_lat":-6.2842400000000005,"station_id":"PSM","is_transit":false,"line":2,"distance":2380,"time":2,"station_name":"Pasar Minggu"},{"station_name":"Tanjung Barat","distance":2820,"station_id":"TNT","time":4,"i_lat":-6.3080680000000005,"transit":false,"i_long":106.838896,"line":2,"is_transit":false},{"is_transit":false,"station_name":"Lenteng Agung","i_lat":-6.330363,"distance":2671,"station_id":"LNA","transit":false,"time":3,"i_long":106.832616,"line":2},{"distance":1029,"time":2,"transit":false,"i_long":106.834175,"station_name":"Univ. Pancasila","station_id":"UP","line":2,"is_transit":false,"i_lat":-6.339291},{"transit":false,"is_transit":false,"time":3,"i_long":106.831474,"station_name":"Univ. Indonesia","distance":2264,"station_id":"UI","i_lat":-6.360749,"line":2},{"transit":false,"time":2,"distance":1109,"i_long":106.831114,"line":2,"is_transit":false,"station_id":"POC","station_name":"Pondok Cina","i_lat":-6.369073},{"station_id":"DPB","is_transit":false,"i_long":106.819451,"line":2,"transit":false,"station_name":"Depokbaru","i_lat":-6.391065,"time":4,"distance":2727},{"i_long":106.816926,"transit":false,"station_name":"Depok","time":3,"station_id":"DP","distance":1584,"i_lat":-6.405256,"is_transit":false,"line":2},{"time":6,"line":2,"i_lat":-6.448811,"station_name":"Citayam","transit":false,"distance":5084,"i_long":106.800298,"station_id":"CTA","is_transit":false}]]}