{"data":[[{"i_lat":-6.3441410000000005,"distance":0,"transit":false,"is_transit":false,"time":0,"station_name":"Parung Panjang","station_id":"PRP","i_long":106.568863,"line":6},{"transit":false,"i_long":106.617853,"station_name":"Cicayur","is_transit":false,"line":3,"i_lat":-6.329547,"time":8,"distance":5968,"station_id":"CC"},{"station_name":"Cisauk","line":3,"i_long":106.640411,"distance":2519,"transit":false,"time":4,"station_id":"CSK","i_lat":-6.32484,"is_transit":false},{"distance":1784,"station_name":"Serpong","i_long":106.66566,"is_transit":false,"time":4,"station_id":"SRP","i_lat":-6.319871,"transit":false,"line":6},{"transit":false,"line":6,"distance":2413,"station_name":"Rawa Buntu","time":4,"is_transit":false,"station_id":"RU","i_long":106.675475,"i_lat":-6.314823},{"station_id":"SDM","line":6,"is_transit":false,"time":6,"station_name":"Sudimara","distance":4566,"i_long":106.712277,"i_lat":-6.296963,"transit":false},{"time":4,"distance":1994,"i_long":106.728916,"i_lat":-6.288927,"station_id":"JMU","station_name":"Jurangmangu","line":6,"is_transit":false,"transit":false},{"station_name":"Pondokranji","line":6,"time":3,"i_lat":-6.276362,"is_transit":false,"i_long":106.74273,"distance":2179,"station_id":"PDJ","transit":false},{"station_name":"Kebayoran","i_lat":-6.237242,"transit":false,"is_transit":false,"distance":6218,"i_long":106.780334,"time":8,"line":6,"station_id":"KBY"},{"i_lat":-6.207404,"time":7,"station_id":"PLM","distance":3737,"transit":false,"station_name":"Palmerah","line":6,"is_transit":false,"i_long":106.79689},{"transit":true,"i_long":106.811091,"time":6,"i_lat":-6.185545,"station_name":"Tanah Abang","line":1,"distance":3191,"is_transit":true,"station_id":"THB"},{"i_lat":-6.20132,"is_transit":false,"station_id":"KAT","time":5,"line":1,"distance":2029,"i_long":106.816351,"station_name":"Karet","transit":false},{"i_long":106.819881,"station_id":"SUDB","is_transit":false,"station_name":"Sudirman Baru","time":1,"line":1,"transit":false,"distance":471,"i_lat":-6.201433},{"distance":280,"time":1,"line":1,"is_transit":false,"station_name":"Sudirman","station_id":"SUD","transit":false,"i_lat":-6.202263,"i_long":106.822649},{"transit":false,"station_name":"Manggarai","station_id":"MRI","i_long":106.84912,"distance":3186,"line":2,"time":4,"is_transit":false,"i_lat":-6.209883},{"transit":false,"time":2,"line":1,"i_long":106.858896,"is_transit":false,"distance":1275,"i_lat":-6.212485,"station_id":"MTR","station_name":"Matraman"},{"station_name":"Jatinegara","is_transit":false,"station_id":"JNG","i_lat":-6.215091,"transit":false,"i_long":106.86807400000001,"distance":1377,"time":8,"line":1},{"station_name":"Klender","station_id":"KLD","transit":false,"distance":3395,"i_long":106.899548,"line":1,"time":3,"i_lat":-6.2135,"is_transit":false},{"station_id":"BUA","i_lat":-6.215568,"distance":3100,"time":2,"i_long":106.922662,"is_transit":false,"transit":false,"station_name":"Buaran","line":1},{"time":1,"transit":false,"distance":1305,"station_id":"KLDB","station_name":"Klenderbaru","i_lat":-6.217455,"i_long":106.939679,"line":1,"is_transit":false},{"line":1,"is_transit":false,"time":8,"distance":1385,"station_name":"Cakung","station_id":"CUK","i_long":106.951283,"i_lat":-6.219053,"transit":false},{"station_name":"Kranji","transit":false,"i_lat":-6.224515,"i_long":106.977657,"line":1,"distance":3097,"station_id":"KRI","time":3,"is_transit":false}],[{"is_transit":false,"station_name":"Parung Panjang","distance":0,"transit":false,"station_id":"PRP","i_lat":-6.3441410000000005,"time":0,"i_long":106.568863,"line":6},{"i_long":106.617853,"station_name":"Cicayur","line":3,"distance":5968,"time":8,"is_transit":false,"transit":false,"station_id":"CC","i_lat":-6.329547},{"is_transit":false,"transit":false,"station_name":"Cisauk","time":4,"distance":2519,"i_lat":-6.32484,"station_id":"CSK","i_long":106.640411,"line":3},{"is_transit":false,"station_id":"SRP","transit":false,"i_long":106.66566,"line":6,"i_lat":-6.319871,"time":4,"distance":1784,"station_name":"Serpong"},{"time":4,"station_id":"RU","station_name":"Rawa Buntu","transit":false,"i_long":106.675475,"line":6,"is_transit":false,"distance":2413,"i_lat":-6.314823},{"station_id":"SDM","distance":4566,"i_long":106.712277,"transit":false,"line":6,"is_transit":false,"i_lat":-6.296963,"station_name":"Sudimara","time":6},{"distance":1994,"i_long":106.728916,"transit":false,"line":6,"station_name":"Jurangmangu","is_transit":false,"time":4,"station_id":"JMU","i_lat":-6.288927},{"distance":2179,"i_lat":-6.276362,"i_long":106.74273,"is_transit":false,"transit":false,"station_id":"PDJ","station_name":"Pondokranji","line":6,"time":3},{"i_long":106.780334,"station_name":"Kebayoran","i_lat":-6.237242,"is_transit":false,"transit":false,"time":8,"station_id":"KBY","distance":6218,"line":6},{"i_long":106.79689,"time":7,"station_name":"Palmerah","distance":3737,"station_id":"PLM","line":6,"is_transit":false,"transit":false,"i_lat":-6.207404},{"time":6,"station_name":"Tanah Abang","is_transit":true,"transit":true,"station_id":"THB","i_lat":-6.185545,"i_long":106.811091,"distance":3191,"line":1},{"time":8,"line":1,"transit":false,"station_id":"DU","station_name":"Duri","is_transit":false,"i_lat":-6.155215,"distance":3632,"i_long":106.800832},{"transit":false,"station_id":"AK","i_lat":-6.144674,"i_long":106.79867,"is_transit":false,"line":1,"station_name":"Angke","distance":1230,"time":4},{"line":4,"is_transit":true,"station_name":"Kampung Bandan","i_lat":-6.132549,"station_id":"KPB","distance":4102,"transit":true,"time":9,"i_long":106.826365},{"is_transit":false,"station_name":"Rajawali","i_long":106.836569,"i_lat":-6.14505,"station_id":"RJW","transit":false,"distance":1444,"time":3,"line":11},{"station_name":"Kemayoran","is_transit":false,"time":5,"i_lat":-6.161728,"station_id":"KMO","i_long":106.839204,"transit":false,"line":11,"distance":1901},{"station_name":"Pasar Senen","time":4,"i_long":106.84368,"line":11,"is_transit":false,"station_id":"PSE","distance":1436,"i_lat":-6.174784,"transit":false},{"station_name":"Gang Sentiong","time":8,"station_id":"GST","transit":false,"line":11,"i_long":106.850107,"is_transit":false,"i_lat":-6.185975,"distance":1567},{"line":11,"distance":973,"time":1,"i_long":106.855437,"is_transit":false,"station_name":"Kramat","i_lat":-6.193792,"transit":false,"station_id":"KMT"},{"station_id":"POK","distance":1829,"is_transit":false,"line":11,"transit":false,"i_lat":-6.209188,"time":2,"i_long":106.861737,"station_name":"Pondok Jati"},{"station_id":"JNG","time":9,"i_long":106.86807400000001,"line":1,"distance":1236,"is_transit":true,"station_name":"Jatinegara","i_lat":-6.215091,"transit":true},{"transit":false,"time":3,"station_id":"KLD","station_name":"Klender","is_transit":false,"i_long":106.899548,"i_lat":-6.2135,"distance":3395,"line":1},{"distance":3100,"station_name":"Buaran","time":2,"station_id":"BUA","i_lat":-6.215568,"line":1,"transit":false,"i_long":106.922662,"is_transit":false},{"distance":1305,"i_lat":-6.217455,"line":1,"is_transit":false,"transit":false,"station_name":"Klenderbaru","time":1,"station_id":"KLDB","i_long":106.939679},{"distance":1385,"is_transit":false,"station_id":"CUK","transit":false,"i_lat":-6.219053,"i_long":106.951283,"line":1,"station_name":"Cakung","time":8},{"station_name":"Kranji","i_long":106.977657,"i_lat":-6.224515,"line":1,"time":3,"transit":false,"is_transit":false,"distance":3097,"station_id":"KRI"}],[{"i_long":106.568863,"i_lat":-6.3441410000000005,"is_transit":false,"distance":0,"time":0,"transit":false,"line":6,"station_name":"Parung Panjang","station_id":"PRP"},{"i_lat":-6.329547,"distance":5968,"station_id":"CC","is_transit":false,"transit":false,"station_name":"Cicayur","time":8,"i_long":106.617853,"line":3},{"distance":2519,"station_name":"Cisauk","i_long":106.640411,"time":4,"line":3,"is_transit":false,"i_lat":-6.32484,"station_id":"CSK","transit":false},{"station_name":"Serpong","i_lat":-6.319871,"line":6,"transit":false,"station_id":"SRP","time":4,"is_transit":false,"i_long":106.66566,"distance":1784},{"i_lat":-6.314823,"i_long":106.675475,"distance":2413,"station_name":"Rawa Buntu","time":4,"is_transit":false,"line":6,"station_id":"RU","transit":false},{"time":6,"station_id":"SDM","i_lat":-6.296963,"line":6,"is_transit":false,"transit":false,"i_long":106.712277,"station_name":"Sudimara","distance":4566},{"time":4,"i_lat":-6.288927,"distance":1994,"transit":false,"line":6,"is_transit":false,"station_name":"Jurangmangu","station_id":"JMU","i_long":106.728916},{"i_long":106.74273,"time":3,"station_name":"Pondokranji","distance":2179,"i_lat":-6.276362,"line":6,"station_id":"PDJ","transit":false,"is_transit":false},{"i_long":106.780334,"distance":6218,"i_lat":-6.237242,"is_transit":false,"transit":false,"station_name":"Kebayoran","time":8,"station_id":"KBY","line":6},{"distance":3737,"i_lat":-6.207404,"i_long":106.79689,"transit":false,"station_name":"Palmerah","line":6,"station_id":"PLM","is_transit":false,"time":7},{"station_name":"Tanah Abang","i_lat":-6.185545,"is_transit":true,"time":6,"transit":true,"i_long":106.811091,"line":1,"distance":3191,"station_id":"THB"},{"time":8,"station_name":"Duri","i_long":106.800832,"transit":false,"i_lat":-6.155215,"station_id":"DU","is_transit":false,"distance":3632,"line":1},{"is_transit":false,"i_lat":-6.144674,"station_name":"Angke","station_id":"AK","i_long":106.79867,"transit":false,"time":4,"distance":1230,"line":1},{"transit":true,"is_transit":true,"distance":4102,"station_name":"Kampung Bandan","time":9,"i_lat":-6.132549,"i_long":106.826365,"line":4,"station_id":"KPB"},{"line":2,"transit":true,"station_name":"Jakarta Kota","distance":1364,"is_transit":true,"station_id":"JAKK","i_lat":-6.137569,"time":3,"i_long":106.812439},{"station_name":"Jayakarta","is_transit":false,"distance":1264,"time":4,"i_long":106.820901,"line":2,"transit":false,"station_id":"JAY","i_lat":-6.141205},{"station_id":"MGB","i_lat":-6.149769,"time":2,"line":2,"i_long":106.82482,"is_transit":false,"distance":1080,"transit":false,"station_name":"Manggabesar"},{"station_name":"Sawah Besar","distance":906,"transit":false,"time":2,"station_id":"SW","is_transit":false,"i_long":106.827103,"i_lat":-6.160725,"line":2},{"time":2,"i_long":106.828284,"i_lat":-6.166716,"transit":false,"line":2,"is_transit":false,"station_name":"Juanda","station_id":"JUA","distance":1149},{"i_lat":-6.186295,"distance":2015,"station_id":"GDD","transit":false,"i_long":106.832183,"time":4,"is_transit":false,"line":2,"station_name":"Gondangdia"},{"station_id":"CKI","station_name":"Cikini","i_lat":-6.198556,"line":2,"i_long":106.840169,"time":3,"distance":1750,"transit":false,"is_transit":false},{"transit":true,"is_transit":true,"station_id":"MRI","i_long":106.84912,"line":2,"i_lat":-6.209883,"distance":1590,"station_name":"Manggarai","time":4},{"time":2,"station_name":"Matraman","station_id":"MTR","i_long":106.858896,"line":1,"is_transit":false,"distance":1275,"transit":false,"i_lat":-6.212485},{"distance":1377,"time":8,"transit":false,"line":1,"is_transit":false,"station_id":"JNG","station_name":"Jatinegara","i_lat":-6.215091,"i_long":106.86807400000001},{"station_name":"Klender","is_transit":false,"transit":false,"i_long":106.899548,"station_id":"KLD","i_lat":-6.2135,"time":3,"line":1,"distance":3395},{"station_id":"BUA","distance":3100,"time":2,"i_lat":-6.215568,"transit":false,"line":1,"station_name":"Buaran","is_transit":false,"i_long":106.922662},{"time":1,"i_lat":-6.217455,"transit":false,"station_name":"Klenderbaru","station_id":"KLDB","distance":1305,"is_transit":false,"i_long":106.939679,"line":1},{"station_id":"CUK","transit":false,"line":1,"distance":1385,"time":8,"station_name":"Cakung","i_lat":-6.219053,"i_long":106.951283,"is_transit":false},{"time":3,"i_lat":-6.224515,"station_name":"Kranji","is_transit":false,"transit":false,"i_long":106.977657,"line":1,"distance":3097,"station_id":"KRI"}],[{"i_lat":-6.3441410000000005,"i_long":106.568863,"station_id":"PRP","distance":0,"transit":false,"line":6,"is_transit":false,"station_name":"Parung Panjang","time":0},{"i_lat":-6.329547,"station_name":"Cicayur","station_id":"CC","i_long":106.617853,"distance":5968,"line":3,"transit":false,"time":8,"is_transit":false},{"station_id":"CSK","i_long":106.640411,"transit":false,"station_name":"Cisauk","line":3,"is_transit":false,"i_lat":-6.32484,"distance":2519,"time":4},{"is_transit":false,"i_long":106.66566,"time":4,"station_name":"Serpong","i_lat":-6.319871,"line":6,"station_id":"SRP","transit":false,"distance":1784},{"i_lat":-6.314823,"is_transit":false,"i_long":106.675475,"line":6,"transit":false,"time":4,"station_name":"Rawa Buntu","distance":2413,"station_id":"RU"},{"i_lat":-6.296963,"distance":4566,"time":6,"line":6,"is_transit":false,"transit":false,"i_long":106.712277,"station_name":"Sudimara","station_id":"SDM"},{"distance":1994,"i_lat":-6.288927,"time":4,"i_long":106.728916,"line":6,"station_name":"Jurangmangu","is_transit":false,"transit":false,"station_id":"JMU"},{"station_id":"PDJ","i_lat":-6.276362,"line":6,"i_long":106.74273,"is_transit":false,"station_name":"Pondokranji","transit":false,"distance":2179,"time":3},{"is_transit":false,"distance":6218,"i_long":106.780334,"transit":false,"station_name":"Kebayoran","station_id":"KBY","i_lat":-6.237242,"line":6,"time":8},{"i_long":106.79689,"station_id":"PLM","transit":false,"i_lat":-6.207404,"line":6,"station_name":"Palmerah","is_transit":false,"time":7,"distance":3737},{"i_lat":-6.185545,"station_name":"Tanah Abang","i_long":106.811091,"is_transit":true,"distance":3191,"station_id":"THB","transit":true,"line":1,"time":6},{"i_lat":-6.20132,"transit":false,"station_name":"Karet","distance":2029,"time":5,"station_id":"KAT","line":1,"is_transit":false,"i_long":106.816351},{"time":1,"station_id":"SUDB","station_name":"Sudirman Baru","i_long":106.819881,"distance":471,"transit":false,"is_transit":false,"line":1,"i_lat":-6.201433},{"time":1,"transit":false,"station_name":"Sudirman","is_transit":false,"station_id":"SUD","line":1,"i_lat":-6.202263,"distance":280,"i_long":106.822649},{"is_transit":true,"transit":true,"time":4,"station_name":"Manggarai","i_long":106.84912,"distance":3186,"i_lat":-6.209883,"station_id":"MRI","line":2},{"i_lat":-6.198556,"distance":1590,"transit":false,"station_name":"Cikini","time":4,"is_transit":false,"station_id":"CKI","line":2,"i_long":106.840169},{"distance":1750,"i_long":106.832183,"transit":false,"station_id":"GDD","line":2,"is_transit":false,"station_name":"Gondangdia","time":3,"i_lat":-6.186295},{"line":2,"transit":false,"station_name":"Juanda","distance":2015,"time":4,"is_transit":false,"station_id":"JUA","i_lat":-6.166716,"i_long":106.828284},{"transit":false,"station_id":"SW","time":2,"i_lat":-6.160725,"distance":1149,"is_transit":false,"station_name":"Sawah Besar","i_long":106.827103,"line":2},{"time":2,"station_name":"Manggabesar","line":2,"distance":906,"is_transit":false,"i_lat":-6.149769,"transit":false,"station_id":"MGB","i_long":106.82482},{"station_name":"Jayakarta","i_long":106.820901,"station_id":"JAY","distance":1080,"is_transit":false,"time":2,"i_lat":-6.141205,"line":2,"transit":false},{"line":2,"is_transit":true,"station_name":"Jakarta Kota","i_long":106.812439,"transit":true,"distance":1264,"time":4,"station_id":"JAKK","i_lat":-6.137569},{"line":4,"time":3,"i_long":106.826365,"distance":1364,"transit":true,"station_name":"Kampung Bandan","is_transit":true,"i_lat":-6.132549,"station_id":"KPB"},{"is_transit":false,"i_long":106.836569,"distance":1444,"time":3,"i_lat":-6.14505,"line":11,"station_id":"RJW","transit":false,"station_name":"Rajawali"},{"time":5,"transit":false,"station_name":"Kemayoran","station_id":"KMO","i_lat":-6.161728,"is_transit":false,"i_long":106.839204,"distance":1901,"line":11},{"i_long":106.84368,"is_transit":false,"line":11,"i_lat":-6.174784,"station_id":"PSE","station_name":"Pasar Senen","transit":false,"time":4,"distance":1436},{"transit":false,"time":8,"station_id":"GST","i_lat":-6.185975,"is_transit":false,"line":11,"distance":1567,"station_name":"Gang Sentiong","i_long":106.850107},{"is_transit":false,"i_long":106.855437,"transit":false,"distance":973,"station_name":"Kramat","time":1,"i_lat":-6.193792,"station_id":"KMT","line":11},{"is_transit":false,"station_name":"Pondok Jati","i_long":106.861737,"distance":1829,"time":2,"line":11,"transit":false,"i_lat":-6.209188,"station_id":"POK"},{"time":9,"i_long":106.86807400000001,"line":1,"distance":1236,"station_name":"Jatinegara","station_id":"JNG","i_lat":-6.215091,"transit":true,"is_transit":true},{"distance":3395,"transit":false,"is_transit":false,"line":1,"station_name":"Klender","station_id":"KLD","time":3,"i_lat":-6.2135,"i_long":106.899548},{"is_transit":false,"station_name":"Buaran","i_lat":-6.215568,"transit":false,"distance":3100,"time":2,"line":1,"station_id":"BUA","i_long":106.922662},{"distance":1305,"i_lat":-6.217455,"time":1,"station_name":"Klenderbaru","line":1,"is_transit":false,"i_long":106.939679,"station_id":"KLDB","transit":false},{"i_long":106.951283,"transit":false,"distance":1385,"is_transit":false,"station_name":"Cakung","station_id":"CUK","time":8,"i_lat":-6.219053,"line":1},{"station_name":"Kranji","i_lat":-6.224515,"distance":3097,"time":3,"transit":false,"is_transit":false,"i_long":106.977657,"line":1,"station_id":"KRI"}]]}