{"data":[[{"is_transit":false,"distance":0,"station_name":"Parung Panjang","time":0,"line":6,"transit":false,"i_lat":-6.3441410000000005,"i_long":106.568863,"station_id":"PRP"},{"i_lat":-6.329547,"station_name":"Cicayur","transit":false,"time":8,"line":3,"i_long":106.617853,"station_id":"CC","distance":5968,"is_transit":false},{"station_id":"CSK","time":4,"is_transit":false,"line":3,"station_name":"Cisauk","i_lat":-6.32484,"distance":2519,"i_long":106.640411,"transit":false},{"station_name":"Serpong","is_transit":false,"i_long":106.66566,"station_id":"SRP","i_lat":-6.319871,"transit":false,"line":6,"time":4,"distance":1784},{"station_id":"RU","line":6,"station_name":"Rawa Buntu","i_long":106.675475,"i_lat":-6.314823,"distance":2413,"transit":false,"is_transit":false,"time":4},{"line":6,"i_lat":-6.296963,"i_long":106.712277,"distance":4566,"transit":false,"station_id":"SDM","station_name":"Sudimara","is_transit":false,"time":6},{"i_lat":-6.288927,"is_transit":false,"i_long":106.728916,"line":6,"distance":1994,"transit":false,"station_name":"Jurangmangu","station_id":"JMU","time":4},{"i_long":106.74273,"line":6,"station_name":"Pondokranji","is_transit":false,"i_lat":-6.276362,"transit":false,"distance":2179,"time":3,"station_id":"PDJ"},{"i_long":106.780334,"distance":6218,"line":6,"transit":false,"station_name":"Kebayoran","station_id":"KBY","is_transit":false,"i_lat":-6.237242,"time":8},{"station_name":"Palmerah","is_transit":false,"i_long":106.79689,"i_lat":-6.207404,"transit":false,"line":6,"time":7,"distance":3737,"station_id":"PLM"},{"distance":3191,"is_transit":true,"i_long":106.811091,"station_id":"THB","transit":true,"i_lat":-6.185545,"line":1,"station_name":"Tanah Abang","time":6},{"is_transit":true,"transit":true,"i_long":106.800832,"station_id":"DU","distance":3632,"station_name":"Duri","time":8,"i_lat":-6.155215,"line":1},{"distance":1700,"transit":false,"station_id":"GGL","line":5,"station_name":"Grogol","i_long":106.788277,"is_transit":false,"time":3,"i_lat":-6.162021},{"distance":2036,"station_id":"PSG","line":5,"is_transit":false,"time":2,"i_long":106.771379,"station_name":"Pesing","i_lat":-6.161433,"transit":false}],[{"station_id":"PRP","transit":false,"time":0,"station_name":"Parung Panjang","is_transit":false,"distance":0,"i_long":106.568863,"i_lat":-6.3441410000000005,"line":6},{"i_lat":-6.329547,"i_long":106.617853,"transit":false,"station_name":"Cicayur","station_id":"CC","line":3,"is_transit":false,"distance":5968,"time":8},{"station_id":"CSK","is_transit":false,"line":3,"time":4,"i_long":106.640411,"distance":2519,"station_name":"Cisauk","transit":false,"i_lat":-6.32484},{"distance":1784,"is_transit":false,"transit":false,"time":4,"i_long":106.66566,"i_lat":-6.319871,"station_name":"Serpong","station_id":"SRP","line":6},{"i_lat":-6.314823,"i_long":106.675475,"station_id":"RU","station_name":"Rawa Buntu","is_transit":false,"distance":2413,"line":6,"time":4,"transit":false},{"i_long":106.712277,"is_transit":false,"distance":4566,"station_name":"Sudimara","station_id":"SDM","time":6,"line":6,"transit":false,"i_lat":-6.296963},{"is_transit":false,"i_lat":-6.288927,"distance":1994,"i_long":106.728916,"transit":false,"time":4,"station_name":"Jurangmangu","line":6,"station_id":"JMU"},{"i_long":106.74273,"is_transit":false,"time":3,"station_id":"PDJ","i_lat":-6.276362,"line":6,"station_name":"Pondokranji","distance":2179,"transit":false},{"station_id":"KBY","line":6,"is_transit":false,"transit":false,"station_name":"Kebayoran","time":8,"i_lat":-6.237242,"i_long":106.780334,"distance":6218},{"is_transit":false,"distance":3737,"i_lat":-6.207404,"station_id":"PLM","station_name":"Palmerah","transit":false,"i_long":106.79689,"time":7,"line":6},{"station_id":"THB","i_lat":-6.185545,"station_name":"Tanah Abang","distance":3191,"i_long":106.811091,"is_transit":true,"time":6,"line":1,"transit":true},{"transit":false,"i_lat":-6.20132,"i_long":106.816351,"line":1,"station_name":"Karet","distance":2029,"station_id":"KAT","is_transit":false,"time":5},{"i_long":106.819881,"station_id":"SUDB","time":1,"is_transit":false,"station_name":"Sudirman Baru","distance":471,"i_lat":-6.201433,"line":1,"transit":false},{"station_name":"Sudirman","time":1,"i_long":106.822649,"distance":280,"station_id":"SUD","is_transit":false,"line":1,"transit":false,"i_lat":-6.202263},{"station_id":"MRI","time":4,"i_lat":-6.209883,"i_long":106.84912,"distance":3186,"station_name":"Manggarai","line":2,"is_transit":true,"transit":true},{"station_name":"Cikini","transit":false,"is_transit":false,"station_id":"CKI","i_long":106.840169,"distance":1590,"line":2,"time":4,"i_lat":-6.198556},{"i_long":106.832183,"distance":1750,"is_transit":false,"time":3,"line":2,"transit":false,"station_id":"GDD","i_lat":-6.186295,"station_name":"Gondangdia"},{"transit":false,"distance":2015,"station_name":"Juanda","station_id":"JUA","time":4,"is_transit":false,"i_lat":-6.166716,"i_long":106.828284,"line":2},{"station_name":"Sawah Besar","station_id":"SW","time":2,"transit":false,"is_transit":false,"i_lat":-6.160725,"i_long":106.827103,"line":2,"distance":1149},{"station_name":"Manggabesar","transit":false,"i_lat":-6.149769,"i_long":106.82482,"time":2,"line":2,"distance":906,"is_transit":false,"station_id":"MGB"},{"is_transit":false,"time":2,"transit":false,"station_name":"Jayakarta","station_id":"JAY","i_lat":-6.141205,"distance":1080,"i_long":106.820901,"line":2},{"distance":1264,"transit":true,"time":4,"station_name":"Jakarta Kota","is_transit":true,"line":2,"station_id":"JAKK","i_long":106.812439,"i_lat":-6.137569},{"i_long":106.826365,"station_name":"Kampung Bandan","distance":1364,"line":4,"is_transit":true,"i_lat":-6.132549,"station_id":"KPB","time":3,"transit":true},{"station_id":"AK","distance":4102,"transit":false,"station_name":"Angke","i_long":106.79867,"line":1,"i_lat":-6.144674,"time":9,"is_transit":false},{"line":1,"is_transit":true,"station_id":"DU","i_long":106.800832,"time":4,"i_lat":-6.155215,"transit":true,"station_name":"Duri","distance":1230},{"i_long":106.788277,"line":5,"station_id":"GGL","station_name":"Grogol","distance":1700,"transit":false,"is_transit":false,"i_lat":-6.162021,"time":3},{"station_name":"Pesing","station_id":"PSG","distance":2036,"time":2,"is_transit":false,"i_lat":-6.161433,"transit":false,"line":5,"i_long":106.771379}],[{"station_id":"PRP","is_transit":false,"distance":0,"station_name":"Parung Panjang","transit":false,"time":0,"line":6,"i_long":106.568863,"i_lat":-6.3441410000000005},{"is_transit":false,"time":8,"i_lat":-6.329547,"i_long":106.617853,"station_id":"CC","line":3,"transit":false,"distance":5968,"station_name":"Cicayur"},{"line":3,"transit":false,"station_id":"CSK","i_lat":-6.32484,"station_name":"Cisauk","time":4,"is_transit":false,"distance":2519,"i_long":106.640411},{"distance":1784,"i_lat":-6.319871,"transit":false,"time":4,"station_name":"Serpong","i_long":106.66566,"line":6,"station_id":"SRP","is_transit":false},{"time":4,"transit":false,"i_lat":-6.314823,"distance":2413,"line":6,"station_id":"RU","is_transit":false,"i_long":106.675475,"station_name":"Rawa Buntu"},{"i_lat":-6.296963,"line":6,"station_name":"Sudimara","transit":false,"distance":4566,"time":6,"i_long":106.712277,"station_id":"SDM","is_transit":false},{"time":4,"distance":1994,"station_id":"JMU","station_name":"Jurangmangu","transit":false,"i_long":106.728916,"i_lat":-6.288927,"line":6,"is_transit":false},{"i_long":106.74273,"i_lat":-6.276362,"station_name":"Pondokranji","transit":false,"time":3,"distance":2179,"station_id":"PDJ","is_transit":false,"line":6},{"is_transit":false,"line":6,"transit":false,"i_long":106.780334,"station_id":"KBY","i_lat":-6.237242,"station_name":"Kebayoran","distance":6218,"time":8},{"line":6,"transit":false,"station_id":"PLM","i_lat":-6.207404,"station_name":"Palmerah","is_transit":false,"distance":3737,"time":7,"i_long":106.79689},{"is_transit":true,"time":6,"line":1,"i_lat":-6.185545,"i_long":106.811091,"station_name":"Tanah Abang","station_id":"THB","distance":3191,"transit":true},{"transit":false,"time":5,"station_name":"Karet","i_lat":-6.20132,"station_id":"KAT","line":1,"distance":2029,"i_long":106.816351,"is_transit":false},{"time":1,"i_lat":-6.201433,"is_transit":false,"station_name":"Sudirman Baru","distance":471,"line":1,"i_long":106.819881,"station_id":"SUDB","transit":false},{"transit":false,"distance":280,"station_name":"Sudirman","station_id":"SUD","is_transit":false,"time":1,"i_lat":-6.202263,"i_long":106.822649,"line":1},{"station_name":"Manggarai","station_id":"MRI","line":2,"i_lat":-6.209883,"distance":3186,"is_transit":false,"time":4,"transit":false,"i_long":106.84912},{"is_transit":false,"station_name":"Matraman","transit":false,"i_long":106.858896,"station_id":"MTR","distance":1275,"time":2,"line":1,"i_lat":-6.212485},{"station_name":"Jatinegara","i_lat":-6.215091,"station_id":"JNG","transit":true,"time":8,"is_transit":true,"i_long":106.86807400000001,"distance":1377,"line":1},{"is_transit":false,"i_lat":-6.209188,"station_id":"POK","line":11,"distance":1236,"i_long":106.861737,"station_name":"Pondok Jati","transit":false,"time":2},{"station_id":"KMT","i_long":106.855437,"line":11,"i_lat":-6.193792,"distance":1829,"transit":false,"is_transit":false,"time":2,"station_name":"Kramat"},{"line":11,"station_id":"GST","time":1,"i_lat":-6.185975,"station_name":"Gang Sentiong","transit":false,"is_transit":false,"distance":973,"i_long":106.850107},{"i_long":106.84368,"time":8,"station_name":"Pasar Senen","transit":false,"station_id":"PSE","distance":1567,"is_transit":false,"i_lat":-6.174784,"line":11},{"distance":1436,"i_long":106.839204,"i_lat":-6.161728,"station_name":"Kemayoran","is_transit":false,"transit":false,"station_id":"KMO","time":4,"line":11},{"is_transit":false,"station_name":"Rajawali","transit":false,"i_long":106.836569,"line":11,"distance":1901,"i_lat":-6.14505,"station_id":"RJW","time":5},{"i_lat":-6.132549,"station_id":"KPB","line":4,"station_name":"Kampung Bandan","time":3,"is_transit":true,"distance":1444,"i_long":106.826365,"transit":true},{"i_long":106.79867,"station_id":"AK","line":1,"is_transit":false,"station_name":"Angke","transit":false,"i_lat":-6.144674,"time":9,"distance":4102},{"station_id":"DU","transit":true,"is_transit":true,"distance":1230,"station_name":"Duri","line":1,"i_long":106.800832,"i_lat":-6.155215,"time":4},{"distance":1700,"i_lat":-6.162021,"station_id":"GGL","time":3,"is_transit":false,"line":5,"transit":false,"station_name":"Grogol","i_long":106.788277},{"station_id":"PSG","station_name":"Pesing","time":2,"distance":2036,"is_transit":false,"i_long":106.771379,"transit":false,"line":5,"i_lat":-6.161433}]]}