{"data":[[{"i_lat":-6.3441410000000005,"time":0,"transit":false,"line":6,"station_id":"PRP","station_name":"Parung Panjang","i_long":106.568863,"distance":0,"is_transit":false},{"is_transit":false,"i_lat":-6.329547,"line":3,"i_long":106.617853,"distance":5968,"time":8,"station_id":"CC","station_name":"Cicayur","transit":false},{"transit":false,"i_lat":-6.32484,"time":4,"distance":2519,"i_long":106.640411,"is_transit":false,"line":3,"station_id":"CSK","station_name":"Cisauk"},{"station_id":"SRP","i_long":106.66566,"line":6,"time":4,"distance":1784,"station_name":"Serpong","i_lat":-6.319871,"is_transit":false,"transit":false},{"i_lat":-6.314823,"station_name":"Rawa Buntu","line":6,"distance":2413,"i_long":106.675475,"time":4,"station_id":"RU","transit":false,"is_transit":false},{"transit":false,"station_name":"Sudimara","station_id":"SDM","is_transit":false,"time":6,"i_long":106.712277,"distance":4566,"i_lat":-6.296963,"line":6},{"i_lat":-6.288927,"i_long":106.728916,"station_id":"JMU","station_name":"Jurangmangu","is_transit":false,"transit":false,"line":6,"time":4,"distance":1994},{"i_long":106.74273,"station_id":"PDJ","time":3,"distance":2179,"transit":false,"is_transit":false,"i_lat":-6.276362,"station_name":"Pondokranji","line":6},{"time":8,"is_transit":false,"station_id":"KBY","station_name":"Kebayoran","transit":false,"distance":6218,"i_lat":-6.237242,"line":6,"i_long":106.780334},{"station_name":"Palmerah","is_transit":false,"i_lat":-6.207404,"line":6,"i_long":106.79689,"transit":false,"distance":3737,"station_id":"PLM","time":7},{"i_long":106.811091,"time":6,"line":1,"is_transit":true,"i_lat":-6.185545,"station_id":"THB","station_name":"Tanah Abang","distance":3191,"transit":true},{"time":5,"transit":false,"i_lat":-6.20132,"station_id":"KAT","i_long":106.816351,"is_transit":false,"distance":2029,"station_name":"Karet","line":1},{"line":1,"is_transit":false,"station_id":"SUDB","time":1,"distance":471,"station_name":"Sudirman Baru","i_long":106.819881,"transit":false,"i_lat":-6.201433},{"distance":280,"i_lat":-6.202263,"time":1,"i_long":106.822649,"station_id":"SUD","transit":false,"line":1,"station_name":"Sudirman","is_transit":false},{"time":4,"line":2,"distance":3186,"i_lat":-6.209883,"station_name":"Manggarai","station_id":"MRI","i_long":106.84912,"transit":true,"is_transit":true},{"station_id":"TEB","is_transit":false,"transit":false,"i_long":106.857948,"line":2,"station_name":"Tebet","time":4,"i_lat":-6.226659,"distance":2610},{"distance":1230,"station_name":"Cawang","station_id":"CW","line":2,"is_transit":false,"time":2,"transit":false,"i_lat":-6.242512,"i_long":106.856607},{"distance":1546,"transit":false,"station_name":"Duren Kalibata","is_transit":false,"line":2,"station_id":"DRN","i_lat":-6.255332,"i_long":106.85449,"time":3},{"station_id":"PSMB","line":2,"i_long":106.851577,"i_lat":-6.263214,"is_transit":false,"transit":false,"time":2,"distance":824,"station_name":"Pasar Minggu Baru"},{"time":2,"distance":2380,"is_transit":false,"transit":false,"station_name":"Pasar Minggu","i_lat":-6.2842400000000005,"station_id":"PSM","line":2,"i_long":106.843999},{"is_transit":false,"distance":2820,"time":4,"transit":false,"station_name":"Tanjung Barat","i_long":106.838896,"station_id":"TNT","i_lat":-6.3080680000000005,"line":2},{"distance":2671,"line":2,"transit":false,"time":3,"i_long":106.832616,"is_transit":false,"i_lat":-6.330363,"station_name":"Lenteng Agung","station_id":"LNA"},{"time":2,"is_transit":false,"i_lat":-6.339291,"distance":1029,"line":2,"i_long":106.834175,"station_id":"UP","transit":false,"station_name":"Univ. Pancasila"},{"line":2,"station_id":"UI","time":3,"i_long":106.831474,"distance":2264,"is_transit":false,"station_name":"Univ. Indonesia","transit":false,"i_lat":-6.360749},{"transit":false,"i_long":106.831114,"i_lat":-6.369073,"line":2,"time":2,"station_id":"POC","is_transit":false,"station_name":"Pondok Cina","distance":1109},{"i_lat":-6.391065,"i_long":106.819451,"is_transit":false,"line":2,"transit":false,"station_id":"DPB","time":4,"distance":2727,"station_name":"Depokbaru"},{"station_id":"DP","i_long":106.816926,"time":3,"is_transit":false,"distance":1584,"transit":false,"station_name":"Depok","line":2,"i_lat":-6.405256},{"distance":5084,"time":6,"i_lat":-6.448811,"station_name":"Citayam","station_id":"CTA","transit":false,"i_long":106.800298,"is_transit":false,"line":2}],[{"is_transit":false,"distance":0,"station_id":"PRP","time":0,"i_lat":-6.3441410000000005,"i_long":106.568863,"line":6,"station_name":"Parung Panjang","transit":false},{"i_lat":-6.329547,"transit":false,"station_id":"CC","i_long":106.617853,"station_name":"Cicayur","distance":5968,"time":8,"is_transit":false,"line":3},{"i_lat":-6.32484,"transit":false,"time":4,"is_transit":false,"station_name":"Cisauk","distance":2519,"i_long":106.640411,"station_id":"CSK","line":3},{"station_name":"Serpong","is_transit":false,"i_lat":-6.319871,"i_long":106.66566,"line":6,"transit":false,"station_id":"SRP","distance":1784,"time":4},{"i_lat":-6.314823,"transit":false,"time":4,"is_transit":false,"i_long":106.675475,"line":6,"distance":2413,"station_name":"Rawa Buntu","station_id":"RU"},{"transit":false,"time":6,"distance":4566,"i_long":106.712277,"station_name":"Sudimara","station_id":"SDM","i_lat":-6.296963,"line":6,"is_transit":false},{"time":4,"is_transit":false,"i_lat":-6.288927,"station_id":"JMU","transit":false,"distance":1994,"i_long":106.728916,"line":6,"station_name":"Jurangmangu"},{"line":6,"station_name":"Pondokranji","i_long":106.74273,"distance":2179,"i_lat":-6.276362,"transit":false,"is_transit":false,"station_id":"PDJ","time":3},{"line":6,"time":8,"transit":false,"is_transit":false,"station_name":"Kebayoran","station_id":"KBY","i_long":106.780334,"i_lat":-6.237242,"distance":6218},{"station_id":"PLM","time":7,"distance":3737,"i_long":106.79689,"transit":false,"line":6,"i_lat":-6.207404,"is_transit":false,"station_name":"Palmerah"},{"time":6,"transit":true,"station_id":"THB","distance":3191,"i_lat":-6.185545,"i_long":106.811091,"line":1,"station_name":"Tanah Abang","is_transit":true},{"station_id":"DU","station_name":"Duri","i_long":106.800832,"time":8,"i_lat":-6.155215,"is_transit":false,"transit":false,"line":1,"distance":3632},{"line":1,"station_id":"AK","distance":1230,"time":4,"transit":false,"station_name":"Angke","is_transit":false,"i_lat":-6.144674,"i_long":106.79867},{"is_transit":true,"i_long":106.826365,"i_lat":-6.132549,"time":9,"transit":true,"station_id":"KPB","distance":4102,"line":4,"station_name":"Kampung Bandan"},{"time":3,"is_transit":true,"i_long":106.812439,"transit":true,"line":2,"distance":1364,"i_lat":-6.137569,"station_name":"Jakarta Kota","station_id":"JAKK"},{"is_transit":false,"station_name":"Jayakarta","i_lat":-6.141205,"transit":false,"time":4,"line":2,"distance":1264,"station_id":"JAY","i_long":106.820901},{"line":2,"time":2,"i_lat":-6.149769,"i_long":106.82482,"distance":1080,"station_id":"MGB","transit":false,"is_transit":false,"station_name":"Manggabesar"},{"transit":false,"is_transit":false,"station_id":"SW","line":2,"station_name":"Sawah Besar","time":2,"i_long":106.827103,"i_lat":-6.160725,"distance":906},{"line":2,"station_name":"Juanda","transit":false,"distance":1149,"i_lat":-6.166716,"i_long":106.828284,"time":2,"is_transit":false,"station_id":"JUA"},{"distance":2015,"i_long":106.832183,"transit":false,"station_id":"GDD","station_name":"Gondangdia","time":4,"i_lat":-6.186295,"is_transit":false,"line":2},{"is_transit":false,"transit":false,"i_long":106.840169,"distance":1750,"line":2,"station_id":"CKI","i_lat":-6.198556,"time":3,"station_name":"Cikini"},{"is_transit":false,"station_id":"MRI","distance":1590,"station_name":"Manggarai","line":2,"i_lat":-6.209883,"transit":false,"time":4,"i_long":106.84912},{"station_name":"Tebet","is_transit":false,"distance":2610,"station_id":"TEB","time":4,"i_lat":-6.226659,"transit":false,"i_long":106.857948,"line":2},{"transit":false,"time":2,"station_id":"CW","distance":1230,"is_transit":false,"i_lat":-6.242512,"line":2,"station_name":"Cawang","i_long":106.856607},{"i_lat":-6.255332,"station_name":"Duren Kalibata","i_long":106.85449,"time":3,"line":2,"distance":1546,"is_transit":false,"transit":false,"station_id":"DRN"},{"transit":false,"i_long":106.851577,"line":2,"is_transit":false,"station_id":"PSMB","station_name":"Pasar Minggu Baru","distance":824,"i_lat":-6.263214,"time":2},{"line":2,"time":2,"station_name":"Pasar Minggu","distance":2380,"i_lat":-6.2842400000000005,"i_long":106.843999,"is_transit":false,"station_id":"PSM","transit":false},{"station_name":"Tanjung Barat","is_transit":false,"station_id":"TNT","transit":false,"i_long":106.838896,"distance":2820,"i_lat":-6.3080680000000005,"time":4,"line":2},{"distance":2671,"is_transit":false,"i_lat":-6.330363,"station_id":"LNA","transit":false,"line":2,"i_long":106.832616,"time":3,"station_name":"Lenteng Agung"},{"i_long":106.834175,"line":2,"time":2,"distance":1029,"station_name":"Univ. Pancasila","transit":false,"is_transit":false,"station_id":"UP","i_lat":-6.339291},{"transit":false,"distance":2264,"station_name":"Univ. Indonesia","i_lat":-6.360749,"i_long":106.831474,"station_id":"UI","line":2,"is_transit":false,"time":3},{"transit":false,"station_id":"POC","time":2,"i_long":106.831114,"i_lat":-6.369073,"distance":1109,"station_name":"Pondok Cina","line":2,"is_transit":false},{"station_name":"Depokbaru","is_transit":false,"line":2,"transit":false,"distance":2727,"i_lat":-6.391065,"i_long":106.819451,"station_id":"DPB","time":4},{"station_name":"Depok","distance":1584,"i_lat":-6.405256,"is_transit":false,"station_id":"DP","i_long":106.816926,"line":2,"transit":false,"time":3},{"i_long":106.800298,"station_name":"Citayam","time":6,"is_transit":false,"line":2,"transit":false,"i_lat":-6.448811,"distance":5084,"station_id":"CTA"}],[{"transit":false,"station_name":"Parung Panjang","i_long":106.568863,"station_id":"PRP","line":6,"time":0,"i_lat":-6.3441410000000005,"distance":0,"is_transit":false},{"distance":5968,"i_long":106.617853,"station_id":"CC","station_name":"Cicayur","time":8,"transit":false,"is_transit":false,"i_lat":-6.329547,"line":3},{"time":4,"is_transit":false,"i_long":106.640411,"i_lat":-6.32484,"distance":2519,"station_id":"CSK","line":3,"station_name":"Cisauk","transit":false},{"time":4,"i_long":106.66566,"transit":false,"i_lat":-6.319871,"station_name":"Serpong","is_transit":false,"station_id":"SRP","line":6,"distance":1784},{"station_name":"Rawa Buntu","distance":2413,"transit":false,"i_lat":-6.314823,"i_long":106.675475,"station_id":"RU","time":4,"line":6,"is_transit":false},{"is_transit":false,"i_lat":-6.296963,"time":6,"station_id":"SDM","distance":4566,"transit":false,"i_long":106.712277,"line":6,"station_name":"Sudimara"},{"line":6,"i_long":106.728916,"station_name":"Jurangmangu","station_id":"JMU","transit":false,"is_transit":false,"time":4,"i_lat":-6.288927,"distance":1994},{"time":3,"station_id":"PDJ","distance":2179,"is_transit":false,"station_name":"Pondokranji","i_lat":-6.276362,"i_long":106.74273,"line":6,"transit":false},{"i_long":106.780334,"line":6,"time":8,"transit":false,"is_transit":false,"station_name":"Kebayoran","distance":6218,"station_id":"KBY","i_lat":-6.237242},{"line":6,"station_id":"PLM","time":7,"i_lat":-6.207404,"station_name":"Palmerah","i_long":106.79689,"transit":false,"distance":3737,"is_transit":false},{"line":1,"time":6,"transit":true,"station_name":"Tanah Abang","distance":3191,"is_transit":true,"station_id":"THB","i_long":106.811091,"i_lat":-6.185545},{"i_long":106.800832,"transit":false,"distance":3632,"station_name":"Duri","station_id":"DU","i_lat":-6.155215,"time":8,"line":1,"is_transit":false},{"line":1,"i_long":106.79867,"station_name":"Angke","distance":1230,"is_transit":false,"i_lat":-6.144674,"transit":false,"station_id":"AK","time":4},{"i_long":106.826365,"distance":4102,"station_id":"KPB","station_name":"Kampung Bandan","line":4,"time":9,"transit":true,"is_transit":true,"i_lat":-6.132549},{"i_lat":-6.14505,"is_transit":false,"time":3,"station_id":"RJW","transit":false,"line":11,"station_name":"Rajawali","i_long":106.836569,"distance":1444},{"station_name":"Kemayoran","i_lat":-6.161728,"time":5,"distance":1901,"station_id":"KMO","i_long":106.839204,"transit":false,"is_transit":false,"line":11},{"line":11,"is_transit":false,"time":4,"i_lat":-6.174784,"distance":1436,"station_name":"Pasar Senen","station_id":"PSE","i_long":106.84368,"transit":false},{"line":11,"station_id":"GST","station_name":"Gang Sentiong","distance":1567,"is_transit":false,"time":8,"i_lat":-6.185975,"i_long":106.850107,"transit":false},{"is_transit":false,"station_name":"Kramat","distance":973,"line":11,"i_lat":-6.193792,"i_long":106.855437,"station_id":"KMT","time":1,"transit":false},{"i_lat":-6.209188,"transit":false,"station_name":"Pondok Jati","distance":1829,"is_transit":false,"line":11,"time":2,"station_id":"POK","i_long":106.861737},{"station_name":"Jatinegara","time":9,"line":1,"i_lat":-6.215091,"station_id":"JNG","distance":1236,"is_transit":true,"transit":true,"i_long":106.86807400000001},{"i_long":106.858896,"line":1,"transit":false,"is_transit":false,"time":2,"station_name":"Matraman","distance":1377,"i_lat":-6.212485,"station_id":"MTR"},{"station_id":"MRI","transit":true,"station_name":"Manggarai","time":2,"is_transit":true,"i_long":106.84912,"distance":1275,"i_lat":-6.209883,"line":2},{"time":4,"is_transit":false,"station_id":"TEB","i_lat":-6.226659,"line":2,"station_name":"Tebet","i_long":106.857948,"transit":false,"distance":2610},{"time":2,"i_lat":-6.242512,"distance":1230,"is_transit":false,"line":2,"i_long":106.856607,"station_id":"CW","station_name":"Cawang","transit":false},{"i_long":106.85449,"station_name":"Duren Kalibata","distance":1546,"is_transit":false,"time":3,"station_id":"DRN","line":2,"transit":false,"i_lat":-6.255332},{"time":2,"i_lat":-6.263214,"is_transit":false,"line":2,"station_name":"Pasar Minggu Baru","distance":824,"i_long":106.851577,"station_id":"PSMB","transit":false},{"line":2,"station_name":"Pasar Minggu","i_lat":-6.2842400000000005,"time":2,"is_transit":false,"transit":false,"distance":2380,"i_long":106.843999,"station_id":"PSM"},{"line":2,"distance":2820,"time":4,"transit":false,"i_lat":-6.3080680000000005,"station_id":"TNT","station_name":"Tanjung Barat","i_long":106.838896,"is_transit":false},{"i_long":106.832616,"distance":2671,"i_lat":-6.330363,"station_name":"Lenteng Agung","line":2,"transit":false,"station_id":"LNA","time":3,"is_transit":false},{"transit":false,"time":2,"is_transit":false,"line":2,"distance":1029,"i_lat":-6.339291,"i_long":106.834175,"station_name":"Univ. Pancasila","station_id":"UP"},{"transit":false,"i_lat":-6.360749,"is_transit":false,"line":2,"station_name":"Univ. Indonesia","time":3,"distance":2264,"station_id":"UI","i_long":106.831474},{"transit":false,"station_id":"POC","distance":1109,"station_name":"Pondok Cina","time":2,"is_transit":false,"i_long":106.831114,"i_lat":-6.369073,"line":2},{"i_long":106.819451,"line":2,"station_name":"Depokbaru","is_transit":false,"i_lat":-6.391065,"transit":false,"time":4,"distance":2727,"station_id":"DPB"},{"station_name":"Depok","is_transit":false,"i_long":106.816926,"time":3,"station_id":"DP","line":2,"i_lat":-6.405256,"distance":1584,"transit":false},{"time":6,"i_long":106.800298,"station_id":"CTA","i_lat":-6.448811,"station_name":"Citayam","distance":5084,"is_transit":false,"line":2,"transit":false}]]}