{"data":[[{"time":0,"line":6,"station_id":"PRP","is_transit":false,"i_long":106.568863,"transit":false,"i_lat":-6.3441410000000005,"distance":0,"station_name":"Parung Panjang"},{"station_id":"CC","transit":false,"distance":5968,"line":3,"station_name":"Cicayur","i_long":106.617853,"i_lat":-6.329547,"time":8,"is_transit":false},{"transit":false,"station_name":"Cisauk","is_transit":false,"i_lat":-6.32484,"station_id":"CSK","i_long":106.640411,"distance":2519,"time":4,"line":3},{"is_transit":false,"station_id":"SRP","i_lat":-6.319871,"distance":1784,"transit":false,"line":6,"time":4,"i_long":106.66566,"station_name":"Serpong"},{"station_name":"Rawa Buntu","distance":2413,"is_transit":false,"line":6,"station_id":"RU","time":4,"i_lat":-6.314823,"i_long":106.675475,"transit":false},{"i_lat":-6.296963,"transit":false,"distance":4566,"station_id":"SDM","is_transit":false,"line":6,"time":6,"station_name":"Sudimara","i_long":106.712277},{"distance":1994,"transit":false,"is_transit":false,"station_id":"JMU","i_lat":-6.288927,"line":6,"i_long":106.728916,"station_name":"Jurangmangu","time":4},{"line":6,"station_name":"Pondokranji","i_long":106.74273,"time":3,"is_transit":false,"transit":false,"distance":2179,"station_id":"PDJ","i_lat":-6.276362},{"line":6,"distance":6218,"transit":false,"time":8,"i_long":106.780334,"station_id":"KBY","is_transit":false,"station_name":"Kebayoran","i_lat":-6.237242},{"is_transit":false,"time":7,"station_id":"PLM","i_long":106.79689,"line":6,"i_lat":-6.207404,"transit":false,"distance":3737,"station_name":"Palmerah"},{"station_id":"THB","time":6,"distance":3191,"station_name":"Tanah Abang","line":1,"transit":true,"i_lat":-6.185545,"i_long":106.811091,"is_transit":true},{"station_id":"KAT","transit":false,"distance":2029,"is_transit":false,"time":5,"i_lat":-6.20132,"i_long":106.816351,"station_name":"Karet","line":1},{"transit":false,"is_transit":false,"i_long":106.819881,"line":1,"time":1,"i_lat":-6.201433,"station_name":"Sudirman Baru","station_id":"SUDB","distance":471},{"transit":false,"i_lat":-6.202263,"line":1,"distance":280,"is_transit":false,"i_long":106.822649,"time":1,"station_id":"SUD","station_name":"Sudirman"},{"i_long":106.84912,"i_lat":-6.209883,"time":4,"is_transit":false,"transit":false,"station_name":"Manggarai","station_id":"MRI","distance":3186,"line":2},{"station_id":"MTR","is_transit":false,"distance":1275,"station_name":"Matraman","i_lat":-6.212485,"transit":false,"time":2,"i_long":106.858896,"line":1},{"time":8,"transit":false,"is_transit":false,"station_name":"Jatinegara","station_id":"JNG","i_lat":-6.215091,"i_long":106.86807400000001,"distance":1377,"line":1},{"i_long":106.899548,"line":1,"time":3,"i_lat":-6.2135,"distance":3395,"station_name":"Klender","transit":false,"is_transit":false,"station_id":"KLD"},{"transit":false,"distance":3100,"time":2,"i_lat":-6.215568,"is_transit":false,"station_id":"BUA","i_long":106.922662,"line":1,"station_name":"Buaran"},{"line":1,"station_id":"KLDB","is_transit":false,"i_lat":-6.217455,"station_name":"Klenderbaru","distance":1305,"time":1,"i_long":106.939679,"transit":false},{"line":1,"i_lat":-6.219053,"station_id":"CUK","transit":false,"distance":1385,"is_transit":false,"time":8,"i_long":106.951283,"station_name":"Cakung"},{"line":1,"i_long":106.977657,"station_name":"Kranji","is_transit":false,"transit":false,"time":3,"distance":3097,"station_id":"KRI","i_lat":-6.224515},{"time":4,"station_name":"Bekasi","i_lat":-6.236616,"transit":false,"line":1,"station_id":"BKS","is_transit":false,"i_long":106.997013,"distance":2520},{"is_transit":false,"i_lat":-6.248029,"i_long":107.016735,"time":2,"station_name":"Bekasi Timur","line":1,"distance":2368,"station_id":"BKST","transit":false},{"station_id":"TB","station_name":"Tambun","line":1,"is_transit":false,"i_lat":-6.258864,"i_long":107.055722,"time":7,"distance":4460,"transit":false},{"station_id":"CIT","distance":3420,"station_name":"Cibitung","time":3,"i_lat":-6.261877,"i_long":107.083084,"is_transit":false,"line":1,"transit":false},{"i_long":107.093313,"line":1,"station_id":"TLM","i_lat":-6.262938,"time":2,"transit":false,"distance":2800,"station_name":"Metland Telaga Murni","is_transit":false}],[{"i_long":106.568863,"is_transit":false,"i_lat":-6.3441410000000005,"line":6,"distance":0,"station_name":"Parung Panjang","time":0,"transit":false,"station_id":"PRP"},{"is_transit":false,"line":3,"time":8,"station_id":"CC","station_name":"Cicayur","i_lat":-6.329547,"i_long":106.617853,"distance":5968,"transit":false},{"is_transit":false,"station_id":"CSK","transit":false,"time":4,"i_long":106.640411,"distance":2519,"line":3,"i_lat":-6.32484,"station_name":"Cisauk"},{"distance":1784,"transit":false,"station_name":"Serpong","i_lat":-6.319871,"time":4,"i_long":106.66566,"station_id":"SRP","line":6,"is_transit":false},{"line":6,"transit":false,"i_lat":-6.314823,"station_name":"Rawa Buntu","i_long":106.675475,"is_transit":false,"distance":2413,"time":4,"station_id":"RU"},{"is_transit":false,"station_name":"Sudimara","transit":false,"distance":4566,"station_id":"SDM","i_lat":-6.296963,"i_long":106.712277,"time":6,"line":6},{"distance":1994,"station_id":"JMU","transit":false,"time":4,"is_transit":false,"i_lat":-6.288927,"line":6,"i_long":106.728916,"station_name":"Jurangmangu"},{"is_transit":false,"line":6,"transit":false,"station_name":"Pondokranji","station_id":"PDJ","i_long":106.74273,"time":3,"i_lat":-6.276362,"distance":2179},{"i_lat":-6.237242,"distance":6218,"time":8,"is_transit":false,"station_id":"KBY","line":6,"station_name":"Kebayoran","i_long":106.780334,"transit":false},{"distance":3737,"station_name":"Palmerah","i_lat":-6.207404,"transit":false,"time":7,"station_id":"PLM","i_long":106.79689,"line":6,"is_transit":false},{"i_lat":-6.185545,"transit":true,"i_long":106.811091,"station_id":"THB","distance":3191,"time":6,"line":1,"station_name":"Tanah Abang","is_transit":true},{"station_name":"Duri","i_lat":-6.155215,"i_long":106.800832,"distance":3632,"transit":false,"time":8,"station_id":"DU","line":1,"is_transit":false},{"i_lat":-6.144674,"i_long":106.79867,"station_name":"Angke","station_id":"AK","line":1,"is_transit":false,"transit":false,"time":4,"distance":1230},{"line":4,"time":9,"is_transit":true,"distance":4102,"station_name":"Kampung Bandan","transit":true,"station_id":"KPB","i_long":106.826365,"i_lat":-6.132549},{"is_transit":false,"transit":false,"i_lat":-6.14505,"i_long":106.836569,"station_name":"Rajawali","station_id":"RJW","distance":1444,"time":3,"line":11},{"station_name":"Kemayoran","transit":false,"distance":1901,"line":11,"is_transit":false,"i_lat":-6.161728,"time":5,"i_long":106.839204,"station_id":"KMO"},{"distance":1436,"line":11,"is_transit":false,"time":4,"transit":false,"station_name":"Pasar Senen","station_id":"PSE","i_lat":-6.174784,"i_long":106.84368},{"transit":false,"time":8,"station_id":"GST","station_name":"Gang Sentiong","i_long":106.850107,"is_transit":false,"distance":1567,"i_lat":-6.185975,"line":11},{"i_long":106.855437,"line":11,"station_name":"Kramat","station_id":"KMT","time":1,"transit":false,"i_lat":-6.193792,"distance":973,"is_transit":false},{"i_long":106.861737,"transit":false,"distance":1829,"is_transit":false,"i_lat":-6.209188,"station_name":"Pondok Jati","time":2,"line":11,"station_id":"POK"},{"distance":1236,"station_name":"Jatinegara","line":1,"i_lat":-6.215091,"transit":true,"station_id":"JNG","time":9,"is_transit":true,"i_long":106.86807400000001},{"station_id":"KLD","line":1,"distance":3395,"transit":false,"time":3,"station_name":"Klender","is_transit":false,"i_long":106.899548,"i_lat":-6.2135},{"i_lat":-6.215568,"is_transit":false,"distance":3100,"time":2,"station_name":"Buaran","i_long":106.922662,"transit":false,"station_id":"BUA","line":1},{"distance":1305,"line":1,"is_transit":false,"time":1,"i_long":106.939679,"transit":false,"station_id":"KLDB","station_name":"Klenderbaru","i_lat":-6.217455},{"i_long":106.951283,"station_id":"CUK","is_transit":false,"transit":false,"time":8,"distance":1385,"station_name":"Cakung","line":1,"i_lat":-6.219053},{"station_name":"Kranji","station_id":"KRI","is_transit":false,"transit":false,"line":1,"i_long":106.977657,"time":3,"distance":3097,"i_lat":-6.224515},{"station_id":"BKS","distance":2520,"line":1,"time":4,"i_long":106.997013,"transit":false,"station_name":"Bekasi","is_transit":false,"i_lat":-6.236616},{"transit":false,"i_lat":-6.248029,"line":1,"time":2,"station_name":"Bekasi Timur","i_long":107.016735,"distance":2368,"is_transit":false,"station_id":"BKST"},{"i_lat":-6.258864,"line":1,"time":7,"distance":4460,"i_long":107.055722,"is_transit":false,"transit":false,"station_name":"Tambun","station_id":"TB"},{"transit":false,"time":3,"i_lat":-6.261877,"i_long":107.083084,"station_name":"Cibitung","is_transit":false,"station_id":"CIT","distance":3420,"line":1},{"transit":false,"distance":2800,"i_lat":-6.262938,"line":1,"time":2,"station_name":"Metland Telaga Murni","i_long":107.093313,"station_id":"TLM","is_transit":false}],[{"transit":false,"i_lat":-6.3441410000000005,"distance":0,"station_id":"PRP","is_transit":false,"station_name":"Parung Panjang","time":0,"i_long":106.568863,"line":6},{"station_name":"Cicayur","station_id":"CC","is_transit":false,"i_lat":-6.329547,"i_long":106.617853,"time":8,"transit":false,"distance":5968,"line":3},{"transit":false,"distance":2519,"line":3,"station_id":"CSK","station_name":"Cisauk","i_long":106.640411,"i_lat":-6.32484,"time":4,"is_transit":false},{"i_long":106.66566,"line":6,"time":4,"station_name":"Serpong","station_id":"SRP","i_lat":-6.319871,"distance":1784,"is_transit":false,"transit":false},{"i_lat":-6.314823,"i_long":106.675475,"station_id":"RU","station_name":"Rawa Buntu","transit":false,"line":6,"time":4,"distance":2413,"is_transit":false},{"station_name":"Sudimara","i_long":106.712277,"i_lat":-6.296963,"transit":false,"line":6,"time":6,"is_transit":false,"distance":4566,"station_id":"SDM"},{"station_name":"Jurangmangu","line":6,"transit":false,"distance":1994,"station_id":"JMU","i_long":106.728916,"time":4,"i_lat":-6.288927,"is_transit":false},{"line":6,"distance":2179,"i_long":106.74273,"station_id":"PDJ","i_lat":-6.276362,"time":3,"station_name":"Pondokranji","transit":false,"is_transit":false},{"i_lat":-6.237242,"station_id":"KBY","time":8,"station_name":"Kebayoran","is_transit":false,"transit":false,"distance":6218,"i_long":106.780334,"line":6},{"station_name":"Palmerah","time":7,"distance":3737,"is_transit":false,"i_long":106.79689,"transit":false,"station_id":"PLM","i_lat":-6.207404,"line":6},{"i_lat":-6.185545,"station_id":"THB","time":6,"line":1,"transit":true,"i_long":106.811091,"distance":3191,"station_name":"Tanah Abang","is_transit":true},{"is_transit":false,"transit":false,"distance":3632,"i_lat":-6.155215,"i_long":106.800832,"station_id":"DU","line":1,"station_name":"Duri","time":8},{"station_id":"AK","i_long":106.79867,"i_lat":-6.144674,"is_transit":false,"line":1,"distance":1230,"time":4,"transit":false,"station_name":"Angke"},{"time":9,"is_transit":true,"transit":true,"i_lat":-6.132549,"station_id":"KPB","station_name":"Kampung Bandan","line":4,"i_long":106.826365,"distance":4102},{"station_name":"Jakarta Kota","station_id":"JAKK","time":3,"i_lat":-6.137569,"line":2,"transit":true,"is_transit":true,"distance":1364,"i_long":106.812439},{"station_id":"JAY","distance":1264,"transit":false,"station_name":"Jayakarta","time":4,"i_lat":-6.141205,"i_long":106.820901,"line":2,"is_transit":false},{"station_id":"MGB","line":2,"station_name":"Manggabesar","transit":false,"i_long":106.82482,"i_lat":-6.149769,"distance":1080,"time":2,"is_transit":false},{"i_lat":-6.160725,"line":2,"distance":906,"transit":false,"time":2,"station_name":"Sawah Besar","station_id":"SW","i_long":106.827103,"is_transit":false},{"is_transit":false,"distance":1149,"i_long":106.828284,"transit":false,"i_lat":-6.166716,"station_id":"JUA","line":2,"time":2,"station_name":"Juanda"},{"i_long":106.832183,"time":4,"station_name":"Gondangdia","transit":false,"is_transit":false,"line":2,"station_id":"GDD","i_lat":-6.186295,"distance":2015},{"time":3,"distance":1750,"is_transit":false,"station_id":"CKI","station_name":"Cikini","transit":false,"line":2,"i_lat":-6.198556,"i_long":106.840169},{"station_name":"Manggarai","i_long":106.84912,"transit":true,"distance":1590,"time":4,"station_id":"MRI","i_lat":-6.209883,"is_transit":true,"line":2},{"is_transit":false,"distance":1275,"station_name":"Matraman","station_id":"MTR","i_lat":-6.212485,"transit":false,"time":2,"line":1,"i_long":106.858896},{"transit":false,"line":1,"time":8,"is_transit":false,"i_lat":-6.215091,"distance":1377,"station_name":"Jatinegara","station_id":"JNG","i_long":106.86807400000001},{"time":3,"transit":false,"distance":3395,"is_transit":false,"station_id":"KLD","i_lat":-6.2135,"i_long":106.899548,"line":1,"station_name":"Klender"},{"line":1,"station_id":"BUA","distance":3100,"i_long":106.922662,"i_lat":-6.215568,"is_transit":false,"transit":false,"time":2,"station_name":"Buaran"},{"line":1,"distance":1305,"time":1,"i_long":106.939679,"station_id":"KLDB","is_transit":false,"transit":false,"i_lat":-6.217455,"station_name":"Klenderbaru"},{"i_long":106.951283,"transit":false,"distance":1385,"i_lat":-6.219053,"time":8,"is_transit":false,"line":1,"station_id":"CUK","station_name":"Cakung"},{"i_lat":-6.224515,"station_name":"Kranji","is_transit":false,"line":1,"i_long":106.977657,"transit":false,"station_id":"KRI","time":3,"distance":3097},{"station_id":"BKS","is_transit":false,"time":4,"line":1,"i_long":106.997013,"station_name":"Bekasi","transit":false,"distance":2520,"i_lat":-6.236616},{"i_lat":-6.248029,"i_long":107.016735,"station_name":"Bekasi Timur","is_transit":false,"distance":2368,"line":1,"time":2,"station_id":"BKST","transit":false},{"i_lat":-6.258864,"transit":false,"station_name":"Tambun","is_transit":false,"distance":4460,"i_long":107.055722,"time":7,"station_id":"TB","line":1},{"distance":3420,"transit":false,"line":1,"station_id":"CIT","is_transit":false,"i_long":107.083084,"time":3,"station_name":"Cibitung","i_lat":-6.261877},{"distance":2800,"transit":false,"time":2,"station_name":"Metland Telaga Murni","is_transit":false,"station_id":"TLM","i_lat":-6.262938,"line":1,"i_long":107.093313}],[{"i_long":106.568863,"transit":false,"station_name":"Parung Panjang","station_id":"PRP","time":0,"line":6,"is_transit":false,"i_lat":-6.3441410000000005,"distance":0},{"distance":5968,"is_transit":false,"station_name":"Cicayur","i_lat":-6.329547,"line":3,"station_id":"CC","time":8,"i_long":106.617853,"transit":false},{"time":4,"distance":2519,"is_transit":false,"i_lat":-6.32484,"line":3,"station_name":"Cisauk","i_long":106.640411,"station_id":"CSK","transit":false},{"i_lat":-6.319871,"i_long":106.66566,"time":4,"station_id":"SRP","station_name":"Serpong","line":6,"transit":false,"distance":1784,"is_transit":false},{"time":4,"station_name":"Rawa Buntu","is_transit":false,"station_id":"RU","i_long":106.675475,"distance":2413,"i_lat":-6.314823,"line":6,"transit":false},{"station_id":"SDM","station_name":"Sudimara","time":6,"line":6,"i_lat":-6.296963,"i_long":106.712277,"distance":4566,"is_transit":false,"transit":false},{"station_id":"JMU","time":4,"i_long":106.728916,"line":6,"is_transit":false,"distance":1994,"station_name":"Jurangmangu","transit":false,"i_lat":-6.288927},{"line":6,"station_id":"PDJ","i_long":106.74273,"station_name":"Pondokranji","transit":false,"is_transit":false,"time":3,"distance":2179,"i_lat":-6.276362},{"i_lat":-6.237242,"time":8,"is_transit":false,"station_name":"Kebayoran","station_id":"KBY","line":6,"distance":6218,"i_long":106.780334,"transit":false},{"time":7,"station_id":"PLM","distance":3737,"station_name":"Palmerah","i_long":106.79689,"is_transit":false,"i_lat":-6.207404,"line":6,"transit":false},{"is_transit":true,"time":6,"distance":3191,"station_name":"Tanah Abang","i_long":106.811091,"transit":true,"i_lat":-6.185545,"line":1,"station_id":"THB"},{"i_long":106.816351,"station_name":"Karet","time":5,"station_id":"KAT","distance":2029,"i_lat":-6.20132,"line":1,"transit":false,"is_transit":false},{"distance":471,"station_id":"SUDB","line":1,"transit":false,"is_transit":false,"station_name":"Sudirman Baru","time":1,"i_lat":-6.201433,"i_long":106.819881},{"station_id":"SUD","i_long":106.822649,"line":1,"i_lat":-6.202263,"time":1,"transit":false,"station_name":"Sudirman","is_transit":false,"distance":280},{"time":4,"transit":true,"station_name":"Manggarai","is_transit":true,"i_lat":-6.209883,"i_long":106.84912,"line":2,"station_id":"MRI","distance":3186},{"distance":1590,"time":4,"i_lat":-6.198556,"i_long":106.840169,"line":2,"transit":false,"station_name":"Cikini","station_id":"CKI","is_transit":false},{"distance":1750,"time":3,"transit":false,"i_lat":-6.186295,"is_transit":false,"i_long":106.832183,"station_name":"Gondangdia","line":2,"station_id":"GDD"},{"line":2,"station_name":"Juanda","transit":false,"distance":2015,"is_transit":false,"station_id":"JUA","i_long":106.828284,"time":4,"i_lat":-6.166716},{"time":2,"i_lat":-6.160725,"is_transit":false,"station_id":"SW","distance":1149,"transit":false,"station_name":"Sawah Besar","line":2,"i_long":106.827103},{"i_long":106.82482,"station_id":"MGB","is_transit":false,"station_name":"Manggabesar","line":2,"i_lat":-6.149769,"time":2,"distance":906,"transit":false},{"transit":false,"i_long":106.820901,"time":2,"distance":1080,"is_transit":false,"station_id":"JAY","i_lat":-6.141205,"station_name":"Jayakarta","line":2},{"time":4,"line":2,"transit":true,"station_name":"Jakarta Kota","i_lat":-6.137569,"distance":1264,"is_transit":true,"station_id":"JAKK","i_long":106.812439},{"i_long":106.826365,"transit":true,"time":3,"distance":1364,"line":4,"station_id":"KPB","i_lat":-6.132549,"is_transit":true,"station_name":"Kampung Bandan"},{"line":11,"time":3,"station_id":"RJW","station_name":"Rajawali","is_transit":false,"distance":1444,"i_lat":-6.14505,"i_long":106.836569,"transit":false},{"is_transit":false,"transit":false,"time":5,"station_id":"KMO","i_long":106.839204,"distance":1901,"station_name":"Kemayoran","line":11,"i_lat":-6.161728},{"i_lat":-6.174784,"i_long":106.84368,"distance":1436,"line":11,"station_name":"Pasar Senen","station_id":"PSE","is_transit":false,"transit":false,"time":4},{"station_id":"GST","i_long":106.850107,"i_lat":-6.185975,"station_name":"Gang Sentiong","transit":false,"line":11,"distance":1567,"time":8,"is_transit":false},{"i_lat":-6.193792,"station_name":"Kramat","is_transit":false,"distance":973,"station_id":"KMT","i_long":106.855437,"line":11,"transit":false,"time":1},{"i_long":106.861737,"distance":1829,"line":11,"time":2,"i_lat":-6.209188,"station_name":"Pondok Jati","station_id":"POK","transit":false,"is_transit":false},{"line":1,"i_lat":-6.215091,"time":9,"is_transit":true,"i_long":106.86807400000001,"station_name":"Jatinegara","transit":true,"station_id":"JNG","distance":1236},{"i_long":106.899548,"line":1,"time":3,"is_transit":false,"i_lat":-6.2135,"distance":3395,"transit":false,"station_name":"Klender","station_id":"KLD"},{"time":2,"i_long":106.922662,"station_name":"Buaran","i_lat":-6.215568,"station_id":"BUA","line":1,"distance":3100,"is_transit":false,"transit":false},{"distance":1305,"station_id":"KLDB","line":1,"i_lat":-6.217455,"i_long":106.939679,"time":1,"station_name":"Klenderbaru","is_transit":false,"transit":false},{"station_id":"CUK","is_transit":false,"transit":false,"time":8,"station_name":"Cakung","i_long":106.951283,"i_lat":-6.219053,"distance":1385,"line":1},{"station_id":"KRI","line":1,"time":3,"is_transit":false,"i_long":106.977657,"i_lat":-6.224515,"transit":false,"station_name":"Kranji","distance":3097},{"i_lat":-6.236616,"distance":2520,"line":1,"i_long":106.997013,"station_name":"Bekasi","is_transit":false,"station_id":"BKS","time":4,"transit":false},{"is_transit":false,"station_id":"BKST","distance":2368,"i_long":107.016735,"line":1,"station_name":"Bekasi Timur","i_lat":-6.248029,"transit":false,"time":2},{"i_lat":-6.258864,"time":7,"is_transit":false,"line":1,"station_name":"Tambun","i_long":107.055722,"transit":false,"distance":4460,"station_id":"TB"},{"is_transit":false,"i_long":107.083084,"transit":false,"time":3,"distance":3420,"station_name":"Cibitung","i_lat":-6.261877,"line":1,"station_id":"CIT"},{"i_long":107.093313,"transit":false,"distance":2800,"station_id":"TLM","i_lat":-6.262938,"station_name":"Metland Telaga Murni","time":2,"line":1,"is_transit":false}]]}