{"data":[[{"station_name":"Parung Panjang","transit":false,"is_transit":false,"time":0,"i_lat":-6.3441410000000005,"line":6,"station_id":"PRP","distance":0,"i_long":106.568863},{"transit":false,"time":8,"distance":5968,"station_name":"Cicayur","station_id":"CC","i_long":106.617853,"i_lat":-6.329547,"line":3,"is_transit":false},{"station_id":"CSK","station_name":"Cisauk","time":4,"i_long":106.640411,"line":3,"is_transit":false,"transit":false,"distance":2519,"i_lat":-6.32484},{"station_id":"SRP","distance":1784,"transit":false,"is_transit":false,"i_lat":-6.319871,"i_long":106.66566,"station_name":"Serpong","line":6,"time":4},{"line":6,"station_name":"Rawa Buntu","is_transit":false,"i_long":106.675475,"distance":2413,"time":4,"transit":false,"station_id":"RU","i_lat":-6.314823},{"transit":false,"i_long":106.712277,"station_id":"SDM","is_transit":false,"line":6,"time":6,"distance":4566,"i_lat":-6.296963,"station_name":"Sudimara"},{"transit":false,"station_id":"JMU","time":4,"distance":1994,"i_long":106.728916,"line":6,"station_name":"Jurangmangu","is_transit":false,"i_lat":-6.288927},{"distance":2179,"time":3,"i_lat":-6.276362,"line":6,"i_long":106.74273,"is_transit":false,"station_id":"PDJ","transit":false,"station_name":"Pondokranji"},{"i_lat":-6.237242,"station_name":"Kebayoran","line":6,"i_long":106.780334,"time":8,"distance":6218,"is_transit":false,"transit":false,"station_id":"KBY"},{"distance":3737,"i_long":106.79689,"line":6,"time":7,"station_name":"Palmerah","is_transit":false,"i_lat":-6.207404,"transit":false,"station_id":"PLM"},{"line":1,"transit":true,"station_name":"Tanah Abang","station_id":"THB","is_transit":true,"i_lat":-6.185545,"i_long":106.811091,"distance":3191,"time":6},{"station_name":"Duri","is_transit":true,"transit":true,"time":8,"distance":3632,"i_long":106.800832,"i_lat":-6.155215,"line":1,"station_id":"DU"},{"i_long":106.788277,"line":5,"distance":1700,"i_lat":-6.162021,"time":3,"station_name":"Grogol","is_transit":false,"station_id":"GGL","transit":false},{"transit":false,"time":2,"is_transit":false,"i_lat":-6.161433,"i_long":106.771379,"station_id":"PSG","line":5,"station_name":"Pesing","distance":2036}],[{"time":0,"i_long":106.568863,"i_lat":-6.3441410000000005,"transit":false,"station_name":"Parung Panjang","line":6,"station_id":"PRP","is_transit":false,"distance":0},{"distance":5968,"i_long":106.617853,"i_lat":-6.329547,"time":8,"line":3,"station_id":"CC","transit":false,"station_name":"Cicayur","is_transit":false},{"time":4,"line":3,"station_name":"Cisauk","i_lat":-6.32484,"distance":2519,"i_long":106.640411,"transit":false,"station_id":"CSK","is_transit":false},{"is_transit":false,"i_lat":-6.319871,"time":4,"distance":1784,"station_name":"Serpong","line":6,"station_id":"SRP","transit":false,"i_long":106.66566},{"i_lat":-6.314823,"i_long":106.675475,"station_name":"Rawa Buntu","transit":false,"time":4,"station_id":"RU","distance":2413,"is_transit":false,"line":6},{"time":6,"line":6,"is_transit":false,"i_long":106.712277,"distance":4566,"i_lat":-6.296963,"transit":false,"station_name":"Sudimara","station_id":"SDM"},{"transit":false,"station_name":"Jurangmangu","i_long":106.728916,"station_id":"JMU","distance":1994,"i_lat":-6.288927,"is_transit":false,"time":4,"line":6},{"distance":2179,"line":6,"transit":false,"station_id":"PDJ","i_lat":-6.276362,"i_long":106.74273,"is_transit":false,"time":3,"station_name":"Pondokranji"},{"i_lat":-6.237242,"transit":false,"station_name":"Kebayoran","distance":6218,"time":8,"is_transit":false,"station_id":"KBY","i_long":106.780334,"line":6},{"i_long":106.79689,"time":7,"station_name":"Palmerah","distance":3737,"line":6,"is_transit":false,"transit":false,"i_lat":-6.207404,"station_id":"PLM"},{"line":1,"transit":true,"is_transit":true,"distance":3191,"i_long":106.811091,"station_id":"THB","i_lat":-6.185545,"time":6,"station_name":"Tanah Abang"},{"line":1,"time":5,"is_transit":false,"i_lat":-6.20132,"i_long":106.816351,"station_name":"Karet","transit":false,"distance":2029,"station_id":"KAT"},{"is_transit":false,"distance":471,"line":1,"i_lat":-6.201433,"i_long":106.819881,"station_name":"Sudirman Baru","station_id":"SUDB","transit":false,"time":1},{"transit":false,"distance":280,"i_long":106.822649,"line":1,"station_id":"SUD","is_transit":false,"time":1,"station_name":"Sudirman","i_lat":-6.202263},{"distance":3186,"i_long":106.84912,"is_transit":true,"station_name":"Manggarai","station_id":"MRI","line":2,"transit":true,"i_lat":-6.209883,"time":4},{"line":2,"is_transit":false,"station_name":"Cikini","transit":false,"distance":1590,"time":4,"i_long":106.840169,"station_id":"CKI","i_lat":-6.198556},{"distance":1750,"transit":false,"station_name":"Gondangdia","i_long":106.832183,"station_id":"GDD","line":2,"i_lat":-6.186295,"time":3,"is_transit":false},{"transit":false,"distance":2015,"i_lat":-6.166716,"i_long":106.828284,"time":4,"line":2,"station_name":"Juanda","station_id":"JUA","is_transit":false},{"is_transit":false,"station_id":"SW","transit":false,"i_long":106.827103,"distance":1149,"time":2,"i_lat":-6.160725,"station_name":"Sawah Besar","line":2},{"distance":906,"station_name":"Manggabesar","line":2,"i_lat":-6.149769,"station_id":"MGB","transit":false,"i_long":106.82482,"is_transit":false,"time":2},{"transit":false,"time":2,"station_id":"JAY","distance":1080,"is_transit":false,"i_lat":-6.141205,"i_long":106.820901,"line":2,"station_name":"Jayakarta"},{"i_lat":-6.137569,"station_name":"Jakarta Kota","distance":1264,"line":2,"station_id":"JAKK","time":4,"i_long":106.812439,"transit":true,"is_transit":true},{"station_name":"Kampung Bandan","i_lat":-6.132549,"transit":true,"station_id":"KPB","time":3,"i_long":106.826365,"distance":1364,"is_transit":true,"line":4},{"line":1,"i_lat":-6.144674,"station_name":"Angke","transit":false,"station_id":"AK","i_long":106.79867,"time":9,"distance":4102,"is_transit":false},{"line":1,"station_id":"DU","time":4,"i_lat":-6.155215,"transit":true,"i_long":106.800832,"station_name":"Duri","distance":1230,"is_transit":true},{"time":3,"line":5,"station_id":"GGL","i_long":106.788277,"distance":1700,"station_name":"Grogol","is_transit":false,"transit":false,"i_lat":-6.162021},{"station_id":"PSG","is_transit":false,"i_long":106.771379,"line":5,"transit":false,"station_name":"Pesing","i_lat":-6.161433,"time":2,"distance":2036}],[{"i_long":106.568863,"transit":false,"station_name":"Parung Panjang","time":0,"station_id":"PRP","distance":0,"i_lat":-6.3441410000000005,"is_transit":false,"line":6},{"time":8,"line":3,"i_lat":-6.329547,"station_name":"Cicayur","transit":false,"distance":5968,"i_long":106.617853,"station_id":"CC","is_transit":false},{"i_lat":-6.32484,"is_transit":false,"i_long":106.640411,"time":4,"transit":false,"station_name":"Cisauk","distance":2519,"station_id":"CSK","line":3},{"station_id":"SRP","station_name":"Serpong","i_lat":-6.319871,"is_transit":false,"distance":1784,"transit":false,"i_long":106.66566,"line":6,"time":4},{"line":6,"is_transit":false,"station_name":"Rawa Buntu","distance":2413,"i_lat":-6.314823,"i_long":106.675475,"time":4,"station_id":"RU","transit":false},{"station_name":"Sudimara","is_transit":false,"distance":4566,"transit":false,"time":6,"i_lat":-6.296963,"i_long":106.712277,"line":6,"station_id":"SDM"},{"is_transit":false,"i_long":106.728916,"line":6,"time":4,"distance":1994,"station_name":"Jurangmangu","station_id":"JMU","transit":false,"i_lat":-6.288927},{"distance":2179,"i_long":106.74273,"line":6,"time":3,"station_name":"Pondokranji","transit":false,"i_lat":-6.276362,"is_transit":false,"station_id":"PDJ"},{"is_transit":false,"time":8,"transit":false,"distance":6218,"i_long":106.780334,"station_name":"Kebayoran","i_lat":-6.237242,"line":6,"station_id":"KBY"},{"transit":false,"is_transit":false,"station_name":"Palmerah","time":7,"station_id":"PLM","i_lat":-6.207404,"i_long":106.79689,"distance":3737,"line":6},{"transit":true,"distance":3191,"i_long":106.811091,"line":1,"time":6,"station_name":"Tanah Abang","i_lat":-6.185545,"station_id":"THB","is_transit":true},{"is_transit":false,"transit":false,"time":5,"station_id":"KAT","distance":2029,"i_long":106.816351,"i_lat":-6.20132,"station_name":"Karet","line":1},{"transit":false,"line":1,"station_name":"Sudirman Baru","station_id":"SUDB","i_lat":-6.201433,"i_long":106.819881,"time":1,"is_transit":false,"distance":471},{"is_transit":false,"station_id":"SUD","i_lat":-6.202263,"time":1,"distance":280,"i_long":106.822649,"transit":false,"line":1,"station_name":"Sudirman"},{"i_long":106.84912,"is_transit":false,"station_name":"Manggarai","line":2,"i_lat":-6.209883,"time":4,"transit":false,"station_id":"MRI","distance":3186},{"is_transit":false,"station_name":"Matraman","station_id":"MTR","time":2,"line":1,"transit":false,"distance":1275,"i_lat":-6.212485,"i_long":106.858896},{"line":1,"transit":true,"station_name":"Jatinegara","distance":1377,"i_long":106.86807400000001,"is_transit":true,"station_id":"JNG","i_lat":-6.215091,"time":8},{"i_long":106.861737,"distance":1236,"line":11,"is_transit":false,"time":2,"station_name":"Pondok Jati","station_id":"POK","i_lat":-6.209188,"transit":false},{"station_id":"KMT","is_transit":false,"time":2,"distance":1829,"i_long":106.855437,"transit":false,"line":11,"i_lat":-6.193792,"station_name":"Kramat"},{"i_long":106.850107,"time":1,"transit":false,"is_transit":false,"distance":973,"station_id":"GST","line":11,"station_name":"Gang Sentiong","i_lat":-6.185975},{"i_lat":-6.174784,"transit":false,"time":8,"distance":1567,"i_long":106.84368,"station_id":"PSE","line":11,"station_name":"Pasar Senen","is_transit":false},{"is_transit":false,"time":4,"station_id":"KMO","distance":1436,"i_lat":-6.161728,"line":11,"transit":false,"i_long":106.839204,"station_name":"Kemayoran"},{"station_name":"Rajawali","i_lat":-6.14505,"i_long":106.836569,"is_transit":false,"transit":false,"line":11,"station_id":"RJW","distance":1901,"time":5},{"is_transit":true,"i_long":106.826365,"distance":1444,"station_id":"KPB","i_lat":-6.132549,"line":4,"time":3,"station_name":"Kampung Bandan","transit":true},{"station_id":"AK","line":1,"i_long":106.79867,"transit":false,"time":9,"is_transit":false,"i_lat":-6.144674,"distance":4102,"station_name":"Angke"},{"i_lat":-6.155215,"transit":true,"i_long":106.800832,"is_transit":true,"distance":1230,"station_id":"DU","station_name":"Duri","line":1,"time":4},{"station_id":"GGL","transit":false,"station_name":"Grogol","distance":1700,"is_transit":false,"time":3,"i_long":106.788277,"line":5,"i_lat":-6.162021},{"line":5,"transit":false,"station_name":"Pesing","distance":2036,"i_long":106.771379,"i_lat":-6.161433,"station_id":"PSG","is_transit":false,"time":2}]]}