{"data":[[{"station_id":"PRP","i_lat":-6.3441410000000005,"line":6,"transit":false,"station_name":"Parung Panjang","time":0,"i_long":106.568863,"distance":0,"is_transit":false},{"station_name":"Cicayur","time":8,"transit":false,"i_lat":-6.329547,"i_long":106.617853,"station_id":"CC","is_transit":false,"distance":5968,"line":0},{"i_long":106.640411,"transit":false,"time":4,"is_transit":false,"distance":2519,"station_name":"Cisauk","station_id":"CSK","i_lat":-6.32484,"line":0},{"time":4,"transit":false,"station_name":"Serpong","station_id":"SRP","is_transit":false,"i_lat":-6.319871,"i_long":106.66566,"distance":1784,"line":6},{"distance":2413,"i_lat":-6.314823,"line":6,"i_long":106.675475,"is_transit":false,"station_id":"RU","transit":false,"station_name":"Rawa Buntu","time":4},{"station_name":"Sudimara","i_long":106.712277,"transit":false,"line":6,"i_lat":-6.296963,"time":6,"is_transit":false,"station_id":"SDM","distance":4566},{"transit":false,"station_name":"Jurangmangu","line":6,"station_id":"JMU","distance":1994,"is_transit":false,"i_lat":-6.288927,"i_long":106.728916,"time":4},{"distance":2179,"transit":false,"i_long":106.74273,"is_transit":false,"i_lat":-6.276362,"station_id":"PDJ","station_name":"Pondokranji","line":6,"time":3},{"station_id":"KBY","distance":6218,"i_lat":-6.237242,"transit":false,"i_long":106.780334,"is_transit":false,"station_name":"Kebayoran","line":6,"time":8},{"line":6,"station_id":"PLM","time":7,"i_long":106.79689,"transit":false,"i_lat":-6.207404,"is_transit":false,"distance":3737,"station_name":"Palmerah"},{"transit":true,"time":6,"distance":3191,"line":1,"i_lat":-6.185545,"station_name":"Tanah Abang","is_transit":true,"i_long":106.811091,"station_id":"THB"},{"time":5,"station_name":"Karet","is_transit":false,"station_id":"KAT","i_lat":-6.20132,"i_long":106.816351,"line":1,"transit":false,"distance":2029},{"distance":471,"i_long":106.819881,"time":1,"line":1,"is_transit":false,"transit":false,"i_lat":-6.201433,"station_name":"Sudirman Baru","station_id":"SUDB"},{"is_transit":false,"station_name":"Sudirman","distance":280,"station_id":"SUD","transit":false,"line":1,"time":1,"i_lat":-6.202263,"i_long":106.822649},{"transit":false,"line":0,"time":4,"station_name":"Manggarai","i_lat":-6.209883,"distance":3186,"is_transit":true,"i_long":106.84912,"station_id":"MRI"},{"station_name":"Matraman","i_lat":-6.212485,"station_id":"MTR","time":2,"distance":1275,"i_long":106.858896,"line":1,"is_transit":false,"transit":false},{"i_lat":-6.215091,"line":0,"i_long":106.86807400000001,"is_transit":true,"distance":1377,"station_id":"JNG","station_name":"Jatinegara","transit":false,"time":8},{"line":1,"time":3,"i_lat":-6.2135,"station_id":"KLD","transit":false,"is_transit":false,"i_long":106.899548,"distance":3395,"station_name":"Klender"},{"is_transit":false,"line":0,"i_long":106.922662,"transit":false,"time":2,"i_lat":-6.215568,"distance":3100,"station_id":"BUA","station_name":"Buaran"},{"distance":1305,"station_name":"Klenderbaru","i_long":106.939679,"is_transit":false,"transit":false,"line":1,"station_id":"KLDB","time":1,"i_lat":-6.217455},{"i_lat":-6.219053,"is_transit":false,"transit":false,"station_id":"CUK","time":8,"line":0,"i_long":106.951283,"distance":1385,"station_name":"Cakung"},{"distance":3097,"station_id":"KRI","is_transit":false,"transit":false,"time":3,"i_lat":-6.224515,"line":1,"station_name":"Kranji","i_long":106.977657},{"is_transit":false,"i_long":106.997013,"distance":2520,"station_id":"BKS","i_lat":-6.236616,"line":0,"station_name":"Bekasi","time":4,"transit":false},{"distance":2368,"station_name":"Bekasi Timur","line":0,"is_transit":false,"i_lat":-6.248029,"i_long":107.016735,"time":2,"transit":false,"station_id":"BKST"},{"time":7,"i_lat":-6.258864,"distance":4460,"station_id":"TB","is_transit":false,"station_name":"Tambun","transit":false,"i_long":107.055722,"line":1},{"station_id":"CIT","i_lat":-6.261877,"line":0,"distance":3420,"is_transit":false,"station_name":"Cibitung","time":3,"i_long":107.083084,"transit":false},{"is_transit":false,"transit":false,"time":2,"i_lat":-6.262938,"line":1,"station_name":"Metland Telaga Murni","i_long":107.093313,"station_id":"TLM","distance":2800},{"time":4,"station_id":"CKR","distance":3689,"transit":false,"is_transit":false,"line":0,"station_name":"Cikarang","i_lat":-6.2553149999999995,"i_long":107.144613}],[{"line":6,"station_id":"PRP","distance":0,"time":0,"is_transit":false,"i_lat":-6.3441410000000005,"transit":false,"i_long":106.568863,"station_name":"Parung Panjang"},{"line":0,"station_name":"Cicayur","distance":5968,"is_transit":false,"station_id":"CC","transit":false,"time":8,"i_lat":-6.329547,"i_long":106.617853},{"i_lat":-6.32484,"station_id":"CSK","is_transit":false,"station_name":"Cisauk","transit":false,"distance":2519,"i_long":106.640411,"time":4,"line":0},{"is_transit":false,"time":4,"i_long":106.66566,"i_lat":-6.319871,"distance":1784,"line":6,"station_name":"Serpong","station_id":"SRP","transit":false},{"i_lat":-6.314823,"station_id":"RU","i_long":106.675475,"is_transit":false,"distance":2413,"transit":false,"station_name":"Rawa Buntu","time":4,"line":6},{"distance":4566,"station_name":"Sudimara","line":6,"transit":false,"i_long":106.712277,"is_transit":false,"station_id":"SDM","time":6,"i_lat":-6.296963},{"station_name":"Jurangmangu","station_id":"JMU","i_lat":-6.288927,"line":6,"distance":1994,"is_transit":false,"time":4,"transit":false,"i_long":106.728916},{"line":6,"time":3,"i_lat":-6.276362,"is_transit":false,"distance":2179,"transit":false,"station_id":"PDJ","i_long":106.74273,"station_name":"Pondokranji"},{"station_id":"KBY","is_transit":false,"i_lat":-6.237242,"line":6,"transit":false,"time":8,"i_long":106.780334,"station_name":"Kebayoran","distance":6218},{"time":7,"is_transit":false,"line":6,"transit":false,"i_long":106.79689,"distance":3737,"station_id":"PLM","station_name":"Palmerah","i_lat":-6.207404},{"station_name":"Tanah Abang","time":6,"i_lat":-6.185545,"transit":true,"line":1,"i_long":106.811091,"is_transit":true,"station_id":"THB","distance":3191},{"is_transit":true,"distance":3632,"station_name":"Duri","transit":true,"line":1,"station_id":"DU","i_lat":-6.155215,"time":8,"i_long":106.800832},{"is_transit":false,"i_lat":-6.144674,"distance":1230,"station_id":"AK","i_long":106.79867,"station_name":"Angke","time":4,"transit":false,"line":0},{"i_lat":-6.132549,"i_long":106.826365,"time":9,"station_name":"Kampung Bandan","line":0,"is_transit":true,"station_id":"KPB","distance":4102,"transit":true},{"time":3,"is_transit":false,"i_long":106.836569,"line":11,"i_lat":-6.14505,"station_id":"RJW","transit":false,"station_name":"Rajawali","distance":1444},{"time":5,"i_lat":-6.161728,"station_id":"KMO","is_transit":false,"i_long":106.839204,"line":11,"station_name":"Kemayoran","transit":false,"distance":1901},{"station_name":"Pasar Senen","station_id":"PSE","distance":1436,"is_transit":false,"time":4,"transit":false,"i_long":106.84368,"i_lat":-6.174784,"line":11},{"transit":false,"distance":1567,"station_name":"Gang Sentiong","line":11,"time":8,"i_long":106.850107,"i_lat":-6.185975,"is_transit":false,"station_id":"GST"},{"station_name":"Kramat","station_id":"KMT","i_long":106.855437,"distance":973,"line":11,"transit":false,"time":1,"is_transit":false,"i_lat":-6.193792},{"time":2,"station_name":"Pondok Jati","station_id":"POK","transit":false,"distance":1829,"i_long":106.861737,"i_lat":-6.209188,"line":11,"is_transit":false},{"distance":1236,"transit":true,"time":9,"line":0,"i_lat":-6.215091,"station_id":"JNG","i_long":106.86807400000001,"is_transit":true,"station_name":"Jatinegara"},{"line":1,"i_lat":-6.2135,"station_name":"Klender","is_transit":false,"i_long":106.899548,"station_id":"KLD","time":3,"transit":false,"distance":3395},{"i_long":106.922662,"i_lat":-6.215568,"is_transit":false,"time":2,"station_name":"Buaran","line":0,"station_id":"BUA","transit":false,"distance":3100},{"i_long":106.939679,"is_transit":false,"station_name":"Klenderbaru","distance":1305,"i_lat":-6.217455,"station_id":"KLDB","time":1,"line":1,"transit":false},{"time":8,"i_long":106.951283,"distance":1385,"station_name":"Cakung","station_id":"CUK","is_transit":false,"transit":false,"i_lat":-6.219053,"line":0},{"i_long":106.977657,"transit":false,"distance":3097,"i_lat":-6.224515,"line":1,"is_transit":false,"station_id":"KRI","station_name":"Kranji","time":3},{"distance":2520,"time":4,"station_name":"Bekasi","i_long":106.997013,"is_transit":false,"transit":false,"station_id":"BKS","i_lat":-6.236616,"line":0},{"transit":false,"station_name":"Bekasi Timur","i_lat":-6.248029,"line":0,"i_long":107.016735,"distance":2368,"is_transit":false,"station_id":"BKST","time":2},{"station_id":"TB","i_lat":-6.258864,"i_long":107.055722,"time":7,"is_transit":false,"line":1,"transit":false,"distance":4460,"station_name":"Tambun"},{"i_lat":-6.261877,"line":0,"time":3,"is_transit":false,"i_long":107.083084,"station_id":"CIT","station_name":"Cibitung","transit":false,"distance":3420},{"is_transit":false,"i_long":107.093313,"i_lat":-6.262938,"transit":false,"station_id":"TLM","line":1,"station_name":"Metland Telaga Murni","distance":2800,"time":2},{"station_id":"CKR","station_name":"Cikarang","i_long":107.144613,"line":0,"transit":false,"is_transit":false,"distance":3689,"i_lat":-6.2553149999999995,"time":4}],[{"distance":0,"i_lat":-6.3441410000000005,"is_transit":false,"station_id":"PRP","station_name":"Parung Panjang","transit":false,"i_long":106.568863,"line":6,"time":0},{"distance":5968,"line":0,"is_transit":false,"i_long":106.617853,"station_name":"Cicayur","station_id":"CC","time":8,"transit":false,"i_lat":-6.329547},{"i_long":106.640411,"distance":2519,"station_name":"Cisauk","time":4,"i_lat":-6.32484,"is_transit":false,"station_id":"CSK","line":0,"transit":false},{"i_long":106.66566,"station_id":"SRP","is_transit":false,"station_name":"Serpong","line":6,"distance":1784,"time":4,"i_lat":-6.319871,"transit":false},{"is_transit":false,"station_name":"Rawa Buntu","time":4,"i_long":106.675475,"station_id":"RU","distance":2413,"transit":false,"i_lat":-6.314823,"line":6},{"station_name":"Sudimara","i_lat":-6.296963,"time":6,"distance":4566,"station_id":"SDM","line":6,"is_transit":false,"transit":false,"i_long":106.712277},{"line":6,"is_transit":false,"station_id":"JMU","time":4,"transit":false,"i_long":106.728916,"distance":1994,"station_name":"Jurangmangu","i_lat":-6.288927},{"transit":false,"i_lat":-6.276362,"i_long":106.74273,"is_transit":false,"station_name":"Pondokranji","time":3,"station_id":"PDJ","distance":2179,"line":6},{"distance":6218,"transit":false,"i_lat":-6.237242,"station_id":"KBY","i_long":106.780334,"line":6,"is_transit":false,"station_name":"Kebayoran","time":8},{"station_id":"PLM","transit":false,"time":7,"station_name":"Palmerah","line":6,"i_long":106.79689,"i_lat":-6.207404,"distance":3737,"is_transit":false},{"time":6,"station_name":"Tanah Abang","is_transit":true,"distance":3191,"transit":true,"station_id":"THB","i_lat":-6.185545,"i_long":106.811091,"line":1},{"line":1,"station_name":"Duri","is_transit":true,"distance":3632,"station_id":"DU","transit":true,"i_lat":-6.155215,"time":8,"i_long":106.800832},{"line":0,"distance":1230,"station_name":"Angke","time":4,"i_lat":-6.144674,"i_long":106.79867,"transit":false,"station_id":"AK","is_transit":false},{"distance":4102,"transit":false,"is_transit":true,"line":0,"station_name":"Kampung Bandan","i_lat":-6.132549,"station_id":"KPB","time":9,"i_long":106.826365},{"time":3,"transit":true,"i_lat":-6.137569,"distance":1364,"line":0,"i_long":106.812439,"station_name":"Jakarta Kota","is_transit":true,"station_id":"JAKK"},{"station_name":"Jayakarta","i_lat":-6.141205,"i_long":106.820901,"line":7,"station_id":"JAY","is_transit":false,"time":4,"distance":1264,"transit":false},{"i_long":106.82482,"line":2,"distance":1080,"i_lat":-6.149769,"is_transit":false,"station_name":"Manggabesar","station_id":"MGB","time":2,"transit":false},{"distance":906,"station_id":"SW","time":2,"line":2,"station_name":"Sawah Besar","i_long":106.827103,"is_transit":false,"transit":false,"i_lat":-6.160725},{"station_name":"Juanda","is_transit":false,"i_long":106.828284,"time":2,"distance":1149,"transit":false,"i_lat":-6.166716,"line":2,"station_id":"JUA"},{"i_long":106.832183,"station_name":"Gondangdia","is_transit":false,"transit":false,"i_lat":-6.186295,"distance":2015,"station_id":"GDD","line":2,"time":4},{"station_id":"CKI","line":0,"transit":false,"i_lat":-6.198556,"i_long":106.840169,"station_name":"Cikini","distance":1750,"time":3,"is_transit":false},{"is_transit":true,"transit":true,"distance":1590,"time":4,"station_id":"MRI","station_name":"Manggarai","line":0,"i_lat":-6.209883,"i_long":106.84912},{"station_id":"MTR","transit":false,"i_long":106.858896,"distance":1275,"i_lat":-6.212485,"line":1,"is_transit":false,"time":2,"station_name":"Matraman"},{"station_name":"Jatinegara","is_transit":true,"station_id":"JNG","distance":1377,"transit":false,"time":8,"line":0,"i_long":106.86807400000001,"i_lat":-6.215091},{"transit":false,"distance":3395,"is_transit":false,"i_long":106.899548,"station_name":"Klender","station_id":"KLD","line":1,"i_lat":-6.2135,"time":3},{"line":0,"station_name":"Buaran","distance":3100,"i_lat":-6.215568,"transit":false,"time":2,"station_id":"BUA","i_long":106.922662,"is_transit":false},{"station_id":"KLDB","is_transit":false,"i_long":106.939679,"station_name":"Klenderbaru","i_lat":-6.217455,"time":1,"distance":1305,"transit":false,"line":1},{"station_name":"Cakung","is_transit":false,"distance":1385,"i_lat":-6.219053,"i_long":106.951283,"line":0,"transit":false,"time":8,"station_id":"CUK"},{"distance":3097,"time":3,"i_long":106.977657,"line":1,"i_lat":-6.224515,"station_name":"Kranji","transit":false,"is_transit":false,"station_id":"KRI"},{"i_long":106.997013,"station_name":"Bekasi","transit":false,"is_transit":false,"time":4,"i_lat":-6.236616,"distance":2520,"line":0,"station_id":"BKS"},{"transit":false,"line":0,"i_lat":-6.248029,"distance":2368,"station_id":"BKST","station_name":"Bekasi Timur","i_long":107.016735,"time":2,"is_transit":false},{"i_lat":-6.258864,"transit":false,"station_id":"TB","distance":4460,"station_name":"Tambun","time":7,"line":1,"is_transit":false,"i_long":107.055722},{"is_transit":false,"transit":false,"time":3,"station_id":"CIT","distance":3420,"i_long":107.083084,"station_name":"Cibitung","i_lat":-6.261877,"line":0},{"i_long":107.093313,"station_name":"Metland Telaga Murni","line":1,"station_id":"TLM","distance":2800,"transit":false,"i_lat":-6.262938,"is_transit":false,"time":2},{"station_name":"Cikarang","is_transit":false,"station_id":"CKR","distance":3689,"i_lat":-6.2553149999999995,"i_long":107.144613,"transit":false,"time":4,"line":0}],[{"i_long":106.568863,"is_transit":false,"line":6,"i_lat":-6.3441410000000005,"station_name":"Parung Panjang","station_id":"PRP","transit":false,"time":0,"distance":0},{"is_transit":false,"distance":5968,"station_id":"CC","transit":false,"station_name":"Cicayur","i_long":106.617853,"line":0,"time":8,"i_lat":-6.329547},{"time":4,"i_lat":-6.32484,"line":0,"i_long":106.640411,"station_id":"CSK","distance":2519,"station_name":"Cisauk","is_transit":false,"transit":false},{"distance":1784,"transit":false,"line":6,"is_transit":false,"station_name":"Serpong","time":4,"i_lat":-6.319871,"i_long":106.66566,"station_id":"SRP"},{"is_transit":false,"i_long":106.675475,"transit":false,"distance":2413,"i_lat":-6.314823,"station_name":"Rawa Buntu","station_id":"RU","line":6,"time":4},{"station_id":"SDM","i_lat":-6.296963,"line":6,"distance":4566,"station_name":"Sudimara","time":6,"transit":false,"i_long":106.712277,"is_transit":false},{"station_name":"Jurangmangu","i_lat":-6.288927,"i_long":106.728916,"line":6,"transit":false,"distance":1994,"is_transit":false,"time":4,"station_id":"JMU"},{"station_id":"PDJ","station_name":"Pondokranji","time":3,"line":6,"distance":2179,"i_lat":-6.276362,"is_transit":false,"i_long":106.74273,"transit":false},{"station_name":"Kebayoran","is_transit":false,"line":6,"station_id":"KBY","distance":6218,"time":8,"i_long":106.780334,"transit":false,"i_lat":-6.237242},{"transit":false,"station_name":"Palmerah","time":7,"station_id":"PLM","i_long":106.79689,"i_lat":-6.207404,"line":6,"distance":3737,"is_transit":false},{"i_lat":-6.185545,"station_id":"THB","line":1,"time":6,"transit":true,"i_long":106.811091,"station_name":"Tanah Abang","is_transit":true,"distance":3191},{"station_id":"KAT","time":5,"i_long":106.816351,"is_transit":false,"transit":false,"line":1,"station_name":"Karet","distance":2029,"i_lat":-6.20132},{"distance":471,"i_lat":-6.201433,"line":1,"transit":false,"station_name":"Sudirman Baru","time":1,"station_id":"SUDB","i_long":106.819881,"is_transit":false},{"i_lat":-6.202263,"transit":false,"station_name":"Sudirman","time":1,"line":1,"distance":280,"i_long":106.822649,"station_id":"SUD","is_transit":false},{"line":0,"i_long":106.84912,"transit":true,"i_lat":-6.209883,"is_transit":true,"distance":3186,"station_name":"Manggarai","time":4,"station_id":"MRI"},{"is_transit":false,"transit":false,"line":0,"i_lat":-6.198556,"station_id":"CKI","time":4,"distance":1590,"station_name":"Cikini","i_long":106.840169},{"transit":false,"i_lat":-6.186295,"station_name":"Gondangdia","time":3,"i_long":106.832183,"distance":1750,"station_id":"GDD","line":2,"is_transit":false},{"i_long":106.828284,"station_id":"JUA","transit":false,"time":4,"station_name":"Juanda","distance":2015,"is_transit":false,"line":2,"i_lat":-6.166716},{"station_name":"Sawah Besar","is_transit":false,"distance":1149,"time":2,"station_id":"SW","transit":false,"i_lat":-6.160725,"line":2,"i_long":106.827103},{"i_lat":-6.149769,"station_name":"Manggabesar","is_transit":false,"distance":906,"transit":false,"time":2,"i_long":106.82482,"line":2,"station_id":"MGB"},{"i_long":106.820901,"time":2,"transit":false,"station_id":"JAY","i_lat":-6.141205,"line":7,"station_name":"Jayakarta","is_transit":false,"distance":1080},{"line":0,"i_lat":-6.137569,"is_transit":true,"station_id":"JAKK","station_name":"Jakarta Kota","time":4,"i_long":106.812439,"transit":true,"distance":1264},{"transit":true,"station_id":"KPB","station_name":"Kampung Bandan","time":3,"i_long":106.826365,"distance":1364,"i_lat":-6.132549,"line":0,"is_transit":true},{"station_id":"RJW","time":3,"i_lat":-6.14505,"i_long":106.836569,"line":11,"distance":1444,"transit":false,"station_name":"Rajawali","is_transit":false},{"line":11,"time":5,"is_transit":false,"i_long":106.839204,"transit":false,"station_name":"Kemayoran","station_id":"KMO","i_lat":-6.161728,"distance":1901},{"is_transit":false,"station_name":"Pasar Senen","time":4,"station_id":"PSE","i_lat":-6.174784,"i_long":106.84368,"distance":1436,"line":11,"transit":false},{"i_lat":-6.185975,"i_long":106.850107,"transit":false,"station_id":"GST","is_transit":false,"distance":1567,"line":11,"station_name":"Gang Sentiong","time":8},{"i_long":106.855437,"i_lat":-6.193792,"time":1,"line":11,"distance":973,"transit":false,"station_name":"Kramat","is_transit":false,"station_id":"KMT"},{"line":11,"i_lat":-6.209188,"time":2,"transit":false,"distance":1829,"is_transit":false,"i_long":106.861737,"station_id":"POK","station_name":"Pondok Jati"},{"distance":1236,"i_lat":-6.215091,"is_transit":true,"line":0,"transit":true,"time":9,"station_id":"JNG","i_long":106.86807400000001,"station_name":"Jatinegara"},{"transit":false,"is_transit":false,"time":3,"i_lat":-6.2135,"distance":3395,"station_id":"KLD","station_name":"Klender","line":1,"i_long":106.899548},{"transit":false,"time":2,"is_transit":false,"station_id":"BUA","line":0,"distance":3100,"i_lat":-6.215568,"i_long":106.922662,"station_name":"Buaran"},{"station_name":"Klenderbaru","station_id":"KLDB","i_long":106.939679,"transit":false,"i_lat":-6.217455,"distance":1305,"is_transit":false,"time":1,"line":1},{"line":0,"time":8,"i_lat":-6.219053,"is_transit":false,"transit":false,"distance":1385,"station_id":"CUK","station_name":"Cakung","i_long":106.951283},{"transit":false,"time":3,"is_transit":false,"line":1,"i_lat":-6.224515,"distance":3097,"i_long":106.977657,"station_id":"KRI","station_name":"Kranji"},{"i_lat":-6.236616,"transit":false,"distance":2520,"is_transit":false,"time":4,"station_name":"Bekasi","station_id":"BKS","i_long":106.997013,"line":0},{"is_transit":false,"time":2,"station_id":"BKST","distance":2368,"station_name":"Bekasi Timur","line":0,"transit":false,"i_lat":-6.248029,"i_long":107.016735},{"transit":false,"distance":4460,"station_name":"Tambun","i_long":107.055722,"station_id":"TB","time":7,"i_lat":-6.258864,"is_transit":false,"line":1},{"time":3,"distance":3420,"station_name":"Cibitung","i_lat":-6.261877,"is_transit":false,"transit":false,"i_long":107.083084,"line":0,"station_id":"CIT"},{"line":1,"is_transit":false,"distance":2800,"time":2,"station_id":"TLM","station_name":"Metland Telaga Murni","transit":false,"i_long":107.093313,"i_lat":-6.262938},{"transit":false,"line":0,"station_name":"Cikarang","distance":3689,"i_lat":-6.2553149999999995,"station_id":"CKR","time":4,"i_long":107.144613,"is_transit":false}]]}