{"data":[[{"transit":false,"station_name":"Parung Panjang","is_transit":false,"distance":0,"station_id":"PRP","i_lat":-6.3441410000000005,"i_long":106.568863,"time":0,"line":6},{"i_long":106.617853,"i_lat":-6.329547,"transit":false,"station_id":"CC","station_name":"Cicayur","line":3,"is_transit":false,"time":8,"distance":5968},{"is_transit":false,"distance":2519,"transit":false,"i_lat":-6.32484,"i_long":106.640411,"station_name":"Cisauk","station_id":"CSK","time":4,"line":3},{"i_long":106.66566,"line":6,"transit":false,"is_transit":false,"distance":1784,"time":4,"station_id":"SRP","station_name":"Serpong","i_lat":-6.319871},{"distance":2413,"station_id":"RU","i_long":106.675475,"is_transit":false,"transit":false,"station_name":"Rawa Buntu","line":6,"i_lat":-6.314823,"time":4},{"station_name":"Sudimara","distance":4566,"transit":false,"time":6,"i_long":106.712277,"line":6,"station_id":"SDM","is_transit":false,"i_lat":-6.296963},{"time":4,"i_long":106.728916,"distance":1994,"station_name":"Jurangmangu","transit":false,"is_transit":false,"line":6,"station_id":"JMU","i_lat":-6.288927},{"line":6,"station_id":"PDJ","is_transit":false,"transit":false,"station_name":"Pondokranji","distance":2179,"i_lat":-6.276362,"i_long":106.74273,"time":3},{"distance":6218,"transit":false,"i_long":106.780334,"station_id":"KBY","line":6,"station_name":"Kebayoran","time":8,"is_transit":false,"i_lat":-6.237242},{"time":7,"i_lat":-6.207404,"station_name":"Palmerah","is_transit":false,"i_long":106.79689,"station_id":"PLM","line":6,"transit":false,"distance":3737},{"i_lat":-6.185545,"transit":true,"is_transit":true,"i_long":106.811091,"distance":3191,"line":1,"station_name":"Tanah Abang","time":6,"station_id":"THB"},{"line":1,"station_id":"DU","is_transit":false,"time":8,"station_name":"Duri","distance":3632,"transit":false,"i_lat":-6.155215,"i_long":106.800832}],[{"is_transit":false,"time":0,"distance":0,"i_lat":-6.3441410000000005,"line":6,"transit":false,"i_long":106.568863,"station_id":"PRP","station_name":"Parung Panjang"},{"transit":false,"station_id":"CC","station_name":"Cicayur","time":8,"i_long":106.617853,"i_lat":-6.329547,"is_transit":false,"distance":5968,"line":3},{"distance":2519,"transit":false,"station_name":"Cisauk","i_lat":-6.32484,"line":3,"i_long":106.640411,"time":4,"station_id":"CSK","is_transit":false},{"transit":false,"time":4,"is_transit":false,"distance":1784,"i_lat":-6.319871,"station_id":"SRP","i_long":106.66566,"line":6,"station_name":"Serpong"},{"distance":2413,"i_lat":-6.314823,"station_id":"RU","station_name":"Rawa Buntu","is_transit":false,"time":4,"line":6,"transit":false,"i_long":106.675475},{"station_name":"Sudimara","is_transit":false,"time":6,"transit":false,"station_id":"SDM","distance":4566,"i_long":106.712277,"line":6,"i_lat":-6.296963},{"station_id":"JMU","is_transit":false,"line":6,"distance":1994,"i_lat":-6.288927,"transit":false,"time":4,"station_name":"Jurangmangu","i_long":106.728916},{"transit":false,"i_lat":-6.276362,"i_long":106.74273,"distance":2179,"station_id":"PDJ","station_name":"Pondokranji","is_transit":false,"line":6,"time":3},{"transit":false,"station_id":"KBY","is_transit":false,"time":8,"i_long":106.780334,"station_name":"Kebayoran","i_lat":-6.237242,"line":6,"distance":6218},{"transit":false,"station_name":"Palmerah","i_lat":-6.207404,"time":7,"distance":3737,"station_id":"PLM","i_long":106.79689,"line":6,"is_transit":false},{"transit":true,"station_id":"THB","line":1,"is_transit":true,"station_name":"Tanah Abang","distance":3191,"i_lat":-6.185545,"i_long":106.811091,"time":6},{"station_name":"Karet","i_lat":-6.20132,"time":5,"transit":false,"is_transit":false,"i_long":106.816351,"distance":2029,"station_id":"KAT","line":1},{"transit":false,"station_name":"Sudirman Baru","time":1,"i_lat":-6.201433,"is_transit":false,"line":1,"distance":471,"i_long":106.819881,"station_id":"SUDB"},{"transit":false,"time":1,"distance":280,"i_lat":-6.202263,"line":1,"station_name":"Sudirman","i_long":106.822649,"is_transit":false,"station_id":"SUD"},{"is_transit":true,"i_lat":-6.209883,"i_long":106.84912,"transit":true,"distance":3186,"line":2,"station_id":"MRI","time":4,"station_name":"Manggarai"},{"station_id":"CKI","line":2,"transit":false,"is_transit":false,"time":4,"station_name":"Cikini","i_long":106.840169,"distance":1590,"i_lat":-6.198556},{"transit":false,"i_long":106.832183,"time":3,"is_transit":false,"line":2,"distance":1750,"station_id":"GDD","station_name":"Gondangdia","i_lat":-6.186295},{"line":2,"i_lat":-6.166716,"transit":false,"is_transit":false,"station_name":"Juanda","station_id":"JUA","distance":2015,"time":4,"i_long":106.828284},{"i_lat":-6.160725,"transit":false,"is_transit":false,"time":2,"station_id":"SW","i_long":106.827103,"line":2,"station_name":"Sawah Besar","distance":1149},{"i_long":106.82482,"distance":906,"transit":false,"line":2,"time":2,"i_lat":-6.149769,"station_id":"MGB","is_transit":false,"station_name":"Manggabesar"},{"station_id":"JAY","i_lat":-6.141205,"is_transit":false,"transit":false,"distance":1080,"station_name":"Jayakarta","time":2,"i_long":106.820901,"line":2},{"transit":true,"time":4,"i_long":106.812439,"station_name":"Jakarta Kota","distance":1264,"i_lat":-6.137569,"station_id":"JAKK","is_transit":true,"line":2},{"i_lat":-6.132549,"station_id":"KPB","transit":true,"line":4,"station_name":"Kampung Bandan","i_long":106.826365,"distance":1364,"time":3,"is_transit":true},{"i_lat":-6.144674,"line":1,"transit":false,"station_name":"Angke","time":9,"i_long":106.79867,"is_transit":false,"distance":4102,"station_id":"AK"},{"time":4,"transit":false,"i_long":106.800832,"station_name":"Duri","station_id":"DU","is_transit":false,"line":1,"distance":1230,"i_lat":-6.155215}],[{"station_name":"Parung Panjang","is_transit":false,"distance":0,"time":0,"i_lat":-6.3441410000000005,"transit":false,"line":6,"i_long":106.568863,"station_id":"PRP"},{"i_long":106.617853,"transit":false,"is_transit":false,"station_name":"Cicayur","station_id":"CC","line":3,"i_lat":-6.329547,"distance":5968,"time":8},{"transit":false,"is_transit":false,"distance":2519,"i_lat":-6.32484,"line":3,"time":4,"i_long":106.640411,"station_name":"Cisauk","station_id":"CSK"},{"time":4,"line":6,"distance":1784,"station_id":"SRP","i_long":106.66566,"is_transit":false,"station_name":"Serpong","i_lat":-6.319871,"transit":false},{"station_id":"RU","i_lat":-6.314823,"i_long":106.675475,"line":6,"distance":2413,"time":4,"transit":false,"station_name":"Rawa Buntu","is_transit":false},{"distance":4566,"i_long":106.712277,"transit":false,"i_lat":-6.296963,"line":6,"time":6,"is_transit":false,"station_id":"SDM","station_name":"Sudimara"},{"i_lat":-6.288927,"distance":1994,"station_name":"Jurangmangu","time":4,"i_long":106.728916,"line":6,"station_id":"JMU","is_transit":false,"transit":false},{"station_name":"Pondokranji","i_long":106.74273,"time":3,"i_lat":-6.276362,"line":6,"distance":2179,"transit":false,"is_transit":false,"station_id":"PDJ"},{"distance":6218,"time":8,"line":6,"station_name":"Kebayoran","transit":false,"is_transit":false,"i_lat":-6.237242,"station_id":"KBY","i_long":106.780334},{"time":7,"is_transit":false,"i_long":106.79689,"station_id":"PLM","transit":false,"i_lat":-6.207404,"line":6,"station_name":"Palmerah","distance":3737},{"is_transit":true,"station_name":"Tanah Abang","transit":true,"i_long":106.811091,"line":1,"distance":3191,"time":6,"station_id":"THB","i_lat":-6.185545},{"line":1,"is_transit":false,"station_name":"Karet","time":5,"i_long":106.816351,"distance":2029,"i_lat":-6.20132,"station_id":"KAT","transit":false},{"station_id":"SUDB","i_long":106.819881,"i_lat":-6.201433,"line":1,"distance":471,"time":1,"is_transit":false,"station_name":"Sudirman Baru","transit":false},{"time":1,"i_lat":-6.202263,"line":1,"distance":280,"station_name":"Sudirman","transit":false,"station_id":"SUD","is_transit":false,"i_long":106.822649},{"time":4,"i_lat":-6.209883,"distance":3186,"transit":false,"is_transit":false,"i_long":106.84912,"station_name":"Manggarai","station_id":"MRI","line":2},{"is_transit":false,"station_name":"Matraman","distance":1275,"time":2,"transit":false,"line":1,"i_lat":-6.212485,"station_id":"MTR","i_long":106.858896},{"transit":true,"i_long":106.86807400000001,"line":1,"station_id":"JNG","station_name":"Jatinegara","i_lat":-6.215091,"distance":1377,"time":8,"is_transit":true},{"station_id":"POK","distance":1236,"time":2,"i_long":106.861737,"station_name":"Pondok Jati","i_lat":-6.209188,"line":11,"transit":false,"is_transit":false},{"station_name":"Kramat","transit":false,"i_long":106.855437,"time":2,"is_transit":false,"i_lat":-6.193792,"line":11,"distance":1829,"station_id":"KMT"},{"station_id":"GST","station_name":"Gang Sentiong","is_transit":false,"line":11,"distance":973,"i_lat":-6.185975,"transit":false,"time":1,"i_long":106.850107},{"i_long":106.84368,"is_transit":false,"i_lat":-6.174784,"line":11,"distance":1567,"station_id":"PSE","transit":false,"station_name":"Pasar Senen","time":8},{"station_name":"Kemayoran","distance":1436,"station_id":"KMO","time":4,"i_long":106.839204,"i_lat":-6.161728,"transit":false,"is_transit":false,"line":11},{"transit":false,"station_name":"Rajawali","station_id":"RJW","i_lat":-6.14505,"time":5,"distance":1901,"i_long":106.836569,"is_transit":false,"line":11},{"station_name":"Kampung Bandan","i_long":106.826365,"line":4,"is_transit":true,"transit":true,"i_lat":-6.132549,"distance":1444,"station_id":"KPB","time":3},{"i_long":106.79867,"line":1,"station_id":"AK","i_lat":-6.144674,"transit":false,"station_name":"Angke","time":9,"distance":4102,"is_transit":false},{"is_transit":false,"time":4,"i_long":106.800832,"line":1,"station_id":"DU","distance":1230,"i_lat":-6.155215,"transit":false,"station_name":"Duri"}]]}