{"data":[[{"i_long":106.568863,"time":0,"station_name":"Parung Panjang","is_transit":false,"transit":false,"i_lat":-6.3441410000000005,"line":6,"distance":0,"station_id":"PRP"},{"station_name":"Cicayur","distance":5968,"i_long":106.617853,"transit":false,"line":3,"i_lat":-6.329547,"time":8,"station_id":"CC","is_transit":false},{"is_transit":false,"line":3,"distance":2519,"station_name":"Cisauk","time":4,"i_lat":-6.32484,"station_id":"CSK","i_long":106.640411,"transit":false},{"station_name":"Serpong","station_id":"SRP","i_long":106.66566,"distance":1784,"i_lat":-6.319871,"time":4,"is_transit":false,"line":6,"transit":false},{"distance":2413,"station_id":"RU","station_name":"Rawa Buntu","i_long":106.675475,"time":4,"transit":false,"is_transit":false,"line":6,"i_lat":-6.314823},{"line":6,"station_id":"SDM","is_transit":false,"time":6,"station_name":"Sudimara","distance":4566,"transit":false,"i_lat":-6.296963,"i_long":106.712277},{"is_transit":false,"distance":1994,"station_name":"Jurangmangu","station_id":"JMU","transit":false,"i_lat":-6.288927,"i_long":106.728916,"line":6,"time":4},{"station_name":"Pondokranji","station_id":"PDJ","time":3,"distance":2179,"i_lat":-6.276362,"i_long":106.74273,"transit":false,"is_transit":false,"line":6},{"line":6,"distance":6218,"i_long":106.780334,"station_name":"Kebayoran","time":8,"i_lat":-6.237242,"transit":false,"station_id":"KBY","is_transit":false},{"is_transit":false,"i_lat":-6.207404,"transit":false,"time":7,"line":6,"distance":3737,"station_name":"Palmerah","station_id":"PLM","i_long":106.79689},{"i_lat":-6.185545,"line":1,"transit":true,"is_transit":true,"station_id":"THB","time":6,"distance":3191,"station_name":"Tanah Abang","i_long":106.811091},{"i_lat":-6.155215,"is_transit":true,"station_name":"Duri","transit":true,"distance":3632,"i_long":106.800832,"line":1,"station_id":"DU","time":8},{"i_long":106.788277,"station_name":"Grogol","station_id":"GRG","is_transit":false,"line":5,"distance":1700,"time":3,"i_lat":-6.162021,"transit":false},{"station_name":"Pesing","distance":2036,"i_long":106.771379,"transit":false,"time":2,"station_id":"PSG","i_lat":-6.161433,"line":5,"is_transit":false}],[{"station_name":"Parung Panjang","is_transit":false,"line":6,"transit":false,"distance":0,"i_long":106.568863,"time":0,"station_id":"PRP","i_lat":-6.3441410000000005},{"line":3,"time":8,"station_name":"Cicayur","distance":5968,"i_long":106.617853,"transit":false,"i_lat":-6.329547,"station_id":"CC","is_transit":false},{"time":4,"is_transit":false,"i_lat":-6.32484,"i_long":106.640411,"transit":false,"line":3,"station_id":"CSK","station_name":"Cisauk","distance":2519},{"line":6,"i_long":106.66566,"station_name":"Serpong","time":4,"station_id":"SRP","distance":1784,"transit":false,"is_transit":false,"i_lat":-6.319871},{"transit":false,"i_lat":-6.314823,"i_long":106.675475,"time":4,"distance":2413,"station_id":"RU","is_transit":false,"line":6,"station_name":"Rawa Buntu"},{"is_transit":false,"transit":false,"time":6,"distance":4566,"i_long":106.712277,"station_id":"SDM","station_name":"Sudimara","i_lat":-6.296963,"line":6},{"distance":1994,"i_lat":-6.288927,"i_long":106.728916,"station_id":"JMU","time":4,"line":6,"transit":false,"is_transit":false,"station_name":"Jurangmangu"},{"transit":false,"station_id":"PDJ","station_name":"Pondokranji","line":6,"is_transit":false,"time":3,"distance":2179,"i_lat":-6.276362,"i_long":106.74273},{"station_name":"Kebayoran","distance":6218,"i_long":106.780334,"time":8,"is_transit":false,"transit":false,"line":6,"i_lat":-6.237242,"station_id":"KBY"},{"line":6,"distance":3737,"station_name":"Palmerah","station_id":"PLM","time":7,"transit":false,"i_lat":-6.207404,"i_long":106.79689,"is_transit":false},{"station_id":"THB","station_name":"Tanah Abang","is_transit":true,"i_long":106.811091,"distance":3191,"time":6,"i_lat":-6.185545,"transit":true,"line":1},{"i_long":106.816351,"station_id":"KAT","station_name":"Karet","is_transit":false,"transit":false,"line":1,"distance":2029,"time":5,"i_lat":-6.20132},{"distance":471,"station_id":"SUDB","transit":false,"station_name":"Sudirman Baru","time":1,"i_long":106.819881,"i_lat":-6.201433,"is_transit":false,"line":1},{"distance":280,"i_lat":-6.202263,"i_long":106.822649,"station_id":"SUD","is_transit":false,"station_name":"Sudirman","time":1,"transit":false,"line":1},{"distance":3186,"station_name":"Manggarai","time":4,"i_lat":-6.209883,"is_transit":true,"i_long":106.84912,"transit":true,"line":2,"station_id":"MRI"},{"station_id":"CKI","i_lat":-6.198556,"i_long":106.840169,"is_transit":false,"distance":1590,"line":2,"station_name":"Cikini","time":4,"transit":false},{"station_name":"Gondangdia","is_transit":false,"i_lat":-6.186295,"distance":1750,"transit":false,"station_id":"GDD","time":3,"i_long":106.832183,"line":2},{"station_name":"Juanda","is_transit":false,"transit":false,"time":4,"i_lat":-6.166716,"i_long":106.828284,"distance":2015,"line":2,"station_id":"JUA"},{"transit":false,"i_lat":-6.160725,"station_name":"Sawah Besar","time":2,"line":2,"station_id":"SW","i_long":106.827103,"distance":1149,"is_transit":false},{"station_name":"Manggabesar","station_id":"MGB","time":2,"distance":906,"transit":false,"i_long":106.82482,"is_transit":false,"i_lat":-6.149769,"line":2},{"i_long":106.820901,"line":2,"is_transit":false,"i_lat":-6.141205,"time":2,"station_id":"JAY","transit":false,"distance":1080,"station_name":"Jayakarta"},{"line":2,"time":4,"transit":true,"station_name":"Jakarta Kota","station_id":"JAKK","i_long":106.812439,"distance":1264,"i_lat":-6.137569,"is_transit":true},{"is_transit":true,"time":3,"i_long":106.826365,"distance":1364,"line":4,"transit":true,"i_lat":-6.132549,"station_name":"Kampung Bandan","station_id":"KPB"},{"i_lat":-6.144674,"line":1,"i_long":106.79867,"station_name":"Angke","time":9,"is_transit":false,"station_id":"AK","distance":4102,"transit":false},{"transit":true,"i_long":106.800832,"distance":1230,"is_transit":true,"i_lat":-6.155215,"station_id":"DU","time":4,"line":1,"station_name":"Duri"},{"station_id":"GRG","line":5,"i_lat":-6.162021,"transit":false,"is_transit":false,"time":3,"i_long":106.788277,"station_name":"Grogol","distance":1700},{"transit":false,"is_transit":false,"i_lat":-6.161433,"station_id":"PSG","i_long":106.771379,"station_name":"Pesing","distance":2036,"time":2,"line":5}],[{"transit":false,"i_lat":-6.3441410000000005,"i_long":106.568863,"station_name":"Parung Panjang","line":6,"time":0,"distance":0,"is_transit":false,"station_id":"PRP"},{"is_transit":false,"transit":false,"station_name":"Cicayur","time":8,"i_lat":-6.329547,"line":3,"i_long":106.617853,"distance":5968,"station_id":"CC"},{"is_transit":false,"transit":false,"distance":2519,"time":4,"i_lat":-6.32484,"i_long":106.640411,"station_id":"CSK","line":3,"station_name":"Cisauk"},{"station_name":"Serpong","is_transit":false,"time":4,"distance":1784,"i_lat":-6.319871,"i_long":106.66566,"station_id":"SRP","transit":false,"line":6},{"i_lat":-6.314823,"line":6,"distance":2413,"i_long":106.675475,"is_transit":false,"time":4,"station_id":"RU","station_name":"Rawa Buntu","transit":false},{"line":6,"distance":4566,"station_name":"Sudimara","is_transit":false,"station_id":"SDM","i_lat":-6.296963,"time":6,"i_long":106.712277,"transit":false},{"time":4,"line":6,"station_name":"Jurangmangu","is_transit":false,"i_long":106.728916,"transit":false,"distance":1994,"station_id":"JMU","i_lat":-6.288927},{"time":3,"distance":2179,"station_name":"Pondokranji","i_long":106.74273,"station_id":"PDJ","i_lat":-6.276362,"line":6,"transit":false,"is_transit":false},{"i_lat":-6.237242,"distance":6218,"time":8,"is_transit":false,"station_id":"KBY","i_long":106.780334,"station_name":"Kebayoran","line":6,"transit":false},{"line":6,"station_name":"Palmerah","distance":3737,"i_lat":-6.207404,"transit":false,"i_long":106.79689,"is_transit":false,"station_id":"PLM","time":7},{"line":1,"station_name":"Tanah Abang","transit":true,"is_transit":true,"i_lat":-6.185545,"time":6,"i_long":106.811091,"station_id":"THB","distance":3191},{"station_name":"Karet","time":5,"transit":false,"distance":2029,"i_lat":-6.20132,"line":1,"i_long":106.816351,"is_transit":false,"station_id":"KAT"},{"station_id":"SUDB","station_name":"Sudirman Baru","i_long":106.819881,"i_lat":-6.201433,"is_transit":false,"line":1,"transit":false,"time":1,"distance":471},{"i_lat":-6.202263,"is_transit":false,"i_long":106.822649,"line":1,"station_name":"Sudirman","time":1,"transit":false,"station_id":"SUD","distance":280},{"i_lat":-6.209883,"time":4,"transit":false,"station_name":"Manggarai","i_long":106.84912,"station_id":"MRI","line":2,"is_transit":false,"distance":3186},{"line":1,"station_name":"Matraman","is_transit":false,"time":2,"station_id":"MTR","i_lat":-6.212485,"i_long":106.858896,"distance":1275,"transit":false},{"station_name":"Jatinegara","is_transit":true,"distance":1377,"time":8,"station_id":"JNG","i_long":106.86807400000001,"transit":true,"i_lat":-6.215091,"line":1},{"time":2,"line":11,"i_long":106.861737,"station_id":"POK","i_lat":-6.209188,"station_name":"Pondok Jati","is_transit":false,"transit":false,"distance":1236},{"station_name":"Kramat","is_transit":false,"transit":false,"time":2,"station_id":"KMT","i_lat":-6.193792,"line":11,"distance":1829,"i_long":106.855437},{"i_long":106.850107,"distance":973,"transit":false,"line":11,"time":1,"station_name":"Gang Sentiong","i_lat":-6.185975,"is_transit":false,"station_id":"GST"},{"station_name":"Pasar Senen","distance":1567,"time":8,"station_id":"PSE","i_long":106.84368,"i_lat":-6.174784,"transit":false,"is_transit":false,"line":11},{"distance":1436,"i_long":106.839204,"transit":false,"i_lat":-6.161728,"line":11,"time":4,"station_name":"Kemayoran","is_transit":false,"station_id":"KMO"},{"time":5,"line":11,"station_name":"Rajawali","transit":false,"is_transit":false,"distance":1901,"i_lat":-6.14505,"i_long":106.836569,"station_id":"RJW"},{"station_name":"Kampung Bandan","distance":1444,"i_lat":-6.132549,"station_id":"KPB","is_transit":true,"i_long":106.826365,"time":3,"transit":true,"line":4},{"station_id":"AK","transit":false,"is_transit":false,"time":9,"distance":4102,"station_name":"Angke","i_lat":-6.144674,"i_long":106.79867,"line":1},{"distance":1230,"station_name":"Duri","is_transit":true,"station_id":"DU","i_lat":-6.155215,"line":1,"time":4,"transit":true,"i_long":106.800832},{"is_transit":false,"i_lat":-6.162021,"station_name":"Grogol","transit":false,"time":3,"station_id":"GRG","i_long":106.788277,"line":5,"distance":1700},{"station_id":"PSG","distance":2036,"i_lat":-6.161433,"transit":false,"time":2,"line":5,"station_name":"Pesing","i_long":106.771379,"is_transit":false}]]}