{"data":[[{"station_name":"Parung Panjang","time":0,"i_lat":-6.3441410000000005,"line":6,"i_long":106.568863,"transit":false,"distance":0,"is_transit":false,"station_id":"PRP"},{"i_lat":-6.329547,"station_name":"Cicayur","i_long":106.617853,"time":8,"distance":5968,"is_transit":false,"line":0,"transit":false,"station_id":"CC"},{"station_name":"Cisauk","distance":2519,"time":4,"i_long":106.640411,"line":0,"transit":false,"station_id":"CSK","is_transit":false,"i_lat":-6.32484},{"i_long":106.66566,"station_id":"SRP","time":4,"station_name":"Serpong","line":6,"distance":1784,"is_transit":false,"transit":false,"i_lat":-6.319871},{"is_transit":false,"station_name":"Rawa Buntu","distance":2413,"i_lat":-6.314823,"time":4,"station_id":"RU","i_long":106.675475,"transit":false,"line":6},{"time":6,"is_transit":false,"line":6,"transit":false,"i_lat":-6.296963,"distance":4566,"i_long":106.712277,"station_id":"SDM","station_name":"Sudimara"},{"distance":1994,"is_transit":false,"station_id":"JMU","line":6,"time":4,"i_lat":-6.288927,"i_long":106.728916,"station_name":"Jurangmangu","transit":false},{"station_id":"PDJ","line":6,"transit":false,"time":3,"i_lat":-6.276362,"i_long":106.74273,"station_name":"Pondokranji","distance":2179,"is_transit":false},{"station_id":"KBY","i_lat":-6.237242,"is_transit":false,"i_long":106.780334,"line":6,"time":8,"station_name":"Kebayoran","distance":6218,"transit":false},{"station_name":"Palmerah","distance":3737,"i_lat":-6.207404,"station_id":"PLM","is_transit":false,"i_long":106.79689,"line":6,"transit":false,"time":7},{"distance":3191,"station_id":"THB","transit":true,"time":6,"is_transit":true,"line":1,"i_long":106.811091,"station_name":"Tanah Abang","i_lat":-6.185545},{"station_id":"KAT","distance":2029,"is_transit":false,"i_lat":-6.20132,"station_name":"Karet","i_long":106.816351,"time":5,"line":1,"transit":false},{"i_lat":-6.201433,"station_id":"SUDB","is_transit":false,"line":1,"time":1,"i_long":106.819881,"distance":471,"station_name":"Sudirman Baru","transit":false},{"i_lat":-6.202263,"transit":false,"is_transit":false,"station_id":"SUD","time":1,"i_long":106.822649,"line":1,"distance":280,"station_name":"Sudirman"},{"station_name":"Manggarai","time":4,"is_transit":true,"station_id":"MRI","transit":true,"i_lat":-6.209883,"i_long":106.84912,"line":0,"distance":3186},{"line":0,"distance":1590,"transit":false,"time":4,"i_lat":-6.198556,"station_id":"CKI","is_transit":false,"station_name":"Cikini","i_long":106.840169},{"station_name":"Gondangdia","time":3,"line":2,"is_transit":false,"i_lat":-6.186295,"transit":false,"station_id":"GDD","distance":1750,"i_long":106.832183}],[{"transit":false,"is_transit":false,"line":6,"time":0,"i_lat":-6.3441410000000005,"station_id":"PRP","station_name":"Parung Panjang","distance":0,"i_long":106.568863},{"station_name":"Cicayur","station_id":"CC","distance":5968,"transit":false,"i_lat":-6.329547,"time":8,"i_long":106.617853,"is_transit":false,"line":0},{"distance":2519,"station_id":"CSK","station_name":"Cisauk","i_lat":-6.32484,"transit":false,"is_transit":false,"i_long":106.640411,"time":4,"line":0},{"station_name":"Serpong","line":6,"transit":false,"is_transit":false,"i_lat":-6.319871,"distance":1784,"station_id":"SRP","time":4,"i_long":106.66566},{"distance":2413,"is_transit":false,"station_name":"Rawa Buntu","i_lat":-6.314823,"i_long":106.675475,"line":6,"station_id":"RU","time":4,"transit":false},{"distance":4566,"transit":false,"i_long":106.712277,"i_lat":-6.296963,"is_transit":false,"station_name":"Sudimara","station_id":"SDM","line":6,"time":6},{"line":6,"station_name":"Jurangmangu","station_id":"JMU","i_lat":-6.288927,"time":4,"is_transit":false,"i_long":106.728916,"distance":1994,"transit":false},{"i_lat":-6.276362,"i_long":106.74273,"line":6,"time":3,"transit":false,"is_transit":false,"distance":2179,"station_id":"PDJ","station_name":"Pondokranji"},{"transit":false,"station_id":"KBY","time":8,"i_long":106.780334,"distance":6218,"is_transit":false,"station_name":"Kebayoran","i_lat":-6.237242,"line":6},{"is_transit":false,"station_id":"PLM","distance":3737,"station_name":"Palmerah","line":6,"i_long":106.79689,"transit":false,"time":7,"i_lat":-6.207404},{"is_transit":true,"i_long":106.811091,"transit":true,"line":1,"distance":3191,"station_id":"THB","time":6,"i_lat":-6.185545,"station_name":"Tanah Abang"},{"i_long":106.800832,"station_id":"DU","is_transit":true,"time":8,"line":1,"distance":3632,"transit":true,"i_lat":-6.155215,"station_name":"Duri"},{"is_transit":false,"station_id":"AK","station_name":"Angke","time":4,"distance":1230,"i_lat":-6.144674,"i_long":106.79867,"line":0,"transit":false},{"distance":4102,"station_id":"KPB","transit":false,"line":0,"is_transit":true,"station_name":"Kampung Bandan","time":9,"i_lat":-6.132549,"i_long":106.826365},{"time":3,"station_id":"JAKK","i_long":106.812439,"line":0,"i_lat":-6.137569,"station_name":"Jakarta Kota","transit":true,"distance":1364,"is_transit":true},{"is_transit":false,"station_id":"JAY","transit":false,"i_long":106.820901,"station_name":"Jayakarta","i_lat":-6.141205,"distance":1264,"time":4,"line":7},{"is_transit":false,"transit":false,"time":2,"station_name":"Manggabesar","i_lat":-6.149769,"i_long":106.82482,"distance":1080,"line":2,"station_id":"MGB"},{"station_name":"Sawah Besar","i_long":106.827103,"distance":906,"time":2,"is_transit":false,"i_lat":-6.160725,"transit":false,"line":2,"station_id":"SW"},{"station_id":"JUA","distance":1149,"i_lat":-6.166716,"i_long":106.828284,"line":2,"station_name":"Juanda","is_transit":false,"transit":false,"time":2},{"time":4,"line":2,"i_lat":-6.186295,"station_id":"GDD","transit":false,"distance":2015,"station_name":"Gondangdia","i_long":106.832183,"is_transit":false}],[{"station_name":"Parung Panjang","i_long":106.568863,"time":0,"transit":false,"is_transit":false,"line":6,"distance":0,"station_id":"PRP","i_lat":-6.3441410000000005},{"time":8,"i_long":106.617853,"line":0,"transit":false,"is_transit":false,"i_lat":-6.329547,"distance":5968,"station_id":"CC","station_name":"Cicayur"},{"distance":2519,"line":0,"is_transit":false,"transit":false,"i_long":106.640411,"time":4,"i_lat":-6.32484,"station_id":"CSK","station_name":"Cisauk"},{"station_name":"Serpong","transit":false,"is_transit":false,"distance":1784,"station_id":"SRP","time":4,"line":6,"i_lat":-6.319871,"i_long":106.66566},{"is_transit":false,"station_name":"Rawa Buntu","transit":false,"line":6,"i_long":106.675475,"time":4,"i_lat":-6.314823,"station_id":"RU","distance":2413},{"station_id":"SDM","transit":false,"distance":4566,"line":6,"i_long":106.712277,"is_transit":false,"i_lat":-6.296963,"station_name":"Sudimara","time":6},{"distance":1994,"station_name":"Jurangmangu","i_lat":-6.288927,"i_long":106.728916,"is_transit":false,"station_id":"JMU","time":4,"transit":false,"line":6},{"station_id":"PDJ","transit":false,"is_transit":false,"station_name":"Pondokranji","i_lat":-6.276362,"time":3,"distance":2179,"i_long":106.74273,"line":6},{"transit":false,"i_lat":-6.237242,"time":8,"is_transit":false,"line":6,"station_name":"Kebayoran","distance":6218,"station_id":"KBY","i_long":106.780334},{"line":6,"i_long":106.79689,"transit":false,"station_name":"Palmerah","i_lat":-6.207404,"is_transit":false,"distance":3737,"station_id":"PLM","time":7},{"time":6,"i_lat":-6.185545,"station_id":"THB","distance":3191,"i_long":106.811091,"transit":true,"line":1,"station_name":"Tanah Abang","is_transit":true},{"is_transit":true,"station_name":"Duri","distance":3632,"i_lat":-6.155215,"transit":true,"time":8,"line":1,"station_id":"DU","i_long":106.800832},{"line":0,"distance":1230,"i_long":106.79867,"i_lat":-6.144674,"is_transit":false,"station_id":"AK","transit":false,"time":4,"station_name":"Angke"},{"transit":true,"station_name":"Kampung Bandan","i_long":106.826365,"distance":4102,"station_id":"KPB","time":9,"is_transit":true,"i_lat":-6.132549,"line":0},{"is_transit":false,"i_lat":-6.14505,"i_long":106.836569,"station_name":"Rajawali","time":3,"distance":1444,"line":11,"station_id":"RJW","transit":false},{"is_transit":false,"station_name":"Kemayoran","station_id":"KMO","transit":false,"i_long":106.839204,"distance":1901,"time":5,"line":11,"i_lat":-6.161728},{"time":4,"line":11,"is_transit":false,"distance":1436,"i_long":106.84368,"station_name":"Pasar Senen","transit":false,"station_id":"PSE","i_lat":-6.174784},{"station_name":"Gang Sentiong","i_lat":-6.185975,"line":11,"distance":1567,"is_transit":false,"transit":false,"i_long":106.850107,"station_id":"GST","time":8},{"time":1,"transit":false,"station_name":"Kramat","station_id":"KMT","i_long":106.855437,"i_lat":-6.193792,"is_transit":false,"line":11,"distance":973},{"i_lat":-6.209188,"time":2,"line":11,"i_long":106.861737,"is_transit":false,"transit":false,"station_id":"POK","distance":1829,"station_name":"Pondok Jati"},{"station_name":"Jatinegara","transit":true,"line":0,"station_id":"JNG","time":9,"i_lat":-6.215091,"is_transit":true,"i_long":106.86807400000001,"distance":1236},{"distance":1377,"station_id":"MTR","transit":false,"is_transit":false,"i_long":106.858896,"line":1,"i_lat":-6.212485,"station_name":"Matraman","time":2},{"distance":1275,"station_id":"MRI","i_long":106.84912,"time":2,"transit":true,"i_lat":-6.209883,"station_name":"Manggarai","line":0,"is_transit":true},{"is_transit":false,"time":4,"i_lat":-6.198556,"transit":false,"line":0,"station_name":"Cikini","station_id":"CKI","i_long":106.840169,"distance":1590},{"station_name":"Gondangdia","station_id":"GDD","transit":false,"line":2,"time":3,"is_transit":false,"i_long":106.832183,"i_lat":-6.186295,"distance":1750}],[{"is_transit":false,"i_long":106.568863,"line":6,"distance":0,"station_name":"Parung Panjang","station_id":"PRP","time":0,"transit":false,"i_lat":-6.3441410000000005},{"distance":5968,"line":0,"i_lat":-6.329547,"transit":false,"station_name":"Cicayur","i_long":106.617853,"is_transit":false,"time":8,"station_id":"CC"},{"line":0,"is_transit":false,"station_id":"CSK","i_long":106.640411,"station_name":"Cisauk","time":4,"i_lat":-6.32484,"distance":2519,"transit":false},{"line":6,"station_id":"SRP","time":4,"transit":false,"distance":1784,"i_lat":-6.319871,"station_name":"Serpong","is_transit":false,"i_long":106.66566},{"is_transit":false,"time":4,"transit":false,"line":6,"distance":2413,"station_id":"RU","i_long":106.675475,"station_name":"Rawa Buntu","i_lat":-6.314823},{"is_transit":false,"station_name":"Sudimara","i_long":106.712277,"station_id":"SDM","transit":false,"line":6,"distance":4566,"time":6,"i_lat":-6.296963},{"i_long":106.728916,"station_name":"Jurangmangu","time":4,"i_lat":-6.288927,"transit":false,"is_transit":false,"station_id":"JMU","distance":1994,"line":6},{"station_name":"Pondokranji","is_transit":false,"i_lat":-6.276362,"transit":false,"line":6,"station_id":"PDJ","time":3,"i_long":106.74273,"distance":2179},{"transit":false,"line":6,"distance":6218,"is_transit":false,"time":8,"station_id":"KBY","station_name":"Kebayoran","i_lat":-6.237242,"i_long":106.780334},{"transit":false,"is_transit":false,"time":7,"i_lat":-6.207404,"i_long":106.79689,"distance":3737,"line":6,"station_id":"PLM","station_name":"Palmerah"},{"i_lat":-6.185545,"time":6,"station_id":"THB","distance":3191,"line":1,"station_name":"Tanah Abang","transit":true,"i_long":106.811091,"is_transit":true},{"station_name":"Karet","line":1,"time":5,"station_id":"KAT","transit":false,"i_long":106.816351,"is_transit":false,"i_lat":-6.20132,"distance":2029},{"transit":false,"line":1,"station_id":"SUDB","time":1,"distance":471,"is_transit":false,"i_lat":-6.201433,"station_name":"Sudirman Baru","i_long":106.819881},{"is_transit":false,"time":1,"i_lat":-6.202263,"i_long":106.822649,"station_id":"SUD","station_name":"Sudirman","transit":false,"distance":280,"line":1},{"station_id":"MRI","transit":false,"i_long":106.84912,"is_transit":true,"time":4,"i_lat":-6.209883,"line":0,"station_name":"Manggarai","distance":3186},{"station_id":"MTR","i_lat":-6.212485,"is_transit":false,"distance":1275,"line":1,"station_name":"Matraman","i_long":106.858896,"transit":false,"time":2},{"transit":true,"line":0,"station_name":"Jatinegara","i_lat":-6.215091,"i_long":106.86807400000001,"station_id":"JNG","distance":1377,"is_transit":true,"time":8},{"station_id":"POK","distance":1236,"station_name":"Pondok Jati","i_lat":-6.209188,"transit":false,"is_transit":false,"line":11,"time":2,"i_long":106.861737},{"station_name":"Kramat","distance":1829,"line":11,"time":2,"station_id":"KMT","i_long":106.855437,"transit":false,"is_transit":false,"i_lat":-6.193792},{"time":1,"transit":false,"station_name":"Gang Sentiong","distance":973,"is_transit":false,"station_id":"GST","i_lat":-6.185975,"line":11,"i_long":106.850107},{"i_lat":-6.174784,"i_long":106.84368,"transit":false,"station_name":"Pasar Senen","distance":1567,"time":8,"is_transit":false,"station_id":"PSE","line":11},{"i_lat":-6.161728,"line":11,"time":4,"distance":1436,"is_transit":false,"station_id":"KMO","transit":false,"station_name":"Kemayoran","i_long":106.839204},{"time":5,"line":11,"station_id":"RJW","i_long":106.836569,"transit":false,"distance":1901,"station_name":"Rajawali","is_transit":false,"i_lat":-6.14505},{"time":3,"i_lat":-6.132549,"station_name":"Kampung Bandan","line":0,"is_transit":true,"i_long":106.826365,"distance":1444,"transit":true,"station_id":"KPB"},{"distance":1364,"i_long":106.812439,"is_transit":true,"station_id":"JAKK","line":0,"time":3,"station_name":"Jakarta Kota","transit":true,"i_lat":-6.137569},{"distance":1264,"i_long":106.820901,"line":7,"transit":false,"station_id":"JAY","station_name":"Jayakarta","is_transit":false,"time":4,"i_lat":-6.141205},{"distance":1080,"transit":false,"i_long":106.82482,"station_id":"MGB","i_lat":-6.149769,"is_transit":false,"line":2,"station_name":"Manggabesar","time":2},{"is_transit":false,"distance":906,"station_name":"Sawah Besar","i_lat":-6.160725,"station_id":"SW","i_long":106.827103,"time":2,"transit":false,"line":2},{"distance":1149,"is_transit":false,"station_name":"Juanda","transit":false,"line":2,"i_long":106.828284,"station_id":"JUA","i_lat":-6.166716,"time":2},{"time":4,"line":2,"i_long":106.832183,"transit":false,"distance":2015,"is_transit":false,"station_id":"GDD","station_name":"Gondangdia","i_lat":-6.186295}]]}