{"data":[[{"station_id":"PRP","line":6,"i_long":106.568863,"time":0,"is_transit":false,"distance":0,"station_name":"Parung Panjang","i_lat":-6.3441410000000005,"transit":false},{"i_lat":-6.329547,"is_transit":false,"station_name":"Cicayur","line":3,"distance":5968,"i_long":106.617853,"time":8,"transit":false,"station_id":"CC"},{"distance":2519,"station_name":"Cisauk","transit":false,"i_lat":-6.32484,"station_id":"CSK","time":4,"i_long":106.640411,"line":3,"is_transit":false},{"station_id":"SRP","transit":false,"i_long":106.66566,"time":4,"station_name":"Serpong","is_transit":false,"i_lat":-6.319871,"line":6,"distance":1784},{"station_id":"RU","station_name":"Rawa Buntu","i_long":106.675475,"i_lat":-6.314823,"transit":false,"time":4,"is_transit":false,"line":6,"distance":2413},{"station_id":"SDM","is_transit":false,"line":6,"time":6,"station_name":"Sudimara","i_lat":-6.296963,"i_long":106.712277,"distance":4566,"transit":false},{"station_id":"JMU","is_transit":false,"line":6,"transit":false,"i_lat":-6.288927,"i_long":106.728916,"station_name":"Jurangmangu","distance":1994,"time":4},{"transit":false,"line":6,"distance":2179,"time":3,"i_long":106.74273,"i_lat":-6.276362,"station_id":"PDJ","station_name":"Pondokranji","is_transit":false},{"distance":6218,"station_name":"Kebayoran","line":6,"time":8,"i_long":106.780334,"transit":false,"is_transit":false,"i_lat":-6.237242,"station_id":"KBY"},{"distance":3737,"i_lat":-6.207404,"is_transit":false,"time":7,"station_id":"PLM","station_name":"Palmerah","i_long":106.79689,"transit":false,"line":6},{"is_transit":true,"station_name":"Tanah Abang","station_id":"THB","i_lat":-6.185545,"time":6,"distance":3191,"i_long":106.811091,"transit":true,"line":1},{"distance":2029,"time":5,"station_name":"Karet","i_lat":-6.20132,"transit":false,"station_id":"KAT","is_transit":false,"i_long":106.816351,"line":1},{"transit":false,"i_lat":-6.201433,"time":1,"i_long":106.819881,"distance":471,"station_id":"SUDB","line":1,"station_name":"Sudirman Baru","is_transit":false},{"i_lat":-6.202263,"time":1,"is_transit":false,"transit":false,"distance":280,"i_long":106.822649,"line":1,"station_id":"SUD","station_name":"Sudirman"},{"distance":3186,"station_id":"MRI","transit":false,"station_name":"Manggarai","i_lat":-6.209883,"is_transit":false,"line":2,"i_long":106.84912,"time":4},{"time":2,"station_name":"Matraman","station_id":"MTR","is_transit":false,"i_lat":-6.212485,"line":1,"distance":1275,"transit":false,"i_long":106.858896},{"is_transit":false,"transit":false,"i_lat":-6.215091,"distance":1377,"i_long":106.86807400000001,"time":8,"station_id":"JNG","station_name":"Jatinegara","line":1},{"time":3,"station_id":"KLD","distance":3395,"station_name":"Klender","line":1,"is_transit":false,"i_lat":-6.2135,"transit":false,"i_long":106.899548},{"distance":3100,"is_transit":false,"line":1,"i_long":106.922662,"station_name":"Buaran","transit":false,"i_lat":-6.215568,"station_id":"BUA","time":2},{"is_transit":false,"transit":false,"station_id":"KLDB","distance":1305,"i_lat":-6.217455,"station_name":"Klenderbaru","time":1,"i_long":106.939679,"line":1},{"transit":false,"station_id":"CUK","station_name":"Cakung","i_long":106.951283,"is_transit":false,"i_lat":-6.219053,"line":1,"time":8,"distance":1385},{"i_lat":-6.224515,"time":3,"transit":false,"station_id":"KRI","distance":3097,"i_long":106.977657,"station_name":"Kranji","line":1,"is_transit":false},{"i_long":106.997013,"time":4,"line":1,"transit":false,"station_id":"BKS","distance":2520,"is_transit":false,"station_name":"Bekasi","i_lat":-6.236616},{"is_transit":false,"station_name":"Bekasi Timur","distance":2368,"i_lat":-6.248029,"line":1,"transit":false,"time":2,"i_long":107.016735,"station_id":"BKST"},{"station_name":"Tambun","i_long":107.055722,"distance":4460,"transit":false,"time":7,"is_transit":false,"i_lat":-6.258864,"line":1,"station_id":"TB"},{"station_name":"Cibitung","station_id":"CIT","distance":3420,"is_transit":false,"time":3,"i_lat":-6.261877,"i_long":107.083084,"line":1,"transit":false},{"line":1,"time":2,"i_long":107.093313,"station_name":"Metland Telaga Murni","is_transit":false,"distance":2800,"i_lat":-6.262938,"transit":false,"station_id":"TLM"},{"i_long":107.144613,"is_transit":false,"station_id":"CKR","line":1,"distance":3689,"transit":false,"station_name":"Cikarang","i_lat":-6.2553149999999995,"time":4}],[{"line":6,"time":0,"station_name":"Parung Panjang","transit":false,"station_id":"PRP","i_long":106.568863,"is_transit":false,"i_lat":-6.3441410000000005,"distance":0},{"station_id":"CC","i_long":106.617853,"distance":5968,"line":3,"is_transit":false,"time":8,"station_name":"Cicayur","transit":false,"i_lat":-6.329547},{"i_long":106.640411,"time":4,"transit":false,"distance":2519,"station_id":"CSK","line":3,"is_transit":false,"station_name":"Cisauk","i_lat":-6.32484},{"time":4,"distance":1784,"transit":false,"station_name":"Serpong","is_transit":false,"i_long":106.66566,"i_lat":-6.319871,"station_id":"SRP","line":6},{"i_long":106.675475,"is_transit":false,"station_name":"Rawa Buntu","i_lat":-6.314823,"time":4,"distance":2413,"transit":false,"station_id":"RU","line":6},{"i_lat":-6.296963,"transit":false,"distance":4566,"time":6,"station_name":"Sudimara","is_transit":false,"station_id":"SDM","i_long":106.712277,"line":6},{"station_id":"JMU","time":4,"transit":false,"is_transit":false,"i_lat":-6.288927,"distance":1994,"line":6,"i_long":106.728916,"station_name":"Jurangmangu"},{"is_transit":false,"transit":false,"station_name":"Pondokranji","station_id":"PDJ","i_lat":-6.276362,"i_long":106.74273,"distance":2179,"time":3,"line":6},{"time":8,"station_name":"Kebayoran","line":6,"is_transit":false,"i_lat":-6.237242,"station_id":"KBY","distance":6218,"i_long":106.780334,"transit":false},{"line":6,"time":7,"transit":false,"is_transit":false,"station_name":"Palmerah","i_lat":-6.207404,"i_long":106.79689,"station_id":"PLM","distance":3737},{"transit":true,"station_id":"THB","distance":3191,"i_lat":-6.185545,"station_name":"Tanah Abang","line":1,"is_transit":true,"time":6,"i_long":106.811091},{"is_transit":false,"transit":false,"i_long":106.800832,"time":8,"i_lat":-6.155215,"distance":3632,"station_name":"Duri","station_id":"DU","line":1},{"i_lat":-6.144674,"is_transit":false,"i_long":106.79867,"station_id":"AK","distance":1230,"time":4,"transit":false,"station_name":"Angke","line":1},{"i_lat":-6.132549,"transit":true,"time":9,"i_long":106.826365,"distance":4102,"is_transit":true,"station_id":"KPB","station_name":"Kampung Bandan","line":4},{"line":11,"transit":false,"time":3,"station_name":"Rajawali","station_id":"RJW","distance":1444,"is_transit":false,"i_lat":-6.14505,"i_long":106.836569},{"i_long":106.839204,"station_id":"KMO","station_name":"Kemayoran","distance":1901,"is_transit":false,"transit":false,"time":5,"i_lat":-6.161728,"line":11},{"distance":1436,"is_transit":false,"i_long":106.84368,"station_id":"PSE","line":11,"station_name":"Pasar Senen","time":4,"i_lat":-6.174784,"transit":false},{"time":8,"transit":false,"station_name":"Gang Sentiong","station_id":"GST","line":11,"is_transit":false,"i_long":106.850107,"i_lat":-6.185975,"distance":1567},{"transit":false,"time":1,"is_transit":false,"station_id":"KMT","line":11,"i_lat":-6.193792,"distance":973,"i_long":106.855437,"station_name":"Kramat"},{"i_long":106.861737,"distance":1829,"station_name":"Pondok Jati","i_lat":-6.209188,"is_transit":false,"transit":false,"station_id":"POK","time":2,"line":11},{"line":1,"i_lat":-6.215091,"distance":1236,"station_name":"Jatinegara","is_transit":true,"time":9,"transit":true,"station_id":"JNG","i_long":106.86807400000001},{"distance":3395,"i_lat":-6.2135,"station_name":"Klender","is_transit":false,"transit":false,"time":3,"station_id":"KLD","line":1,"i_long":106.899548},{"is_transit":false,"transit":false,"station_id":"BUA","distance":3100,"time":2,"i_lat":-6.215568,"line":1,"station_name":"Buaran","i_long":106.922662},{"line":1,"transit":false,"i_lat":-6.217455,"i_long":106.939679,"distance":1305,"is_transit":false,"station_name":"Klenderbaru","time":1,"station_id":"KLDB"},{"transit":false,"i_lat":-6.219053,"i_long":106.951283,"time":8,"station_name":"Cakung","station_id":"CUK","distance":1385,"line":1,"is_transit":false},{"station_id":"KRI","transit":false,"is_transit":false,"time":3,"i_long":106.977657,"i_lat":-6.224515,"line":1,"distance":3097,"station_name":"Kranji"},{"i_lat":-6.236616,"time":4,"station_id":"BKS","i_long":106.997013,"is_transit":false,"line":1,"transit":false,"distance":2520,"station_name":"Bekasi"},{"time":2,"transit":false,"line":1,"i_long":107.016735,"is_transit":false,"distance":2368,"station_name":"Bekasi Timur","station_id":"BKST","i_lat":-6.248029},{"station_id":"TB","transit":false,"i_lat":-6.258864,"is_transit":false,"time":7,"line":1,"station_name":"Tambun","distance":4460,"i_long":107.055722},{"time":3,"distance":3420,"station_name":"Cibitung","station_id":"CIT","i_lat":-6.261877,"transit":false,"line":1,"i_long":107.083084,"is_transit":false},{"is_transit":false,"transit":false,"station_id":"TLM","i_long":107.093313,"time":2,"line":1,"distance":2800,"i_lat":-6.262938,"station_name":"Metland Telaga Murni"},{"is_transit":false,"i_long":107.144613,"station_name":"Cikarang","transit":false,"station_id":"CKR","i_lat":-6.2553149999999995,"line":1,"time":4,"distance":3689}],[{"is_transit":false,"distance":0,"station_id":"PRP","i_long":106.568863,"time":0,"i_lat":-6.3441410000000005,"transit":false,"line":6,"station_name":"Parung Panjang"},{"line":3,"station_id":"CC","transit":false,"time":8,"i_lat":-6.329547,"i_long":106.617853,"distance":5968,"is_transit":false,"station_name":"Cicayur"},{"is_transit":false,"transit":false,"time":4,"i_lat":-6.32484,"station_id":"CSK","i_long":106.640411,"distance":2519,"station_name":"Cisauk","line":3},{"transit":false,"station_name":"Serpong","i_lat":-6.319871,"line":6,"is_transit":false,"station_id":"SRP","time":4,"i_long":106.66566,"distance":1784},{"i_long":106.675475,"i_lat":-6.314823,"station_id":"RU","station_name":"Rawa Buntu","is_transit":false,"time":4,"line":6,"distance":2413,"transit":false},{"station_id":"SDM","i_lat":-6.296963,"i_long":106.712277,"time":6,"transit":false,"distance":4566,"line":6,"is_transit":false,"station_name":"Sudimara"},{"time":4,"is_transit":false,"line":6,"transit":false,"i_long":106.728916,"distance":1994,"i_lat":-6.288927,"station_id":"JMU","station_name":"Jurangmangu"},{"line":6,"i_long":106.74273,"station_name":"Pondokranji","distance":2179,"transit":false,"station_id":"PDJ","is_transit":false,"i_lat":-6.276362,"time":3},{"station_name":"Kebayoran","i_lat":-6.237242,"station_id":"KBY","line":6,"distance":6218,"transit":false,"is_transit":false,"time":8,"i_long":106.780334},{"distance":3737,"station_id":"PLM","line":6,"is_transit":false,"i_long":106.79689,"i_lat":-6.207404,"transit":false,"time":7,"station_name":"Palmerah"},{"is_transit":true,"station_name":"Tanah Abang","transit":true,"i_long":106.811091,"time":6,"distance":3191,"station_id":"THB","i_lat":-6.185545,"line":1},{"i_lat":-6.155215,"i_long":106.800832,"time":8,"station_id":"DU","station_name":"Duri","line":1,"transit":false,"distance":3632,"is_transit":false},{"distance":1230,"transit":false,"time":4,"i_long":106.79867,"is_transit":false,"line":1,"station_name":"Angke","station_id":"AK","i_lat":-6.144674},{"i_long":106.826365,"distance":4102,"line":4,"station_id":"KPB","is_transit":true,"i_lat":-6.132549,"time":9,"transit":true,"station_name":"Kampung Bandan"},{"station_id":"JAKK","transit":true,"distance":1364,"line":2,"i_lat":-6.137569,"i_long":106.812439,"station_name":"Jakarta Kota","is_transit":true,"time":3},{"is_transit":false,"station_name":"Jayakarta","distance":1264,"transit":false,"time":4,"i_lat":-6.141205,"station_id":"JAY","i_long":106.820901,"line":2},{"is_transit":false,"station_id":"MGB","i_long":106.82482,"distance":1080,"transit":false,"line":2,"i_lat":-6.149769,"station_name":"Manggabesar","time":2},{"transit":false,"is_transit":false,"time":2,"distance":906,"i_long":106.827103,"station_name":"Sawah Besar","i_lat":-6.160725,"station_id":"SW","line":2},{"station_name":"Juanda","transit":false,"i_lat":-6.166716,"time":2,"i_long":106.828284,"is_transit":false,"line":2,"distance":1149,"station_id":"JUA"},{"time":4,"transit":false,"station_name":"Gondangdia","i_long":106.832183,"station_id":"GDD","i_lat":-6.186295,"line":2,"is_transit":false,"distance":2015},{"is_transit":false,"distance":1750,"transit":false,"i_long":106.840169,"time":3,"station_name":"Cikini","station_id":"CKI","i_lat":-6.198556,"line":2},{"time":4,"i_lat":-6.209883,"station_id":"MRI","distance":1590,"transit":true,"i_long":106.84912,"line":2,"station_name":"Manggarai","is_transit":true},{"time":2,"station_name":"Matraman","station_id":"MTR","i_lat":-6.212485,"i_long":106.858896,"line":1,"is_transit":false,"distance":1275,"transit":false},{"i_lat":-6.215091,"i_long":106.86807400000001,"line":1,"distance":1377,"station_id":"JNG","transit":false,"is_transit":false,"station_name":"Jatinegara","time":8},{"i_lat":-6.2135,"line":1,"time":3,"is_transit":false,"station_name":"Klender","station_id":"KLD","i_long":106.899548,"distance":3395,"transit":false},{"line":1,"transit":false,"time":2,"station_name":"Buaran","is_transit":false,"station_id":"BUA","distance":3100,"i_lat":-6.215568,"i_long":106.922662},{"line":1,"station_id":"KLDB","time":1,"is_transit":false,"i_lat":-6.217455,"distance":1305,"transit":false,"station_name":"Klenderbaru","i_long":106.939679},{"time":8,"i_lat":-6.219053,"station_name":"Cakung","is_transit":false,"i_long":106.951283,"station_id":"CUK","line":1,"distance":1385,"transit":false},{"distance":3097,"transit":false,"station_id":"KRI","i_lat":-6.224515,"line":1,"is_transit":false,"time":3,"i_long":106.977657,"station_name":"Kranji"},{"station_name":"Bekasi","transit":false,"distance":2520,"line":1,"i_lat":-6.236616,"is_transit":false,"time":4,"station_id":"BKS","i_long":106.997013},{"i_long":107.016735,"transit":false,"i_lat":-6.248029,"time":2,"station_name":"Bekasi Timur","distance":2368,"station_id":"BKST","line":1,"is_transit":false},{"time":7,"station_id":"TB","is_transit":false,"station_name":"Tambun","line":1,"transit":false,"distance":4460,"i_lat":-6.258864,"i_long":107.055722},{"i_long":107.083084,"is_transit":false,"station_id":"CIT","line":1,"transit":false,"station_name":"Cibitung","time":3,"distance":3420,"i_lat":-6.261877},{"is_transit":false,"time":2,"i_long":107.093313,"distance":2800,"transit":false,"line":1,"station_id":"TLM","i_lat":-6.262938,"station_name":"Metland Telaga Murni"},{"station_name":"Cikarang","station_id":"CKR","is_transit":false,"distance":3689,"time":4,"transit":false,"i_long":107.144613,"i_lat":-6.2553149999999995,"line":1}],[{"station_name":"Parung Panjang","is_transit":false,"transit":false,"time":0,"distance":0,"station_id":"PRP","i_long":106.568863,"line":6,"i_lat":-6.3441410000000005},{"station_name":"Cicayur","i_lat":-6.329547,"is_transit":false,"line":3,"station_id":"CC","i_long":106.617853,"transit":false,"distance":5968,"time":8},{"is_transit":false,"transit":false,"time":4,"station_name":"Cisauk","station_id":"CSK","i_long":106.640411,"distance":2519,"line":3,"i_lat":-6.32484},{"station_id":"SRP","time":4,"i_long":106.66566,"distance":1784,"is_transit":false,"transit":false,"i_lat":-6.319871,"line":6,"station_name":"Serpong"},{"line":6,"station_name":"Rawa Buntu","distance":2413,"i_long":106.675475,"time":4,"transit":false,"is_transit":false,"station_id":"RU","i_lat":-6.314823},{"i_long":106.712277,"station_name":"Sudimara","distance":4566,"is_transit":false,"i_lat":-6.296963,"transit":false,"station_id":"SDM","line":6,"time":6},{"is_transit":false,"transit":false,"time":4,"distance":1994,"station_id":"JMU","i_lat":-6.288927,"i_long":106.728916,"line":6,"station_name":"Jurangmangu"},{"station_name":"Pondokranji","transit":false,"station_id":"PDJ","is_transit":false,"line":6,"distance":2179,"i_long":106.74273,"time":3,"i_lat":-6.276362},{"time":8,"is_transit":false,"station_name":"Kebayoran","station_id":"KBY","i_long":106.780334,"distance":6218,"line":6,"i_lat":-6.237242,"transit":false},{"station_name":"Palmerah","distance":3737,"station_id":"PLM","line":6,"i_long":106.79689,"is_transit":false,"transit":false,"time":7,"i_lat":-6.207404},{"station_name":"Tanah Abang","is_transit":true,"transit":true,"i_long":106.811091,"time":6,"station_id":"THB","i_lat":-6.185545,"line":1,"distance":3191},{"station_id":"KAT","transit":false,"is_transit":false,"i_long":106.816351,"i_lat":-6.20132,"distance":2029,"station_name":"Karet","time":5,"line":1},{"distance":471,"is_transit":false,"transit":false,"time":1,"station_name":"Sudirman Baru","line":1,"i_lat":-6.201433,"station_id":"SUDB","i_long":106.819881},{"line":1,"time":1,"i_long":106.822649,"i_lat":-6.202263,"station_name":"Sudirman","distance":280,"transit":false,"station_id":"SUD","is_transit":false},{"line":2,"station_id":"MRI","i_lat":-6.209883,"station_name":"Manggarai","is_transit":true,"i_long":106.84912,"time":4,"distance":3186,"transit":true},{"station_id":"CKI","station_name":"Cikini","line":2,"i_long":106.840169,"i_lat":-6.198556,"distance":1590,"transit":false,"time":4,"is_transit":false},{"station_id":"GDD","i_lat":-6.186295,"station_name":"Gondangdia","i_long":106.832183,"line":2,"transit":false,"is_transit":false,"time":3,"distance":1750},{"i_lat":-6.166716,"is_transit":false,"time":4,"distance":2015,"i_long":106.828284,"line":2,"station_name":"Juanda","station_id":"JUA","transit":false},{"station_name":"Sawah Besar","distance":1149,"time":2,"is_transit":false,"transit":false,"i_long":106.827103,"i_lat":-6.160725,"station_id":"SW","line":2},{"is_transit":false,"station_id":"MGB","i_long":106.82482,"distance":906,"line":2,"station_name":"Manggabesar","time":2,"transit":false,"i_lat":-6.149769},{"station_name":"Jayakarta","i_long":106.820901,"distance":1080,"line":2,"is_transit":false,"transit":false,"station_id":"JAY","i_lat":-6.141205,"time":2},{"i_lat":-6.137569,"station_name":"Jakarta Kota","is_transit":true,"i_long":106.812439,"time":4,"transit":true,"line":2,"station_id":"JAKK","distance":1264},{"is_transit":true,"transit":true,"i_lat":-6.132549,"distance":1364,"time":3,"station_id":"KPB","line":4,"station_name":"Kampung Bandan","i_long":106.826365},{"station_name":"Rajawali","is_transit":false,"time":3,"station_id":"RJW","transit":false,"i_long":106.836569,"line":11,"distance":1444,"i_lat":-6.14505},{"line":11,"is_transit":false,"transit":false,"time":5,"distance":1901,"i_lat":-6.161728,"station_id":"KMO","station_name":"Kemayoran","i_long":106.839204},{"time":4,"line":11,"station_id":"PSE","i_lat":-6.174784,"distance":1436,"transit":false,"station_name":"Pasar Senen","i_long":106.84368,"is_transit":false},{"i_long":106.850107,"i_lat":-6.185975,"station_id":"GST","transit":false,"is_transit":false,"line":11,"station_name":"Gang Sentiong","distance":1567,"time":8},{"i_long":106.855437,"is_transit":false,"station_id":"KMT","line":11,"distance":973,"transit":false,"station_name":"Kramat","time":1,"i_lat":-6.193792},{"distance":1829,"transit":false,"i_lat":-6.209188,"time":2,"station_id":"POK","line":11,"station_name":"Pondok Jati","i_long":106.861737,"is_transit":false},{"distance":1236,"station_name":"Jatinegara","is_transit":true,"i_long":106.86807400000001,"i_lat":-6.215091,"line":1,"transit":true,"time":9,"station_id":"JNG"},{"distance":3395,"i_long":106.899548,"station_id":"KLD","line":1,"station_name":"Klender","transit":false,"time":3,"i_lat":-6.2135,"is_transit":false},{"transit":false,"station_id":"BUA","time":2,"station_name":"Buaran","distance":3100,"line":1,"is_transit":false,"i_lat":-6.215568,"i_long":106.922662},{"distance":1305,"transit":false,"station_name":"Klenderbaru","is_transit":false,"time":1,"station_id":"KLDB","i_lat":-6.217455,"i_long":106.939679,"line":1},{"is_transit":false,"station_id":"CUK","i_long":106.951283,"time":8,"transit":false,"i_lat":-6.219053,"line":1,"station_name":"Cakung","distance":1385},{"station_name":"Kranji","i_long":106.977657,"line":1,"transit":false,"station_id":"KRI","i_lat":-6.224515,"distance":3097,"is_transit":false,"time":3},{"i_long":106.997013,"distance":2520,"station_name":"Bekasi","time":4,"i_lat":-6.236616,"station_id":"BKS","line":1,"transit":false,"is_transit":false},{"time":2,"i_lat":-6.248029,"is_transit":false,"station_name":"Bekasi Timur","distance":2368,"transit":false,"station_id":"BKST","line":1,"i_long":107.016735},{"transit":false,"station_name":"Tambun","line":1,"distance":4460,"station_id":"TB","i_lat":-6.258864,"i_long":107.055722,"is_transit":false,"time":7},{"station_name":"Cibitung","i_lat":-6.261877,"time":3,"distance":3420,"station_id":"CIT","i_long":107.083084,"is_transit":false,"transit":false,"line":1},{"transit":false,"station_id":"TLM","time":2,"line":1,"is_transit":false,"i_long":107.093313,"distance":2800,"i_lat":-6.262938,"station_name":"Metland Telaga Murni"},{"distance":3689,"transit":false,"station_name":"Cikarang","time":4,"station_id":"CKR","line":1,"i_lat":-6.2553149999999995,"is_transit":false,"i_long":107.144613}]]}