{"data":[[{"distance":0,"i_lat":-6.3441410000000005,"station_name":"Parung Panjang","transit":false,"station_id":"PRP","line":6,"i_long":106.568863,"is_transit":false,"time":0},{"distance":5968,"transit":false,"station_id":"CC","i_lat":-6.329547,"station_name":"Cicayur","is_transit":false,"time":8,"i_long":106.617853,"line":3},{"i_long":106.640411,"station_name":"Cisauk","i_lat":-6.32484,"station_id":"CSK","time":4,"distance":2519,"transit":false,"is_transit":false,"line":3},{"transit":false,"i_long":106.66566,"station_name":"Serpong","distance":1784,"line":6,"i_lat":-6.319871,"is_transit":false,"station_id":"SRP","time":4},{"station_name":"Rawa Buntu","is_transit":false,"time":4,"station_id":"RU","line":6,"distance":2413,"transit":false,"i_lat":-6.314823,"i_long":106.675475},{"transit":false,"i_long":106.712277,"station_id":"SDM","is_transit":false,"station_name":"Sudimara","distance":4566,"i_lat":-6.296963,"time":6,"line":6},{"is_transit":false,"transit":false,"distance":1994,"line":6,"i_lat":-6.288927,"station_id":"JMU","i_long":106.728916,"time":4,"station_name":"Jurangmangu"},{"i_lat":-6.276362,"station_name":"Pondokranji","line":6,"time":3,"distance":2179,"station_id":"PDJ","is_transit":false,"transit":false,"i_long":106.74273},{"distance":6218,"i_long":106.780334,"line":6,"transit":false,"station_name":"Kebayoran","is_transit":false,"i_lat":-6.237242,"station_id":"KBY","time":8},{"transit":false,"i_long":106.79689,"is_transit":false,"station_id":"PLM","i_lat":-6.207404,"time":7,"distance":3737,"line":6,"station_name":"Palmerah"},{"is_transit":false,"station_id":"THB","i_long":106.811091,"distance":3191,"i_lat":-6.185545,"time":6,"line":1,"transit":false,"station_name":"Tanah Abang"}]]}