{"data":[[{"i_lat":-6.3441410000000005,"is_transit":false,"transit":false,"line":6,"distance":0,"i_long":106.568863,"station_name":"Parung Panjang","station_id":"PRP","time":0},{"line":0,"station_name":"Cicayur","transit":false,"time":8,"distance":5968,"is_transit":false,"station_id":"CC","i_lat":-6.329547,"i_long":106.617853},{"time":4,"distance":2519,"transit":false,"i_long":106.640411,"station_name":"Cisauk","i_lat":-6.32484,"station_id":"CSK","is_transit":false,"line":0},{"i_long":106.66566,"line":6,"is_transit":false,"time":4,"i_lat":-6.319871,"transit":false,"distance":1784,"station_name":"Serpong","station_id":"SRP"},{"i_long":106.675475,"distance":2413,"line":6,"station_id":"RU","is_transit":false,"time":4,"transit":false,"station_name":"Rawa Buntu","i_lat":-6.314823},{"station_name":"Sudimara","i_lat":-6.296963,"i_long":106.712277,"is_transit":false,"station_id":"SDM","time":6,"transit":false,"line":6,"distance":4566},{"transit":false,"distance":1994,"station_name":"Jurangmangu","i_long":106.728916,"time":4,"line":6,"station_id":"JMU","i_lat":-6.288927,"is_transit":false},{"transit":false,"is_transit":false,"station_name":"Pondokranji","time":3,"i_long":106.74273,"distance":2179,"line":6,"station_id":"PDJ","i_lat":-6.276362},{"distance":6218,"transit":false,"i_lat":-6.237242,"i_long":106.780334,"line":6,"time":8,"is_transit":false,"station_id":"KBY","station_name":"Kebayoran"},{"station_name":"Palmerah","i_long":106.79689,"time":7,"line":6,"is_transit":false,"station_id":"PLM","transit":false,"distance":3737,"i_lat":-6.207404},{"time":6,"i_long":106.811091,"station_name":"Tanah Abang","transit":false,"line":1,"is_transit":true,"i_lat":-6.185545,"distance":3191,"station_id":"THB"}]]}