{"data":[[{"i_long":106.568863,"transit":false,"station_name":"Parung Panjang","station_id":"PRP","time":0,"line":6,"is_transit":false,"i_lat":-6.3441410000000005,"distance":0},{"station_id":"CJT","is_transit":false,"i_lat":-6.354349,"station_name":"Cilejit","transit":false,"time":9,"line":3,"distance":7025,"i_long":106.508482},{"i_lat":-6.338021,"station_name":"Daru","station_id":"DAR","i_long":106.491338,"line":0,"distance":2675,"transit":false,"time":6,"is_transit":false},{"time":5,"station_name":"Tenjo","i_long":106.460812,"line":6,"is_transit":false,"transit":false,"station_id":"TEJ","distance":3902,"i_lat":-6.327251},{"station_id":"TGS","distance":2974,"line":6,"time":5,"station_name":"Tigaraksa","transit":false,"is_transit":false,"i_long":106.425991,"i_lat":-6.328533}]]}