{"data":[[{"station_name":"Parung Panjang","station_id":"PRP","time":0,"i_long":106.568863,"is_transit":false,"i_lat":-6.3441410000000005,"distance":0,"transit":false,"line":6},{"station_id":"CC","time":8,"station_name":"Cicayur","distance":5968,"is_transit":false,"line":3,"transit":false,"i_lat":-6.329547,"i_long":106.617853},{"i_lat":-6.32484,"line":3,"transit":false,"is_transit":false,"station_id":"CSK","time":4,"i_long":106.640411,"station_name":"Cisauk","distance":2519},{"is_transit":false,"i_long":106.66566,"line":6,"distance":1784,"time":4,"transit":false,"station_name":"Serpong","i_lat":-6.319871,"station_id":"SRP"},{"i_lat":-6.314823,"distance":2413,"time":4,"line":6,"is_transit":false,"i_long":106.675475,"transit":false,"station_name":"Rawa Buntu","station_id":"RU"},{"transit":false,"station_id":"SDM","i_long":106.712277,"is_transit":false,"time":6,"line":6,"station_name":"Sudimara","i_lat":-6.296963,"distance":4566},{"is_transit":false,"distance":1994,"i_long":106.728916,"station_name":"Jurangmangu","station_id":"JMU","transit":false,"time":4,"i_lat":-6.288927,"line":6},{"station_id":"PDJ","i_lat":-6.276362,"station_name":"Pondokranji","is_transit":false,"distance":2179,"time":3,"line":6,"transit":false,"i_long":106.74273},{"station_id":"KBY","time":8,"is_transit":false,"line":6,"transit":false,"station_name":"Kebayoran","distance":6218,"i_lat":-6.237242,"i_long":106.780334},{"station_id":"PLM","distance":3737,"i_lat":-6.207404,"line":6,"transit":false,"is_transit":false,"time":7,"station_name":"Palmerah","i_long":106.79689},{"i_long":106.811091,"i_lat":-6.185545,"station_id":"THB","line":1,"is_transit":true,"time":6,"station_name":"Tanah Abang","distance":3191,"transit":true},{"station_name":"Karet","i_lat":-6.20132,"i_long":106.816351,"time":5,"transit":false,"station_id":"KAT","line":1,"distance":2029,"is_transit":false},{"line":1,"station_name":"Sudirman Baru","is_transit":false,"time":1,"i_lat":-6.201433,"i_long":106.819881,"transit":false,"station_id":"SUDB","distance":471},{"transit":false,"line":1,"is_transit":false,"distance":280,"station_id":"SUD","station_name":"Sudirman","i_lat":-6.202263,"time":1,"i_long":106.822649},{"transit":true,"time":4,"station_id":"MRI","i_lat":-6.209883,"station_name":"Manggarai","is_transit":true,"i_long":106.84912,"distance":3186,"line":2},{"i_lat":-6.226659,"line":2,"distance":2610,"i_long":106.857948,"time":4,"is_transit":false,"station_name":"Tebet","station_id":"TEB","transit":false},{"station_name":"Cawang","station_id":"CW","time":2,"i_lat":-6.242512,"is_transit":false,"transit":false,"line":2,"distance":1230,"i_long":106.856607},{"distance":1546,"is_transit":false,"transit":false,"time":3,"station_id":"DRN","i_long":106.85449,"i_lat":-6.255332,"line":2,"station_name":"Duren Kalibata"},{"transit":false,"station_id":"PSMB","distance":824,"line":2,"is_transit":false,"station_name":"Pasar Minggu Baru","i_lat":-6.263214,"i_long":106.851577,"time":2},{"is_transit":false,"line":2,"distance":2380,"time":2,"station_id":"PSM","transit":false,"station_name":"Pasar Minggu","i_lat":-6.2842400000000005,"i_long":106.843999},{"time":4,"is_transit":false,"i_long":106.838896,"station_id":"TNT","station_name":"Tanjung Barat","transit":false,"line":2,"i_lat":-6.3080680000000005,"distance":2820},{"station_id":"LNA","distance":2671,"is_transit":false,"station_name":"Lenteng Agung","i_lat":-6.330363,"i_long":106.832616,"line":2,"time":3,"transit":false},{"line":2,"station_id":"UP","station_name":"Univ. Pancasila","distance":1029,"transit":false,"i_lat":-6.339291,"is_transit":false,"time":2,"i_long":106.834175},{"transit":false,"line":2,"is_transit":false,"station_name":"Univ. Indonesia","i_lat":-6.360749,"distance":2264,"station_id":"UI","time":3,"i_long":106.831474},{"time":2,"station_id":"POC","is_transit":false,"i_long":106.831114,"i_lat":-6.369073,"transit":false,"distance":1109,"station_name":"Pondok Cina","line":2},{"line":2,"is_transit":false,"i_long":106.819451,"station_name":"Depokbaru","time":4,"station_id":"DPB","transit":false,"i_lat":-6.391065,"distance":2727},{"transit":false,"line":2,"is_transit":false,"i_long":106.816926,"station_name":"Depok","station_id":"DP","i_lat":-6.405256,"time":3,"distance":1584},{"time":6,"distance":5084,"is_transit":true,"station_id":"CTA","transit":true,"i_lat":-6.448811,"line":2,"station_name":"Citayam","i_long":106.800298},{"line":21,"i_lat":-6.460735,"time":0,"station_id":"PDRG","transit":false,"i_long":106.824374,"distance":0,"station_name":"Pondok Rajeg","is_transit":false}],[{"i_lat":-6.3441410000000005,"i_long":106.568863,"line":6,"distance":0,"transit":false,"time":0,"station_name":"Parung Panjang","is_transit":false,"station_id":"PRP"},{"transit":false,"line":3,"is_transit":false,"station_id":"CC","i_lat":-6.329547,"i_long":106.617853,"time":8,"distance":5968,"station_name":"Cicayur"},{"i_long":106.640411,"line":3,"is_transit":false,"station_id":"CSK","transit":false,"distance":2519,"station_name":"Cisauk","time":4,"i_lat":-6.32484},{"line":6,"time":4,"is_transit":false,"i_lat":-6.319871,"station_name":"Serpong","i_long":106.66566,"transit":false,"station_id":"SRP","distance":1784},{"is_transit":false,"distance":2413,"i_long":106.675475,"station_id":"RU","i_lat":-6.314823,"station_name":"Rawa Buntu","transit":false,"time":4,"line":6},{"line":6,"distance":4566,"time":6,"station_name":"Sudimara","i_long":106.712277,"station_id":"SDM","transit":false,"i_lat":-6.296963,"is_transit":false},{"is_transit":false,"i_long":106.728916,"station_id":"JMU","i_lat":-6.288927,"line":6,"distance":1994,"transit":false,"time":4,"station_name":"Jurangmangu"},{"i_long":106.74273,"station_name":"Pondokranji","transit":false,"is_transit":false,"time":3,"line":6,"i_lat":-6.276362,"station_id":"PDJ","distance":2179},{"i_lat":-6.237242,"transit":false,"time":8,"station_name":"Kebayoran","station_id":"KBY","i_long":106.780334,"line":6,"distance":6218,"is_transit":false},{"time":7,"distance":3737,"i_lat":-6.207404,"station_name":"Palmerah","is_transit":false,"i_long":106.79689,"line":6,"station_id":"PLM","transit":false},{"time":6,"station_name":"Tanah Abang","i_lat":-6.185545,"i_long":106.811091,"line":1,"station_id":"THB","transit":true,"distance":3191,"is_transit":true},{"i_long":106.800832,"time":8,"line":1,"station_id":"DU","is_transit":false,"transit":false,"station_name":"Duri","distance":3632,"i_lat":-6.155215},{"is_transit":false,"transit":false,"distance":1230,"station_name":"Angke","i_long":106.79867,"i_lat":-6.144674,"line":1,"time":4,"station_id":"AK"},{"i_lat":-6.132549,"transit":true,"station_id":"KPB","is_transit":true,"time":9,"i_long":106.826365,"line":4,"distance":4102,"station_name":"Kampung Bandan"},{"station_name":"Jakarta Kota","i_lat":-6.137569,"is_transit":true,"i_long":106.812439,"line":2,"distance":1364,"station_id":"JAKK","time":3,"transit":true},{"i_lat":-6.141205,"is_transit":false,"i_long":106.820901,"line":2,"distance":1264,"station_id":"JAY","station_name":"Jayakarta","transit":false,"time":4},{"station_name":"Manggabesar","station_id":"MGB","line":2,"time":2,"transit":false,"i_long":106.82482,"distance":1080,"is_transit":false,"i_lat":-6.149769},{"transit":false,"station_name":"Sawah Besar","i_long":106.827103,"station_id":"SW","time":2,"i_lat":-6.160725,"is_transit":false,"distance":906,"line":2},{"transit":false,"distance":1149,"is_transit":false,"station_id":"JUA","time":2,"i_long":106.828284,"i_lat":-6.166716,"line":2,"station_name":"Juanda"},{"i_lat":-6.186295,"time":4,"distance":2015,"station_id":"GDD","is_transit":false,"line":2,"transit":false,"station_name":"Gondangdia","i_long":106.832183},{"distance":1750,"time":3,"station_id":"CKI","transit":false,"is_transit":false,"station_name":"Cikini","line":2,"i_long":106.840169,"i_lat":-6.198556},{"i_lat":-6.209883,"line":2,"is_transit":false,"transit":false,"station_name":"Manggarai","distance":1590,"i_long":106.84912,"station_id":"MRI","time":4},{"i_lat":-6.226659,"time":4,"distance":2610,"i_long":106.857948,"line":2,"is_transit":false,"station_id":"TEB","transit":false,"station_name":"Tebet"},{"i_lat":-6.242512,"station_id":"CW","transit":false,"i_long":106.856607,"is_transit":false,"station_name":"Cawang","time":2,"distance":1230,"line":2},{"station_name":"Duren Kalibata","is_transit":false,"i_lat":-6.255332,"time":3,"distance":1546,"transit":false,"i_long":106.85449,"line":2,"station_id":"DRN"},{"i_lat":-6.263214,"line":2,"time":2,"is_transit":false,"station_id":"PSMB","transit":false,"station_name":"Pasar Minggu Baru","i_long":106.851577,"distance":824},{"distance":2380,"line":2,"i_long":106.843999,"station_id":"PSM","time":2,"transit":false,"i_lat":-6.2842400000000005,"station_name":"Pasar Minggu","is_transit":false},{"distance":2820,"time":4,"station_name":"Tanjung Barat","station_id":"TNT","i_long":106.838896,"is_transit":false,"transit":false,"i_lat":-6.3080680000000005,"line":2},{"i_lat":-6.330363,"time":3,"station_id":"LNA","is_transit":false,"distance":2671,"line":2,"transit":false,"i_long":106.832616,"station_name":"Lenteng Agung"},{"station_id":"UP","distance":1029,"line":2,"station_name":"Univ. Pancasila","transit":false,"is_transit":false,"time":2,"i_long":106.834175,"i_lat":-6.339291},{"i_lat":-6.360749,"station_id":"UI","is_transit":false,"time":3,"distance":2264,"line":2,"station_name":"Univ. Indonesia","i_long":106.831474,"transit":false},{"transit":false,"line":2,"station_id":"POC","is_transit":false,"i_long":106.831114,"station_name":"Pondok Cina","time":2,"distance":1109,"i_lat":-6.369073},{"station_name":"Depokbaru","line":2,"distance":2727,"station_id":"DPB","is_transit":false,"i_lat":-6.391065,"time":4,"i_long":106.819451,"transit":false},{"is_transit":false,"i_lat":-6.405256,"line":2,"time":3,"station_name":"Depok","station_id":"DP","i_long":106.816926,"transit":false,"distance":1584},{"station_id":"CTA","time":6,"distance":5084,"i_lat":-6.448811,"i_long":106.800298,"transit":true,"station_name":"Citayam","is_transit":true,"line":2},{"is_transit":false,"distance":0,"station_name":"Pondok Rajeg","i_long":106.824374,"line":21,"transit":false,"time":0,"station_id":"PDRG","i_lat":-6.460735}],[{"distance":0,"is_transit":false,"transit":false,"i_long":106.568863,"line":6,"i_lat":-6.3441410000000005,"station_name":"Parung Panjang","time":0,"station_id":"PRP"},{"is_transit":false,"station_id":"CC","station_name":"Cicayur","distance":5968,"time":8,"i_lat":-6.329547,"i_long":106.617853,"line":3,"transit":false},{"distance":2519,"time":4,"station_name":"Cisauk","i_long":106.640411,"is_transit":false,"line":3,"station_id":"CSK","i_lat":-6.32484,"transit":false},{"i_lat":-6.319871,"i_long":106.66566,"distance":1784,"line":6,"time":4,"station_id":"SRP","is_transit":false,"transit":false,"station_name":"Serpong"},{"station_name":"Rawa Buntu","is_transit":false,"time":4,"line":6,"i_long":106.675475,"distance":2413,"i_lat":-6.314823,"transit":false,"station_id":"RU"},{"transit":false,"station_name":"Sudimara","i_long":106.712277,"is_transit":false,"line":6,"station_id":"SDM","i_lat":-6.296963,"time":6,"distance":4566},{"distance":1994,"station_id":"JMU","station_name":"Jurangmangu","i_lat":-6.288927,"line":6,"time":4,"is_transit":false,"transit":false,"i_long":106.728916},{"line":6,"station_name":"Pondokranji","station_id":"PDJ","i_long":106.74273,"time":3,"distance":2179,"is_transit":false,"transit":false,"i_lat":-6.276362},{"transit":false,"station_name":"Kebayoran","time":8,"is_transit":false,"i_long":106.780334,"station_id":"KBY","i_lat":-6.237242,"line":6,"distance":6218},{"station_name":"Palmerah","i_lat":-6.207404,"i_long":106.79689,"line":6,"distance":3737,"is_transit":false,"station_id":"PLM","time":7,"transit":false},{"transit":true,"i_long":106.811091,"time":6,"distance":3191,"i_lat":-6.185545,"line":1,"station_name":"Tanah Abang","station_id":"THB","is_transit":true},{"transit":false,"i_long":106.800832,"station_id":"DU","i_lat":-6.155215,"distance":3632,"station_name":"Duri","line":1,"is_transit":false,"time":8},{"time":4,"transit":false,"is_transit":false,"line":1,"distance":1230,"station_name":"Angke","i_lat":-6.144674,"i_long":106.79867,"station_id":"AK"},{"distance":4102,"station_id":"KPB","time":9,"i_long":106.826365,"transit":true,"is_transit":true,"station_name":"Kampung Bandan","line":4,"i_lat":-6.132549},{"i_long":106.836569,"line":11,"distance":1444,"station_name":"Rajawali","time":3,"is_transit":false,"station_id":"RJW","transit":false,"i_lat":-6.14505},{"time":5,"is_transit":false,"transit":false,"i_long":106.839204,"distance":1901,"station_name":"Kemayoran","i_lat":-6.161728,"station_id":"KMO","line":11},{"station_name":"Pasar Senen","time":4,"i_long":106.84368,"i_lat":-6.174784,"line":11,"is_transit":false,"transit":false,"distance":1436,"station_id":"PSE"},{"time":8,"i_lat":-6.185975,"line":11,"transit":false,"i_long":106.850107,"distance":1567,"station_id":"GST","station_name":"Gang Sentiong","is_transit":false},{"time":1,"station_name":"Kramat","i_lat":-6.193792,"is_transit":false,"i_long":106.855437,"line":11,"distance":973,"station_id":"KMT","transit":false},{"station_name":"Pondok Jati","line":11,"i_lat":-6.209188,"time":2,"i_long":106.861737,"distance":1829,"station_id":"POK","is_transit":false,"transit":false},{"i_lat":-6.215091,"station_name":"Jatinegara","time":9,"line":1,"is_transit":true,"distance":1236,"station_id":"JNG","i_long":106.86807400000001,"transit":true},{"time":2,"distance":1377,"i_lat":-6.212485,"is_transit":false,"transit":false,"station_name":"Matraman","i_long":106.858896,"station_id":"MTR","line":1},{"transit":true,"is_transit":true,"station_name":"Manggarai","line":2,"i_lat":-6.209883,"time":2,"i_long":106.84912,"distance":1275,"station_id":"MRI"},{"distance":2610,"i_lat":-6.226659,"line":2,"time":4,"i_long":106.857948,"is_transit":false,"station_name":"Tebet","transit":false,"station_id":"TEB"},{"time":2,"transit":false,"i_lat":-6.242512,"i_long":106.856607,"is_transit":false,"line":2,"distance":1230,"station_id":"CW","station_name":"Cawang"},{"station_name":"Duren Kalibata","station_id":"DRN","transit":false,"time":3,"is_transit":false,"i_lat":-6.255332,"i_long":106.85449,"line":2,"distance":1546},{"time":2,"station_id":"PSMB","transit":false,"i_lat":-6.263214,"i_long":106.851577,"line":2,"distance":824,"station_name":"Pasar Minggu Baru","is_transit":false},{"station_name":"Pasar Minggu","i_lat":-6.2842400000000005,"i_long":106.843999,"line":2,"distance":2380,"transit":false,"station_id":"PSM","time":2,"is_transit":false},{"is_transit":false,"line":2,"i_long":106.838896,"transit":false,"time":4,"i_lat":-6.3080680000000005,"station_name":"Tanjung Barat","station_id":"TNT","distance":2820},{"transit":false,"station_name":"Lenteng Agung","i_long":106.832616,"time":3,"distance":2671,"is_transit":false,"station_id":"LNA","i_lat":-6.330363,"line":2},{"i_lat":-6.339291,"distance":1029,"transit":false,"station_id":"UP","station_name":"Univ. Pancasila","line":2,"i_long":106.834175,"time":2,"is_transit":false},{"i_long":106.831474,"transit":false,"is_transit":false,"station_name":"Univ. Indonesia","line":2,"time":3,"i_lat":-6.360749,"distance":2264,"station_id":"UI"},{"is_transit":false,"time":2,"transit":false,"station_name":"Pondok Cina","i_long":106.831114,"line":2,"station_id":"POC","distance":1109,"i_lat":-6.369073},{"transit":false,"time":4,"line":2,"distance":2727,"i_lat":-6.391065,"i_long":106.819451,"station_name":"Depokbaru","is_transit":false,"station_id":"DPB"},{"line":2,"i_long":106.816926,"time":3,"station_id":"DP","distance":1584,"i_lat":-6.405256,"station_name":"Depok","transit":false,"is_transit":false},{"distance":5084,"station_name":"Citayam","time":6,"station_id":"CTA","i_lat":-6.448811,"transit":true,"i_long":106.800298,"is_transit":true,"line":2},{"distance":0,"i_lat":-6.460735,"station_name":"Pondok Rajeg","time":0,"line":21,"station_id":"PDRG","is_transit":false,"transit":false,"i_long":106.824374}]]}