{"data":[[{"station_id":"PRP","line":6,"time":0,"transit":false,"distance":0,"is_transit":false,"i_lat":-6.3441410000000005,"i_long":106.568863,"station_name":"Parung Panjang"},{"transit":false,"station_name":"Cicayur","station_id":"CC","time":8,"i_lat":-6.329547,"i_long":106.617853,"line":3,"distance":5968,"is_transit":false},{"i_lat":-6.32484,"line":3,"time":4,"is_transit":false,"i_long":106.640411,"station_id":"CSK","distance":2519,"transit":false,"station_name":"Cisauk"},{"transit":false,"station_id":"SRP","time":4,"is_transit":false,"i_lat":-6.319871,"distance":1784,"line":6,"station_name":"Serpong","i_long":106.66566},{"i_long":106.675475,"station_id":"RU","distance":2413,"station_name":"Rawa Buntu","transit":false,"is_transit":false,"time":4,"line":6,"i_lat":-6.314823},{"transit":false,"station_id":"SDM","distance":4566,"line":6,"i_lat":-6.296963,"is_transit":false,"i_long":106.712277,"time":6,"station_name":"Sudimara"},{"station_name":"Jurangmangu","station_id":"JMU","i_lat":-6.288927,"transit":false,"time":4,"is_transit":false,"line":6,"distance":1994,"i_long":106.728916},{"i_long":106.74273,"station_name":"Pondokranji","is_transit":false,"line":6,"time":3,"i_lat":-6.276362,"distance":2179,"station_id":"PDJ","transit":false},{"station_name":"Kebayoran","transit":false,"i_long":106.780334,"line":6,"i_lat":-6.237242,"distance":6218,"time":8,"is_transit":false,"station_id":"KBY"},{"station_id":"PLM","i_lat":-6.207404,"distance":3737,"i_long":106.79689,"time":7,"line":6,"is_transit":false,"transit":false,"station_name":"Palmerah"},{"time":6,"i_long":106.811091,"station_name":"Tanah Abang","line":1,"station_id":"THB","distance":3191,"transit":true,"i_lat":-6.185545,"is_transit":true},{"station_id":"DU","line":1,"i_lat":-6.155215,"time":8,"station_name":"Duri","distance":3632,"is_transit":true,"i_long":106.800832,"transit":true},{"is_transit":false,"station_name":"Grogol","i_lat":-6.162021,"time":3,"station_id":"GGL","distance":1700,"i_long":106.788277,"transit":false,"line":5},{"station_name":"Pesing","station_id":"PSG","is_transit":false,"i_lat":-6.161433,"transit":false,"distance":2036,"line":5,"i_long":106.771379,"time":2},{"distance":1614,"time":2,"transit":false,"is_transit":false,"station_id":"TKO","station_name":"Taman Kota","line":5,"i_long":106.756522,"i_lat":-6.1587309999999995},{"is_transit":false,"distance":2334,"i_lat":-6.159876,"station_name":"Bojongindah","transit":false,"i_long":106.737035,"line":5,"time":2,"station_id":"BOI"},{"station_name":"Rawa Buaya","station_id":"RW","distance":1152,"i_lat":-6.162758,"time":4,"i_long":106.723064,"line":5,"is_transit":false,"transit":false},{"i_lat":-6.166068,"i_long":106.701612,"time":3,"station_id":"KDS","line":5,"transit":false,"station_name":"Kalideres","distance":2504,"is_transit":false}],[{"station_id":"PRP","station_name":"Parung Panjang","transit":false,"distance":0,"is_transit":false,"line":6,"time":0,"i_lat":-6.3441410000000005,"i_long":106.568863},{"transit":false,"i_long":106.617853,"is_transit":false,"time":8,"station_name":"Cicayur","distance":5968,"i_lat":-6.329547,"station_id":"CC","line":3},{"i_long":106.640411,"i_lat":-6.32484,"distance":2519,"station_name":"Cisauk","station_id":"CSK","transit":false,"time":4,"line":3,"is_transit":false},{"station_name":"Serpong","station_id":"SRP","distance":1784,"is_transit":false,"i_long":106.66566,"time":4,"transit":false,"i_lat":-6.319871,"line":6},{"i_lat":-6.314823,"i_long":106.675475,"station_name":"Rawa Buntu","distance":2413,"is_transit":false,"line":6,"station_id":"RU","time":4,"transit":false},{"distance":4566,"i_lat":-6.296963,"i_long":106.712277,"time":6,"station_id":"SDM","is_transit":false,"line":6,"station_name":"Sudimara","transit":false},{"transit":false,"station_name":"Jurangmangu","is_transit":false,"distance":1994,"i_long":106.728916,"line":6,"i_lat":-6.288927,"time":4,"station_id":"JMU"},{"line":6,"time":3,"i_long":106.74273,"is_transit":false,"transit":false,"station_name":"Pondokranji","distance":2179,"station_id":"PDJ","i_lat":-6.276362},{"time":8,"distance":6218,"i_lat":-6.237242,"station_name":"Kebayoran","transit":false,"station_id":"KBY","i_long":106.780334,"line":6,"is_transit":false},{"time":7,"distance":3737,"station_id":"PLM","i_long":106.79689,"line":6,"is_transit":false,"station_name":"Palmerah","transit":false,"i_lat":-6.207404},{"transit":true,"i_long":106.811091,"line":1,"distance":3191,"station_id":"THB","is_transit":true,"time":6,"station_name":"Tanah Abang","i_lat":-6.185545},{"station_name":"Karet","station_id":"KAT","time":5,"i_lat":-6.20132,"distance":2029,"line":1,"i_long":106.816351,"is_transit":false,"transit":false},{"line":1,"transit":false,"distance":471,"station_id":"SUDB","is_transit":false,"i_long":106.819881,"station_name":"Sudirman Baru","time":1,"i_lat":-6.201433},{"distance":280,"transit":false,"is_transit":false,"i_lat":-6.202263,"line":1,"time":1,"i_long":106.822649,"station_id":"SUD","station_name":"Sudirman"},{"distance":3186,"station_id":"MRI","i_lat":-6.209883,"i_long":106.84912,"transit":true,"station_name":"Manggarai","time":4,"line":2,"is_transit":true},{"station_id":"CKI","station_name":"Cikini","transit":false,"line":2,"distance":1590,"is_transit":false,"i_long":106.840169,"time":4,"i_lat":-6.198556},{"is_transit":false,"transit":false,"i_lat":-6.186295,"station_name":"Gondangdia","i_long":106.832183,"line":2,"distance":1750,"time":3,"station_id":"GDD"},{"station_id":"JUA","i_lat":-6.166716,"i_long":106.828284,"is_transit":false,"transit":false,"time":4,"station_name":"Juanda","distance":2015,"line":2},{"transit":false,"line":2,"is_transit":false,"station_id":"SW","distance":1149,"i_lat":-6.160725,"station_name":"Sawah Besar","i_long":106.827103,"time":2},{"i_long":106.82482,"transit":false,"time":2,"station_id":"MGB","i_lat":-6.149769,"distance":906,"line":2,"station_name":"Manggabesar","is_transit":false},{"distance":1080,"transit":false,"station_id":"JAY","i_lat":-6.141205,"i_long":106.820901,"is_transit":false,"line":2,"station_name":"Jayakarta","time":2},{"is_transit":true,"line":2,"transit":true,"distance":1264,"station_name":"Jakarta Kota","time":4,"station_id":"JAKK","i_long":106.812439,"i_lat":-6.137569},{"is_transit":true,"distance":1364,"time":3,"i_lat":-6.132549,"i_long":106.826365,"line":4,"station_id":"KPB","transit":true,"station_name":"Kampung Bandan"},{"station_id":"AK","is_transit":false,"i_lat":-6.144674,"station_name":"Angke","line":1,"transit":false,"distance":4102,"i_long":106.79867,"time":9},{"station_id":"DU","i_lat":-6.155215,"is_transit":true,"transit":true,"station_name":"Duri","i_long":106.800832,"line":1,"time":4,"distance":1230},{"station_id":"GGL","is_transit":false,"distance":1700,"i_long":106.788277,"transit":false,"line":5,"i_lat":-6.162021,"station_name":"Grogol","time":3},{"line":5,"is_transit":false,"transit":false,"time":2,"distance":2036,"station_id":"PSG","i_long":106.771379,"i_lat":-6.161433,"station_name":"Pesing"},{"line":5,"distance":1614,"transit":false,"i_lat":-6.1587309999999995,"station_name":"Taman Kota","time":2,"i_long":106.756522,"station_id":"TKO","is_transit":false},{"station_name":"Bojongindah","line":5,"time":2,"is_transit":false,"station_id":"BOI","distance":2334,"transit":false,"i_lat":-6.159876,"i_long":106.737035},{"station_name":"Rawa Buaya","station_id":"RW","i_lat":-6.162758,"distance":1152,"time":4,"transit":false,"is_transit":false,"i_long":106.723064,"line":5},{"is_transit":false,"i_lat":-6.166068,"station_name":"Kalideres","station_id":"KDS","i_long":106.701612,"distance":2504,"time":3,"line":5,"transit":false}],[{"i_long":106.568863,"line":6,"time":0,"transit":false,"distance":0,"station_name":"Parung Panjang","station_id":"PRP","is_transit":false,"i_lat":-6.3441410000000005},{"station_id":"CC","i_lat":-6.329547,"station_name":"Cicayur","time":8,"transit":false,"i_long":106.617853,"line":3,"is_transit":false,"distance":5968},{"i_lat":-6.32484,"i_long":106.640411,"time":4,"distance":2519,"is_transit":false,"station_id":"CSK","transit":false,"station_name":"Cisauk","line":3},{"i_lat":-6.319871,"line":6,"station_name":"Serpong","transit":false,"distance":1784,"is_transit":false,"i_long":106.66566,"station_id":"SRP","time":4},{"distance":2413,"line":6,"i_long":106.675475,"transit":false,"station_name":"Rawa Buntu","station_id":"RU","time":4,"is_transit":false,"i_lat":-6.314823},{"i_lat":-6.296963,"distance":4566,"transit":false,"station_id":"SDM","time":6,"is_transit":false,"station_name":"Sudimara","line":6,"i_long":106.712277},{"time":4,"station_id":"JMU","i_lat":-6.288927,"transit":false,"distance":1994,"i_long":106.728916,"line":6,"station_name":"Jurangmangu","is_transit":false},{"station_id":"PDJ","station_name":"Pondokranji","transit":false,"time":3,"line":6,"i_long":106.74273,"distance":2179,"i_lat":-6.276362,"is_transit":false},{"line":6,"distance":6218,"transit":false,"station_id":"KBY","i_lat":-6.237242,"i_long":106.780334,"is_transit":false,"station_name":"Kebayoran","time":8},{"time":7,"station_name":"Palmerah","line":6,"is_transit":false,"transit":false,"i_long":106.79689,"station_id":"PLM","distance":3737,"i_lat":-6.207404},{"i_long":106.811091,"station_name":"Tanah Abang","is_transit":true,"transit":true,"line":1,"i_lat":-6.185545,"time":6,"distance":3191,"station_id":"THB"},{"time":5,"line":1,"i_lat":-6.20132,"transit":false,"station_id":"KAT","is_transit":false,"i_long":106.816351,"station_name":"Karet","distance":2029},{"station_name":"Sudirman Baru","station_id":"SUDB","transit":false,"i_long":106.819881,"distance":471,"i_lat":-6.201433,"is_transit":false,"line":1,"time":1},{"distance":280,"is_transit":false,"i_lat":-6.202263,"i_long":106.822649,"transit":false,"line":1,"station_id":"SUD","time":1,"station_name":"Sudirman"},{"station_name":"Manggarai","distance":3186,"i_lat":-6.209883,"transit":false,"station_id":"MRI","i_long":106.84912,"is_transit":false,"time":4,"line":2},{"is_transit":false,"time":2,"line":1,"transit":false,"station_id":"MTR","i_lat":-6.212485,"station_name":"Matraman","i_long":106.858896,"distance":1275},{"transit":true,"i_lat":-6.215091,"station_name":"Jatinegara","i_long":106.86807400000001,"distance":1377,"time":8,"line":1,"is_transit":true,"station_id":"JNG"},{"transit":false,"time":2,"station_id":"POK","i_long":106.861737,"distance":1236,"i_lat":-6.209188,"line":11,"station_name":"Pondok Jati","is_transit":false},{"line":11,"station_name":"Kramat","is_transit":false,"time":2,"station_id":"KMT","distance":1829,"transit":false,"i_lat":-6.193792,"i_long":106.855437},{"transit":false,"station_name":"Gang Sentiong","time":1,"i_lat":-6.185975,"line":11,"distance":973,"station_id":"GST","is_transit":false,"i_long":106.850107},{"line":11,"time":8,"distance":1567,"i_long":106.84368,"is_transit":false,"transit":false,"station_name":"Pasar Senen","i_lat":-6.174784,"station_id":"PSE"},{"i_lat":-6.161728,"is_transit":false,"station_id":"KMO","distance":1436,"transit":false,"station_name":"Kemayoran","line":11,"time":4,"i_long":106.839204},{"is_transit":false,"line":11,"i_lat":-6.14505,"station_id":"RJW","transit":false,"station_name":"Rajawali","i_long":106.836569,"time":5,"distance":1901},{"time":3,"station_name":"Kampung Bandan","is_transit":true,"transit":true,"distance":1444,"station_id":"KPB","i_lat":-6.132549,"i_long":106.826365,"line":4},{"i_long":106.79867,"station_name":"Angke","transit":false,"time":9,"distance":4102,"station_id":"AK","line":1,"i_lat":-6.144674,"is_transit":false},{"transit":true,"is_transit":true,"i_lat":-6.155215,"line":1,"distance":1230,"time":4,"station_name":"Duri","station_id":"DU","i_long":106.800832},{"transit":false,"line":5,"i_lat":-6.162021,"station_name":"Grogol","time":3,"distance":1700,"station_id":"GGL","is_transit":false,"i_long":106.788277},{"station_id":"PSG","time":2,"station_name":"Pesing","transit":false,"i_long":106.771379,"i_lat":-6.161433,"is_transit":false,"distance":2036,"line":5},{"time":2,"transit":false,"distance":1614,"station_id":"TKO","i_lat":-6.1587309999999995,"i_long":106.756522,"line":5,"station_name":"Taman Kota","is_transit":false},{"i_lat":-6.159876,"station_name":"Bojongindah","station_id":"BOI","time":2,"i_long":106.737035,"transit":false,"line":5,"is_transit":false,"distance":2334},{"i_long":106.723064,"transit":false,"line":5,"distance":1152,"station_id":"RW","station_name":"Rawa Buaya","is_transit":false,"time":4,"i_lat":-6.162758},{"line":5,"i_long":106.701612,"time":3,"distance":2504,"station_id":"KDS","station_name":"Kalideres","i_lat":-6.166068,"transit":false,"is_transit":false}]]}