{"data":[[{"time":0,"station_id":"PRP","i_long":106.568863,"distance":0,"station_name":"Parung Panjang","transit":false,"is_transit":false,"i_lat":-6.3441410000000005,"line":6},{"station_id":"CC","station_name":"Cicayur","line":3,"is_transit":false,"transit":false,"i_lat":-6.329547,"i_long":106.617853,"time":8,"distance":5968},{"time":4,"line":3,"station_name":"Cisauk","i_long":106.640411,"distance":2519,"station_id":"CSK","is_transit":false,"i_lat":-6.32484,"transit":false},{"transit":false,"is_transit":false,"time":4,"i_lat":-6.319871,"i_long":106.66566,"line":6,"station_id":"SRP","distance":1784,"station_name":"Serpong"},{"transit":false,"i_lat":-6.314823,"distance":2413,"is_transit":false,"time":4,"line":6,"i_long":106.675475,"station_name":"Rawa Buntu","station_id":"RU"},{"line":6,"station_name":"Sudimara","is_transit":false,"station_id":"SDM","time":6,"distance":4566,"transit":false,"i_long":106.712277,"i_lat":-6.296963},{"station_name":"Jurangmangu","line":6,"time":4,"station_id":"JMU","is_transit":false,"i_lat":-6.288927,"i_long":106.728916,"transit":false,"distance":1994},{"time":3,"distance":2179,"i_long":106.74273,"transit":false,"i_lat":-6.276362,"station_name":"Pondokranji","is_transit":false,"line":6,"station_id":"PDJ"},{"i_long":106.780334,"transit":false,"station_name":"Kebayoran","station_id":"KBY","line":6,"is_transit":false,"distance":6218,"time":8,"i_lat":-6.237242},{"station_id":"PLM","is_transit":false,"time":7,"i_lat":-6.207404,"line":6,"transit":false,"station_name":"Palmerah","i_long":106.79689,"distance":3737},{"transit":true,"is_transit":true,"distance":3191,"line":1,"station_name":"Tanah Abang","i_long":106.811091,"time":6,"i_lat":-6.185545,"station_id":"THB"},{"station_id":"KAT","transit":false,"i_long":106.816351,"is_transit":false,"distance":2029,"time":5,"i_lat":-6.20132,"station_name":"Karet","line":1},{"is_transit":false,"transit":false,"station_id":"SUDB","station_name":"Sudirman Baru","distance":471,"i_long":106.819881,"i_lat":-6.201433,"line":1,"time":1},{"station_name":"Sudirman","i_long":106.822649,"transit":false,"i_lat":-6.202263,"distance":280,"time":1,"station_id":"SUD","is_transit":false,"line":1},{"station_id":"MRI","distance":3186,"station_name":"Manggarai","i_long":106.84912,"line":2,"transit":false,"time":4,"i_lat":-6.209883,"is_transit":false},{"station_name":"Matraman","i_lat":-6.212485,"station_id":"MTR","is_transit":false,"line":1,"i_long":106.858896,"distance":1275,"time":2,"transit":false},{"station_name":"Jatinegara","time":8,"station_id":"JNG","i_long":106.86807400000001,"is_transit":false,"distance":1377,"i_lat":-6.215091,"transit":false,"line":1},{"i_long":106.899548,"is_transit":false,"distance":3395,"time":3,"station_id":"KLD","transit":false,"i_lat":-6.2135,"station_name":"Klender","line":1},{"is_transit":false,"i_lat":-6.215568,"line":1,"station_name":"Buaran","station_id":"BUA","time":2,"transit":false,"i_long":106.922662,"distance":3100},{"i_long":106.939679,"station_name":"Klenderbaru","line":1,"is_transit":false,"time":1,"station_id":"KLDB","transit":false,"distance":1305,"i_lat":-6.217455},{"station_id":"CUK","time":8,"line":1,"i_long":106.951283,"distance":1385,"transit":false,"is_transit":false,"i_lat":-6.219053,"station_name":"Cakung"},{"time":3,"i_lat":-6.224515,"station_id":"KRI","transit":false,"station_name":"Kranji","distance":3097,"i_long":106.977657,"line":1,"is_transit":false}],[{"distance":0,"transit":false,"i_lat":-6.3441410000000005,"i_long":106.568863,"station_name":"Parung Panjang","line":6,"station_id":"PRP","time":0,"is_transit":false},{"station_id":"CC","is_transit":false,"i_lat":-6.329547,"distance":5968,"i_long":106.617853,"transit":false,"station_name":"Cicayur","time":8,"line":3},{"station_id":"CSK","is_transit":false,"station_name":"Cisauk","time":4,"distance":2519,"transit":false,"i_lat":-6.32484,"i_long":106.640411,"line":3},{"i_lat":-6.319871,"transit":false,"is_transit":false,"i_long":106.66566,"station_name":"Serpong","time":4,"station_id":"SRP","line":6,"distance":1784},{"transit":false,"is_transit":false,"i_long":106.675475,"distance":2413,"line":6,"time":4,"i_lat":-6.314823,"station_name":"Rawa Buntu","station_id":"RU"},{"line":6,"i_long":106.712277,"i_lat":-6.296963,"station_name":"Sudimara","distance":4566,"transit":false,"is_transit":false,"time":6,"station_id":"SDM"},{"line":6,"i_lat":-6.288927,"transit":false,"station_name":"Jurangmangu","station_id":"JMU","is_transit":false,"time":4,"i_long":106.728916,"distance":1994},{"time":3,"i_long":106.74273,"station_name":"Pondokranji","line":6,"distance":2179,"transit":false,"station_id":"PDJ","i_lat":-6.276362,"is_transit":false},{"line":6,"station_name":"Kebayoran","station_id":"KBY","time":8,"distance":6218,"transit":false,"i_lat":-6.237242,"i_long":106.780334,"is_transit":false},{"station_name":"Palmerah","station_id":"PLM","i_long":106.79689,"transit":false,"i_lat":-6.207404,"time":7,"is_transit":false,"distance":3737,"line":6},{"is_transit":true,"station_name":"Tanah Abang","time":6,"i_lat":-6.185545,"transit":true,"i_long":106.811091,"distance":3191,"line":1,"station_id":"THB"},{"time":8,"station_name":"Duri","is_transit":false,"transit":false,"i_long":106.800832,"distance":3632,"line":1,"i_lat":-6.155215,"station_id":"DU"},{"i_long":106.79867,"station_name":"Angke","i_lat":-6.144674,"transit":false,"time":4,"distance":1230,"is_transit":false,"line":1,"station_id":"AK"},{"transit":true,"line":4,"distance":4102,"i_lat":-6.132549,"station_name":"Kampung Bandan","station_id":"KPB","time":9,"i_long":106.826365,"is_transit":true},{"transit":false,"time":3,"i_lat":-6.14505,"station_id":"RJW","distance":1444,"line":11,"i_long":106.836569,"station_name":"Rajawali","is_transit":false},{"is_transit":false,"i_lat":-6.161728,"line":11,"station_id":"KMO","transit":false,"station_name":"Kemayoran","distance":1901,"time":5,"i_long":106.839204},{"time":4,"distance":1436,"station_id":"PSE","is_transit":false,"station_name":"Pasar Senen","transit":false,"i_long":106.84368,"i_lat":-6.174784,"line":11},{"i_lat":-6.185975,"station_id":"GST","line":11,"station_name":"Gang Sentiong","is_transit":false,"time":8,"transit":false,"i_long":106.850107,"distance":1567},{"line":11,"transit":false,"i_long":106.855437,"distance":973,"i_lat":-6.193792,"is_transit":false,"station_id":"KMT","station_name":"Kramat","time":1},{"station_id":"POK","is_transit":false,"time":2,"station_name":"Pondok Jati","line":11,"transit":false,"i_long":106.861737,"i_lat":-6.209188,"distance":1829},{"distance":1236,"line":1,"i_long":106.86807400000001,"station_name":"Jatinegara","station_id":"JNG","i_lat":-6.215091,"is_transit":true,"time":9,"transit":true},{"station_name":"Klender","transit":false,"i_long":106.899548,"line":1,"time":3,"i_lat":-6.2135,"distance":3395,"station_id":"KLD","is_transit":false},{"i_lat":-6.215568,"station_id":"BUA","distance":3100,"station_name":"Buaran","i_long":106.922662,"transit":false,"line":1,"time":2,"is_transit":false},{"i_lat":-6.217455,"line":1,"distance":1305,"station_id":"KLDB","time":1,"i_long":106.939679,"is_transit":false,"transit":false,"station_name":"Klenderbaru"},{"transit":false,"line":1,"i_lat":-6.219053,"i_long":106.951283,"station_id":"CUK","station_name":"Cakung","is_transit":false,"time":8,"distance":1385},{"station_name":"Kranji","station_id":"KRI","i_lat":-6.224515,"i_long":106.977657,"line":1,"transit":false,"time":3,"is_transit":false,"distance":3097}],[{"time":0,"line":6,"station_name":"Parung Panjang","is_transit":false,"i_lat":-6.3441410000000005,"i_long":106.568863,"distance":0,"transit":false,"station_id":"PRP"},{"transit":false,"distance":5968,"line":3,"is_transit":false,"i_lat":-6.329547,"i_long":106.617853,"station_name":"Cicayur","station_id":"CC","time":8},{"station_name":"Cisauk","i_lat":-6.32484,"station_id":"CSK","transit":false,"time":4,"distance":2519,"i_long":106.640411,"line":3,"is_transit":false},{"station_name":"Serpong","station_id":"SRP","time":4,"line":6,"distance":1784,"transit":false,"is_transit":false,"i_lat":-6.319871,"i_long":106.66566},{"station_name":"Rawa Buntu","transit":false,"distance":2413,"i_long":106.675475,"station_id":"RU","line":6,"time":4,"i_lat":-6.314823,"is_transit":false},{"is_transit":false,"station_id":"SDM","time":6,"i_long":106.712277,"line":6,"transit":false,"i_lat":-6.296963,"station_name":"Sudimara","distance":4566},{"time":4,"station_name":"Jurangmangu","distance":1994,"i_lat":-6.288927,"i_long":106.728916,"is_transit":false,"line":6,"transit":false,"station_id":"JMU"},{"station_id":"PDJ","i_long":106.74273,"is_transit":false,"i_lat":-6.276362,"distance":2179,"station_name":"Pondokranji","time":3,"line":6,"transit":false},{"i_long":106.780334,"time":8,"station_name":"Kebayoran","i_lat":-6.237242,"transit":false,"line":6,"station_id":"KBY","distance":6218,"is_transit":false},{"distance":3737,"transit":false,"is_transit":false,"station_name":"Palmerah","i_long":106.79689,"station_id":"PLM","i_lat":-6.207404,"line":6,"time":7},{"transit":true,"time":6,"i_lat":-6.185545,"i_long":106.811091,"station_id":"THB","distance":3191,"line":1,"station_name":"Tanah Abang","is_transit":true},{"time":8,"is_transit":false,"distance":3632,"i_lat":-6.155215,"i_long":106.800832,"transit":false,"line":1,"station_name":"Duri","station_id":"DU"},{"i_long":106.79867,"line":1,"station_name":"Angke","distance":1230,"i_lat":-6.144674,"time":4,"is_transit":false,"station_id":"AK","transit":false},{"is_transit":true,"distance":4102,"i_long":106.826365,"line":4,"transit":true,"station_id":"KPB","time":9,"i_lat":-6.132549,"station_name":"Kampung Bandan"},{"line":2,"transit":true,"station_id":"JAKK","is_transit":true,"time":3,"station_name":"Jakarta Kota","distance":1364,"i_long":106.812439,"i_lat":-6.137569},{"line":2,"station_name":"Jayakarta","time":4,"i_long":106.820901,"transit":false,"i_lat":-6.141205,"is_transit":false,"station_id":"JAY","distance":1264},{"i_lat":-6.149769,"is_transit":false,"distance":1080,"station_name":"Manggabesar","line":2,"i_long":106.82482,"transit":false,"station_id":"MGB","time":2},{"station_name":"Sawah Besar","i_long":106.827103,"distance":906,"i_lat":-6.160725,"is_transit":false,"time":2,"station_id":"SW","line":2,"transit":false},{"distance":1149,"transit":false,"station_name":"Juanda","i_lat":-6.166716,"i_long":106.828284,"line":2,"station_id":"JUA","is_transit":false,"time":2},{"transit":false,"time":4,"is_transit":false,"i_lat":-6.186295,"station_name":"Gondangdia","distance":2015,"line":2,"station_id":"GDD","i_long":106.832183},{"line":2,"time":3,"i_long":106.840169,"transit":false,"station_name":"Cikini","station_id":"CKI","is_transit":false,"i_lat":-6.198556,"distance":1750},{"time":4,"transit":true,"i_long":106.84912,"line":2,"i_lat":-6.209883,"station_name":"Manggarai","station_id":"MRI","distance":1590,"is_transit":true},{"distance":1275,"i_long":106.858896,"station_name":"Matraman","i_lat":-6.212485,"station_id":"MTR","line":1,"transit":false,"is_transit":false,"time":2},{"distance":1377,"transit":false,"time":8,"station_id":"JNG","i_long":106.86807400000001,"line":1,"is_transit":false,"i_lat":-6.215091,"station_name":"Jatinegara"},{"line":1,"i_long":106.899548,"station_name":"Klender","distance":3395,"is_transit":false,"station_id":"KLD","transit":false,"i_lat":-6.2135,"time":3},{"is_transit":false,"i_long":106.922662,"distance":3100,"line":1,"transit":false,"station_id":"BUA","station_name":"Buaran","time":2,"i_lat":-6.215568},{"station_id":"KLDB","time":1,"is_transit":false,"distance":1305,"line":1,"i_long":106.939679,"transit":false,"station_name":"Klenderbaru","i_lat":-6.217455},{"station_id":"CUK","is_transit":false,"line":1,"distance":1385,"transit":false,"i_long":106.951283,"station_name":"Cakung","i_lat":-6.219053,"time":8},{"i_long":106.977657,"line":1,"transit":false,"station_id":"KRI","i_lat":-6.224515,"station_name":"Kranji","time":3,"is_transit":false,"distance":3097}],[{"station_id":"PRP","transit":false,"i_long":106.568863,"distance":0,"is_transit":false,"time":0,"line":6,"i_lat":-6.3441410000000005,"station_name":"Parung Panjang"},{"i_long":106.617853,"distance":5968,"transit":false,"time":8,"is_transit":false,"i_lat":-6.329547,"line":3,"station_id":"CC","station_name":"Cicayur"},{"line":3,"time":4,"station_id":"CSK","is_transit":false,"distance":2519,"station_name":"Cisauk","i_lat":-6.32484,"transit":false,"i_long":106.640411},{"distance":1784,"i_lat":-6.319871,"station_name":"Serpong","time":4,"transit":false,"is_transit":false,"line":6,"station_id":"SRP","i_long":106.66566},{"distance":2413,"line":6,"station_name":"Rawa Buntu","station_id":"RU","transit":false,"is_transit":false,"time":4,"i_lat":-6.314823,"i_long":106.675475},{"transit":false,"i_long":106.712277,"is_transit":false,"time":6,"distance":4566,"station_id":"SDM","i_lat":-6.296963,"station_name":"Sudimara","line":6},{"station_id":"JMU","i_lat":-6.288927,"line":6,"time":4,"station_name":"Jurangmangu","i_long":106.728916,"is_transit":false,"transit":false,"distance":1994},{"is_transit":false,"station_id":"PDJ","i_long":106.74273,"line":6,"station_name":"Pondokranji","transit":false,"time":3,"i_lat":-6.276362,"distance":2179},{"i_long":106.780334,"station_name":"Kebayoran","transit":false,"distance":6218,"line":6,"i_lat":-6.237242,"is_transit":false,"time":8,"station_id":"KBY"},{"i_long":106.79689,"time":7,"is_transit":false,"station_name":"Palmerah","distance":3737,"i_lat":-6.207404,"transit":false,"station_id":"PLM","line":6},{"station_name":"Tanah Abang","station_id":"THB","line":1,"i_long":106.811091,"is_transit":true,"distance":3191,"time":6,"i_lat":-6.185545,"transit":true},{"i_lat":-6.20132,"i_long":106.816351,"line":1,"station_id":"KAT","is_transit":false,"station_name":"Karet","distance":2029,"time":5,"transit":false},{"is_transit":false,"time":1,"station_name":"Sudirman Baru","station_id":"SUDB","distance":471,"i_long":106.819881,"i_lat":-6.201433,"line":1,"transit":false},{"transit":false,"station_name":"Sudirman","station_id":"SUD","time":1,"i_lat":-6.202263,"is_transit":false,"i_long":106.822649,"line":1,"distance":280},{"i_lat":-6.209883,"distance":3186,"i_long":106.84912,"station_id":"MRI","is_transit":true,"line":2,"station_name":"Manggarai","transit":true,"time":4},{"station_name":"Cikini","i_long":106.840169,"time":4,"transit":false,"distance":1590,"i_lat":-6.198556,"line":2,"station_id":"CKI","is_transit":false},{"is_transit":false,"distance":1750,"transit":false,"i_lat":-6.186295,"line":2,"station_id":"GDD","station_name":"Gondangdia","time":3,"i_long":106.832183},{"station_id":"JUA","distance":2015,"station_name":"Juanda","line":2,"i_lat":-6.166716,"time":4,"is_transit":false,"transit":false,"i_long":106.828284},{"distance":1149,"i_long":106.827103,"transit":false,"station_name":"Sawah Besar","time":2,"station_id":"SW","is_transit":false,"i_lat":-6.160725,"line":2},{"time":2,"i_long":106.82482,"transit":false,"line":2,"is_transit":false,"i_lat":-6.149769,"distance":906,"station_name":"Manggabesar","station_id":"MGB"},{"station_id":"JAY","i_long":106.820901,"station_name":"Jayakarta","is_transit":false,"transit":false,"line":2,"time":2,"distance":1080,"i_lat":-6.141205},{"distance":1264,"is_transit":true,"line":2,"station_id":"JAKK","transit":true,"i_lat":-6.137569,"time":4,"station_name":"Jakarta Kota","i_long":106.812439},{"i_lat":-6.132549,"i_long":106.826365,"line":4,"time":3,"transit":true,"is_transit":true,"station_name":"Kampung Bandan","station_id":"KPB","distance":1364},{"distance":1444,"transit":false,"is_transit":false,"station_name":"Rajawali","i_lat":-6.14505,"line":11,"station_id":"RJW","i_long":106.836569,"time":3},{"i_lat":-6.161728,"station_name":"Kemayoran","time":5,"is_transit":false,"i_long":106.839204,"line":11,"transit":false,"distance":1901,"station_id":"KMO"},{"station_id":"PSE","line":11,"is_transit":false,"transit":false,"time":4,"i_lat":-6.174784,"i_long":106.84368,"distance":1436,"station_name":"Pasar Senen"},{"i_lat":-6.185975,"i_long":106.850107,"transit":false,"line":11,"station_id":"GST","station_name":"Gang Sentiong","time":8,"is_transit":false,"distance":1567},{"i_long":106.855437,"time":1,"line":11,"station_name":"Kramat","is_transit":false,"station_id":"KMT","i_lat":-6.193792,"transit":false,"distance":973},{"time":2,"transit":false,"is_transit":false,"line":11,"distance":1829,"station_id":"POK","i_long":106.861737,"station_name":"Pondok Jati","i_lat":-6.209188},{"time":9,"line":1,"is_transit":true,"i_lat":-6.215091,"i_long":106.86807400000001,"station_id":"JNG","station_name":"Jatinegara","transit":true,"distance":1236},{"distance":3395,"line":1,"i_long":106.899548,"is_transit":false,"station_id":"KLD","time":3,"station_name":"Klender","i_lat":-6.2135,"transit":false},{"i_lat":-6.215568,"time":2,"distance":3100,"i_long":106.922662,"station_name":"Buaran","transit":false,"station_id":"BUA","line":1,"is_transit":false},{"time":1,"i_long":106.939679,"i_lat":-6.217455,"distance":1305,"transit":false,"station_name":"Klenderbaru","is_transit":false,"station_id":"KLDB","line":1},{"station_name":"Cakung","is_transit":false,"station_id":"CUK","time":8,"distance":1385,"i_lat":-6.219053,"i_long":106.951283,"transit":false,"line":1},{"station_name":"Kranji","distance":3097,"i_lat":-6.224515,"transit":false,"is_transit":false,"time":3,"station_id":"KRI","line":1,"i_long":106.977657}]]}