{"data":[[{"station_id":"PRP","is_transit":false,"i_long":106.568863,"line":6,"i_lat":-6.3441410000000005,"time":0,"station_name":"Parung Panjang","distance":0,"transit":false},{"time":8,"i_long":106.617853,"station_id":"CC","transit":false,"line":3,"distance":5968,"is_transit":false,"station_name":"Cicayur","i_lat":-6.329547},{"distance":2519,"i_lat":-6.32484,"station_id":"CSK","i_long":106.640411,"station_name":"Cisauk","transit":false,"is_transit":false,"time":4,"line":3},{"is_transit":false,"station_id":"SRP","i_long":106.66566,"i_lat":-6.319871,"distance":1784,"time":4,"line":6,"station_name":"Serpong","transit":false},{"station_name":"Rawa Buntu","line":6,"i_lat":-6.314823,"station_id":"RU","distance":2413,"i_long":106.675475,"is_transit":false,"time":4,"transit":false},{"distance":4566,"station_id":"SDM","station_name":"Sudimara","i_lat":-6.296963,"time":6,"i_long":106.712277,"line":6,"transit":false,"is_transit":false},{"line":6,"station_id":"JMU","time":4,"distance":1994,"i_long":106.728916,"transit":false,"is_transit":false,"i_lat":-6.288927,"station_name":"Jurangmangu"},{"station_id":"PDJ","distance":2179,"i_lat":-6.276362,"i_long":106.74273,"transit":false,"station_name":"Pondokranji","time":3,"is_transit":false,"line":6},{"time":8,"distance":6218,"station_id":"KBY","transit":false,"station_name":"Kebayoran","is_transit":false,"i_lat":-6.237242,"i_long":106.780334,"line":6},{"time":7,"transit":false,"i_lat":-6.207404,"line":6,"is_transit":false,"distance":3737,"i_long":106.79689,"station_name":"Palmerah","station_id":"PLM"},{"station_name":"Tanah Abang","station_id":"THB","distance":3191,"i_long":106.811091,"line":1,"time":6,"is_transit":true,"i_lat":-6.185545,"transit":true},{"is_transit":false,"transit":false,"station_id":"KAT","i_lat":-6.20132,"line":1,"station_name":"Karet","time":5,"distance":2029,"i_long":106.816351},{"station_id":"SUDB","is_transit":false,"station_name":"Sudirman Baru","time":1,"i_lat":-6.201433,"distance":471,"i_long":106.819881,"line":1,"transit":false},{"transit":false,"station_id":"SUD","time":1,"line":1,"distance":280,"i_long":106.822649,"station_name":"Sudirman","is_transit":false,"i_lat":-6.202263},{"transit":false,"i_lat":-6.209883,"station_name":"Manggarai","station_id":"MRI","time":4,"i_long":106.84912,"line":2,"is_transit":false,"distance":3186},{"station_name":"Matraman","time":2,"transit":false,"station_id":"MTR","is_transit":false,"i_lat":-6.212485,"distance":1275,"line":1,"i_long":106.858896},{"station_name":"Jatinegara","distance":1377,"station_id":"JNG","is_transit":false,"i_long":106.86807400000001,"line":1,"transit":false,"time":8,"i_lat":-6.215091},{"line":1,"is_transit":false,"time":3,"i_long":106.899548,"transit":false,"station_name":"Klender","station_id":"KLD","distance":3395,"i_lat":-6.2135},{"is_transit":false,"distance":3100,"i_long":106.922662,"time":2,"transit":false,"i_lat":-6.215568,"line":1,"station_name":"Buaran","station_id":"BUA"},{"line":1,"is_transit":false,"station_id":"KLDB","time":1,"station_name":"Klenderbaru","i_long":106.939679,"distance":1305,"i_lat":-6.217455,"transit":false},{"line":1,"is_transit":false,"time":8,"distance":1385,"station_name":"Cakung","station_id":"CUK","i_long":106.951283,"i_lat":-6.219053,"transit":false},{"is_transit":false,"i_lat":-6.224515,"transit":false,"time":3,"line":1,"station_name":"Kranji","i_long":106.977657,"station_id":"KRI","distance":3097},{"time":4,"distance":2520,"station_id":"BKS","line":1,"station_name":"Bekasi","transit":false,"i_long":106.997013,"is_transit":false,"i_lat":-6.236616}],[{"distance":0,"i_long":106.568863,"line":6,"station_name":"Parung Panjang","is_transit":false,"transit":false,"time":0,"i_lat":-6.3441410000000005,"station_id":"PRP"},{"station_name":"Cicayur","time":8,"station_id":"CC","is_transit":false,"transit":false,"distance":5968,"i_lat":-6.329547,"i_long":106.617853,"line":3},{"is_transit":false,"i_lat":-6.32484,"transit":false,"station_name":"Cisauk","time":4,"distance":2519,"station_id":"CSK","line":3,"i_long":106.640411},{"line":6,"transit":false,"time":4,"distance":1784,"station_name":"Serpong","i_long":106.66566,"station_id":"SRP","is_transit":false,"i_lat":-6.319871},{"station_name":"Rawa Buntu","station_id":"RU","transit":false,"time":4,"is_transit":false,"distance":2413,"i_lat":-6.314823,"i_long":106.675475,"line":6},{"i_lat":-6.296963,"transit":false,"station_id":"SDM","station_name":"Sudimara","is_transit":false,"time":6,"distance":4566,"i_long":106.712277,"line":6},{"is_transit":false,"i_lat":-6.288927,"line":6,"distance":1994,"station_name":"Jurangmangu","i_long":106.728916,"transit":false,"station_id":"JMU","time":4},{"station_id":"PDJ","distance":2179,"i_lat":-6.276362,"line":6,"is_transit":false,"time":3,"transit":false,"station_name":"Pondokranji","i_long":106.74273},{"i_long":106.780334,"transit":false,"time":8,"station_name":"Kebayoran","line":6,"distance":6218,"station_id":"KBY","i_lat":-6.237242,"is_transit":false},{"line":6,"distance":3737,"station_name":"Palmerah","transit":false,"is_transit":false,"time":7,"station_id":"PLM","i_long":106.79689,"i_lat":-6.207404},{"is_transit":true,"line":1,"transit":true,"i_lat":-6.185545,"time":6,"station_id":"THB","distance":3191,"i_long":106.811091,"station_name":"Tanah Abang"},{"station_id":"DU","time":8,"distance":3632,"i_lat":-6.155215,"transit":false,"i_long":106.800832,"is_transit":false,"line":1,"station_name":"Duri"},{"distance":1230,"i_long":106.79867,"transit":false,"time":4,"i_lat":-6.144674,"is_transit":false,"line":1,"station_id":"AK","station_name":"Angke"},{"station_id":"KPB","i_long":106.826365,"transit":true,"time":9,"distance":4102,"i_lat":-6.132549,"station_name":"Kampung Bandan","line":4,"is_transit":true},{"station_id":"RJW","time":3,"is_transit":false,"transit":false,"distance":1444,"i_lat":-6.14505,"i_long":106.836569,"line":11,"station_name":"Rajawali"},{"distance":1901,"station_id":"KMO","time":5,"line":11,"transit":false,"station_name":"Kemayoran","i_long":106.839204,"is_transit":false,"i_lat":-6.161728},{"line":11,"is_transit":false,"time":4,"station_name":"Pasar Senen","i_lat":-6.174784,"i_long":106.84368,"station_id":"PSE","distance":1436,"transit":false},{"time":8,"i_lat":-6.185975,"station_name":"Gang Sentiong","line":11,"is_transit":false,"distance":1567,"i_long":106.850107,"transit":false,"station_id":"GST"},{"station_id":"KMT","transit":false,"is_transit":false,"station_name":"Kramat","line":11,"i_lat":-6.193792,"time":1,"i_long":106.855437,"distance":973},{"distance":1829,"is_transit":false,"transit":false,"time":2,"i_lat":-6.209188,"i_long":106.861737,"line":11,"station_id":"POK","station_name":"Pondok Jati"},{"transit":true,"time":9,"distance":1236,"i_lat":-6.215091,"line":1,"station_name":"Jatinegara","station_id":"JNG","is_transit":true,"i_long":106.86807400000001},{"station_name":"Klender","distance":3395,"transit":false,"time":3,"is_transit":false,"station_id":"KLD","i_lat":-6.2135,"i_long":106.899548,"line":1},{"station_id":"BUA","transit":false,"is_transit":false,"time":2,"distance":3100,"i_lat":-6.215568,"station_name":"Buaran","i_long":106.922662,"line":1},{"station_name":"Klenderbaru","time":1,"is_transit":false,"transit":false,"station_id":"KLDB","i_lat":-6.217455,"i_long":106.939679,"line":1,"distance":1305},{"i_long":106.951283,"station_name":"Cakung","transit":false,"station_id":"CUK","line":1,"time":8,"is_transit":false,"i_lat":-6.219053,"distance":1385},{"i_lat":-6.224515,"time":3,"is_transit":false,"distance":3097,"station_name":"Kranji","station_id":"KRI","line":1,"i_long":106.977657,"transit":false},{"station_name":"Bekasi","i_long":106.997013,"transit":false,"line":1,"i_lat":-6.236616,"station_id":"BKS","is_transit":false,"time":4,"distance":2520}],[{"i_lat":-6.3441410000000005,"line":6,"station_name":"Parung Panjang","station_id":"PRP","distance":0,"i_long":106.568863,"transit":false,"time":0,"is_transit":false},{"i_lat":-6.329547,"i_long":106.617853,"station_name":"Cicayur","station_id":"CC","time":8,"line":3,"transit":false,"is_transit":false,"distance":5968},{"station_id":"CSK","line":3,"station_name":"Cisauk","time":4,"distance":2519,"transit":false,"i_lat":-6.32484,"is_transit":false,"i_long":106.640411},{"line":6,"i_long":106.66566,"station_id":"SRP","station_name":"Serpong","is_transit":false,"time":4,"distance":1784,"i_lat":-6.319871,"transit":false},{"i_lat":-6.314823,"line":6,"station_name":"Rawa Buntu","i_long":106.675475,"time":4,"is_transit":false,"transit":false,"distance":2413,"station_id":"RU"},{"station_name":"Sudimara","line":6,"transit":false,"is_transit":false,"i_lat":-6.296963,"time":6,"distance":4566,"i_long":106.712277,"station_id":"SDM"},{"time":4,"station_id":"JMU","is_transit":false,"distance":1994,"i_lat":-6.288927,"line":6,"i_long":106.728916,"transit":false,"station_name":"Jurangmangu"},{"i_long":106.74273,"station_id":"PDJ","transit":false,"time":3,"station_name":"Pondokranji","line":6,"is_transit":false,"distance":2179,"i_lat":-6.276362},{"station_name":"Kebayoran","transit":false,"is_transit":false,"time":8,"distance":6218,"line":6,"i_lat":-6.237242,"i_long":106.780334,"station_id":"KBY"},{"distance":3737,"i_lat":-6.207404,"station_name":"Palmerah","is_transit":false,"transit":false,"i_long":106.79689,"line":6,"station_id":"PLM","time":7},{"i_lat":-6.185545,"time":6,"distance":3191,"transit":true,"station_name":"Tanah Abang","is_transit":true,"station_id":"THB","i_long":106.811091,"line":1},{"is_transit":false,"station_name":"Duri","i_long":106.800832,"station_id":"DU","distance":3632,"line":1,"time":8,"transit":false,"i_lat":-6.155215},{"time":4,"transit":false,"station_name":"Angke","station_id":"AK","line":1,"i_long":106.79867,"is_transit":false,"distance":1230,"i_lat":-6.144674},{"station_id":"KPB","station_name":"Kampung Bandan","is_transit":true,"i_lat":-6.132549,"i_long":106.826365,"time":9,"distance":4102,"transit":true,"line":4},{"i_long":106.812439,"line":2,"i_lat":-6.137569,"station_id":"JAKK","is_transit":true,"distance":1364,"time":3,"station_name":"Jakarta Kota","transit":true},{"distance":1264,"line":2,"is_transit":false,"transit":false,"station_id":"JAY","i_long":106.820901,"station_name":"Jayakarta","i_lat":-6.141205,"time":4},{"transit":false,"line":2,"time":2,"is_transit":false,"station_name":"Manggabesar","i_lat":-6.149769,"i_long":106.82482,"station_id":"MGB","distance":1080},{"is_transit":false,"transit":false,"time":2,"distance":906,"i_lat":-6.160725,"station_name":"Sawah Besar","line":2,"i_long":106.827103,"station_id":"SW"},{"i_lat":-6.166716,"station_name":"Juanda","is_transit":false,"distance":1149,"transit":false,"i_long":106.828284,"station_id":"JUA","time":2,"line":2},{"station_name":"Gondangdia","distance":2015,"transit":false,"station_id":"GDD","i_lat":-6.186295,"line":2,"i_long":106.832183,"time":4,"is_transit":false},{"i_lat":-6.198556,"line":2,"station_name":"Cikini","i_long":106.840169,"time":3,"transit":false,"station_id":"CKI","is_transit":false,"distance":1750},{"time":4,"is_transit":true,"transit":true,"i_long":106.84912,"station_id":"MRI","i_lat":-6.209883,"station_name":"Manggarai","line":2,"distance":1590},{"station_name":"Matraman","line":1,"i_long":106.858896,"time":2,"i_lat":-6.212485,"station_id":"MTR","distance":1275,"is_transit":false,"transit":false},{"i_lat":-6.215091,"station_id":"JNG","is_transit":false,"transit":false,"time":8,"station_name":"Jatinegara","line":1,"i_long":106.86807400000001,"distance":1377},{"i_long":106.899548,"station_name":"Klender","i_lat":-6.2135,"line":1,"distance":3395,"is_transit":false,"transit":false,"station_id":"KLD","time":3},{"i_long":106.922662,"station_name":"Buaran","distance":3100,"time":2,"i_lat":-6.215568,"line":1,"transit":false,"is_transit":false,"station_id":"BUA"},{"i_long":106.939679,"i_lat":-6.217455,"line":1,"time":1,"is_transit":false,"station_name":"Klenderbaru","station_id":"KLDB","transit":false,"distance":1305},{"distance":1385,"line":1,"transit":false,"i_long":106.951283,"station_name":"Cakung","station_id":"CUK","time":8,"is_transit":false,"i_lat":-6.219053},{"station_id":"KRI","transit":false,"time":3,"i_long":106.977657,"line":1,"i_lat":-6.224515,"station_name":"Kranji","is_transit":false,"distance":3097},{"line":1,"station_name":"Bekasi","i_lat":-6.236616,"distance":2520,"transit":false,"station_id":"BKS","time":4,"i_long":106.997013,"is_transit":false}],[{"i_long":106.568863,"station_id":"PRP","time":0,"is_transit":false,"distance":0,"line":6,"station_name":"Parung Panjang","i_lat":-6.3441410000000005,"transit":false},{"i_long":106.617853,"line":3,"distance":5968,"i_lat":-6.329547,"is_transit":false,"transit":false,"station_id":"CC","station_name":"Cicayur","time":8},{"station_name":"Cisauk","i_long":106.640411,"transit":false,"is_transit":false,"i_lat":-6.32484,"line":3,"distance":2519,"time":4,"station_id":"CSK"},{"station_id":"SRP","time":4,"distance":1784,"i_lat":-6.319871,"i_long":106.66566,"transit":false,"line":6,"is_transit":false,"station_name":"Serpong"},{"station_id":"RU","distance":2413,"line":6,"transit":false,"is_transit":false,"i_lat":-6.314823,"station_name":"Rawa Buntu","time":4,"i_long":106.675475},{"transit":false,"station_id":"SDM","station_name":"Sudimara","i_lat":-6.296963,"i_long":106.712277,"line":6,"is_transit":false,"time":6,"distance":4566},{"station_id":"JMU","time":4,"transit":false,"is_transit":false,"i_lat":-6.288927,"i_long":106.728916,"line":6,"distance":1994,"station_name":"Jurangmangu"},{"station_id":"PDJ","i_lat":-6.276362,"station_name":"Pondokranji","line":6,"is_transit":false,"time":3,"transit":false,"i_long":106.74273,"distance":2179},{"station_name":"Kebayoran","line":6,"distance":6218,"transit":false,"station_id":"KBY","time":8,"i_long":106.780334,"is_transit":false,"i_lat":-6.237242},{"station_id":"PLM","transit":false,"is_transit":false,"distance":3737,"i_lat":-6.207404,"line":6,"station_name":"Palmerah","time":7,"i_long":106.79689},{"transit":true,"station_id":"THB","line":1,"is_transit":true,"i_lat":-6.185545,"i_long":106.811091,"station_name":"Tanah Abang","distance":3191,"time":6},{"transit":false,"line":1,"time":5,"distance":2029,"i_lat":-6.20132,"i_long":106.816351,"station_id":"KAT","is_transit":false,"station_name":"Karet"},{"i_lat":-6.201433,"time":1,"distance":471,"station_id":"SUDB","is_transit":false,"i_long":106.819881,"line":1,"transit":false,"station_name":"Sudirman Baru"},{"line":1,"transit":false,"i_long":106.822649,"station_id":"SUD","station_name":"Sudirman","distance":280,"time":1,"is_transit":false,"i_lat":-6.202263},{"station_name":"Manggarai","distance":3186,"line":2,"station_id":"MRI","transit":true,"is_transit":true,"time":4,"i_lat":-6.209883,"i_long":106.84912},{"line":2,"time":4,"is_transit":false,"transit":false,"station_name":"Cikini","distance":1590,"station_id":"CKI","i_long":106.840169,"i_lat":-6.198556},{"line":2,"i_lat":-6.186295,"station_name":"Gondangdia","time":3,"station_id":"GDD","is_transit":false,"distance":1750,"i_long":106.832183,"transit":false},{"line":2,"i_lat":-6.166716,"is_transit":false,"station_id":"JUA","time":4,"transit":false,"station_name":"Juanda","distance":2015,"i_long":106.828284},{"station_id":"SW","i_long":106.827103,"time":2,"station_name":"Sawah Besar","i_lat":-6.160725,"is_transit":false,"transit":false,"distance":1149,"line":2},{"station_id":"MGB","distance":906,"i_long":106.82482,"station_name":"Manggabesar","is_transit":false,"transit":false,"i_lat":-6.149769,"time":2,"line":2},{"i_long":106.820901,"time":2,"station_name":"Jayakarta","station_id":"JAY","is_transit":false,"distance":1080,"line":2,"transit":false,"i_lat":-6.141205},{"line":2,"station_name":"Jakarta Kota","transit":true,"is_transit":true,"station_id":"JAKK","time":4,"distance":1264,"i_lat":-6.137569,"i_long":106.812439},{"i_lat":-6.132549,"transit":true,"line":4,"distance":1364,"station_id":"KPB","is_transit":true,"station_name":"Kampung Bandan","i_long":106.826365,"time":3},{"distance":1444,"station_id":"RJW","is_transit":false,"i_lat":-6.14505,"transit":false,"station_name":"Rajawali","time":3,"i_long":106.836569,"line":11},{"station_id":"KMO","i_long":106.839204,"station_name":"Kemayoran","time":5,"is_transit":false,"transit":false,"distance":1901,"line":11,"i_lat":-6.161728},{"transit":false,"station_id":"PSE","is_transit":false,"time":4,"station_name":"Pasar Senen","distance":1436,"i_lat":-6.174784,"i_long":106.84368,"line":11},{"station_id":"GST","transit":false,"time":8,"i_lat":-6.185975,"line":11,"station_name":"Gang Sentiong","i_long":106.850107,"is_transit":false,"distance":1567},{"transit":false,"is_transit":false,"station_id":"KMT","distance":973,"line":11,"time":1,"station_name":"Kramat","i_long":106.855437,"i_lat":-6.193792},{"i_lat":-6.209188,"transit":false,"line":11,"is_transit":false,"distance":1829,"station_id":"POK","i_long":106.861737,"time":2,"station_name":"Pondok Jati"},{"i_lat":-6.215091,"distance":1236,"station_name":"Jatinegara","is_transit":true,"i_long":106.86807400000001,"line":1,"station_id":"JNG","transit":true,"time":9},{"line":1,"time":3,"is_transit":false,"station_id":"KLD","i_long":106.899548,"i_lat":-6.2135,"transit":false,"distance":3395,"station_name":"Klender"},{"transit":false,"distance":3100,"time":2,"i_long":106.922662,"is_transit":false,"station_name":"Buaran","i_lat":-6.215568,"station_id":"BUA","line":1},{"transit":false,"station_name":"Klenderbaru","i_long":106.939679,"is_transit":false,"i_lat":-6.217455,"station_id":"KLDB","line":1,"distance":1305,"time":1},{"distance":1385,"i_long":106.951283,"line":1,"i_lat":-6.219053,"is_transit":false,"station_id":"CUK","station_name":"Cakung","time":8,"transit":false},{"station_name":"Kranji","station_id":"KRI","i_long":106.977657,"time":3,"i_lat":-6.224515,"distance":3097,"transit":false,"is_transit":false,"line":1},{"i_long":106.997013,"i_lat":-6.236616,"station_name":"Bekasi","is_transit":false,"transit":false,"distance":2520,"line":1,"station_id":"BKS","time":4}]]}