{"data":[[{"is_transit":false,"time":0,"i_lat":-6.174784,"station_id":"PSE","line":11,"station_name":"Pasar Senen","transit":false,"i_long":106.84368,"distance":0},{"station_id":"GST","station_name":"Gang Sentiong","distance":1567,"i_lat":-6.185975,"time":8,"is_transit":false,"i_long":106.850107,"line":11,"transit":false},{"i_lat":-6.193792,"transit":false,"line":11,"distance":973,"station_id":"KMT","time":1,"is_transit":false,"i_long":106.855437,"station_name":"Kramat"},{"time":2,"distance":1829,"station_name":"Pondok Jati","i_lat":-6.209188,"line":11,"station_id":"POK","is_transit":false,"transit":false,"i_long":106.861737},{"distance":1236,"i_lat":-6.215091,"transit":true,"i_long":106.86807400000001,"line":1,"is_transit":true,"station_id":"JNG","station_name":"Jatinegara","time":9},{"i_lat":-6.212485,"station_id":"MTR","transit":false,"distance":1377,"is_transit":false,"line":1,"i_long":106.858896,"time":2,"station_name":"Matraman"},{"transit":true,"i_lat":-6.209883,"line":2,"time":2,"station_name":"Manggarai","station_id":"MRI","i_long":106.84912,"distance":1275,"is_transit":true},{"station_id":"CKI","station_name":"Cikini","is_transit":false,"i_lat":-6.198556,"transit":false,"distance":1590,"line":2,"i_long":106.840169,"time":4}],[{"is_transit":false,"i_lat":-6.174784,"line":11,"transit":false,"distance":0,"i_long":106.84368,"station_name":"Pasar Senen","time":0,"station_id":"PSE"},{"transit":false,"is_transit":false,"line":11,"station_id":"KMO","i_long":106.839204,"time":4,"station_name":"Kemayoran","distance":1436,"i_lat":-6.161728},{"i_long":106.836569,"time":5,"line":11,"is_transit":false,"i_lat":-6.14505,"station_name":"Rajawali","station_id":"RJW","distance":1901,"transit":false},{"transit":true,"time":3,"line":4,"station_name":"Kampung Bandan","station_id":"KPB","is_transit":true,"i_long":106.826365,"distance":1444,"i_lat":-6.132549},{"transit":true,"line":2,"i_lat":-6.137569,"station_name":"Jakarta Kota","time":3,"is_transit":true,"station_id":"JAKK","distance":1364,"i_long":106.812439},{"station_id":"JAY","station_name":"Jayakarta","i_long":106.820901,"is_transit":false,"transit":false,"line":2,"time":4,"i_lat":-6.141205,"distance":1264},{"transit":false,"distance":1080,"is_transit":false,"line":2,"i_long":106.82482,"station_name":"Manggabesar","station_id":"MGB","i_lat":-6.149769,"time":2},{"line":2,"station_name":"Sawah Besar","distance":906,"i_lat":-6.160725,"i_long":106.827103,"transit":false,"station_id":"SW","time":2,"is_transit":false},{"line":2,"distance":1149,"time":2,"transit":false,"station_id":"JUA","i_long":106.828284,"is_transit":false,"station_name":"Juanda","i_lat":-6.166716},{"is_transit":false,"station_id":"GDD","i_lat":-6.186295,"i_long":106.832183,"line":2,"station_name":"Gondangdia","time":4,"transit":false,"distance":2015},{"distance":1750,"transit":false,"i_lat":-6.198556,"line":2,"i_long":106.840169,"station_id":"CKI","is_transit":false,"station_name":"Cikini","time":3}],[{"is_transit":false,"i_long":106.84368,"line":11,"time":0,"station_name":"Pasar Senen","distance":0,"station_id":"PSE","transit":false,"i_lat":-6.174784},{"i_long":106.839204,"time":4,"transit":false,"line":11,"station_id":"KMO","station_name":"Kemayoran","distance":1436,"i_lat":-6.161728,"is_transit":false},{"distance":1901,"time":5,"station_name":"Rajawali","is_transit":false,"line":11,"station_id":"RJW","i_lat":-6.14505,"transit":false,"i_long":106.836569},{"distance":1444,"line":4,"is_transit":true,"i_long":106.826365,"station_name":"Kampung Bandan","time":3,"station_id":"KPB","i_lat":-6.132549,"transit":true},{"line":1,"is_transit":false,"time":9,"transit":false,"i_lat":-6.144674,"i_long":106.79867,"station_name":"Angke","distance":4102,"station_id":"AK"},{"time":4,"is_transit":false,"transit":false,"i_lat":-6.155215,"station_name":"Duri","distance":1230,"i_long":106.800832,"line":1,"station_id":"DU"},{"i_lat":-6.185545,"station_id":"THB","line":1,"station_name":"Tanah Abang","i_long":106.811091,"distance":3632,"transit":false,"time":8,"is_transit":false},{"is_transit":false,"i_long":106.816351,"distance":2029,"transit":false,"i_lat":-6.20132,"station_id":"KAT","time":5,"line":1,"station_name":"Karet"},{"time":1,"station_name":"Sudirman Baru","line":1,"i_lat":-6.201433,"station_id":"SUDB","i_long":106.819881,"is_transit":false,"transit":false,"distance":471},{"station_id":"SUD","is_transit":false,"distance":280,"i_long":106.822649,"station_name":"Sudirman","time":1,"line":1,"transit":false,"i_lat":-6.202263},{"time":4,"transit":true,"i_long":106.84912,"i_lat":-6.209883,"is_transit":true,"line":2,"distance":3186,"station_id":"MRI","station_name":"Manggarai"},{"i_lat":-6.198556,"i_long":106.840169,"line":2,"station_name":"Cikini","distance":1590,"transit":false,"time":4,"is_transit":false,"station_id":"CKI"}],[{"time":0,"station_name":"Pasar Senen","is_transit":false,"i_lat":-6.174784,"line":11,"transit":false,"i_long":106.84368,"station_id":"PSE","distance":0},{"i_long":106.850107,"station_id":"GST","transit":false,"time":8,"distance":1567,"line":11,"is_transit":false,"i_lat":-6.185975,"station_name":"Gang Sentiong"},{"i_lat":-6.193792,"station_name":"Kramat","station_id":"KMT","transit":false,"i_long":106.855437,"line":11,"is_transit":false,"time":1,"distance":973},{"time":2,"transit":false,"line":11,"station_name":"Pondok Jati","i_lat":-6.209188,"i_long":106.861737,"is_transit":false,"station_id":"POK","distance":1829},{"station_name":"Jatinegara","station_id":"JNG","time":9,"i_lat":-6.215091,"distance":1236,"i_long":106.86807400000001,"line":1,"transit":true,"is_transit":true},{"station_id":"MTR","time":2,"is_transit":false,"transit":false,"line":1,"distance":1377,"station_name":"Matraman","i_long":106.858896,"i_lat":-6.212485},{"line":2,"distance":1275,"station_name":"Manggarai","is_transit":false,"time":2,"transit":false,"i_lat":-6.209883,"i_long":106.84912,"station_id":"MRI"},{"distance":3186,"transit":false,"i_long":106.822649,"line":1,"time":4,"station_id":"SUD","station_name":"Sudirman","is_transit":false,"i_lat":-6.202263},{"transit":false,"is_transit":false,"time":1,"i_lat":-6.201433,"distance":280,"station_name":"Sudirman Baru","i_long":106.819881,"station_id":"SUDB","line":1},{"station_id":"KAT","i_long":106.816351,"time":1,"is_transit":false,"i_lat":-6.20132,"station_name":"Karet","transit":false,"line":1,"distance":471},{"is_transit":false,"distance":2029,"time":5,"transit":false,"i_lat":-6.185545,"i_long":106.811091,"station_name":"Tanah Abang","line":1,"station_id":"THB"},{"line":1,"distance":3632,"station_id":"DU","i_lat":-6.155215,"is_transit":false,"station_name":"Duri","i_long":106.800832,"time":8,"transit":false},{"line":1,"i_lat":-6.144674,"is_transit":false,"distance":1230,"i_long":106.79867,"time":4,"station_name":"Angke","station_id":"AK","transit":false},{"i_long":106.826365,"time":9,"station_id":"KPB","i_lat":-6.132549,"line":4,"distance":4102,"is_transit":true,"station_name":"Kampung Bandan","transit":true},{"i_lat":-6.137569,"line":2,"transit":true,"i_long":106.812439,"station_name":"Jakarta Kota","time":3,"station_id":"JAKK","distance":1364,"is_transit":true},{"station_name":"Jayakarta","line":2,"is_transit":false,"i_long":106.820901,"i_lat":-6.141205,"station_id":"JAY","transit":false,"time":4,"distance":1264},{"i_long":106.82482,"transit":false,"station_id":"MGB","distance":1080,"i_lat":-6.149769,"is_transit":false,"station_name":"Manggabesar","time":2,"line":2},{"transit":false,"station_name":"Sawah Besar","line":2,"i_long":106.827103,"time":2,"distance":906,"station_id":"SW","is_transit":false,"i_lat":-6.160725},{"transit":false,"station_id":"JUA","is_transit":false,"distance":1149,"i_long":106.828284,"time":2,"station_name":"Juanda","line":2,"i_lat":-6.166716},{"i_long":106.832183,"line":2,"time":4,"station_name":"Gondangdia","is_transit":false,"distance":2015,"transit":false,"station_id":"GDD","i_lat":-6.186295},{"i_lat":-6.198556,"transit":false,"is_transit":false,"station_name":"Cikini","station_id":"CKI","line":2,"i_long":106.840169,"time":3,"distance":1750}]]}