{"data":[[{"transit":false,"line":11,"i_long":106.84368,"station_name":"Pasar Senen","time":0,"distance":0,"i_lat":-6.174784,"is_transit":false,"station_id":"PSE"},{"station_name":"Gang Sentiong","is_transit":false,"station_id":"GST","distance":1567,"i_lat":-6.185975,"i_long":106.850107,"line":11,"transit":false,"time":8},{"is_transit":false,"line":11,"i_long":106.855437,"transit":false,"distance":973,"station_name":"Kramat","i_lat":-6.193792,"time":1,"station_id":"KMT"},{"transit":false,"distance":1829,"time":2,"station_id":"POK","i_lat":-6.209188,"is_transit":false,"i_long":106.861737,"station_name":"Pondok Jati","line":11},{"is_transit":true,"i_lat":-6.215091,"i_long":106.86807400000001,"station_name":"Jatinegara","transit":true,"distance":1236,"line":1,"station_id":"JNG","time":9},{"station_name":"Matraman","i_lat":-6.212485,"station_id":"MTR","time":2,"i_long":106.858896,"is_transit":false,"distance":1377,"line":1,"transit":false},{"line":2,"transit":true,"station_name":"Manggarai","is_transit":true,"time":2,"i_lat":-6.209883,"i_long":106.84912,"station_id":"MRI","distance":1275},{"is_transit":false,"transit":false,"time":4,"i_long":106.857948,"i_lat":-6.226659,"distance":2610,"line":2,"station_id":"TEB","station_name":"Tebet"},{"line":2,"transit":false,"distance":1230,"station_name":"Cawang","time":2,"i_lat":-6.242512,"i_long":106.856607,"station_id":"CW","is_transit":false}],[{"i_long":106.84368,"line":11,"time":0,"transit":false,"station_id":"PSE","is_transit":false,"distance":0,"station_name":"Pasar Senen","i_lat":-6.174784},{"transit":false,"is_transit":false,"line":11,"station_id":"KMO","station_name":"Kemayoran","i_lat":-6.161728,"time":4,"distance":1436,"i_long":106.839204},{"station_name":"Rajawali","distance":1901,"i_long":106.836569,"line":11,"time":5,"i_lat":-6.14505,"transit":false,"station_id":"RJW","is_transit":false},{"line":4,"station_name":"Kampung Bandan","i_lat":-6.132549,"is_transit":true,"i_long":106.826365,"station_id":"KPB","time":3,"distance":1444,"transit":true},{"station_id":"AK","line":1,"transit":false,"is_transit":false,"time":9,"station_name":"Angke","i_lat":-6.144674,"distance":4102,"i_long":106.79867},{"time":4,"transit":false,"is_transit":false,"station_id":"DU","distance":1230,"i_lat":-6.155215,"line":1,"i_long":106.800832,"station_name":"Duri"},{"station_name":"Tanah Abang","i_lat":-6.185545,"line":1,"i_long":106.811091,"transit":false,"is_transit":false,"time":8,"distance":3632,"station_id":"THB"},{"distance":2029,"time":5,"i_long":106.816351,"is_transit":false,"i_lat":-6.20132,"transit":false,"line":1,"station_id":"KAT","station_name":"Karet"},{"line":1,"station_id":"SUDB","transit":false,"is_transit":false,"i_long":106.819881,"distance":471,"i_lat":-6.201433,"station_name":"Sudirman Baru","time":1},{"time":1,"is_transit":false,"i_lat":-6.202263,"i_long":106.822649,"line":1,"station_name":"Sudirman","transit":false,"station_id":"SUD","distance":280},{"i_long":106.84912,"is_transit":true,"transit":true,"station_name":"Manggarai","line":2,"distance":3186,"time":4,"i_lat":-6.209883,"station_id":"MRI"},{"line":2,"is_transit":false,"station_name":"Tebet","i_long":106.857948,"station_id":"TEB","transit":false,"distance":2610,"i_lat":-6.226659,"time":4},{"transit":false,"station_id":"CW","time":2,"distance":1230,"is_transit":false,"station_name":"Cawang","i_lat":-6.242512,"i_long":106.856607,"line":2}],[{"station_id":"PSE","station_name":"Pasar Senen","transit":false,"distance":0,"time":0,"is_transit":false,"line":11,"i_lat":-6.174784,"i_long":106.84368},{"distance":1436,"line":11,"i_long":106.839204,"is_transit":false,"station_name":"Kemayoran","i_lat":-6.161728,"time":4,"transit":false,"station_id":"KMO"},{"distance":1901,"station_name":"Rajawali","time":5,"is_transit":false,"station_id":"RJW","line":11,"i_long":106.836569,"transit":false,"i_lat":-6.14505},{"is_transit":true,"time":3,"station_id":"KPB","transit":true,"i_lat":-6.132549,"distance":1444,"i_long":106.826365,"station_name":"Kampung Bandan","line":4},{"is_transit":true,"station_id":"JAKK","i_lat":-6.137569,"time":3,"transit":true,"line":2,"station_name":"Jakarta Kota","i_long":106.812439,"distance":1364},{"i_lat":-6.141205,"station_name":"Jayakarta","time":4,"station_id":"JAY","distance":1264,"is_transit":false,"transit":false,"i_long":106.820901,"line":2},{"i_lat":-6.149769,"station_id":"MGB","transit":false,"is_transit":false,"time":2,"distance":1080,"station_name":"Manggabesar","i_long":106.82482,"line":2},{"time":2,"i_long":106.827103,"i_lat":-6.160725,"is_transit":false,"station_name":"Sawah Besar","line":2,"station_id":"SW","transit":false,"distance":906},{"time":2,"station_name":"Juanda","station_id":"JUA","is_transit":false,"i_lat":-6.166716,"line":2,"distance":1149,"transit":false,"i_long":106.828284},{"i_lat":-6.186295,"transit":false,"line":2,"time":4,"i_long":106.832183,"is_transit":false,"distance":2015,"station_name":"Gondangdia","station_id":"GDD"},{"i_long":106.840169,"transit":false,"is_transit":false,"station_id":"CKI","distance":1750,"line":2,"time":3,"i_lat":-6.198556,"station_name":"Cikini"},{"line":2,"time":4,"station_id":"MRI","is_transit":false,"i_long":106.84912,"transit":false,"i_lat":-6.209883,"station_name":"Manggarai","distance":1590},{"station_id":"TEB","time":4,"line":2,"is_transit":false,"i_long":106.857948,"transit":false,"i_lat":-6.226659,"distance":2610,"station_name":"Tebet"},{"station_id":"CW","i_long":106.856607,"distance":1230,"transit":false,"time":2,"is_transit":false,"line":2,"i_lat":-6.242512,"station_name":"Cawang"}]]}