{"data":[[{"i_long":106.84368,"is_transit":false,"distance":0,"station_name":"Pasar Senen","time":0,"i_lat":-6.174784,"line":11,"station_id":"PSE","transit":false},{"time":4,"i_lat":-6.161728,"i_long":106.839204,"transit":false,"line":11,"is_transit":false,"distance":1436,"station_id":"KMO","station_name":"Kemayoran"},{"i_long":106.836569,"line":11,"station_name":"Rajawali","i_lat":-6.14505,"time":5,"is_transit":false,"transit":false,"distance":1901,"station_id":"RJW"},{"is_transit":true,"station_name":"Kampung Bandan","transit":true,"i_long":106.826365,"line":0,"time":3,"distance":1444,"station_id":"KPB","i_lat":-6.132549},{"distance":4102,"i_long":106.79867,"is_transit":false,"i_lat":-6.144674,"station_name":"Angke","time":9,"line":0,"station_id":"AK","transit":false},{"time":4,"distance":1230,"i_lat":-6.155215,"is_transit":true,"station_name":"Duri","station_id":"DU","transit":true,"i_long":106.800832,"line":1},{"line":1,"time":8,"i_long":106.811091,"station_name":"Tanah Abang","transit":false,"distance":3632,"station_id":"THB","is_transit":true,"i_lat":-6.185545},{"transit":false,"distance":2029,"is_transit":false,"time":5,"i_lat":-6.20132,"station_name":"Karet","i_long":106.816351,"line":1,"station_id":"KAT"}],[{"is_transit":false,"station_name":"Pasar Senen","transit":false,"distance":0,"station_id":"PSE","line":11,"i_long":106.84368,"i_lat":-6.174784,"time":0},{"is_transit":false,"station_id":"GST","i_long":106.850107,"distance":1567,"transit":false,"station_name":"Gang Sentiong","time":8,"i_lat":-6.185975,"line":11},{"i_lat":-6.193792,"station_id":"KMT","is_transit":false,"station_name":"Kramat","transit":false,"time":1,"i_long":106.855437,"line":11,"distance":973},{"line":11,"station_id":"POK","i_long":106.861737,"station_name":"Pondok Jati","time":2,"is_transit":false,"transit":false,"distance":1829,"i_lat":-6.209188},{"station_id":"JNG","line":0,"station_name":"Jatinegara","i_lat":-6.215091,"distance":1236,"time":9,"transit":true,"i_long":106.86807400000001,"is_transit":true},{"station_name":"Matraman","distance":1377,"time":2,"i_lat":-6.212485,"i_long":106.858896,"is_transit":false,"transit":false,"line":1,"station_id":"MTR"},{"line":0,"transit":false,"distance":1275,"station_id":"MRI","is_transit":true,"i_lat":-6.209883,"station_name":"Manggarai","time":2,"i_long":106.84912},{"time":4,"i_lat":-6.202263,"transit":false,"is_transit":false,"distance":3186,"line":1,"station_name":"Sudirman","i_long":106.822649,"station_id":"SUD"},{"i_long":106.819881,"is_transit":false,"station_id":"SUDB","distance":280,"station_name":"Sudirman Baru","i_lat":-6.201433,"line":1,"time":1,"transit":false},{"station_name":"Karet","distance":471,"is_transit":false,"station_id":"KAT","transit":false,"i_lat":-6.20132,"time":1,"i_long":106.816351,"line":1}],[{"transit":false,"is_transit":false,"i_long":106.84368,"time":0,"station_name":"Pasar Senen","station_id":"PSE","line":11,"distance":0,"i_lat":-6.174784},{"station_name":"Kemayoran","is_transit":false,"station_id":"KMO","line":11,"i_long":106.839204,"time":4,"transit":false,"distance":1436,"i_lat":-6.161728},{"transit":false,"line":11,"time":5,"distance":1901,"station_id":"RJW","station_name":"Rajawali","i_lat":-6.14505,"is_transit":false,"i_long":106.836569},{"line":0,"distance":1444,"station_id":"KPB","transit":true,"time":3,"station_name":"Kampung Bandan","is_transit":true,"i_long":106.826365,"i_lat":-6.132549},{"i_lat":-6.137569,"distance":1364,"station_id":"JAKK","station_name":"Jakarta Kota","is_transit":true,"transit":true,"line":0,"time":3,"i_long":106.812439},{"is_transit":false,"time":4,"station_id":"JAY","transit":false,"distance":1264,"i_lat":-6.141205,"i_long":106.820901,"line":7,"station_name":"Jayakarta"},{"distance":1080,"line":2,"time":2,"is_transit":false,"i_lat":-6.149769,"station_name":"Manggabesar","transit":false,"i_long":106.82482,"station_id":"MGB"},{"station_id":"SW","line":2,"station_name":"Sawah Besar","distance":906,"transit":false,"time":2,"i_lat":-6.160725,"i_long":106.827103,"is_transit":false},{"transit":false,"distance":1149,"station_name":"Juanda","time":2,"line":2,"is_transit":false,"station_id":"JUA","i_lat":-6.166716,"i_long":106.828284},{"line":2,"is_transit":false,"i_lat":-6.186295,"station_id":"GDD","time":4,"transit":false,"distance":2015,"i_long":106.832183,"station_name":"Gondangdia"},{"i_lat":-6.198556,"line":0,"distance":1750,"i_long":106.840169,"is_transit":false,"transit":false,"station_name":"Cikini","station_id":"CKI","time":3},{"i_lat":-6.209883,"transit":true,"distance":1590,"time":4,"is_transit":true,"i_long":106.84912,"line":0,"station_id":"MRI","station_name":"Manggarai"},{"line":1,"i_lat":-6.202263,"station_name":"Sudirman","i_long":106.822649,"is_transit":false,"distance":3186,"transit":false,"station_id":"SUD","time":4},{"station_name":"Sudirman Baru","i_long":106.819881,"distance":280,"transit":false,"time":1,"line":1,"station_id":"SUDB","is_transit":false,"i_lat":-6.201433},{"is_transit":false,"time":1,"i_lat":-6.20132,"i_long":106.816351,"distance":471,"line":1,"station_name":"Karet","station_id":"KAT","transit":false}],[{"station_name":"Pasar Senen","time":0,"i_long":106.84368,"line":11,"station_id":"PSE","i_lat":-6.174784,"transit":false,"distance":0,"is_transit":false},{"transit":false,"distance":1567,"time":8,"i_lat":-6.185975,"station_name":"Gang Sentiong","line":11,"i_long":106.850107,"is_transit":false,"station_id":"GST"},{"line":11,"transit":false,"time":1,"station_name":"Kramat","station_id":"KMT","is_transit":false,"distance":973,"i_long":106.855437,"i_lat":-6.193792},{"transit":false,"time":2,"i_long":106.861737,"distance":1829,"i_lat":-6.209188,"is_transit":false,"line":11,"station_name":"Pondok Jati","station_id":"POK"},{"time":9,"distance":1236,"is_transit":true,"transit":true,"i_long":106.86807400000001,"station_id":"JNG","station_name":"Jatinegara","i_lat":-6.215091,"line":0},{"station_id":"MTR","transit":false,"distance":1377,"is_transit":false,"i_lat":-6.212485,"line":1,"station_name":"Matraman","time":2,"i_long":106.858896},{"time":2,"line":0,"station_id":"MRI","station_name":"Manggarai","is_transit":true,"distance":1275,"i_lat":-6.209883,"transit":true,"i_long":106.84912},{"station_name":"Cikini","is_transit":false,"time":4,"line":0,"distance":1590,"transit":false,"i_long":106.840169,"i_lat":-6.198556,"station_id":"CKI"},{"i_lat":-6.186295,"transit":false,"time":3,"i_long":106.832183,"is_transit":false,"distance":1750,"line":2,"station_id":"GDD","station_name":"Gondangdia"},{"i_long":106.828284,"transit":false,"distance":2015,"time":4,"station_name":"Juanda","i_lat":-6.166716,"station_id":"JUA","line":2,"is_transit":false},{"i_lat":-6.160725,"station_id":"SW","line":2,"transit":false,"i_long":106.827103,"distance":1149,"is_transit":false,"time":2,"station_name":"Sawah Besar"},{"station_name":"Manggabesar","transit":false,"station_id":"MGB","time":2,"distance":906,"is_transit":false,"i_lat":-6.149769,"i_long":106.82482,"line":2},{"line":7,"is_transit":false,"distance":1080,"station_id":"JAY","i_lat":-6.141205,"time":2,"station_name":"Jayakarta","transit":false,"i_long":106.820901},{"transit":true,"time":4,"distance":1264,"station_id":"JAKK","i_lat":-6.137569,"i_long":106.812439,"station_name":"Jakarta Kota","is_transit":true,"line":0},{"transit":false,"station_name":"Kampung Bandan","i_lat":-6.132549,"time":3,"station_id":"KPB","line":0,"distance":1364,"is_transit":true,"i_long":106.826365},{"line":0,"station_id":"AK","i_long":106.79867,"distance":4102,"station_name":"Angke","is_transit":false,"transit":false,"time":9,"i_lat":-6.144674},{"distance":1230,"station_id":"DU","is_transit":true,"transit":true,"i_lat":-6.155215,"station_name":"Duri","line":1,"time":4,"i_long":106.800832},{"station_id":"THB","transit":false,"is_transit":true,"station_name":"Tanah Abang","time":8,"i_long":106.811091,"line":1,"distance":3632,"i_lat":-6.185545},{"time":5,"line":1,"station_id":"KAT","distance":2029,"station_name":"Karet","transit":false,"is_transit":false,"i_lat":-6.20132,"i_long":106.816351}]]}