{"data":[[{"transit":false,"time":0,"distance":0,"i_lat":-6.174784,"i_long":106.84368,"station_id":"PSE","is_transit":false,"station_name":"Pasar Senen","line":11},{"i_lat":-6.185975,"transit":false,"station_id":"GST","is_transit":false,"station_name":"Gang Sentiong","line":11,"time":8,"distance":1567,"i_long":106.850107},{"is_transit":false,"i_lat":-6.193792,"time":1,"i_long":106.855437,"line":11,"transit":false,"distance":973,"station_name":"Kramat","station_id":"KMT"},{"line":11,"distance":1829,"i_long":106.861737,"is_transit":false,"transit":false,"station_name":"Pondok Jati","station_id":"POK","time":2,"i_lat":-6.209188},{"line":1,"is_transit":true,"i_long":106.86807400000001,"time":9,"station_name":"Jatinegara","transit":true,"distance":1236,"station_id":"JNG","i_lat":-6.215091},{"is_transit":false,"distance":3395,"transit":false,"station_name":"Klender","i_lat":-6.2135,"station_id":"KLD","line":1,"i_long":106.899548,"time":3},{"line":1,"station_id":"BUA","time":2,"i_lat":-6.215568,"transit":false,"station_name":"Buaran","is_transit":false,"distance":3100,"i_long":106.922662}],[{"line":11,"time":0,"i_lat":-6.174784,"i_long":106.84368,"is_transit":false,"station_id":"PSE","transit":false,"distance":0,"station_name":"Pasar Senen"},{"station_id":"KMO","time":4,"line":11,"transit":false,"is_transit":false,"distance":1436,"i_long":106.839204,"i_lat":-6.161728,"station_name":"Kemayoran"},{"transit":false,"i_lat":-6.14505,"distance":1901,"station_id":"RJW","is_transit":false,"i_long":106.836569,"line":11,"time":5,"station_name":"Rajawali"},{"distance":1444,"i_long":106.826365,"line":4,"station_name":"Kampung Bandan","time":3,"i_lat":-6.132549,"station_id":"KPB","transit":true,"is_transit":true},{"i_lat":-6.144674,"line":1,"station_name":"Angke","is_transit":false,"time":9,"transit":false,"distance":4102,"i_long":106.79867,"station_id":"AK"},{"i_long":106.800832,"line":1,"station_name":"Duri","i_lat":-6.155215,"station_id":"DU","transit":false,"is_transit":false,"time":4,"distance":1230},{"line":1,"i_long":106.811091,"i_lat":-6.185545,"distance":3632,"station_name":"Tanah Abang","time":8,"is_transit":false,"station_id":"THB","transit":false},{"line":1,"is_transit":false,"distance":2029,"i_long":106.816351,"transit":false,"station_id":"KAT","station_name":"Karet","i_lat":-6.20132,"time":5},{"station_id":"SUDB","line":1,"i_long":106.819881,"station_name":"Sudirman Baru","transit":false,"is_transit":false,"distance":471,"time":1,"i_lat":-6.201433},{"distance":280,"i_lat":-6.202263,"i_long":106.822649,"station_id":"SUD","transit":false,"line":1,"is_transit":false,"time":1,"station_name":"Sudirman"},{"is_transit":false,"i_long":106.84912,"transit":false,"line":2,"station_name":"Manggarai","station_id":"MRI","i_lat":-6.209883,"distance":3186,"time":4},{"station_id":"MTR","transit":false,"distance":1275,"line":1,"i_lat":-6.212485,"station_name":"Matraman","time":2,"is_transit":false,"i_long":106.858896},{"i_long":106.86807400000001,"i_lat":-6.215091,"is_transit":false,"distance":1377,"line":1,"station_id":"JNG","transit":false,"station_name":"Jatinegara","time":8},{"i_lat":-6.2135,"time":3,"i_long":106.899548,"station_id":"KLD","transit":false,"line":1,"station_name":"Klender","is_transit":false,"distance":3395},{"time":2,"is_transit":false,"transit":false,"distance":3100,"station_name":"Buaran","station_id":"BUA","line":1,"i_long":106.922662,"i_lat":-6.215568}],[{"station_name":"Pasar Senen","i_lat":-6.174784,"line":11,"distance":0,"station_id":"PSE","transit":false,"is_transit":false,"time":0,"i_long":106.84368},{"is_transit":false,"i_lat":-6.161728,"i_long":106.839204,"transit":false,"line":11,"time":4,"distance":1436,"station_name":"Kemayoran","station_id":"KMO"},{"transit":false,"time":5,"i_long":106.836569,"distance":1901,"station_name":"Rajawali","is_transit":false,"line":11,"station_id":"RJW","i_lat":-6.14505},{"is_transit":true,"station_id":"KPB","i_lat":-6.132549,"transit":true,"station_name":"Kampung Bandan","distance":1444,"time":3,"i_long":106.826365,"line":4},{"distance":1364,"i_lat":-6.137569,"transit":true,"is_transit":true,"station_name":"Jakarta Kota","line":2,"i_long":106.812439,"station_id":"JAKK","time":3},{"station_id":"JAY","i_lat":-6.141205,"line":2,"is_transit":false,"time":4,"station_name":"Jayakarta","transit":false,"i_long":106.820901,"distance":1264},{"station_id":"MGB","is_transit":false,"i_lat":-6.149769,"line":2,"time":2,"i_long":106.82482,"distance":1080,"station_name":"Manggabesar","transit":false},{"line":2,"i_long":106.827103,"i_lat":-6.160725,"time":2,"is_transit":false,"transit":false,"station_name":"Sawah Besar","station_id":"SW","distance":906},{"distance":1149,"time":2,"i_lat":-6.166716,"transit":false,"is_transit":false,"line":2,"station_name":"Juanda","station_id":"JUA","i_long":106.828284},{"is_transit":false,"line":2,"transit":false,"station_name":"Gondangdia","i_long":106.832183,"time":4,"i_lat":-6.186295,"station_id":"GDD","distance":2015},{"is_transit":false,"station_name":"Cikini","station_id":"CKI","line":2,"i_lat":-6.198556,"transit":false,"time":3,"distance":1750,"i_long":106.840169},{"time":4,"station_name":"Manggarai","is_transit":true,"distance":1590,"station_id":"MRI","i_long":106.84912,"line":2,"i_lat":-6.209883,"transit":true},{"is_transit":false,"i_long":106.858896,"line":1,"transit":false,"distance":1275,"station_name":"Matraman","station_id":"MTR","time":2,"i_lat":-6.212485},{"i_lat":-6.215091,"line":1,"distance":1377,"is_transit":false,"time":8,"station_name":"Jatinegara","station_id":"JNG","i_long":106.86807400000001,"transit":false},{"i_lat":-6.2135,"is_transit":false,"transit":false,"time":3,"station_name":"Klender","i_long":106.899548,"distance":3395,"line":1,"station_id":"KLD"},{"station_name":"Buaran","station_id":"BUA","i_lat":-6.215568,"line":1,"transit":false,"is_transit":false,"i_long":106.922662,"distance":3100,"time":2}]]}