{"data":[[{"i_lat":-6.174784,"distance":0,"i_long":106.84368,"transit":false,"line":11,"time":0,"station_id":"PSE","is_transit":false,"station_name":"Pasar Senen"},{"time":8,"is_transit":false,"station_name":"Gang Sentiong","transit":false,"line":11,"station_id":"GST","i_lat":-6.185975,"distance":1567,"i_long":106.850107},{"i_lat":-6.193792,"i_long":106.855437,"transit":false,"line":11,"is_transit":false,"station_name":"Kramat","time":1,"station_id":"KMT","distance":973},{"station_id":"POK","i_lat":-6.209188,"time":2,"line":11,"is_transit":false,"distance":1829,"transit":false,"station_name":"Pondok Jati","i_long":106.861737},{"is_transit":true,"station_id":"JNG","distance":1236,"station_name":"Jatinegara","time":9,"i_lat":-6.215091,"i_long":106.86807400000001,"line":1,"transit":true},{"transit":false,"distance":1377,"line":1,"station_name":"Matraman","is_transit":false,"i_long":106.858896,"i_lat":-6.212485,"time":2,"station_id":"MTR"},{"time":2,"line":2,"distance":1275,"station_id":"MRI","station_name":"Manggarai","transit":true,"is_transit":true,"i_long":106.84912,"i_lat":-6.209883},{"i_long":106.857948,"is_transit":false,"transit":false,"station_id":"TEB","distance":2610,"line":2,"time":4,"i_lat":-6.226659,"station_name":"Tebet"},{"line":2,"time":2,"station_id":"CW","is_transit":false,"i_long":106.856607,"transit":false,"i_lat":-6.242512,"station_name":"Cawang","distance":1230},{"station_id":"DRN","time":3,"line":2,"is_transit":false,"i_long":106.85449,"transit":false,"i_lat":-6.255332,"distance":1546,"station_name":"Duren Kalibata"},{"station_id":"PSMB","i_long":106.851577,"distance":824,"transit":false,"time":2,"is_transit":false,"line":2,"i_lat":-6.263214,"station_name":"Pasar Minggu Baru"},{"line":2,"is_transit":false,"distance":2380,"transit":false,"i_long":106.843999,"i_lat":-6.2842400000000005,"station_name":"Pasar Minggu","time":2,"station_id":"PSM"},{"distance":2820,"line":2,"time":4,"transit":false,"is_transit":false,"i_long":106.838896,"station_name":"Tanjung Barat","i_lat":-6.3080680000000005,"station_id":"TNT"},{"time":3,"station_name":"Lenteng Agung","i_lat":-6.330363,"distance":2671,"transit":false,"line":2,"is_transit":false,"station_id":"LNA","i_long":106.832616},{"time":2,"transit":false,"is_transit":false,"i_lat":-6.339291,"station_name":"Univ. Pancasila","distance":1029,"i_long":106.834175,"line":2,"station_id":"UP"},{"station_id":"UI","is_transit":false,"i_long":106.831474,"distance":2264,"line":2,"i_lat":-6.360749,"station_name":"Univ. Indonesia","transit":false,"time":3},{"is_transit":false,"line":2,"distance":1109,"i_lat":-6.369073,"time":2,"station_name":"Pondok Cina","i_long":106.831114,"station_id":"POC","transit":false},{"transit":false,"station_id":"DPB","time":4,"distance":2727,"line":2,"is_transit":false,"i_lat":-6.391065,"i_long":106.819451,"station_name":"Depokbaru"},{"station_name":"Depok","is_transit":false,"line":2,"distance":1584,"i_long":106.816926,"transit":false,"i_lat":-6.405256,"time":3,"station_id":"DP"},{"station_name":"Citayam","distance":5084,"i_lat":-6.448811,"time":6,"line":2,"transit":true,"station_id":"CTA","is_transit":true,"i_long":106.800298},{"station_name":"Pondok Rajeg","distance":0,"i_long":106.824374,"time":0,"transit":false,"station_id":"PDRG","is_transit":false,"line":21,"i_lat":-6.460735},{"distance":0,"is_transit":false,"transit":false,"i_lat":-6.46424,"station_id":"CBN","i_long":106.851978,"line":21,"station_name":"Cibinong","time":0},{"i_lat":-6.466285,"time":10,"station_id":"NMO","i_long":106.905196,"is_transit":false,"line":21,"transit":false,"distance":6527,"station_name":"Nambo"}],[{"line":11,"time":0,"is_transit":false,"station_name":"Pasar Senen","transit":false,"station_id":"PSE","distance":0,"i_lat":-6.174784,"i_long":106.84368},{"time":4,"is_transit":false,"line":11,"station_id":"KMO","transit":false,"distance":1436,"i_long":106.839204,"i_lat":-6.161728,"station_name":"Kemayoran"},{"line":11,"distance":1901,"transit":false,"station_name":"Rajawali","station_id":"RJW","i_long":106.836569,"is_transit":false,"time":5,"i_lat":-6.14505},{"transit":true,"distance":1444,"station_name":"Kampung Bandan","i_long":106.826365,"is_transit":true,"time":3,"station_id":"KPB","i_lat":-6.132549,"line":4},{"line":1,"is_transit":false,"i_lat":-6.144674,"time":9,"station_name":"Angke","transit":false,"distance":4102,"station_id":"AK","i_long":106.79867},{"time":4,"station_id":"DU","distance":1230,"i_long":106.800832,"line":1,"station_name":"Duri","transit":false,"i_lat":-6.155215,"is_transit":false},{"transit":false,"station_name":"Tanah Abang","time":8,"is_transit":false,"i_lat":-6.185545,"distance":3632,"i_long":106.811091,"station_id":"THB","line":1},{"i_lat":-6.20132,"transit":false,"line":1,"is_transit":false,"distance":2029,"i_long":106.816351,"station_name":"Karet","station_id":"KAT","time":5},{"station_id":"SUDB","is_transit":false,"transit":false,"i_lat":-6.201433,"time":1,"i_long":106.819881,"line":1,"station_name":"Sudirman Baru","distance":471},{"station_name":"Sudirman","time":1,"distance":280,"i_lat":-6.202263,"line":1,"transit":false,"is_transit":false,"i_long":106.822649,"station_id":"SUD"},{"station_name":"Manggarai","line":2,"transit":true,"i_lat":-6.209883,"is_transit":true,"time":4,"i_long":106.84912,"distance":3186,"station_id":"MRI"},{"i_long":106.857948,"time":4,"transit":false,"is_transit":false,"line":2,"distance":2610,"station_name":"Tebet","i_lat":-6.226659,"station_id":"TEB"},{"line":2,"time":2,"station_id":"CW","i_long":106.856607,"transit":false,"distance":1230,"i_lat":-6.242512,"is_transit":false,"station_name":"Cawang"},{"transit":false,"distance":1546,"is_transit":false,"i_lat":-6.255332,"time":3,"station_name":"Duren Kalibata","station_id":"DRN","i_long":106.85449,"line":2},{"transit":false,"distance":824,"is_transit":false,"i_lat":-6.263214,"station_name":"Pasar Minggu Baru","time":2,"i_long":106.851577,"line":2,"station_id":"PSMB"},{"i_long":106.843999,"is_transit":false,"transit":false,"time":2,"station_name":"Pasar Minggu","distance":2380,"i_lat":-6.2842400000000005,"station_id":"PSM","line":2},{"i_long":106.838896,"distance":2820,"time":4,"i_lat":-6.3080680000000005,"station_name":"Tanjung Barat","is_transit":false,"line":2,"transit":false,"station_id":"TNT"},{"transit":false,"i_lat":-6.330363,"line":2,"station_id":"LNA","distance":2671,"is_transit":false,"i_long":106.832616,"time":3,"station_name":"Lenteng Agung"},{"is_transit":false,"distance":1029,"i_long":106.834175,"time":2,"station_name":"Univ. Pancasila","transit":false,"i_lat":-6.339291,"line":2,"station_id":"UP"},{"station_name":"Univ. Indonesia","i_lat":-6.360749,"station_id":"UI","time":3,"is_transit":false,"transit":false,"line":2,"i_long":106.831474,"distance":2264},{"distance":1109,"i_lat":-6.369073,"time":2,"station_name":"Pondok Cina","is_transit":false,"transit":false,"i_long":106.831114,"station_id":"POC","line":2},{"transit":false,"i_long":106.819451,"time":4,"station_id":"DPB","is_transit":false,"distance":2727,"i_lat":-6.391065,"line":2,"station_name":"Depokbaru"},{"line":2,"i_lat":-6.405256,"transit":false,"station_name":"Depok","time":3,"is_transit":false,"i_long":106.816926,"station_id":"DP","distance":1584},{"transit":true,"is_transit":true,"distance":5084,"i_lat":-6.448811,"i_long":106.800298,"time":6,"station_id":"CTA","line":2,"station_name":"Citayam"},{"i_long":106.824374,"distance":0,"is_transit":false,"i_lat":-6.460735,"transit":false,"line":21,"station_id":"PDRG","station_name":"Pondok Rajeg","time":0},{"station_name":"Cibinong","i_long":106.851978,"transit":false,"i_lat":-6.46424,"line":21,"distance":0,"station_id":"CBN","is_transit":false,"time":0},{"i_lat":-6.466285,"transit":false,"is_transit":false,"distance":6527,"line":21,"time":10,"station_id":"NMO","station_name":"Nambo","i_long":106.905196}],[{"station_name":"Pasar Senen","is_transit":false,"line":11,"distance":0,"time":0,"transit":false,"i_lat":-6.174784,"station_id":"PSE","i_long":106.84368},{"transit":false,"time":4,"station_name":"Kemayoran","distance":1436,"i_lat":-6.161728,"is_transit":false,"i_long":106.839204,"line":11,"station_id":"KMO"},{"station_id":"RJW","time":5,"station_name":"Rajawali","transit":false,"is_transit":false,"i_lat":-6.14505,"i_long":106.836569,"line":11,"distance":1901},{"time":3,"station_id":"KPB","line":4,"is_transit":true,"distance":1444,"i_lat":-6.132549,"i_long":106.826365,"station_name":"Kampung Bandan","transit":true},{"station_id":"JAKK","is_transit":true,"line":2,"i_lat":-6.137569,"i_long":106.812439,"distance":1364,"station_name":"Jakarta Kota","time":3,"transit":true},{"time":4,"is_transit":false,"station_name":"Jayakarta","distance":1264,"i_lat":-6.141205,"station_id":"JAY","i_long":106.820901,"line":2,"transit":false},{"transit":false,"station_id":"MGB","station_name":"Manggabesar","i_long":106.82482,"distance":1080,"time":2,"line":2,"i_lat":-6.149769,"is_transit":false},{"station_id":"SW","time":2,"transit":false,"distance":906,"i_long":106.827103,"is_transit":false,"line":2,"station_name":"Sawah Besar","i_lat":-6.160725},{"station_name":"Juanda","is_transit":false,"distance":1149,"transit":false,"time":2,"i_lat":-6.166716,"station_id":"JUA","i_long":106.828284,"line":2},{"i_lat":-6.186295,"distance":2015,"transit":false,"i_long":106.832183,"station_name":"Gondangdia","time":4,"line":2,"station_id":"GDD","is_transit":false},{"time":3,"station_name":"Cikini","station_id":"CKI","transit":false,"line":2,"distance":1750,"i_lat":-6.198556,"i_long":106.840169,"is_transit":false},{"i_long":106.84912,"time":4,"line":2,"distance":1590,"is_transit":false,"i_lat":-6.209883,"station_name":"Manggarai","station_id":"MRI","transit":false},{"time":4,"distance":2610,"i_lat":-6.226659,"station_id":"TEB","is_transit":false,"station_name":"Tebet","transit":false,"i_long":106.857948,"line":2},{"time":2,"station_name":"Cawang","station_id":"CW","i_lat":-6.242512,"is_transit":false,"transit":false,"i_long":106.856607,"line":2,"distance":1230},{"transit":false,"is_transit":false,"i_lat":-6.255332,"station_id":"DRN","station_name":"Duren Kalibata","distance":1546,"i_long":106.85449,"time":3,"line":2},{"transit":false,"station_id":"PSMB","is_transit":false,"i_long":106.851577,"distance":824,"station_name":"Pasar Minggu Baru","i_lat":-6.263214,"line":2,"time":2},{"i_lat":-6.2842400000000005,"station_id":"PSM","station_name":"Pasar Minggu","i_long":106.843999,"is_transit":false,"transit":false,"distance":2380,"time":2,"line":2},{"distance":2820,"line":2,"time":4,"station_name":"Tanjung Barat","station_id":"TNT","transit":false,"i_lat":-6.3080680000000005,"i_long":106.838896,"is_transit":false},{"time":3,"station_id":"LNA","i_lat":-6.330363,"i_long":106.832616,"line":2,"is_transit":false,"distance":2671,"transit":false,"station_name":"Lenteng Agung"},{"station_name":"Univ. Pancasila","transit":false,"station_id":"UP","is_transit":false,"distance":1029,"i_lat":-6.339291,"line":2,"i_long":106.834175,"time":2},{"station_name":"Univ. Indonesia","distance":2264,"i_lat":-6.360749,"station_id":"UI","transit":false,"time":3,"i_long":106.831474,"line":2,"is_transit":false},{"is_transit":false,"time":2,"station_id":"POC","i_lat":-6.369073,"distance":1109,"transit":false,"i_long":106.831114,"station_name":"Pondok Cina","line":2},{"station_name":"Depokbaru","distance":2727,"is_transit":false,"station_id":"DPB","i_lat":-6.391065,"i_long":106.819451,"time":4,"transit":false,"line":2},{"transit":false,"station_name":"Depok","station_id":"DP","i_long":106.816926,"time":3,"is_transit":false,"distance":1584,"i_lat":-6.405256,"line":2},{"station_name":"Citayam","i_lat":-6.448811,"station_id":"CTA","line":2,"transit":true,"is_transit":true,"time":6,"i_long":106.800298,"distance":5084},{"i_lat":-6.460735,"line":21,"i_long":106.824374,"station_id":"PDRG","station_name":"Pondok Rajeg","distance":0,"time":0,"transit":false,"is_transit":false},{"is_transit":false,"station_name":"Cibinong","transit":false,"time":0,"distance":0,"i_lat":-6.46424,"i_long":106.851978,"line":21,"station_id":"CBN"},{"line":21,"station_name":"Nambo","i_lat":-6.466285,"station_id":"NMO","transit":false,"time":10,"i_long":106.905196,"distance":6527,"is_transit":false}]]}