{"data":[[{"i_long":106.84368,"is_transit":false,"time":0,"distance":0,"i_lat":-6.174784,"line":11,"station_name":"Pasar Senen","station_id":"PSE","transit":false},{"station_id":"GST","i_lat":-6.185975,"is_transit":false,"line":11,"transit":false,"station_name":"Gang Sentiong","time":8,"distance":1567,"i_long":106.850107},{"station_id":"KMT","transit":false,"i_long":106.855437,"is_transit":false,"i_lat":-6.193792,"distance":973,"time":1,"station_name":"Kramat","line":11},{"i_lat":-6.209188,"is_transit":false,"station_id":"POK","time":2,"distance":1829,"i_long":106.861737,"line":11,"station_name":"Pondok Jati","transit":false},{"i_lat":-6.215091,"line":0,"station_id":"JNG","station_name":"Jatinegara","is_transit":true,"i_long":106.86807400000001,"transit":true,"time":9,"distance":1236},{"distance":3395,"time":3,"i_lat":-6.2135,"i_long":106.899548,"station_id":"KLD","line":1,"station_name":"Klender","transit":false,"is_transit":false},{"line":0,"station_name":"Buaran","station_id":"BUA","distance":3100,"transit":false,"time":2,"is_transit":false,"i_long":106.922662,"i_lat":-6.215568},{"transit":false,"i_lat":-6.217455,"line":1,"station_id":"KLDB","is_transit":false,"time":1,"station_name":"Klenderbaru","distance":1305,"i_long":106.939679},{"is_transit":false,"i_lat":-6.219053,"station_id":"CUK","distance":1385,"station_name":"Cakung","transit":false,"line":0,"i_long":106.951283,"time":8},{"time":3,"i_lat":-6.224515,"is_transit":false,"distance":3097,"i_long":106.977657,"station_name":"Kranji","line":1,"station_id":"KRI","transit":false},{"i_lat":-6.236616,"i_long":106.997013,"time":4,"transit":false,"is_transit":false,"station_name":"Bekasi","line":0,"station_id":"BKS","distance":2520},{"distance":2368,"i_lat":-6.248029,"is_transit":false,"station_name":"Bekasi Timur","station_id":"BKST","time":2,"transit":false,"i_long":107.016735,"line":0},{"station_name":"Tambun","is_transit":false,"distance":4460,"transit":false,"i_long":107.055722,"i_lat":-6.258864,"time":7,"line":1,"station_id":"TB"},{"transit":false,"i_lat":-6.261877,"station_id":"CIT","station_name":"Cibitung","distance":3420,"i_long":107.083084,"time":3,"line":0,"is_transit":false},{"line":1,"is_transit":false,"station_id":"TLM","station_name":"Metland Telaga Murni","time":2,"distance":2800,"i_lat":-6.262938,"transit":false,"i_long":107.093313},{"time":4,"distance":3689,"i_lat":-6.2553149999999995,"station_name":"Cikarang","transit":false,"station_id":"CKR","is_transit":false,"i_long":107.144613,"line":0}],[{"i_lat":-6.174784,"station_name":"Pasar Senen","time":0,"i_long":106.84368,"station_id":"PSE","transit":false,"is_transit":false,"line":11,"distance":0},{"is_transit":false,"distance":1436,"line":11,"i_lat":-6.161728,"station_name":"Kemayoran","time":4,"transit":false,"i_long":106.839204,"station_id":"KMO"},{"is_transit":false,"time":5,"distance":1901,"station_id":"RJW","i_lat":-6.14505,"i_long":106.836569,"station_name":"Rajawali","transit":false,"line":11},{"i_lat":-6.132549,"station_name":"Kampung Bandan","is_transit":true,"transit":true,"line":0,"time":3,"i_long":106.826365,"distance":1444,"station_id":"KPB"},{"distance":4102,"station_name":"Angke","station_id":"AK","time":9,"i_lat":-6.144674,"line":0,"transit":false,"i_long":106.79867,"is_transit":false},{"line":1,"time":4,"i_long":106.800832,"i_lat":-6.155215,"station_id":"DU","transit":true,"station_name":"Duri","is_transit":true,"distance":1230},{"time":8,"i_long":106.811091,"station_name":"Tanah Abang","transit":false,"is_transit":true,"distance":3632,"line":1,"i_lat":-6.185545,"station_id":"THB"},{"i_lat":-6.20132,"time":5,"station_name":"Karet","is_transit":false,"i_long":106.816351,"transit":false,"line":1,"distance":2029,"station_id":"KAT"},{"i_lat":-6.201433,"line":1,"i_long":106.819881,"transit":false,"station_id":"SUDB","is_transit":false,"station_name":"Sudirman Baru","time":1,"distance":471},{"distance":280,"station_id":"SUD","station_name":"Sudirman","time":1,"i_lat":-6.202263,"line":1,"transit":false,"is_transit":false,"i_long":106.822649},{"line":0,"i_long":106.84912,"is_transit":true,"distance":3186,"transit":false,"station_name":"Manggarai","station_id":"MRI","time":4,"i_lat":-6.209883},{"station_name":"Matraman","time":2,"line":1,"is_transit":false,"station_id":"MTR","i_long":106.858896,"i_lat":-6.212485,"transit":false,"distance":1275},{"station_name":"Jatinegara","i_long":106.86807400000001,"distance":1377,"transit":false,"i_lat":-6.215091,"line":0,"is_transit":true,"station_id":"JNG","time":8},{"i_lat":-6.2135,"station_name":"Klender","is_transit":false,"station_id":"KLD","transit":false,"distance":3395,"i_long":106.899548,"line":1,"time":3},{"time":2,"i_lat":-6.215568,"station_id":"BUA","station_name":"Buaran","distance":3100,"i_long":106.922662,"line":0,"is_transit":false,"transit":false},{"distance":1305,"i_long":106.939679,"is_transit":false,"transit":false,"i_lat":-6.217455,"line":1,"station_name":"Klenderbaru","time":1,"station_id":"KLDB"},{"station_id":"CUK","station_name":"Cakung","is_transit":false,"i_long":106.951283,"line":0,"transit":false,"i_lat":-6.219053,"distance":1385,"time":8},{"distance":3097,"i_long":106.977657,"line":1,"station_id":"KRI","station_name":"Kranji","time":3,"is_transit":false,"transit":false,"i_lat":-6.224515},{"time":4,"station_name":"Bekasi","station_id":"BKS","i_long":106.997013,"distance":2520,"is_transit":false,"transit":false,"line":0,"i_lat":-6.236616},{"station_name":"Bekasi Timur","time":2,"i_long":107.016735,"is_transit":false,"station_id":"BKST","line":0,"distance":2368,"i_lat":-6.248029,"transit":false},{"line":1,"i_lat":-6.258864,"time":7,"station_name":"Tambun","station_id":"TB","is_transit":false,"distance":4460,"transit":false,"i_long":107.055722},{"station_id":"CIT","station_name":"Cibitung","i_long":107.083084,"transit":false,"is_transit":false,"distance":3420,"i_lat":-6.261877,"line":0,"time":3},{"distance":2800,"transit":false,"i_lat":-6.262938,"time":2,"station_id":"TLM","is_transit":false,"i_long":107.093313,"station_name":"Metland Telaga Murni","line":1},{"is_transit":false,"i_long":107.144613,"line":0,"i_lat":-6.2553149999999995,"transit":false,"station_id":"CKR","distance":3689,"time":4,"station_name":"Cikarang"}],[{"station_name":"Pasar Senen","time":0,"i_long":106.84368,"distance":0,"line":11,"transit":false,"i_lat":-6.174784,"station_id":"PSE","is_transit":false},{"line":11,"station_name":"Kemayoran","i_long":106.839204,"is_transit":false,"distance":1436,"time":4,"station_id":"KMO","i_lat":-6.161728,"transit":false},{"station_name":"Rajawali","i_lat":-6.14505,"transit":false,"is_transit":false,"line":11,"time":5,"i_long":106.836569,"station_id":"RJW","distance":1901},{"station_id":"KPB","is_transit":true,"station_name":"Kampung Bandan","time":3,"distance":1444,"transit":true,"i_lat":-6.132549,"i_long":106.826365,"line":0},{"line":0,"station_id":"JAKK","time":3,"distance":1364,"transit":true,"is_transit":true,"i_lat":-6.137569,"i_long":106.812439,"station_name":"Jakarta Kota"},{"station_name":"Jayakarta","time":4,"is_transit":false,"distance":1264,"i_long":106.820901,"line":7,"station_id":"JAY","transit":false,"i_lat":-6.141205},{"distance":1080,"transit":false,"i_long":106.82482,"line":2,"time":2,"i_lat":-6.149769,"station_id":"MGB","is_transit":false,"station_name":"Manggabesar"},{"i_lat":-6.160725,"i_long":106.827103,"station_name":"Sawah Besar","is_transit":false,"line":2,"transit":false,"time":2,"distance":906,"station_id":"SW"},{"i_lat":-6.166716,"station_id":"JUA","station_name":"Juanda","transit":false,"i_long":106.828284,"line":2,"time":2,"is_transit":false,"distance":1149},{"is_transit":false,"station_id":"GDD","station_name":"Gondangdia","i_long":106.832183,"transit":false,"line":2,"i_lat":-6.186295,"distance":2015,"time":4},{"i_lat":-6.198556,"is_transit":false,"distance":1750,"i_long":106.840169,"station_name":"Cikini","line":0,"time":3,"transit":false,"station_id":"CKI"},{"is_transit":true,"line":0,"transit":true,"time":4,"station_name":"Manggarai","station_id":"MRI","distance":1590,"i_long":106.84912,"i_lat":-6.209883},{"station_id":"MTR","i_long":106.858896,"distance":1275,"is_transit":false,"i_lat":-6.212485,"line":1,"station_name":"Matraman","transit":false,"time":2},{"i_lat":-6.215091,"station_name":"Jatinegara","is_transit":true,"line":0,"i_long":106.86807400000001,"time":8,"station_id":"JNG","distance":1377,"transit":false},{"transit":false,"i_lat":-6.2135,"station_id":"KLD","line":1,"i_long":106.899548,"time":3,"station_name":"Klender","is_transit":false,"distance":3395},{"time":2,"distance":3100,"line":0,"i_long":106.922662,"station_id":"BUA","transit":false,"station_name":"Buaran","i_lat":-6.215568,"is_transit":false},{"time":1,"i_long":106.939679,"i_lat":-6.217455,"station_name":"Klenderbaru","station_id":"KLDB","is_transit":false,"line":1,"distance":1305,"transit":false},{"line":0,"distance":1385,"station_name":"Cakung","transit":false,"i_lat":-6.219053,"is_transit":false,"time":8,"i_long":106.951283,"station_id":"CUK"},{"transit":false,"distance":3097,"station_id":"KRI","is_transit":false,"i_long":106.977657,"station_name":"Kranji","line":1,"i_lat":-6.224515,"time":3},{"station_name":"Bekasi","i_lat":-6.236616,"i_long":106.997013,"distance":2520,"is_transit":false,"transit":false,"time":4,"line":0,"station_id":"BKS"},{"time":2,"transit":false,"i_long":107.016735,"station_id":"BKST","station_name":"Bekasi Timur","distance":2368,"is_transit":false,"i_lat":-6.248029,"line":0},{"station_name":"Tambun","is_transit":false,"transit":false,"time":7,"distance":4460,"i_long":107.055722,"line":1,"station_id":"TB","i_lat":-6.258864},{"time":3,"line":0,"distance":3420,"station_id":"CIT","station_name":"Cibitung","i_lat":-6.261877,"i_long":107.083084,"transit":false,"is_transit":false},{"transit":false,"i_long":107.093313,"distance":2800,"line":1,"station_id":"TLM","is_transit":false,"station_name":"Metland Telaga Murni","i_lat":-6.262938,"time":2},{"distance":3689,"transit":false,"station_name":"Cikarang","is_transit":false,"i_lat":-6.2553149999999995,"time":4,"i_long":107.144613,"line":0,"station_id":"CKR"}]]}