{"data":[[{"transit":false,"i_lat":-6.174784,"station_name":"Pasar Senen","is_transit":false,"time":0,"station_id":"PSE","distance":0,"i_long":106.84368,"line":11},{"i_lat":-6.185975,"i_long":106.850107,"distance":1567,"transit":false,"station_id":"GST","is_transit":false,"line":11,"station_name":"Gang Sentiong","time":8},{"line":11,"i_long":106.855437,"i_lat":-6.193792,"is_transit":false,"time":1,"station_id":"KMT","station_name":"Kramat","transit":false,"distance":973},{"i_lat":-6.209188,"station_id":"POK","is_transit":false,"i_long":106.861737,"line":11,"transit":false,"station_name":"Pondok Jati","time":2,"distance":1829},{"transit":true,"station_id":"JNG","i_lat":-6.215091,"is_transit":true,"line":1,"i_long":106.86807400000001,"station_name":"Jatinegara","time":9,"distance":1236},{"station_id":"MTR","i_long":106.858896,"transit":false,"time":2,"line":1,"is_transit":false,"station_name":"Matraman","i_lat":-6.212485,"distance":1377},{"i_long":106.84912,"transit":true,"station_id":"MRI","distance":1275,"is_transit":true,"time":2,"i_lat":-6.209883,"station_name":"Manggarai","line":2},{"time":4,"station_id":"CKI","i_long":106.840169,"is_transit":false,"station_name":"Cikini","i_lat":-6.198556,"line":2,"transit":false,"distance":1590}],[{"transit":false,"station_id":"PSE","i_long":106.84368,"station_name":"Pasar Senen","time":0,"i_lat":-6.174784,"distance":0,"is_transit":false,"line":11},{"distance":1436,"transit":false,"station_name":"Kemayoran","i_lat":-6.161728,"i_long":106.839204,"time":4,"line":11,"is_transit":false,"station_id":"KMO"},{"station_id":"RJW","time":5,"distance":1901,"i_lat":-6.14505,"is_transit":false,"i_long":106.836569,"line":11,"station_name":"Rajawali","transit":false},{"i_lat":-6.132549,"line":4,"i_long":106.826365,"station_id":"KPB","distance":1444,"station_name":"Kampung Bandan","is_transit":true,"transit":true,"time":3},{"station_name":"Jakarta Kota","i_lat":-6.137569,"transit":true,"time":3,"distance":1364,"station_id":"JAKK","is_transit":true,"i_long":106.812439,"line":2},{"station_name":"Jayakarta","distance":1264,"i_long":106.820901,"line":2,"time":4,"station_id":"JAY","is_transit":false,"transit":false,"i_lat":-6.141205},{"i_lat":-6.149769,"time":2,"i_long":106.82482,"transit":false,"station_name":"Manggabesar","is_transit":false,"station_id":"MGB","line":2,"distance":1080},{"distance":906,"i_lat":-6.160725,"is_transit":false,"transit":false,"i_long":106.827103,"station_id":"SW","station_name":"Sawah Besar","time":2,"line":2},{"transit":false,"line":2,"station_name":"Juanda","i_lat":-6.166716,"i_long":106.828284,"is_transit":false,"station_id":"JUA","distance":1149,"time":2},{"distance":2015,"i_lat":-6.186295,"transit":false,"station_name":"Gondangdia","station_id":"GDD","i_long":106.832183,"is_transit":false,"time":4,"line":2},{"time":3,"distance":1750,"station_id":"CKI","transit":false,"i_lat":-6.198556,"i_long":106.840169,"is_transit":false,"station_name":"Cikini","line":2}],[{"transit":false,"station_id":"PSE","is_transit":false,"i_long":106.84368,"station_name":"Pasar Senen","line":11,"time":0,"distance":0,"i_lat":-6.174784},{"distance":1436,"line":11,"i_long":106.839204,"time":4,"station_name":"Kemayoran","transit":false,"i_lat":-6.161728,"station_id":"KMO","is_transit":false},{"i_long":106.836569,"i_lat":-6.14505,"transit":false,"distance":1901,"line":11,"station_id":"RJW","is_transit":false,"time":5,"station_name":"Rajawali"},{"distance":1444,"station_id":"KPB","line":4,"is_transit":true,"transit":true,"i_long":106.826365,"station_name":"Kampung Bandan","time":3,"i_lat":-6.132549},{"i_long":106.79867,"time":9,"station_name":"Angke","distance":4102,"transit":false,"station_id":"AK","is_transit":false,"i_lat":-6.144674,"line":1},{"is_transit":false,"i_lat":-6.155215,"i_long":106.800832,"transit":false,"station_id":"DU","distance":1230,"line":1,"station_name":"Duri","time":4},{"station_name":"Tanah Abang","station_id":"THB","time":8,"i_long":106.811091,"line":1,"transit":false,"is_transit":false,"i_lat":-6.185545,"distance":3632},{"time":5,"transit":false,"station_id":"KAT","line":1,"is_transit":false,"distance":2029,"i_lat":-6.20132,"station_name":"Karet","i_long":106.816351},{"is_transit":false,"i_lat":-6.201433,"i_long":106.819881,"transit":false,"line":1,"time":1,"station_id":"SUDB","station_name":"Sudirman Baru","distance":471},{"distance":280,"is_transit":false,"i_lat":-6.202263,"i_long":106.822649,"station_name":"Sudirman","station_id":"SUD","time":1,"line":1,"transit":false},{"line":2,"i_long":106.84912,"distance":3186,"time":4,"station_name":"Manggarai","transit":true,"station_id":"MRI","is_transit":true,"i_lat":-6.209883},{"i_long":106.840169,"transit":false,"station_id":"CKI","distance":1590,"line":2,"is_transit":false,"station_name":"Cikini","time":4,"i_lat":-6.198556}],[{"time":0,"distance":0,"transit":false,"station_name":"Pasar Senen","i_lat":-6.174784,"i_long":106.84368,"station_id":"PSE","line":11,"is_transit":false},{"transit":false,"distance":1567,"time":8,"i_lat":-6.185975,"line":11,"is_transit":false,"i_long":106.850107,"station_id":"GST","station_name":"Gang Sentiong"},{"station_name":"Kramat","line":11,"i_lat":-6.193792,"transit":false,"time":1,"distance":973,"station_id":"KMT","is_transit":false,"i_long":106.855437},{"station_id":"POK","i_long":106.861737,"time":2,"line":11,"is_transit":false,"station_name":"Pondok Jati","distance":1829,"i_lat":-6.209188,"transit":false},{"i_long":106.86807400000001,"is_transit":true,"transit":true,"time":9,"line":1,"station_name":"Jatinegara","i_lat":-6.215091,"distance":1236,"station_id":"JNG"},{"station_id":"MTR","time":2,"i_long":106.858896,"i_lat":-6.212485,"line":1,"transit":false,"station_name":"Matraman","distance":1377,"is_transit":false},{"station_id":"MRI","line":2,"i_lat":-6.209883,"station_name":"Manggarai","time":2,"is_transit":false,"i_long":106.84912,"transit":false,"distance":1275},{"time":4,"station_id":"SUD","is_transit":false,"i_long":106.822649,"station_name":"Sudirman","distance":3186,"line":1,"transit":false,"i_lat":-6.202263},{"distance":280,"time":1,"station_id":"SUDB","line":1,"is_transit":false,"i_long":106.819881,"i_lat":-6.201433,"transit":false,"station_name":"Sudirman Baru"},{"station_id":"KAT","station_name":"Karet","i_lat":-6.20132,"transit":false,"distance":471,"i_long":106.816351,"line":1,"time":1,"is_transit":false},{"time":5,"distance":2029,"i_lat":-6.185545,"transit":false,"station_id":"THB","line":1,"is_transit":false,"i_long":106.811091,"station_name":"Tanah Abang"},{"is_transit":false,"time":8,"station_name":"Duri","transit":false,"i_lat":-6.155215,"station_id":"DU","line":1,"distance":3632,"i_long":106.800832},{"station_id":"AK","station_name":"Angke","distance":1230,"is_transit":false,"i_lat":-6.144674,"time":4,"i_long":106.79867,"line":1,"transit":false},{"is_transit":true,"station_name":"Kampung Bandan","transit":true,"distance":4102,"line":4,"i_lat":-6.132549,"i_long":106.826365,"time":9,"station_id":"KPB"},{"station_name":"Jakarta Kota","transit":true,"is_transit":true,"distance":1364,"i_lat":-6.137569,"i_long":106.812439,"station_id":"JAKK","time":3,"line":2},{"transit":false,"station_name":"Jayakarta","time":4,"station_id":"JAY","distance":1264,"is_transit":false,"i_lat":-6.141205,"line":2,"i_long":106.820901},{"time":2,"is_transit":false,"i_long":106.82482,"station_id":"MGB","distance":1080,"station_name":"Manggabesar","line":2,"transit":false,"i_lat":-6.149769},{"station_id":"SW","i_lat":-6.160725,"transit":false,"station_name":"Sawah Besar","is_transit":false,"line":2,"time":2,"i_long":106.827103,"distance":906},{"i_lat":-6.166716,"line":2,"is_transit":false,"station_id":"JUA","time":2,"station_name":"Juanda","distance":1149,"transit":false,"i_long":106.828284},{"transit":false,"station_id":"GDD","i_lat":-6.186295,"time":4,"station_name":"Gondangdia","is_transit":false,"i_long":106.832183,"line":2,"distance":2015},{"i_lat":-6.198556,"i_long":106.840169,"transit":false,"time":3,"is_transit":false,"distance":1750,"station_name":"Cikini","line":2,"station_id":"CKI"}]]}