{"data":[[{"is_transit":false,"station_id":"PSE","i_lat":-6.174784,"line":11,"station_name":"Pasar Senen","time":0,"transit":false,"i_long":106.84368,"distance":0},{"distance":1436,"is_transit":false,"time":4,"transit":false,"station_id":"KMO","station_name":"Kemayoran","line":11,"i_lat":-6.161728,"i_long":106.839204},{"line":11,"transit":false,"distance":1901,"time":5,"station_id":"RJW","station_name":"Rajawali","i_lat":-6.14505,"i_long":106.836569,"is_transit":false},{"distance":1444,"station_id":"KPB","station_name":"Kampung Bandan","is_transit":true,"i_lat":-6.132549,"time":3,"i_long":106.826365,"line":4,"transit":true},{"line":1,"time":9,"i_lat":-6.144674,"is_transit":false,"distance":4102,"station_name":"Angke","station_id":"AK","i_long":106.79867,"transit":false},{"is_transit":false,"distance":1230,"i_lat":-6.155215,"time":4,"i_long":106.800832,"station_name":"Duri","station_id":"DU","transit":false,"line":1},{"i_long":106.811091,"station_id":"THB","station_name":"Tanah Abang","transit":true,"line":1,"i_lat":-6.185545,"distance":3632,"is_transit":true,"time":8},{"station_name":"Palmerah","time":6,"transit":false,"i_lat":-6.207404,"station_id":"PLM","line":6,"is_transit":false,"distance":3191,"i_long":106.79689},{"i_lat":-6.237242,"distance":3737,"transit":false,"time":7,"i_long":106.780334,"line":6,"station_id":"KBY","is_transit":false,"station_name":"Kebayoran"},{"is_transit":false,"i_long":106.74273,"i_lat":-6.276362,"transit":false,"distance":6218,"station_id":"PDJ","line":6,"time":8,"station_name":"Pondokranji"},{"time":3,"station_name":"Jurangmangu","distance":2179,"line":6,"station_id":"JMU","is_transit":false,"i_lat":-6.288927,"i_long":106.728916,"transit":false},{"i_long":106.712277,"station_name":"Sudimara","distance":1994,"is_transit":false,"time":4,"station_id":"SDM","line":6,"i_lat":-6.296963,"transit":false},{"station_name":"Rawa Buntu","line":6,"transit":false,"i_long":106.675475,"time":6,"distance":4566,"station_id":"RU","is_transit":false,"i_lat":-6.314823},{"is_transit":false,"distance":2413,"i_lat":-6.319871,"station_name":"Serpong","transit":false,"i_long":106.66566,"time":4,"station_id":"SRP","line":6},{"is_transit":false,"transit":false,"time":4,"i_long":106.640411,"distance":1784,"line":3,"i_lat":-6.32484,"station_name":"Cisauk","station_id":"CSK"},{"transit":false,"i_lat":-6.329547,"i_long":106.617853,"line":3,"time":4,"station_name":"Cicayur","is_transit":false,"distance":2519,"station_id":"CC"},{"i_long":106.568863,"station_id":"PRP","station_name":"Parung Panjang","is_transit":false,"line":6,"time":8,"distance":5968,"transit":false,"i_lat":-6.3441410000000005},{"distance":7025,"i_long":106.508482,"i_lat":-6.354349,"station_id":"CJT","line":3,"is_transit":false,"transit":false,"station_name":"Cilejit","time":9},{"station_name":"Daru","station_id":"DAR","i_lat":-6.338021,"transit":false,"line":0,"is_transit":false,"distance":2675,"time":6,"i_long":106.491338},{"time":5,"station_id":"TEJ","distance":3902,"transit":false,"is_transit":false,"station_name":"Tenjo","i_lat":-6.327251,"i_long":106.460812,"line":6},{"transit":false,"line":6,"is_transit":false,"i_long":106.425991,"station_name":"Tigaraksa","time":5,"station_id":"TGS","distance":2974,"i_lat":-6.328533},{"distance":2651,"time":3,"transit":false,"i_lat":-6.33561,"i_long":106.411216,"line":3,"station_name":"Cikoya","station_id":"CKY","is_transit":false}],[{"transit":false,"i_long":106.84368,"station_name":"Pasar Senen","i_lat":-6.174784,"is_transit":false,"time":0,"station_id":"PSE","distance":0,"line":11},{"is_transit":false,"line":11,"transit":false,"distance":1567,"station_name":"Gang Sentiong","i_long":106.850107,"i_lat":-6.185975,"station_id":"GST","time":8},{"station_name":"Kramat","is_transit":false,"station_id":"KMT","time":1,"line":11,"i_long":106.855437,"transit":false,"i_lat":-6.193792,"distance":973},{"is_transit":false,"line":11,"station_id":"POK","transit":false,"distance":1829,"station_name":"Pondok Jati","i_lat":-6.209188,"i_long":106.861737,"time":2},{"i_long":106.86807400000001,"distance":1236,"station_name":"Jatinegara","i_lat":-6.215091,"time":9,"transit":true,"station_id":"JNG","line":1,"is_transit":true},{"line":1,"distance":1377,"i_lat":-6.212485,"i_long":106.858896,"station_name":"Matraman","time":2,"station_id":"MTR","is_transit":false,"transit":false},{"station_name":"Manggarai","time":2,"distance":1275,"i_lat":-6.209883,"is_transit":false,"station_id":"MRI","transit":false,"line":2,"i_long":106.84912},{"distance":3186,"i_long":106.822649,"transit":false,"is_transit":false,"line":1,"time":4,"station_name":"Sudirman","station_id":"SUD","i_lat":-6.202263},{"i_lat":-6.201433,"line":1,"distance":280,"station_id":"SUDB","station_name":"Sudirman Baru","i_long":106.819881,"time":1,"is_transit":false,"transit":false},{"distance":471,"station_id":"KAT","station_name":"Karet","is_transit":false,"time":1,"transit":false,"i_lat":-6.20132,"line":1,"i_long":106.816351},{"transit":true,"station_name":"Tanah Abang","line":1,"distance":2029,"is_transit":true,"i_long":106.811091,"station_id":"THB","i_lat":-6.185545,"time":5},{"station_name":"Palmerah","transit":false,"distance":3191,"i_long":106.79689,"time":6,"i_lat":-6.207404,"is_transit":false,"line":6,"station_id":"PLM"},{"station_id":"KBY","station_name":"Kebayoran","is_transit":false,"i_lat":-6.237242,"time":7,"transit":false,"i_long":106.780334,"distance":3737,"line":6},{"time":8,"transit":false,"distance":6218,"line":6,"i_lat":-6.276362,"is_transit":false,"i_long":106.74273,"station_name":"Pondokranji","station_id":"PDJ"},{"i_long":106.728916,"is_transit":false,"station_name":"Jurangmangu","i_lat":-6.288927,"line":6,"time":3,"station_id":"JMU","transit":false,"distance":2179},{"station_id":"SDM","i_long":106.712277,"station_name":"Sudimara","transit":false,"is_transit":false,"i_lat":-6.296963,"line":6,"distance":1994,"time":4},{"station_name":"Rawa Buntu","i_lat":-6.314823,"time":6,"line":6,"i_long":106.675475,"is_transit":false,"transit":false,"distance":4566,"station_id":"RU"},{"i_lat":-6.319871,"i_long":106.66566,"station_id":"SRP","is_transit":false,"line":6,"time":4,"transit":false,"station_name":"Serpong","distance":2413},{"transit":false,"i_lat":-6.32484,"is_transit":false,"line":3,"station_name":"Cisauk","station_id":"CSK","i_long":106.640411,"time":4,"distance":1784},{"time":4,"is_transit":false,"distance":2519,"station_name":"Cicayur","i_long":106.617853,"transit":false,"i_lat":-6.329547,"line":3,"station_id":"CC"},{"time":8,"station_id":"PRP","transit":false,"i_long":106.568863,"station_name":"Parung Panjang","is_transit":false,"i_lat":-6.3441410000000005,"distance":5968,"line":6},{"i_long":106.508482,"line":3,"station_name":"Cilejit","is_transit":false,"distance":7025,"transit":false,"station_id":"CJT","time":9,"i_lat":-6.354349},{"i_long":106.491338,"station_id":"DAR","station_name":"Daru","is_transit":false,"i_lat":-6.338021,"time":6,"transit":false,"distance":2675,"line":0},{"station_id":"TEJ","i_long":106.460812,"is_transit":false,"station_name":"Tenjo","distance":3902,"transit":false,"time":5,"line":6,"i_lat":-6.327251},{"station_name":"Tigaraksa","is_transit":false,"station_id":"TGS","i_long":106.425991,"line":6,"time":5,"i_lat":-6.328533,"transit":false,"distance":2974},{"station_name":"Cikoya","is_transit":false,"transit":false,"time":3,"i_long":106.411216,"line":3,"station_id":"CKY","distance":2651,"i_lat":-6.33561}],[{"distance":0,"line":11,"i_long":106.84368,"station_id":"PSE","transit":false,"is_transit":false,"station_name":"Pasar Senen","time":0,"i_lat":-6.174784},{"time":4,"i_long":106.839204,"station_name":"Kemayoran","i_lat":-6.161728,"line":11,"transit":false,"station_id":"KMO","distance":1436,"is_transit":false},{"transit":false,"station_name":"Rajawali","i_long":106.836569,"i_lat":-6.14505,"station_id":"RJW","distance":1901,"time":5,"line":11,"is_transit":false},{"distance":1444,"station_id":"KPB","station_name":"Kampung Bandan","time":3,"line":4,"is_transit":true,"i_long":106.826365,"transit":true,"i_lat":-6.132549},{"line":2,"transit":true,"is_transit":true,"distance":1364,"station_id":"JAKK","i_long":106.812439,"time":3,"station_name":"Jakarta Kota","i_lat":-6.137569},{"station_name":"Jayakarta","is_transit":false,"station_id":"JAY","time":4,"i_long":106.820901,"transit":false,"line":2,"i_lat":-6.141205,"distance":1264},{"i_lat":-6.149769,"time":2,"station_id":"MGB","transit":false,"station_name":"Manggabesar","line":2,"is_transit":false,"i_long":106.82482,"distance":1080},{"transit":false,"distance":906,"time":2,"station_name":"Sawah Besar","is_transit":false,"i_long":106.827103,"i_lat":-6.160725,"station_id":"SW","line":2},{"station_name":"Juanda","station_id":"JUA","i_lat":-6.166716,"i_long":106.828284,"is_transit":false,"transit":false,"time":2,"line":2,"distance":1149},{"distance":2015,"i_long":106.832183,"line":2,"station_id":"GDD","transit":false,"time":4,"station_name":"Gondangdia","is_transit":false,"i_lat":-6.186295},{"i_long":106.840169,"line":2,"station_name":"Cikini","distance":1750,"is_transit":false,"transit":false,"time":3,"i_lat":-6.198556,"station_id":"CKI"},{"station_name":"Manggarai","distance":1590,"i_long":106.84912,"is_transit":true,"i_lat":-6.209883,"line":2,"transit":true,"station_id":"MRI","time":4},{"transit":false,"line":1,"is_transit":false,"station_id":"SUD","time":4,"distance":3186,"station_name":"Sudirman","i_lat":-6.202263,"i_long":106.822649},{"line":1,"transit":false,"i_long":106.819881,"is_transit":false,"i_lat":-6.201433,"distance":280,"time":1,"station_id":"SUDB","station_name":"Sudirman Baru"},{"distance":471,"station_id":"KAT","transit":false,"i_lat":-6.20132,"i_long":106.816351,"line":1,"is_transit":false,"station_name":"Karet","time":1},{"time":5,"is_transit":true,"station_name":"Tanah Abang","i_lat":-6.185545,"distance":2029,"i_long":106.811091,"line":1,"transit":true,"station_id":"THB"},{"station_name":"Palmerah","line":6,"time":6,"i_long":106.79689,"distance":3191,"transit":false,"is_transit":false,"i_lat":-6.207404,"station_id":"PLM"},{"i_long":106.780334,"time":7,"line":6,"distance":3737,"transit":false,"is_transit":false,"i_lat":-6.237242,"station_id":"KBY","station_name":"Kebayoran"},{"station_id":"PDJ","transit":false,"station_name":"Pondokranji","line":6,"is_transit":false,"i_lat":-6.276362,"time":8,"distance":6218,"i_long":106.74273},{"i_lat":-6.288927,"transit":false,"distance":2179,"i_long":106.728916,"station_name":"Jurangmangu","time":3,"line":6,"station_id":"JMU","is_transit":false},{"is_transit":false,"time":4,"i_lat":-6.296963,"station_id":"SDM","distance":1994,"i_long":106.712277,"line":6,"station_name":"Sudimara","transit":false},{"distance":4566,"time":6,"i_long":106.675475,"transit":false,"station_name":"Rawa Buntu","i_lat":-6.314823,"line":6,"is_transit":false,"station_id":"RU"},{"line":6,"time":4,"i_lat":-6.319871,"station_id":"SRP","station_name":"Serpong","transit":false,"is_transit":false,"distance":2413,"i_long":106.66566},{"transit":false,"is_transit":false,"line":3,"time":4,"i_lat":-6.32484,"distance":1784,"station_id":"CSK","station_name":"Cisauk","i_long":106.640411},{"is_transit":false,"distance":2519,"time":4,"i_lat":-6.329547,"station_id":"CC","transit":false,"line":3,"station_name":"Cicayur","i_long":106.617853},{"i_long":106.568863,"time":8,"transit":false,"is_transit":false,"distance":5968,"station_name":"Parung Panjang","line":6,"i_lat":-6.3441410000000005,"station_id":"PRP"},{"i_long":106.508482,"line":3,"transit":false,"station_id":"CJT","i_lat":-6.354349,"station_name":"Cilejit","is_transit":false,"distance":7025,"time":9},{"i_long":106.491338,"distance":2675,"transit":false,"line":0,"station_name":"Daru","is_transit":false,"time":6,"i_lat":-6.338021,"station_id":"DAR"},{"station_id":"TEJ","i_long":106.460812,"transit":false,"station_name":"Tenjo","is_transit":false,"distance":3902,"time":5,"i_lat":-6.327251,"line":6},{"transit":false,"distance":2974,"i_lat":-6.328533,"station_id":"TGS","station_name":"Tigaraksa","time":5,"line":6,"is_transit":false,"i_long":106.425991},{"station_name":"Cikoya","transit":false,"is_transit":false,"station_id":"CKY","time":3,"i_long":106.411216,"i_lat":-6.33561,"distance":2651,"line":3}],[{"distance":0,"time":0,"i_lat":-6.174784,"is_transit":false,"i_long":106.84368,"line":11,"transit":false,"station_id":"PSE","station_name":"Pasar Senen"},{"transit":false,"distance":1567,"i_lat":-6.185975,"station_id":"GST","is_transit":false,"station_name":"Gang Sentiong","time":8,"line":11,"i_long":106.850107},{"station_name":"Kramat","is_transit":false,"transit":false,"i_long":106.855437,"line":11,"i_lat":-6.193792,"station_id":"KMT","time":1,"distance":973},{"time":2,"distance":1829,"station_name":"Pondok Jati","transit":false,"i_lat":-6.209188,"i_long":106.861737,"station_id":"POK","is_transit":false,"line":11},{"station_id":"JNG","time":9,"i_long":106.86807400000001,"transit":true,"station_name":"Jatinegara","is_transit":true,"i_lat":-6.215091,"distance":1236,"line":1},{"time":2,"transit":false,"i_long":106.858896,"distance":1377,"i_lat":-6.212485,"station_id":"MTR","is_transit":false,"line":1,"station_name":"Matraman"},{"i_long":106.84912,"i_lat":-6.209883,"station_name":"Manggarai","is_transit":true,"time":2,"line":2,"station_id":"MRI","transit":true,"distance":1275},{"distance":1590,"time":4,"i_long":106.840169,"transit":false,"is_transit":false,"i_lat":-6.198556,"line":2,"station_id":"CKI","station_name":"Cikini"},{"distance":1750,"transit":false,"is_transit":false,"station_name":"Gondangdia","time":3,"station_id":"GDD","i_long":106.832183,"i_lat":-6.186295,"line":2},{"transit":false,"is_transit":false,"time":4,"i_long":106.828284,"distance":2015,"i_lat":-6.166716,"line":2,"station_id":"JUA","station_name":"Juanda"},{"transit":false,"is_transit":false,"time":2,"station_name":"Sawah Besar","station_id":"SW","i_lat":-6.160725,"distance":1149,"i_long":106.827103,"line":2},{"line":2,"transit":false,"distance":906,"time":2,"i_long":106.82482,"station_id":"MGB","is_transit":false,"i_lat":-6.149769,"station_name":"Manggabesar"},{"station_name":"Jayakarta","station_id":"JAY","transit":false,"time":2,"i_lat":-6.141205,"distance":1080,"i_long":106.820901,"line":2,"is_transit":false},{"line":2,"time":4,"station_id":"JAKK","i_lat":-6.137569,"station_name":"Jakarta Kota","transit":true,"distance":1264,"i_long":106.812439,"is_transit":true},{"station_name":"Kampung Bandan","transit":true,"distance":1364,"station_id":"KPB","i_long":106.826365,"i_lat":-6.132549,"is_transit":true,"time":3,"line":4},{"distance":4102,"time":9,"line":1,"station_id":"AK","station_name":"Angke","i_long":106.79867,"is_transit":false,"i_lat":-6.144674,"transit":false},{"is_transit":false,"i_long":106.800832,"line":1,"i_lat":-6.155215,"station_id":"DU","distance":1230,"station_name":"Duri","time":4,"transit":false},{"transit":true,"station_name":"Tanah Abang","is_transit":true,"i_long":106.811091,"time":8,"i_lat":-6.185545,"station_id":"THB","line":1,"distance":3632},{"distance":3191,"transit":false,"i_lat":-6.207404,"station_name":"Palmerah","i_long":106.79689,"line":6,"station_id":"PLM","time":6,"is_transit":false},{"station_id":"KBY","i_long":106.780334,"distance":3737,"time":7,"is_transit":false,"i_lat":-6.237242,"station_name":"Kebayoran","line":6,"transit":false},{"i_lat":-6.276362,"station_id":"PDJ","line":6,"distance":6218,"is_transit":false,"time":8,"i_long":106.74273,"transit":false,"station_name":"Pondokranji"},{"transit":false,"station_name":"Jurangmangu","time":3,"i_lat":-6.288927,"station_id":"JMU","i_long":106.728916,"is_transit":false,"distance":2179,"line":6},{"station_id":"SDM","transit":false,"line":6,"i_long":106.712277,"time":4,"i_lat":-6.296963,"station_name":"Sudimara","distance":1994,"is_transit":false},{"i_long":106.675475,"is_transit":false,"i_lat":-6.314823,"distance":4566,"station_name":"Rawa Buntu","line":6,"transit":false,"time":6,"station_id":"RU"},{"transit":false,"is_transit":false,"station_id":"SRP","i_lat":-6.319871,"i_long":106.66566,"distance":2413,"station_name":"Serpong","line":6,"time":4},{"station_id":"CSK","i_lat":-6.32484,"distance":1784,"station_name":"Cisauk","line":3,"transit":false,"i_long":106.640411,"is_transit":false,"time":4},{"i_lat":-6.329547,"transit":false,"time":4,"i_long":106.617853,"distance":2519,"station_id":"CC","line":3,"station_name":"Cicayur","is_transit":false},{"i_long":106.568863,"line":6,"distance":5968,"is_transit":false,"transit":false,"time":8,"station_name":"Parung Panjang","station_id":"PRP","i_lat":-6.3441410000000005},{"is_transit":false,"station_id":"CJT","line":3,"i_long":106.508482,"station_name":"Cilejit","time":9,"i_lat":-6.354349,"transit":false,"distance":7025},{"line":0,"i_long":106.491338,"station_id":"DAR","time":6,"i_lat":-6.338021,"transit":false,"station_name":"Daru","distance":2675,"is_transit":false},{"is_transit":false,"station_name":"Tenjo","i_long":106.460812,"distance":3902,"line":6,"time":5,"i_lat":-6.327251,"transit":false,"station_id":"TEJ"},{"distance":2974,"transit":false,"i_lat":-6.328533,"station_id":"TGS","time":5,"line":6,"i_long":106.425991,"is_transit":false,"station_name":"Tigaraksa"},{"i_long":106.411216,"is_transit":false,"time":3,"transit":false,"station_name":"Cikoya","distance":2651,"station_id":"CKY","i_lat":-6.33561,"line":3}]]}