{"data":[[{"distance":0,"station_name":"Pasar Senen","is_transit":false,"i_long":106.84368,"transit":false,"station_id":"PSE","time":0,"i_lat":-6.174784,"line":11},{"station_id":"GST","i_lat":-6.185975,"time":8,"is_transit":false,"station_name":"Gang Sentiong","line":11,"distance":1567,"transit":false,"i_long":106.850107},{"i_long":106.855437,"is_transit":false,"transit":false,"station_id":"KMT","distance":973,"line":11,"time":1,"i_lat":-6.193792,"station_name":"Kramat"},{"line":11,"station_id":"POK","time":2,"is_transit":false,"i_long":106.861737,"transit":false,"i_lat":-6.209188,"station_name":"Pondok Jati","distance":1829},{"station_name":"Jatinegara","time":9,"line":1,"is_transit":true,"i_long":106.86807400000001,"transit":true,"i_lat":-6.215091,"distance":1236,"station_id":"JNG"},{"station_id":"MTR","i_long":106.858896,"distance":1377,"transit":false,"time":2,"is_transit":false,"line":1,"i_lat":-6.212485,"station_name":"Matraman"},{"line":2,"is_transit":true,"distance":1275,"transit":true,"i_long":106.84912,"i_lat":-6.209883,"station_name":"Manggarai","time":2,"station_id":"MRI"},{"distance":2610,"line":2,"time":4,"transit":false,"is_transit":false,"i_long":106.857948,"station_name":"Tebet","i_lat":-6.226659,"station_id":"TEB"},{"time":2,"station_name":"Cawang","i_lat":-6.242512,"distance":1230,"transit":false,"line":2,"is_transit":false,"station_id":"CW","i_long":106.856607},{"time":3,"transit":false,"is_transit":false,"i_lat":-6.255332,"station_name":"Duren Kalibata","distance":1546,"i_long":106.85449,"line":2,"station_id":"DRN"},{"is_transit":false,"time":2,"i_long":106.851577,"distance":824,"line":2,"i_lat":-6.263214,"station_name":"Pasar Minggu Baru","transit":false,"station_id":"PSMB"},{"is_transit":false,"line":2,"distance":2380,"i_lat":-6.2842400000000005,"time":2,"station_name":"Pasar Minggu","i_long":106.843999,"station_id":"PSM","transit":false},{"transit":false,"station_name":"Tanjung Barat","time":4,"is_transit":false,"i_lat":-6.3080680000000005,"i_long":106.838896,"line":2,"station_id":"TNT","distance":2820},{"i_lat":-6.330363,"station_id":"LNA","i_long":106.832616,"transit":false,"is_transit":false,"distance":2671,"station_name":"Lenteng Agung","line":2,"time":3},{"time":2,"i_lat":-6.339291,"is_transit":false,"line":2,"transit":false,"station_id":"UP","i_long":106.834175,"distance":1029,"station_name":"Univ. Pancasila"},{"time":3,"station_name":"Univ. Indonesia","i_lat":-6.360749,"line":2,"transit":false,"is_transit":false,"distance":2264,"station_id":"UI","i_long":106.831474},{"station_name":"Pondok Cina","line":2,"time":2,"station_id":"POC","transit":false,"i_long":106.831114,"is_transit":false,"i_lat":-6.369073,"distance":1109}],[{"i_lat":-6.174784,"time":0,"station_id":"PSE","i_long":106.84368,"is_transit":false,"line":11,"transit":false,"distance":0,"station_name":"Pasar Senen"},{"line":11,"is_transit":false,"time":4,"transit":false,"station_name":"Kemayoran","station_id":"KMO","distance":1436,"i_lat":-6.161728,"i_long":106.839204},{"time":5,"is_transit":false,"line":11,"station_id":"RJW","transit":false,"distance":1901,"i_long":106.836569,"i_lat":-6.14505,"station_name":"Rajawali"},{"line":4,"distance":1444,"transit":true,"station_id":"KPB","station_name":"Kampung Bandan","i_long":106.826365,"is_transit":true,"time":3,"i_lat":-6.132549},{"transit":false,"distance":4102,"station_name":"Angke","i_long":106.79867,"is_transit":false,"station_id":"AK","time":9,"i_lat":-6.144674,"line":1},{"line":1,"is_transit":false,"i_lat":-6.155215,"time":4,"station_name":"Duri","transit":false,"distance":1230,"station_id":"DU","i_long":106.800832},{"station_id":"THB","time":8,"distance":3632,"i_long":106.811091,"line":1,"station_name":"Tanah Abang","transit":false,"i_lat":-6.185545,"is_transit":false},{"transit":false,"station_name":"Karet","time":5,"is_transit":false,"i_lat":-6.20132,"distance":2029,"i_long":106.816351,"station_id":"KAT","line":1},{"i_lat":-6.201433,"transit":false,"line":1,"is_transit":false,"distance":471,"i_long":106.819881,"station_id":"SUDB","station_name":"Sudirman Baru","time":1},{"station_id":"SUD","is_transit":false,"transit":false,"i_lat":-6.202263,"time":1,"i_long":106.822649,"line":1,"station_name":"Sudirman","distance":280},{"station_name":"Manggarai","time":4,"distance":3186,"i_lat":-6.209883,"line":2,"transit":true,"is_transit":true,"i_long":106.84912,"station_id":"MRI"},{"station_name":"Tebet","line":2,"transit":false,"i_lat":-6.226659,"is_transit":false,"time":4,"i_long":106.857948,"distance":2610,"station_id":"TEB"},{"i_long":106.856607,"time":2,"transit":false,"is_transit":false,"line":2,"distance":1230,"station_name":"Cawang","i_lat":-6.242512,"station_id":"CW"},{"line":2,"station_id":"DRN","time":3,"i_long":106.85449,"transit":false,"distance":1546,"i_lat":-6.255332,"is_transit":false,"station_name":"Duren Kalibata"},{"transit":false,"distance":824,"is_transit":false,"i_lat":-6.263214,"station_id":"PSMB","time":2,"station_name":"Pasar Minggu Baru","i_long":106.851577,"line":2},{"transit":false,"distance":2380,"is_transit":false,"i_lat":-6.2842400000000005,"station_name":"Pasar Minggu","time":2,"i_long":106.843999,"line":2,"station_id":"PSM"},{"i_long":106.838896,"is_transit":false,"transit":false,"time":4,"station_name":"Tanjung Barat","distance":2820,"i_lat":-6.3080680000000005,"station_id":"TNT","line":2},{"i_long":106.832616,"distance":2671,"station_name":"Lenteng Agung","i_lat":-6.330363,"is_transit":false,"line":2,"transit":false,"station_id":"LNA","time":3},{"station_name":"Univ. Pancasila","i_lat":-6.339291,"line":2,"station_id":"UP","distance":1029,"is_transit":false,"i_long":106.834175,"time":2,"transit":false},{"is_transit":false,"distance":2264,"i_long":106.831474,"time":3,"station_name":"Univ. Indonesia","transit":false,"i_lat":-6.360749,"line":2,"station_id":"UI"},{"station_name":"Pondok Cina","i_lat":-6.369073,"station_id":"POC","time":2,"is_transit":false,"transit":false,"line":2,"i_long":106.831114,"distance":1109}],[{"distance":0,"i_lat":-6.174784,"time":0,"is_transit":false,"station_name":"Pasar Senen","transit":false,"i_long":106.84368,"station_id":"PSE","line":11},{"transit":false,"i_long":106.839204,"time":4,"station_id":"KMO","is_transit":false,"distance":1436,"i_lat":-6.161728,"line":11,"station_name":"Kemayoran"},{"line":11,"i_lat":-6.14505,"transit":false,"station_name":"Rajawali","time":5,"is_transit":false,"i_long":106.836569,"station_id":"RJW","distance":1901},{"transit":true,"is_transit":true,"distance":1444,"i_lat":-6.132549,"i_long":106.826365,"time":3,"station_id":"KPB","line":4,"station_name":"Kampung Bandan"},{"i_long":106.812439,"distance":1364,"is_transit":true,"i_lat":-6.137569,"transit":true,"line":2,"station_id":"JAKK","station_name":"Jakarta Kota","time":3},{"station_name":"Jayakarta","i_long":106.820901,"transit":false,"i_lat":-6.141205,"line":2,"distance":1264,"station_id":"JAY","is_transit":false,"time":4},{"i_lat":-6.149769,"transit":false,"is_transit":false,"distance":1080,"line":2,"time":2,"station_id":"MGB","station_name":"Manggabesar","i_long":106.82482},{"station_name":"Sawah Besar","is_transit":false,"line":2,"distance":906,"time":2,"transit":false,"i_lat":-6.160725,"station_id":"SW","i_long":106.827103},{"transit":false,"time":2,"distance":1149,"station_name":"Juanda","i_lat":-6.166716,"is_transit":false,"i_long":106.828284,"line":2,"station_id":"JUA"},{"station_id":"GDD","time":4,"station_name":"Gondangdia","transit":false,"is_transit":false,"i_lat":-6.186295,"i_long":106.832183,"line":2,"distance":2015},{"time":3,"station_id":"CKI","line":2,"is_transit":false,"distance":1750,"i_lat":-6.198556,"i_long":106.840169,"transit":false,"station_name":"Cikini"},{"station_id":"MRI","is_transit":false,"line":2,"i_lat":-6.209883,"i_long":106.84912,"distance":1590,"time":4,"station_name":"Manggarai","transit":false},{"is_transit":false,"time":4,"distance":2610,"station_name":"Tebet","i_lat":-6.226659,"station_id":"TEB","i_long":106.857948,"line":2,"transit":false},{"transit":false,"station_id":"CW","station_name":"Cawang","i_long":106.856607,"distance":1230,"time":2,"line":2,"i_lat":-6.242512,"is_transit":false},{"station_id":"DRN","time":3,"transit":false,"distance":1546,"i_long":106.85449,"is_transit":false,"line":2,"station_name":"Duren Kalibata","i_lat":-6.255332},{"is_transit":false,"station_name":"Pasar Minggu Baru","distance":824,"transit":false,"time":2,"i_lat":-6.263214,"station_id":"PSMB","i_long":106.851577,"line":2},{"i_lat":-6.2842400000000005,"distance":2380,"transit":false,"i_long":106.843999,"time":2,"station_name":"Pasar Minggu","line":2,"station_id":"PSM","is_transit":false},{"i_lat":-6.3080680000000005,"station_id":"TNT","line":2,"i_long":106.838896,"transit":false,"time":4,"is_transit":false,"station_name":"Tanjung Barat","distance":2820},{"transit":false,"is_transit":false,"distance":2671,"station_name":"Lenteng Agung","i_long":106.832616,"time":3,"line":2,"station_id":"LNA","i_lat":-6.330363},{"is_transit":false,"line":2,"distance":1029,"station_id":"UP","i_lat":-6.339291,"transit":false,"time":2,"station_name":"Univ. Pancasila","i_long":106.834175},{"line":2,"transit":false,"station_name":"Univ. Indonesia","i_lat":-6.360749,"station_id":"UI","time":3,"distance":2264,"i_long":106.831474,"is_transit":false},{"transit":false,"station_name":"Pondok Cina","is_transit":false,"i_lat":-6.369073,"i_long":106.831114,"line":2,"time":2,"distance":1109,"station_id":"POC"}]]}