{"data":[[{"station_name":"Pasar Senen","distance":0,"is_transit":false,"line":11,"transit":false,"station_id":"PSE","i_long":106.84368,"time":0,"i_lat":-6.174784},{"time":8,"distance":1567,"station_name":"Gang Sentiong","is_transit":false,"i_lat":-6.185975,"i_long":106.850107,"transit":false,"station_id":"GST","line":11},{"line":11,"i_lat":-6.193792,"distance":973,"time":1,"station_id":"KMT","i_long":106.855437,"is_transit":false,"transit":false,"station_name":"Kramat"},{"i_lat":-6.209188,"line":11,"transit":false,"station_name":"Pondok Jati","is_transit":false,"distance":1829,"station_id":"POK","i_long":106.861737,"time":2},{"line":1,"distance":1236,"station_id":"JNG","time":9,"station_name":"Jatinegara","i_lat":-6.215091,"is_transit":true,"i_long":106.86807400000001,"transit":true},{"time":2,"distance":1377,"is_transit":false,"station_id":"MTR","station_name":"Matraman","line":1,"i_lat":-6.212485,"i_long":106.858896,"transit":false},{"i_long":106.84912,"time":2,"station_id":"MRI","line":2,"distance":1275,"station_name":"Manggarai","transit":true,"is_transit":true,"i_lat":-6.209883},{"station_name":"Tebet","distance":2610,"is_transit":false,"time":4,"station_id":"TEB","transit":false,"i_lat":-6.226659,"i_long":106.857948,"line":2},{"i_long":106.856607,"distance":1230,"is_transit":false,"time":2,"i_lat":-6.242512,"station_name":"Cawang","station_id":"CW","line":2,"transit":false},{"time":3,"i_lat":-6.255332,"transit":false,"station_id":"DRN","line":2,"is_transit":false,"distance":1546,"station_name":"Duren Kalibata","i_long":106.85449},{"station_id":"PSMB","time":2,"station_name":"Pasar Minggu Baru","is_transit":false,"i_lat":-6.263214,"distance":824,"line":2,"i_long":106.851577,"transit":false},{"distance":2380,"station_id":"PSM","is_transit":false,"transit":false,"i_lat":-6.2842400000000005,"i_long":106.843999,"line":2,"station_name":"Pasar Minggu","time":2},{"i_lat":-6.3080680000000005,"i_long":106.838896,"station_name":"Tanjung Barat","line":2,"time":4,"distance":2820,"is_transit":false,"station_id":"TNT","transit":false},{"distance":2671,"i_long":106.832616,"transit":false,"time":3,"station_id":"LNA","is_transit":false,"line":2,"station_name":"Lenteng Agung","i_lat":-6.330363},{"time":2,"is_transit":false,"transit":false,"line":2,"distance":1029,"station_name":"Univ. Pancasila","i_lat":-6.339291,"i_long":106.834175,"station_id":"UP"},{"i_lat":-6.360749,"station_id":"UI","station_name":"Univ. Indonesia","line":2,"distance":2264,"time":3,"is_transit":false,"i_long":106.831474,"transit":false},{"line":2,"station_id":"POC","distance":1109,"i_lat":-6.369073,"i_long":106.831114,"station_name":"Pondok Cina","time":2,"is_transit":false,"transit":false},{"is_transit":false,"station_id":"DPB","transit":false,"i_lat":-6.391065,"time":4,"distance":2727,"station_name":"Depokbaru","i_long":106.819451,"line":2},{"transit":false,"time":3,"i_long":106.816926,"line":2,"is_transit":false,"station_id":"DP","i_lat":-6.405256,"station_name":"Depok","distance":1584},{"station_id":"CTA","line":2,"i_lat":-6.448811,"time":6,"distance":5084,"is_transit":true,"transit":true,"station_name":"Citayam","i_long":106.800298},{"time":0,"station_id":"PDRG","line":21,"station_name":"Pondok Rajeg","distance":0,"is_transit":false,"i_lat":-6.460735,"i_long":106.824374,"transit":false}],[{"distance":0,"line":11,"station_id":"PSE","i_lat":-6.174784,"is_transit":false,"station_name":"Pasar Senen","transit":false,"time":0,"i_long":106.84368},{"transit":false,"i_lat":-6.161728,"distance":1436,"time":4,"is_transit":false,"station_name":"Kemayoran","i_long":106.839204,"line":11,"station_id":"KMO"},{"station_name":"Rajawali","i_lat":-6.14505,"line":11,"station_id":"RJW","i_long":106.836569,"time":5,"is_transit":false,"distance":1901,"transit":false},{"line":4,"distance":1444,"is_transit":true,"i_long":106.826365,"time":3,"i_lat":-6.132549,"transit":true,"station_name":"Kampung Bandan","station_id":"KPB"},{"i_long":106.79867,"time":9,"station_name":"Angke","station_id":"AK","distance":4102,"is_transit":false,"transit":false,"i_lat":-6.144674,"line":1},{"is_transit":false,"i_long":106.800832,"i_lat":-6.155215,"distance":1230,"time":4,"station_name":"Duri","station_id":"DU","line":1,"transit":false},{"is_transit":false,"transit":false,"distance":3632,"station_name":"Tanah Abang","i_lat":-6.185545,"line":1,"time":8,"i_long":106.811091,"station_id":"THB"},{"transit":false,"line":1,"time":5,"station_name":"Karet","station_id":"KAT","i_lat":-6.20132,"distance":2029,"is_transit":false,"i_long":106.816351},{"line":1,"is_transit":false,"time":1,"transit":false,"station_name":"Sudirman Baru","i_lat":-6.201433,"i_long":106.819881,"station_id":"SUDB","distance":471},{"distance":280,"is_transit":false,"transit":false,"time":1,"station_name":"Sudirman","station_id":"SUD","i_long":106.822649,"line":1,"i_lat":-6.202263},{"distance":3186,"time":4,"is_transit":true,"transit":true,"i_long":106.84912,"line":2,"i_lat":-6.209883,"station_id":"MRI","station_name":"Manggarai"},{"transit":false,"time":4,"distance":2610,"is_transit":false,"line":2,"station_id":"TEB","i_lat":-6.226659,"station_name":"Tebet","i_long":106.857948},{"transit":false,"time":2,"line":2,"is_transit":false,"station_name":"Cawang","station_id":"CW","distance":1230,"i_lat":-6.242512,"i_long":106.856607},{"distance":1546,"is_transit":false,"i_lat":-6.255332,"station_id":"DRN","time":3,"transit":false,"i_long":106.85449,"station_name":"Duren Kalibata","line":2},{"distance":824,"station_id":"PSMB","time":2,"i_lat":-6.263214,"i_long":106.851577,"is_transit":false,"station_name":"Pasar Minggu Baru","transit":false,"line":2},{"station_id":"PSM","line":2,"station_name":"Pasar Minggu","time":2,"is_transit":false,"transit":false,"i_long":106.843999,"i_lat":-6.2842400000000005,"distance":2380},{"i_long":106.838896,"i_lat":-6.3080680000000005,"time":4,"station_name":"Tanjung Barat","line":2,"transit":false,"station_id":"TNT","is_transit":false,"distance":2820},{"i_lat":-6.330363,"i_long":106.832616,"station_id":"LNA","time":3,"station_name":"Lenteng Agung","is_transit":false,"transit":false,"line":2,"distance":2671},{"i_long":106.834175,"time":2,"station_name":"Univ. Pancasila","is_transit":false,"line":2,"distance":1029,"i_lat":-6.339291,"transit":false,"station_id":"UP"},{"distance":2264,"i_lat":-6.360749,"is_transit":false,"i_long":106.831474,"station_id":"UI","time":3,"transit":false,"station_name":"Univ. Indonesia","line":2},{"distance":1109,"station_id":"POC","line":2,"time":2,"is_transit":false,"transit":false,"i_long":106.831114,"i_lat":-6.369073,"station_name":"Pondok Cina"},{"station_name":"Depokbaru","transit":false,"line":2,"is_transit":false,"time":4,"station_id":"DPB","i_lat":-6.391065,"i_long":106.819451,"distance":2727},{"station_name":"Depok","time":3,"station_id":"DP","distance":1584,"transit":false,"i_lat":-6.405256,"i_long":106.816926,"line":2,"is_transit":false},{"line":2,"i_long":106.800298,"time":6,"station_id":"CTA","transit":true,"distance":5084,"station_name":"Citayam","is_transit":true,"i_lat":-6.448811},{"distance":0,"is_transit":false,"i_long":106.824374,"time":0,"station_id":"PDRG","i_lat":-6.460735,"line":21,"station_name":"Pondok Rajeg","transit":false}],[{"time":0,"station_id":"PSE","transit":false,"station_name":"Pasar Senen","is_transit":false,"i_lat":-6.174784,"i_long":106.84368,"line":11,"distance":0},{"time":4,"i_lat":-6.161728,"is_transit":false,"transit":false,"station_id":"KMO","station_name":"Kemayoran","i_long":106.839204,"distance":1436,"line":11},{"time":5,"transit":false,"station_id":"RJW","station_name":"Rajawali","is_transit":false,"i_lat":-6.14505,"distance":1901,"i_long":106.836569,"line":11},{"i_lat":-6.132549,"station_name":"Kampung Bandan","is_transit":true,"line":4,"station_id":"KPB","i_long":106.826365,"distance":1444,"time":3,"transit":true},{"i_long":106.812439,"station_name":"Jakarta Kota","station_id":"JAKK","transit":true,"time":3,"is_transit":true,"distance":1364,"i_lat":-6.137569,"line":2},{"i_lat":-6.141205,"station_name":"Jayakarta","line":2,"distance":1264,"i_long":106.820901,"transit":false,"station_id":"JAY","time":4,"is_transit":false},{"time":2,"station_id":"MGB","i_lat":-6.149769,"station_name":"Manggabesar","distance":1080,"transit":false,"i_long":106.82482,"line":2,"is_transit":false},{"transit":false,"is_transit":false,"i_lat":-6.160725,"time":2,"i_long":106.827103,"line":2,"station_name":"Sawah Besar","distance":906,"station_id":"SW"},{"i_lat":-6.166716,"line":2,"station_name":"Juanda","station_id":"JUA","is_transit":false,"transit":false,"time":2,"distance":1149,"i_long":106.828284},{"is_transit":false,"distance":2015,"time":4,"station_id":"GDD","station_name":"Gondangdia","transit":false,"i_lat":-6.186295,"i_long":106.832183,"line":2},{"distance":1750,"i_long":106.840169,"is_transit":false,"station_id":"CKI","transit":false,"time":3,"i_lat":-6.198556,"line":2,"station_name":"Cikini"},{"time":4,"station_name":"Manggarai","line":2,"station_id":"MRI","is_transit":false,"i_long":106.84912,"transit":false,"distance":1590,"i_lat":-6.209883},{"station_name":"Tebet","is_transit":false,"i_lat":-6.226659,"transit":false,"distance":2610,"time":4,"line":2,"station_id":"TEB","i_long":106.857948},{"distance":1230,"i_long":106.856607,"station_id":"CW","station_name":"Cawang","is_transit":false,"time":2,"i_lat":-6.242512,"line":2,"transit":false},{"distance":1546,"i_lat":-6.255332,"line":2,"station_name":"Duren Kalibata","is_transit":false,"transit":false,"time":3,"station_id":"DRN","i_long":106.85449},{"line":2,"transit":false,"station_name":"Pasar Minggu Baru","is_transit":false,"i_lat":-6.263214,"station_id":"PSMB","i_long":106.851577,"time":2,"distance":824},{"time":2,"i_lat":-6.2842400000000005,"line":2,"station_id":"PSM","station_name":"Pasar Minggu","transit":false,"is_transit":false,"i_long":106.843999,"distance":2380},{"i_long":106.838896,"distance":2820,"station_id":"TNT","i_lat":-6.3080680000000005,"time":4,"is_transit":false,"line":2,"transit":false,"station_name":"Tanjung Barat"},{"line":2,"distance":2671,"i_long":106.832616,"is_transit":false,"i_lat":-6.330363,"station_name":"Lenteng Agung","time":3,"station_id":"LNA","transit":false},{"transit":false,"is_transit":false,"line":2,"distance":1029,"station_id":"UP","station_name":"Univ. Pancasila","i_long":106.834175,"i_lat":-6.339291,"time":2},{"is_transit":false,"distance":2264,"station_name":"Univ. Indonesia","i_lat":-6.360749,"line":2,"station_id":"UI","i_long":106.831474,"time":3,"transit":false},{"station_id":"POC","transit":false,"station_name":"Pondok Cina","time":2,"distance":1109,"is_transit":false,"i_long":106.831114,"line":2,"i_lat":-6.369073},{"i_long":106.819451,"line":2,"transit":false,"i_lat":-6.391065,"is_transit":false,"time":4,"station_id":"DPB","station_name":"Depokbaru","distance":2727},{"time":3,"line":2,"station_name":"Depok","i_lat":-6.405256,"i_long":106.816926,"distance":1584,"is_transit":false,"station_id":"DP","transit":false},{"time":6,"station_id":"CTA","i_long":106.800298,"is_transit":true,"distance":5084,"station_name":"Citayam","transit":true,"i_lat":-6.448811,"line":2},{"distance":0,"transit":false,"is_transit":false,"station_name":"Pondok Rajeg","i_long":106.824374,"line":21,"i_lat":-6.460735,"station_id":"PDRG","time":0}]]}