{"data":[[{"station_name":"Pasar Senen","i_long":106.84368,"station_id":"PSE","transit":false,"line":11,"time":0,"distance":0,"is_transit":false,"i_lat":-6.174784},{"time":8,"transit":false,"i_long":106.850107,"distance":1567,"station_id":"GST","station_name":"Gang Sentiong","i_lat":-6.185975,"line":11,"is_transit":false},{"station_id":"KMT","transit":false,"line":11,"distance":973,"i_lat":-6.193792,"station_name":"Kramat","i_long":106.855437,"time":1,"is_transit":false},{"time":2,"transit":false,"distance":1829,"station_id":"POK","station_name":"Pondok Jati","line":11,"is_transit":false,"i_lat":-6.209188,"i_long":106.861737},{"is_transit":true,"transit":true,"i_lat":-6.215091,"line":1,"time":9,"station_name":"Jatinegara","distance":1236,"station_id":"JNG","i_long":106.86807400000001},{"time":2,"station_id":"MTR","transit":false,"station_name":"Matraman","i_long":106.858896,"i_lat":-6.212485,"line":1,"is_transit":false,"distance":1377},{"distance":1275,"i_lat":-6.209883,"i_long":106.84912,"line":2,"time":2,"transit":true,"station_name":"Manggarai","station_id":"MRI","is_transit":true},{"line":2,"is_transit":false,"distance":2610,"station_name":"Tebet","station_id":"TEB","i_long":106.857948,"i_lat":-6.226659,"transit":false,"time":4},{"time":2,"distance":1230,"is_transit":false,"transit":false,"i_lat":-6.242512,"station_id":"CW","i_long":106.856607,"line":2,"station_name":"Cawang"},{"station_name":"Duren Kalibata","distance":1546,"time":3,"station_id":"DRN","transit":false,"is_transit":false,"i_lat":-6.255332,"i_long":106.85449,"line":2},{"time":2,"transit":false,"line":2,"is_transit":false,"i_lat":-6.263214,"station_id":"PSMB","station_name":"Pasar Minggu Baru","i_long":106.851577,"distance":824},{"is_transit":false,"station_name":"Pasar Minggu","i_lat":-6.2842400000000005,"transit":false,"station_id":"PSM","line":2,"i_long":106.843999,"time":2,"distance":2380},{"is_transit":false,"time":4,"i_long":106.838896,"line":2,"distance":2820,"station_name":"Tanjung Barat","station_id":"TNT","i_lat":-6.3080680000000005,"transit":false},{"i_long":106.832616,"station_id":"LNA","i_lat":-6.330363,"distance":2671,"is_transit":false,"station_name":"Lenteng Agung","transit":false,"time":3,"line":2},{"i_long":106.834175,"line":2,"time":2,"is_transit":false,"transit":false,"station_name":"Univ. Pancasila","i_lat":-6.339291,"distance":1029,"station_id":"UP"}],[{"station_name":"Pasar Senen","i_lat":-6.174784,"line":11,"station_id":"PSE","transit":false,"i_long":106.84368,"time":0,"distance":0,"is_transit":false},{"i_lat":-6.161728,"transit":false,"line":11,"station_name":"Kemayoran","is_transit":false,"i_long":106.839204,"distance":1436,"time":4,"station_id":"KMO"},{"time":5,"is_transit":false,"station_name":"Rajawali","transit":false,"i_lat":-6.14505,"i_long":106.836569,"station_id":"RJW","distance":1901,"line":11},{"time":3,"is_transit":true,"line":4,"station_id":"KPB","i_lat":-6.132549,"station_name":"Kampung Bandan","transit":true,"i_long":106.826365,"distance":1444},{"time":9,"is_transit":false,"line":1,"i_long":106.79867,"station_id":"AK","transit":false,"distance":4102,"station_name":"Angke","i_lat":-6.144674},{"i_long":106.800832,"time":4,"station_id":"DU","station_name":"Duri","i_lat":-6.155215,"transit":false,"line":1,"distance":1230,"is_transit":false},{"is_transit":false,"station_name":"Tanah Abang","distance":3632,"transit":false,"i_long":106.811091,"i_lat":-6.185545,"time":8,"line":1,"station_id":"THB"},{"line":1,"i_lat":-6.20132,"transit":false,"time":5,"is_transit":false,"station_name":"Karet","distance":2029,"i_long":106.816351,"station_id":"KAT"},{"line":1,"station_id":"SUDB","distance":471,"i_lat":-6.201433,"is_transit":false,"i_long":106.819881,"time":1,"transit":false,"station_name":"Sudirman Baru"},{"is_transit":false,"distance":280,"line":1,"transit":false,"station_name":"Sudirman","i_lat":-6.202263,"time":1,"station_id":"SUD","i_long":106.822649},{"time":4,"is_transit":true,"transit":true,"station_id":"MRI","station_name":"Manggarai","distance":3186,"i_lat":-6.209883,"i_long":106.84912,"line":2},{"station_id":"TEB","is_transit":false,"time":4,"line":2,"i_long":106.857948,"distance":2610,"station_name":"Tebet","i_lat":-6.226659,"transit":false},{"time":2,"is_transit":false,"transit":false,"distance":1230,"station_id":"CW","station_name":"Cawang","line":2,"i_lat":-6.242512,"i_long":106.856607},{"station_name":"Duren Kalibata","station_id":"DRN","transit":false,"is_transit":false,"time":3,"line":2,"i_lat":-6.255332,"i_long":106.85449,"distance":1546},{"time":2,"transit":false,"i_lat":-6.263214,"station_id":"PSMB","i_long":106.851577,"station_name":"Pasar Minggu Baru","line":2,"is_transit":false,"distance":824},{"station_name":"Pasar Minggu","transit":false,"i_lat":-6.2842400000000005,"line":2,"i_long":106.843999,"distance":2380,"is_transit":false,"station_id":"PSM","time":2},{"distance":2820,"i_long":106.838896,"transit":false,"station_name":"Tanjung Barat","line":2,"i_lat":-6.3080680000000005,"is_transit":false,"station_id":"TNT","time":4},{"station_id":"LNA","time":3,"station_name":"Lenteng Agung","transit":false,"i_lat":-6.330363,"i_long":106.832616,"line":2,"distance":2671,"is_transit":false},{"line":2,"distance":1029,"station_id":"UP","is_transit":false,"station_name":"Univ. Pancasila","i_lat":-6.339291,"i_long":106.834175,"time":2,"transit":false}],[{"distance":0,"i_lat":-6.174784,"i_long":106.84368,"is_transit":false,"station_id":"PSE","line":11,"time":0,"transit":false,"station_name":"Pasar Senen"},{"transit":false,"distance":1436,"is_transit":false,"i_long":106.839204,"time":4,"station_name":"Kemayoran","station_id":"KMO","line":11,"i_lat":-6.161728},{"transit":false,"station_name":"Rajawali","line":11,"station_id":"RJW","i_lat":-6.14505,"time":5,"is_transit":false,"i_long":106.836569,"distance":1901},{"station_name":"Kampung Bandan","i_lat":-6.132549,"time":3,"i_long":106.826365,"transit":true,"is_transit":true,"station_id":"KPB","distance":1444,"line":4},{"time":3,"station_name":"Jakarta Kota","i_lat":-6.137569,"line":2,"station_id":"JAKK","i_long":106.812439,"is_transit":true,"transit":true,"distance":1364},{"i_lat":-6.141205,"distance":1264,"transit":false,"station_id":"JAY","line":2,"time":4,"is_transit":false,"station_name":"Jayakarta","i_long":106.820901},{"i_long":106.82482,"line":2,"i_lat":-6.149769,"time":2,"distance":1080,"transit":false,"is_transit":false,"station_id":"MGB","station_name":"Manggabesar"},{"time":2,"station_id":"SW","i_lat":-6.160725,"distance":906,"transit":false,"station_name":"Sawah Besar","i_long":106.827103,"is_transit":false,"line":2},{"distance":1149,"station_id":"JUA","station_name":"Juanda","is_transit":false,"time":2,"transit":false,"i_long":106.828284,"line":2,"i_lat":-6.166716},{"station_name":"Gondangdia","i_lat":-6.186295,"time":4,"line":2,"distance":2015,"i_long":106.832183,"is_transit":false,"station_id":"GDD","transit":false},{"transit":false,"station_id":"CKI","distance":1750,"i_lat":-6.198556,"i_long":106.840169,"time":3,"station_name":"Cikini","is_transit":false,"line":2},{"is_transit":false,"station_id":"MRI","distance":1590,"i_long":106.84912,"i_lat":-6.209883,"transit":false,"line":2,"time":4,"station_name":"Manggarai"},{"station_id":"TEB","station_name":"Tebet","i_long":106.857948,"i_lat":-6.226659,"line":2,"is_transit":false,"transit":false,"distance":2610,"time":4},{"station_id":"CW","i_long":106.856607,"time":2,"i_lat":-6.242512,"line":2,"transit":false,"is_transit":false,"distance":1230,"station_name":"Cawang"},{"i_long":106.85449,"time":3,"transit":false,"is_transit":false,"station_id":"DRN","i_lat":-6.255332,"distance":1546,"station_name":"Duren Kalibata","line":2},{"distance":824,"i_lat":-6.263214,"time":2,"station_name":"Pasar Minggu Baru","station_id":"PSMB","i_long":106.851577,"is_transit":false,"transit":false,"line":2},{"time":2,"i_lat":-6.2842400000000005,"is_transit":false,"distance":2380,"line":2,"transit":false,"station_id":"PSM","station_name":"Pasar Minggu","i_long":106.843999},{"transit":false,"station_id":"TNT","i_long":106.838896,"time":4,"line":2,"is_transit":false,"station_name":"Tanjung Barat","i_lat":-6.3080680000000005,"distance":2820},{"is_transit":false,"time":3,"transit":false,"station_id":"LNA","station_name":"Lenteng Agung","i_lat":-6.330363,"i_long":106.832616,"line":2,"distance":2671},{"i_long":106.834175,"line":2,"transit":false,"station_id":"UP","distance":1029,"time":2,"is_transit":false,"station_name":"Univ. Pancasila","i_lat":-6.339291}]]}