{"data":[[{"is_transit":false,"time":0,"station_name":"Pasar Senen","transit":false,"i_long":106.84368,"distance":0,"line":11,"station_id":"PSE","i_lat":-6.174784},{"distance":1436,"i_long":106.839204,"line":11,"station_id":"KMO","transit":false,"station_name":"Kemayoran","i_lat":-6.161728,"time":4,"is_transit":false},{"transit":false,"i_lat":-6.14505,"is_transit":false,"i_long":106.836569,"time":5,"line":11,"station_id":"RJW","station_name":"Rajawali","distance":1901},{"station_id":"KPB","is_transit":true,"station_name":"Kampung Bandan","distance":1444,"transit":true,"time":3,"i_lat":-6.132549,"i_long":106.826365,"line":0},{"station_name":"Angke","i_long":106.79867,"i_lat":-6.144674,"is_transit":false,"transit":false,"station_id":"AK","line":0,"time":9,"distance":4102},{"station_id":"DU","is_transit":true,"line":1,"i_long":106.800832,"distance":1230,"time":4,"station_name":"Duri","transit":true,"i_lat":-6.155215},{"station_name":"Grogol","i_lat":-6.162021,"distance":1700,"i_long":106.788277,"is_transit":false,"transit":false,"line":5,"time":3,"station_id":"GGL"},{"time":2,"is_transit":false,"i_lat":-6.161433,"station_name":"Pesing","station_id":"PSG","distance":2036,"transit":false,"line":5,"i_long":106.771379},{"i_lat":-6.1587309999999995,"distance":1614,"station_id":"TKO","i_long":106.756522,"station_name":"Taman Kota","time":2,"is_transit":false,"transit":false,"line":5},{"is_transit":false,"i_long":106.737035,"station_name":"Bojongindah","transit":false,"station_id":"BOI","i_lat":-6.159876,"line":0,"distance":2334,"time":2},{"line":5,"is_transit":false,"station_id":"RW","station_name":"Rawa Buaya","transit":false,"time":4,"i_long":106.723064,"distance":1152,"i_lat":-6.162758},{"distance":2504,"time":3,"line":5,"i_long":106.701612,"is_transit":false,"station_id":"KDS","station_name":"Kalideres","i_lat":-6.166068,"transit":false},{"distance":2548,"time":3,"is_transit":false,"line":5,"station_id":"PI","i_lat":-6.169933,"i_long":106.679458,"transit":false,"station_name":"Poris"},{"station_name":"Batuceper","time":3,"i_long":106.665036,"line":0,"i_lat":-6.171811,"distance":1834,"is_transit":false,"transit":false,"station_id":"BPR"}],[{"station_name":"Pasar Senen","time":0,"line":11,"is_transit":false,"transit":false,"i_long":106.84368,"i_lat":-6.174784,"station_id":"PSE","distance":0},{"transit":false,"i_long":106.850107,"line":11,"time":8,"distance":1567,"station_id":"GST","station_name":"Gang Sentiong","i_lat":-6.185975,"is_transit":false},{"i_long":106.855437,"line":11,"distance":973,"transit":false,"station_id":"KMT","station_name":"Kramat","i_lat":-6.193792,"time":1,"is_transit":false},{"station_name":"Pondok Jati","transit":false,"line":11,"is_transit":false,"i_lat":-6.209188,"i_long":106.861737,"station_id":"POK","time":2,"distance":1829},{"time":9,"line":0,"i_lat":-6.215091,"i_long":106.86807400000001,"is_transit":true,"distance":1236,"station_name":"Jatinegara","station_id":"JNG","transit":true},{"line":1,"station_name":"Matraman","transit":false,"i_lat":-6.212485,"time":2,"i_long":106.858896,"station_id":"MTR","distance":1377,"is_transit":false},{"distance":1275,"i_lat":-6.209883,"station_name":"Manggarai","time":2,"i_long":106.84912,"is_transit":true,"station_id":"MRI","transit":false,"line":0},{"transit":false,"is_transit":false,"time":4,"i_lat":-6.202263,"i_long":106.822649,"line":1,"distance":3186,"station_id":"SUD","station_name":"Sudirman"},{"is_transit":false,"i_long":106.819881,"line":1,"distance":280,"station_id":"SUDB","station_name":"Sudirman Baru","i_lat":-6.201433,"time":1,"transit":false},{"i_long":106.816351,"station_id":"KAT","i_lat":-6.20132,"distance":471,"is_transit":false,"transit":false,"time":1,"line":1,"station_name":"Karet"},{"time":5,"station_name":"Tanah Abang","i_lat":-6.185545,"i_long":106.811091,"line":1,"distance":2029,"is_transit":true,"station_id":"THB","transit":false},{"station_name":"Duri","distance":3632,"i_long":106.800832,"i_lat":-6.155215,"line":1,"station_id":"DU","transit":true,"time":8,"is_transit":true},{"i_lat":-6.162021,"line":5,"station_id":"GGL","is_transit":false,"distance":1700,"station_name":"Grogol","time":3,"i_long":106.788277,"transit":false},{"i_lat":-6.161433,"is_transit":false,"station_id":"PSG","line":5,"time":2,"transit":false,"station_name":"Pesing","i_long":106.771379,"distance":2036},{"i_lat":-6.1587309999999995,"transit":false,"line":5,"time":2,"is_transit":false,"distance":1614,"station_name":"Taman Kota","station_id":"TKO","i_long":106.756522},{"i_lat":-6.159876,"i_long":106.737035,"station_id":"BOI","station_name":"Bojongindah","line":0,"distance":2334,"transit":false,"is_transit":false,"time":2},{"transit":false,"time":4,"i_lat":-6.162758,"station_name":"Rawa Buaya","line":5,"i_long":106.723064,"distance":1152,"is_transit":false,"station_id":"RW"},{"station_name":"Kalideres","i_long":106.701612,"distance":2504,"i_lat":-6.166068,"line":5,"station_id":"KDS","transit":false,"time":3,"is_transit":false},{"station_name":"Poris","time":3,"i_long":106.679458,"distance":2548,"is_transit":false,"line":5,"transit":false,"i_lat":-6.169933,"station_id":"PI"},{"station_id":"BPR","transit":false,"i_long":106.665036,"line":0,"station_name":"Batuceper","time":3,"i_lat":-6.171811,"is_transit":false,"distance":1834}],[{"time":0,"station_id":"PSE","transit":false,"is_transit":false,"distance":0,"i_lat":-6.174784,"station_name":"Pasar Senen","line":11,"i_long":106.84368},{"is_transit":false,"i_lat":-6.185975,"line":11,"station_id":"GST","transit":false,"station_name":"Gang Sentiong","i_long":106.850107,"distance":1567,"time":8},{"station_id":"KMT","station_name":"Kramat","time":1,"i_long":106.855437,"transit":false,"line":11,"distance":973,"is_transit":false,"i_lat":-6.193792},{"distance":1829,"time":2,"i_lat":-6.209188,"station_name":"Pondok Jati","transit":false,"i_long":106.861737,"is_transit":false,"line":11,"station_id":"POK"},{"distance":1236,"station_id":"JNG","time":9,"line":0,"i_lat":-6.215091,"is_transit":true,"station_name":"Jatinegara","i_long":106.86807400000001,"transit":true},{"station_id":"MTR","station_name":"Matraman","line":1,"time":2,"distance":1377,"transit":false,"is_transit":false,"i_long":106.858896,"i_lat":-6.212485},{"distance":1275,"i_long":106.84912,"line":0,"transit":true,"station_name":"Manggarai","is_transit":true,"station_id":"MRI","time":2,"i_lat":-6.209883},{"time":4,"station_name":"Cikini","transit":false,"is_transit":false,"i_lat":-6.198556,"i_long":106.840169,"station_id":"CKI","line":0,"distance":1590},{"i_lat":-6.186295,"station_id":"GDD","line":2,"station_name":"Gondangdia","time":3,"distance":1750,"is_transit":false,"i_long":106.832183,"transit":false},{"i_lat":-6.166716,"distance":2015,"is_transit":false,"time":4,"station_id":"JUA","line":2,"station_name":"Juanda","transit":false,"i_long":106.828284},{"station_name":"Sawah Besar","i_long":106.827103,"is_transit":false,"time":2,"transit":false,"distance":1149,"i_lat":-6.160725,"line":2,"station_id":"SW"},{"line":2,"i_lat":-6.149769,"i_long":106.82482,"station_id":"MGB","transit":false,"time":2,"station_name":"Manggabesar","distance":906,"is_transit":false},{"is_transit":false,"transit":false,"station_name":"Jayakarta","station_id":"JAY","i_long":106.820901,"distance":1080,"i_lat":-6.141205,"time":2,"line":7},{"i_long":106.812439,"i_lat":-6.137569,"is_transit":true,"station_name":"Jakarta Kota","line":0,"time":4,"distance":1264,"station_id":"JAKK","transit":true},{"time":3,"is_transit":true,"i_long":106.826365,"line":0,"station_name":"Kampung Bandan","station_id":"KPB","distance":1364,"transit":false,"i_lat":-6.132549},{"station_name":"Angke","transit":false,"time":9,"line":0,"distance":4102,"i_lat":-6.144674,"i_long":106.79867,"is_transit":false,"station_id":"AK"},{"transit":true,"station_id":"DU","time":4,"i_long":106.800832,"line":1,"is_transit":true,"distance":1230,"station_name":"Duri","i_lat":-6.155215},{"station_id":"GGL","time":3,"station_name":"Grogol","distance":1700,"line":5,"i_lat":-6.162021,"i_long":106.788277,"transit":false,"is_transit":false},{"distance":2036,"transit":false,"i_long":106.771379,"station_name":"Pesing","time":2,"is_transit":false,"line":5,"station_id":"PSG","i_lat":-6.161433},{"i_long":106.756522,"line":5,"is_transit":false,"station_id":"TKO","station_name":"Taman Kota","distance":1614,"transit":false,"time":2,"i_lat":-6.1587309999999995},{"distance":2334,"time":2,"i_long":106.737035,"station_id":"BOI","is_transit":false,"line":0,"transit":false,"i_lat":-6.159876,"station_name":"Bojongindah"},{"station_name":"Rawa Buaya","line":5,"i_long":106.723064,"is_transit":false,"station_id":"RW","i_lat":-6.162758,"distance":1152,"transit":false,"time":4},{"distance":2504,"is_transit":false,"station_name":"Kalideres","transit":false,"i_lat":-6.166068,"i_long":106.701612,"time":3,"line":5,"station_id":"KDS"},{"station_id":"PI","transit":false,"i_long":106.679458,"time":3,"line":5,"station_name":"Poris","is_transit":false,"distance":2548,"i_lat":-6.169933},{"transit":false,"i_long":106.665036,"line":0,"time":3,"i_lat":-6.171811,"is_transit":false,"distance":1834,"station_id":"BPR","station_name":"Batuceper"}],[{"i_lat":-6.174784,"time":0,"is_transit":false,"line":11,"station_id":"PSE","transit":false,"distance":0,"i_long":106.84368,"station_name":"Pasar Senen"},{"is_transit":false,"station_id":"KMO","station_name":"Kemayoran","transit":false,"time":4,"i_long":106.839204,"distance":1436,"i_lat":-6.161728,"line":11},{"i_lat":-6.14505,"distance":1901,"i_long":106.836569,"is_transit":false,"transit":false,"station_name":"Rajawali","time":5,"line":11,"station_id":"RJW"},{"i_lat":-6.132549,"station_id":"KPB","time":3,"transit":true,"i_long":106.826365,"line":0,"distance":1444,"is_transit":true,"station_name":"Kampung Bandan"},{"line":0,"station_id":"JAKK","is_transit":true,"transit":true,"distance":1364,"i_lat":-6.137569,"i_long":106.812439,"station_name":"Jakarta Kota","time":3},{"station_name":"Jayakarta","line":7,"i_lat":-6.141205,"transit":false,"is_transit":false,"i_long":106.820901,"time":4,"distance":1264,"station_id":"JAY"},{"transit":false,"i_long":106.82482,"i_lat":-6.149769,"time":2,"line":2,"is_transit":false,"distance":1080,"station_name":"Manggabesar","station_id":"MGB"},{"station_id":"SW","is_transit":false,"station_name":"Sawah Besar","time":2,"transit":false,"line":2,"distance":906,"i_lat":-6.160725,"i_long":106.827103},{"distance":1149,"line":2,"station_name":"Juanda","i_long":106.828284,"i_lat":-6.166716,"time":2,"station_id":"JUA","is_transit":false,"transit":false},{"is_transit":false,"distance":2015,"station_name":"Gondangdia","station_id":"GDD","transit":false,"i_lat":-6.186295,"i_long":106.832183,"line":2,"time":4},{"is_transit":false,"time":3,"line":0,"i_lat":-6.198556,"i_long":106.840169,"station_name":"Cikini","distance":1750,"transit":false,"station_id":"CKI"},{"distance":1590,"station_name":"Manggarai","transit":true,"time":4,"is_transit":true,"i_lat":-6.209883,"i_long":106.84912,"line":0,"station_id":"MRI"},{"is_transit":false,"station_id":"SUD","station_name":"Sudirman","i_lat":-6.202263,"time":4,"line":1,"distance":3186,"transit":false,"i_long":106.822649},{"line":1,"distance":280,"i_lat":-6.201433,"i_long":106.819881,"time":1,"station_id":"SUDB","station_name":"Sudirman Baru","is_transit":false,"transit":false},{"i_long":106.816351,"station_name":"Karet","transit":false,"station_id":"KAT","distance":471,"time":1,"i_lat":-6.20132,"line":1,"is_transit":false},{"transit":false,"i_lat":-6.185545,"i_long":106.811091,"distance":2029,"is_transit":true,"time":5,"station_id":"THB","line":1,"station_name":"Tanah Abang"},{"i_long":106.800832,"distance":3632,"transit":true,"time":8,"station_name":"Duri","is_transit":true,"line":1,"i_lat":-6.155215,"station_id":"DU"},{"station_id":"GGL","distance":1700,"i_lat":-6.162021,"is_transit":false,"i_long":106.788277,"transit":false,"station_name":"Grogol","time":3,"line":5},{"transit":false,"is_transit":false,"i_long":106.771379,"distance":2036,"time":2,"station_id":"PSG","station_name":"Pesing","line":5,"i_lat":-6.161433},{"transit":false,"i_long":106.756522,"distance":1614,"time":2,"line":5,"station_id":"TKO","is_transit":false,"station_name":"Taman Kota","i_lat":-6.1587309999999995},{"station_id":"BOI","is_transit":false,"transit":false,"station_name":"Bojongindah","time":2,"i_long":106.737035,"line":0,"distance":2334,"i_lat":-6.159876},{"time":4,"distance":1152,"is_transit":false,"station_id":"RW","station_name":"Rawa Buaya","line":5,"transit":false,"i_lat":-6.162758,"i_long":106.723064},{"time":3,"i_lat":-6.166068,"i_long":106.701612,"transit":false,"line":5,"station_name":"Kalideres","is_transit":false,"station_id":"KDS","distance":2504},{"station_id":"PI","i_lat":-6.169933,"is_transit":false,"i_long":106.679458,"station_name":"Poris","transit":false,"time":3,"distance":2548,"line":5},{"station_name":"Batuceper","transit":false,"is_transit":false,"line":0,"station_id":"BPR","distance":1834,"i_lat":-6.171811,"time":3,"i_long":106.665036}]]}