{"data":[[{"time":0,"i_long":106.84368,"transit":false,"distance":0,"station_name":"Pasar Senen","station_id":"PSE","i_lat":-6.174784,"line":11,"is_transit":false},{"i_long":106.839204,"transit":false,"station_id":"KMO","time":4,"line":11,"station_name":"Kemayoran","is_transit":false,"i_lat":-6.161728,"distance":1436},{"time":5,"is_transit":false,"i_lat":-6.14505,"line":11,"station_id":"RJW","i_long":106.836569,"distance":1901,"station_name":"Rajawali","transit":false},{"i_long":106.826365,"station_id":"KPB","line":4,"transit":true,"time":3,"distance":1444,"i_lat":-6.132549,"is_transit":true,"station_name":"Kampung Bandan"},{"distance":4102,"station_name":"Angke","is_transit":false,"transit":false,"time":9,"station_id":"AK","i_lat":-6.144674,"i_long":106.79867,"line":1},{"i_lat":-6.155215,"line":1,"station_id":"DU","time":4,"is_transit":true,"distance":1230,"station_name":"Duri","transit":true,"i_long":106.800832},{"time":3,"i_long":106.788277,"distance":1700,"station_name":"Grogol","is_transit":false,"station_id":"GGL","transit":false,"i_lat":-6.162021,"line":5},{"line":5,"station_id":"PSG","transit":false,"station_name":"Pesing","time":2,"is_transit":false,"i_lat":-6.161433,"distance":2036,"i_long":106.771379},{"i_lat":-6.1587309999999995,"time":2,"is_transit":false,"station_id":"TKO","i_long":106.756522,"line":5,"distance":1614,"transit":false,"station_name":"Taman Kota"},{"distance":2334,"i_lat":-6.159876,"station_name":"Bojongindah","transit":false,"station_id":"BOI","i_long":106.737035,"time":2,"is_transit":false,"line":5},{"i_lat":-6.162758,"i_long":106.723064,"time":4,"transit":false,"distance":1152,"station_name":"Rawa Buaya","line":5,"is_transit":false,"station_id":"RW"},{"i_lat":-6.166068,"is_transit":false,"time":3,"distance":2504,"line":5,"station_name":"Kalideres","station_id":"KDS","i_long":106.701612,"transit":false},{"is_transit":false,"transit":false,"i_long":106.679458,"distance":2548,"station_id":"PI","time":3,"station_name":"Poris","i_lat":-6.169933,"line":5},{"line":5,"is_transit":false,"time":3,"distance":1834,"station_id":"BPR","transit":false,"station_name":"Batuceper","i_lat":-6.171811,"i_long":106.665036}],[{"distance":0,"transit":false,"i_lat":-6.174784,"line":11,"station_id":"PSE","time":0,"station_name":"Pasar Senen","is_transit":false,"i_long":106.84368},{"i_long":106.850107,"time":8,"is_transit":false,"station_id":"GST","transit":false,"line":11,"station_name":"Gang Sentiong","i_lat":-6.185975,"distance":1567},{"station_name":"Kramat","distance":973,"is_transit":false,"station_id":"KMT","i_long":106.855437,"transit":false,"i_lat":-6.193792,"line":11,"time":1},{"distance":1829,"line":11,"station_id":"POK","time":2,"transit":false,"i_lat":-6.209188,"i_long":106.861737,"is_transit":false,"station_name":"Pondok Jati"},{"transit":true,"distance":1236,"station_name":"Jatinegara","is_transit":true,"i_long":106.86807400000001,"i_lat":-6.215091,"time":9,"station_id":"JNG","line":1},{"i_long":106.858896,"transit":false,"time":2,"line":1,"station_name":"Matraman","i_lat":-6.212485,"station_id":"MTR","distance":1377,"is_transit":false},{"line":2,"is_transit":false,"transit":false,"time":2,"distance":1275,"i_long":106.84912,"i_lat":-6.209883,"station_id":"MRI","station_name":"Manggarai"},{"i_long":106.822649,"time":4,"station_name":"Sudirman","transit":false,"is_transit":false,"i_lat":-6.202263,"line":1,"distance":3186,"station_id":"SUD"},{"time":1,"distance":280,"is_transit":false,"transit":false,"i_long":106.819881,"line":1,"station_id":"SUDB","i_lat":-6.201433,"station_name":"Sudirman Baru"},{"is_transit":false,"time":1,"station_id":"KAT","transit":false,"i_long":106.816351,"line":1,"i_lat":-6.20132,"station_name":"Karet","distance":471},{"is_transit":false,"transit":false,"line":1,"distance":2029,"station_id":"THB","station_name":"Tanah Abang","time":5,"i_long":106.811091,"i_lat":-6.185545},{"station_id":"DU","i_lat":-6.155215,"line":1,"i_long":106.800832,"is_transit":true,"distance":3632,"station_name":"Duri","transit":true,"time":8},{"time":3,"is_transit":false,"i_long":106.788277,"i_lat":-6.162021,"line":5,"station_name":"Grogol","station_id":"GGL","distance":1700,"transit":false},{"is_transit":false,"time":2,"transit":false,"distance":2036,"station_id":"PSG","i_lat":-6.161433,"i_long":106.771379,"station_name":"Pesing","line":5},{"is_transit":false,"distance":1614,"transit":false,"i_lat":-6.1587309999999995,"i_long":106.756522,"line":5,"time":2,"station_name":"Taman Kota","station_id":"TKO"},{"line":5,"station_name":"Bojongindah","transit":false,"station_id":"BOI","i_lat":-6.159876,"time":2,"is_transit":false,"distance":2334,"i_long":106.737035},{"i_long":106.723064,"distance":1152,"station_name":"Rawa Buaya","transit":false,"time":4,"i_lat":-6.162758,"station_id":"RW","line":5,"is_transit":false},{"distance":2504,"line":5,"station_name":"Kalideres","i_lat":-6.166068,"i_long":106.701612,"station_id":"KDS","time":3,"transit":false,"is_transit":false},{"time":3,"is_transit":false,"station_name":"Poris","i_lat":-6.169933,"transit":false,"i_long":106.679458,"line":5,"distance":2548,"station_id":"PI"},{"distance":1834,"station_id":"BPR","is_transit":false,"i_lat":-6.171811,"i_long":106.665036,"transit":false,"line":5,"station_name":"Batuceper","time":3}],[{"line":11,"station_id":"PSE","distance":0,"i_lat":-6.174784,"transit":false,"is_transit":false,"station_name":"Pasar Senen","time":0,"i_long":106.84368},{"station_name":"Gang Sentiong","transit":false,"is_transit":false,"i_lat":-6.185975,"line":11,"time":8,"station_id":"GST","i_long":106.850107,"distance":1567},{"is_transit":false,"station_id":"KMT","line":11,"station_name":"Kramat","distance":973,"time":1,"transit":false,"i_lat":-6.193792,"i_long":106.855437},{"time":2,"line":11,"i_lat":-6.209188,"i_long":106.861737,"station_name":"Pondok Jati","transit":false,"is_transit":false,"distance":1829,"station_id":"POK"},{"line":1,"station_name":"Jatinegara","time":9,"distance":1236,"transit":true,"is_transit":true,"i_lat":-6.215091,"i_long":106.86807400000001,"station_id":"JNG"},{"is_transit":false,"time":2,"transit":false,"i_lat":-6.212485,"station_id":"MTR","line":1,"station_name":"Matraman","distance":1377,"i_long":106.858896},{"transit":true,"line":2,"time":2,"is_transit":true,"distance":1275,"station_id":"MRI","station_name":"Manggarai","i_lat":-6.209883,"i_long":106.84912},{"distance":1590,"is_transit":false,"time":4,"i_lat":-6.198556,"station_id":"CKI","transit":false,"station_name":"Cikini","i_long":106.840169,"line":2},{"distance":1750,"time":3,"station_name":"Gondangdia","station_id":"GDD","i_lat":-6.186295,"is_transit":false,"transit":false,"i_long":106.832183,"line":2},{"is_transit":false,"line":2,"time":4,"station_name":"Juanda","i_lat":-6.166716,"i_long":106.828284,"distance":2015,"transit":false,"station_id":"JUA"},{"time":2,"transit":false,"is_transit":false,"i_long":106.827103,"i_lat":-6.160725,"line":2,"distance":1149,"station_name":"Sawah Besar","station_id":"SW"},{"station_name":"Manggabesar","i_lat":-6.149769,"transit":false,"station_id":"MGB","line":2,"distance":906,"i_long":106.82482,"is_transit":false,"time":2},{"is_transit":false,"i_lat":-6.141205,"transit":false,"i_long":106.820901,"station_id":"JAY","station_name":"Jayakarta","distance":1080,"time":2,"line":2},{"distance":1264,"transit":true,"i_lat":-6.137569,"time":4,"station_id":"JAKK","is_transit":true,"station_name":"Jakarta Kota","line":2,"i_long":106.812439},{"i_lat":-6.132549,"time":3,"line":4,"is_transit":true,"station_id":"KPB","station_name":"Kampung Bandan","distance":1364,"transit":true,"i_long":106.826365},{"is_transit":false,"time":9,"station_name":"Angke","transit":false,"i_lat":-6.144674,"i_long":106.79867,"station_id":"AK","line":1,"distance":4102},{"transit":true,"line":1,"is_transit":true,"station_name":"Duri","time":4,"distance":1230,"station_id":"DU","i_lat":-6.155215,"i_long":106.800832},{"is_transit":false,"i_lat":-6.162021,"station_name":"Grogol","i_long":106.788277,"time":3,"station_id":"GGL","transit":false,"line":5,"distance":1700},{"is_transit":false,"transit":false,"time":2,"i_long":106.771379,"distance":2036,"i_lat":-6.161433,"station_id":"PSG","line":5,"station_name":"Pesing"},{"time":2,"transit":false,"station_name":"Taman Kota","station_id":"TKO","i_long":106.756522,"distance":1614,"is_transit":false,"i_lat":-6.1587309999999995,"line":5},{"station_id":"BOI","i_lat":-6.159876,"time":2,"station_name":"Bojongindah","i_long":106.737035,"transit":false,"distance":2334,"is_transit":false,"line":5},{"station_id":"RW","i_lat":-6.162758,"i_long":106.723064,"is_transit":false,"station_name":"Rawa Buaya","time":4,"line":5,"distance":1152,"transit":false},{"distance":2504,"station_name":"Kalideres","station_id":"KDS","time":3,"transit":false,"i_lat":-6.166068,"is_transit":false,"i_long":106.701612,"line":5},{"transit":false,"time":3,"i_lat":-6.169933,"distance":2548,"i_long":106.679458,"station_name":"Poris","is_transit":false,"line":5,"station_id":"PI"},{"distance":1834,"is_transit":false,"i_long":106.665036,"i_lat":-6.171811,"station_name":"Batuceper","line":5,"station_id":"BPR","time":3,"transit":false}],[{"station_name":"Pasar Senen","i_long":106.84368,"distance":0,"station_id":"PSE","transit":false,"is_transit":false,"i_lat":-6.174784,"time":0,"line":11},{"time":4,"is_transit":false,"i_lat":-6.161728,"transit":false,"station_name":"Kemayoran","i_long":106.839204,"distance":1436,"line":11,"station_id":"KMO"},{"line":11,"station_id":"RJW","distance":1901,"i_lat":-6.14505,"station_name":"Rajawali","i_long":106.836569,"time":5,"is_transit":false,"transit":false},{"i_long":106.826365,"i_lat":-6.132549,"station_id":"KPB","transit":true,"time":3,"is_transit":true,"distance":1444,"line":4,"station_name":"Kampung Bandan"},{"station_id":"JAKK","i_lat":-6.137569,"station_name":"Jakarta Kota","distance":1364,"i_long":106.812439,"transit":true,"line":2,"is_transit":true,"time":3},{"station_id":"JAY","is_transit":false,"line":2,"distance":1264,"time":4,"transit":false,"station_name":"Jayakarta","i_long":106.820901,"i_lat":-6.141205},{"station_name":"Manggabesar","i_long":106.82482,"i_lat":-6.149769,"is_transit":false,"transit":false,"station_id":"MGB","distance":1080,"line":2,"time":2},{"i_long":106.827103,"is_transit":false,"station_id":"SW","station_name":"Sawah Besar","time":2,"i_lat":-6.160725,"line":2,"distance":906,"transit":false},{"distance":1149,"line":2,"station_id":"JUA","station_name":"Juanda","transit":false,"is_transit":false,"i_lat":-6.166716,"time":2,"i_long":106.828284},{"time":4,"distance":2015,"transit":false,"i_lat":-6.186295,"line":2,"is_transit":false,"i_long":106.832183,"station_id":"GDD","station_name":"Gondangdia"},{"line":2,"station_id":"CKI","transit":false,"time":3,"distance":1750,"is_transit":false,"station_name":"Cikini","i_lat":-6.198556,"i_long":106.840169},{"transit":true,"i_lat":-6.209883,"line":2,"distance":1590,"time":4,"i_long":106.84912,"station_id":"MRI","is_transit":true,"station_name":"Manggarai"},{"station_id":"SUD","distance":3186,"time":4,"transit":false,"i_lat":-6.202263,"is_transit":false,"station_name":"Sudirman","i_long":106.822649,"line":1},{"i_lat":-6.201433,"time":1,"line":1,"distance":280,"station_name":"Sudirman Baru","transit":false,"i_long":106.819881,"station_id":"SUDB","is_transit":false},{"time":1,"i_long":106.816351,"transit":false,"is_transit":false,"i_lat":-6.20132,"station_name":"Karet","station_id":"KAT","distance":471,"line":1},{"line":1,"station_id":"THB","time":5,"distance":2029,"transit":false,"i_lat":-6.185545,"is_transit":false,"station_name":"Tanah Abang","i_long":106.811091},{"station_id":"DU","distance":3632,"i_long":106.800832,"transit":true,"time":8,"i_lat":-6.155215,"line":1,"station_name":"Duri","is_transit":true},{"transit":false,"is_transit":false,"station_name":"Grogol","distance":1700,"i_long":106.788277,"station_id":"GGL","line":5,"i_lat":-6.162021,"time":3},{"station_name":"Pesing","transit":false,"i_lat":-6.161433,"time":2,"station_id":"PSG","i_long":106.771379,"line":5,"is_transit":false,"distance":2036},{"transit":false,"i_lat":-6.1587309999999995,"is_transit":false,"distance":1614,"i_long":106.756522,"line":5,"time":2,"station_name":"Taman Kota","station_id":"TKO"},{"i_lat":-6.159876,"distance":2334,"is_transit":false,"time":2,"station_id":"BOI","line":5,"station_name":"Bojongindah","transit":false,"i_long":106.737035},{"transit":false,"i_long":106.723064,"is_transit":false,"station_name":"Rawa Buaya","distance":1152,"time":4,"i_lat":-6.162758,"line":5,"station_id":"RW"},{"transit":false,"i_lat":-6.166068,"station_id":"KDS","line":5,"time":3,"station_name":"Kalideres","distance":2504,"is_transit":false,"i_long":106.701612},{"station_name":"Poris","distance":2548,"i_lat":-6.169933,"time":3,"is_transit":false,"transit":false,"station_id":"PI","i_long":106.679458,"line":5},{"station_id":"BPR","i_lat":-6.171811,"i_long":106.665036,"distance":1834,"is_transit":false,"station_name":"Batuceper","time":3,"transit":false,"line":5}]]}