{"data":[[{"is_transit":false,"transit":false,"time":0,"i_lat":-6.174784,"i_long":106.84368,"station_id":"PSE","station_name":"Pasar Senen","distance":0,"line":11},{"i_lat":-6.185975,"line":11,"time":8,"distance":1567,"is_transit":false,"i_long":106.850107,"transit":false,"station_name":"Gang Sentiong","station_id":"GST"},{"i_long":106.855437,"station_id":"KMT","distance":973,"i_lat":-6.193792,"is_transit":false,"station_name":"Kramat","line":11,"transit":false,"time":1},{"time":2,"station_name":"Pondok Jati","station_id":"POK","i_lat":-6.209188,"line":11,"distance":1829,"transit":false,"is_transit":false,"i_long":106.861737},{"line":1,"station_id":"JNG","transit":true,"is_transit":true,"station_name":"Jatinegara","i_long":106.86807400000001,"i_lat":-6.215091,"time":9,"distance":1236},{"time":2,"i_lat":-6.212485,"station_name":"Matraman","distance":1377,"station_id":"MTR","transit":false,"i_long":106.858896,"is_transit":false,"line":1},{"station_id":"MRI","i_long":106.84912,"line":2,"station_name":"Manggarai","is_transit":true,"transit":true,"distance":1275,"i_lat":-6.209883,"time":2},{"time":4,"i_long":106.840169,"station_id":"CKI","line":2,"i_lat":-6.198556,"transit":false,"distance":1590,"is_transit":false,"station_name":"Cikini"},{"distance":1750,"is_transit":false,"station_id":"GDD","time":3,"i_lat":-6.186295,"station_name":"Gondangdia","i_long":106.832183,"line":2,"transit":false}],[{"i_lat":-6.174784,"distance":0,"is_transit":false,"i_long":106.84368,"transit":false,"station_name":"Pasar Senen","line":11,"time":0,"station_id":"PSE"},{"i_lat":-6.161728,"i_long":106.839204,"transit":false,"line":11,"station_id":"KMO","station_name":"Kemayoran","time":4,"is_transit":false,"distance":1436},{"time":5,"line":11,"i_long":106.836569,"i_lat":-6.14505,"station_id":"RJW","is_transit":false,"transit":false,"distance":1901,"station_name":"Rajawali"},{"station_id":"KPB","distance":1444,"i_lat":-6.132549,"i_long":106.826365,"is_transit":true,"time":3,"line":4,"transit":true,"station_name":"Kampung Bandan"},{"i_long":106.812439,"i_lat":-6.137569,"station_id":"JAKK","time":3,"transit":true,"line":2,"is_transit":true,"distance":1364,"station_name":"Jakarta Kota"},{"i_lat":-6.141205,"transit":false,"i_long":106.820901,"distance":1264,"station_name":"Jayakarta","is_transit":false,"station_id":"JAY","line":2,"time":4},{"transit":false,"station_name":"Manggabesar","distance":1080,"i_long":106.82482,"is_transit":false,"time":2,"i_lat":-6.149769,"station_id":"MGB","line":2},{"time":2,"station_name":"Sawah Besar","station_id":"SW","is_transit":false,"distance":906,"i_lat":-6.160725,"line":2,"i_long":106.827103,"transit":false},{"station_name":"Juanda","distance":1149,"i_lat":-6.166716,"station_id":"JUA","time":2,"line":2,"transit":false,"is_transit":false,"i_long":106.828284},{"is_transit":false,"station_id":"GDD","i_lat":-6.186295,"distance":2015,"transit":false,"line":2,"time":4,"station_name":"Gondangdia","i_long":106.832183}],[{"i_long":106.84368,"distance":0,"time":0,"i_lat":-6.174784,"is_transit":false,"station_name":"Pasar Senen","transit":false,"station_id":"PSE","line":11},{"station_name":"Kemayoran","distance":1436,"i_long":106.839204,"line":11,"transit":false,"station_id":"KMO","time":4,"is_transit":false,"i_lat":-6.161728},{"station_name":"Rajawali","station_id":"RJW","is_transit":false,"i_lat":-6.14505,"line":11,"time":5,"transit":false,"i_long":106.836569,"distance":1901},{"line":4,"transit":true,"distance":1444,"i_long":106.826365,"i_lat":-6.132549,"is_transit":true,"time":3,"station_name":"Kampung Bandan","station_id":"KPB"},{"i_long":106.79867,"time":9,"line":1,"station_name":"Angke","i_lat":-6.144674,"transit":false,"station_id":"AK","distance":4102,"is_transit":false},{"transit":false,"line":1,"distance":1230,"station_name":"Duri","station_id":"DU","time":4,"is_transit":false,"i_lat":-6.155215,"i_long":106.800832},{"distance":3632,"i_long":106.811091,"line":1,"i_lat":-6.185545,"station_name":"Tanah Abang","time":8,"is_transit":false,"station_id":"THB","transit":false},{"station_id":"KAT","i_lat":-6.20132,"transit":false,"time":5,"i_long":106.816351,"station_name":"Karet","distance":2029,"line":1,"is_transit":false},{"is_transit":false,"transit":false,"line":1,"distance":471,"station_id":"SUDB","time":1,"station_name":"Sudirman Baru","i_lat":-6.201433,"i_long":106.819881},{"transit":false,"station_name":"Sudirman","time":1,"station_id":"SUD","is_transit":false,"distance":280,"i_lat":-6.202263,"i_long":106.822649,"line":1},{"station_name":"Manggarai","station_id":"MRI","i_lat":-6.209883,"transit":true,"time":4,"is_transit":true,"line":2,"i_long":106.84912,"distance":3186},{"line":2,"station_name":"Cikini","distance":1590,"i_long":106.840169,"time":4,"station_id":"CKI","i_lat":-6.198556,"transit":false,"is_transit":false},{"line":2,"is_transit":false,"i_long":106.832183,"station_id":"GDD","distance":1750,"time":3,"transit":false,"i_lat":-6.186295,"station_name":"Gondangdia"}],[{"time":0,"is_transit":false,"i_long":106.84368,"i_lat":-6.174784,"transit":false,"station_name":"Pasar Senen","distance":0,"line":11,"station_id":"PSE"},{"i_long":106.850107,"station_name":"Gang Sentiong","i_lat":-6.185975,"distance":1567,"transit":false,"is_transit":false,"station_id":"GST","line":11,"time":8},{"station_id":"KMT","transit":false,"station_name":"Kramat","is_transit":false,"i_lat":-6.193792,"i_long":106.855437,"line":11,"time":1,"distance":973},{"i_lat":-6.209188,"is_transit":false,"station_id":"POK","line":11,"station_name":"Pondok Jati","i_long":106.861737,"distance":1829,"transit":false,"time":2},{"transit":true,"i_long":106.86807400000001,"is_transit":true,"station_name":"Jatinegara","station_id":"JNG","distance":1236,"i_lat":-6.215091,"time":9,"line":1},{"i_lat":-6.212485,"distance":1377,"i_long":106.858896,"line":1,"station_name":"Matraman","station_id":"MTR","transit":false,"time":2,"is_transit":false},{"station_id":"MRI","time":2,"i_lat":-6.209883,"i_long":106.84912,"line":2,"is_transit":false,"distance":1275,"transit":false,"station_name":"Manggarai"},{"line":1,"transit":false,"time":4,"is_transit":false,"distance":3186,"station_name":"Sudirman","station_id":"SUD","i_lat":-6.202263,"i_long":106.822649},{"i_lat":-6.201433,"line":1,"transit":false,"station_name":"Sudirman Baru","time":1,"is_transit":false,"i_long":106.819881,"station_id":"SUDB","distance":280},{"station_name":"Karet","station_id":"KAT","line":1,"time":1,"is_transit":false,"i_lat":-6.20132,"i_long":106.816351,"transit":false,"distance":471},{"i_long":106.811091,"station_name":"Tanah Abang","is_transit":false,"distance":2029,"i_lat":-6.185545,"station_id":"THB","line":1,"transit":false,"time":5},{"transit":false,"station_id":"DU","time":8,"is_transit":false,"i_lat":-6.155215,"line":1,"i_long":106.800832,"station_name":"Duri","distance":3632},{"station_id":"AK","station_name":"Angke","is_transit":false,"transit":false,"distance":1230,"line":1,"i_lat":-6.144674,"i_long":106.79867,"time":4},{"station_id":"KPB","station_name":"Kampung Bandan","line":4,"is_transit":true,"time":9,"distance":4102,"transit":true,"i_lat":-6.132549,"i_long":106.826365},{"i_long":106.812439,"transit":true,"is_transit":true,"distance":1364,"station_name":"Jakarta Kota","station_id":"JAKK","line":2,"time":3,"i_lat":-6.137569},{"is_transit":false,"i_lat":-6.141205,"time":4,"distance":1264,"station_id":"JAY","transit":false,"line":2,"i_long":106.820901,"station_name":"Jayakarta"},{"line":2,"is_transit":false,"station_id":"MGB","distance":1080,"station_name":"Manggabesar","time":2,"i_lat":-6.149769,"transit":false,"i_long":106.82482},{"distance":906,"i_lat":-6.160725,"i_long":106.827103,"line":2,"station_name":"Sawah Besar","time":2,"station_id":"SW","transit":false,"is_transit":false},{"i_lat":-6.166716,"i_long":106.828284,"line":2,"transit":false,"time":2,"distance":1149,"is_transit":false,"station_id":"JUA","station_name":"Juanda"},{"time":4,"transit":false,"station_name":"Gondangdia","distance":2015,"i_long":106.832183,"i_lat":-6.186295,"station_id":"GDD","is_transit":false,"line":2}]]}