{"data":[[{"time":0,"i_lat":-6.174784,"line":11,"transit":false,"station_name":"Pasar Senen","distance":0,"is_transit":false,"i_long":106.84368,"station_id":"PSE"},{"i_lat":-6.161728,"distance":1436,"transit":false,"i_long":106.839204,"line":11,"time":4,"is_transit":false,"station_id":"KMO","station_name":"Kemayoran"},{"line":11,"is_transit":false,"station_name":"Rajawali","i_lat":-6.14505,"station_id":"RJW","i_long":106.836569,"distance":1901,"time":5,"transit":false},{"i_lat":-6.132549,"station_name":"Kampung Bandan","distance":1444,"line":4,"is_transit":true,"station_id":"KPB","i_long":106.826365,"time":3,"transit":true},{"station_name":"Angke","station_id":"AK","is_transit":false,"time":9,"i_long":106.79867,"line":1,"i_lat":-6.144674,"distance":4102,"transit":false},{"is_transit":true,"station_name":"Duri","line":1,"transit":true,"station_id":"DU","time":4,"distance":1230,"i_lat":-6.155215,"i_long":106.800832},{"station_name":"Grogol","transit":false,"station_id":"GGL","is_transit":false,"i_long":106.788277,"distance":1700,"i_lat":-6.162021,"line":5,"time":3},{"time":2,"i_long":106.771379,"is_transit":false,"line":5,"station_id":"PSG","transit":false,"i_lat":-6.161433,"distance":2036,"station_name":"Pesing"},{"station_id":"TKO","station_name":"Taman Kota","time":2,"transit":false,"distance":1614,"i_long":106.756522,"line":5,"is_transit":false,"i_lat":-6.1587309999999995}],[{"station_id":"PSE","i_lat":-6.174784,"i_long":106.84368,"station_name":"Pasar Senen","is_transit":false,"distance":0,"line":11,"time":0,"transit":false},{"i_long":106.850107,"transit":false,"station_name":"Gang Sentiong","is_transit":false,"i_lat":-6.185975,"time":8,"distance":1567,"line":11,"station_id":"GST"},{"station_id":"KMT","time":1,"transit":false,"line":11,"distance":973,"is_transit":false,"i_lat":-6.193792,"i_long":106.855437,"station_name":"Kramat"},{"i_lat":-6.209188,"station_name":"Pondok Jati","line":11,"time":2,"station_id":"POK","is_transit":false,"transit":false,"distance":1829,"i_long":106.861737},{"station_name":"Jatinegara","transit":true,"line":1,"distance":1236,"i_lat":-6.215091,"station_id":"JNG","time":9,"i_long":106.86807400000001,"is_transit":true},{"station_id":"MTR","station_name":"Matraman","is_transit":false,"distance":1377,"transit":false,"line":1,"time":2,"i_long":106.858896,"i_lat":-6.212485},{"transit":false,"time":2,"station_id":"MRI","i_long":106.84912,"distance":1275,"line":2,"station_name":"Manggarai","i_lat":-6.209883,"is_transit":false},{"line":1,"station_name":"Sudirman","station_id":"SUD","i_long":106.822649,"transit":false,"is_transit":false,"distance":3186,"i_lat":-6.202263,"time":4},{"time":1,"i_long":106.819881,"is_transit":false,"i_lat":-6.201433,"transit":false,"distance":280,"line":1,"station_name":"Sudirman Baru","station_id":"SUDB"},{"line":1,"is_transit":false,"transit":false,"station_id":"KAT","station_name":"Karet","i_lat":-6.20132,"i_long":106.816351,"distance":471,"time":1},{"time":5,"station_id":"THB","distance":2029,"transit":false,"i_lat":-6.185545,"i_long":106.811091,"station_name":"Tanah Abang","is_transit":false,"line":1},{"is_transit":true,"line":1,"time":8,"station_id":"DU","distance":3632,"i_long":106.800832,"i_lat":-6.155215,"station_name":"Duri","transit":true},{"station_id":"GGL","time":3,"distance":1700,"i_lat":-6.162021,"i_long":106.788277,"is_transit":false,"line":5,"station_name":"Grogol","transit":false},{"transit":false,"is_transit":false,"line":5,"i_lat":-6.161433,"station_name":"Pesing","time":2,"distance":2036,"i_long":106.771379,"station_id":"PSG"},{"transit":false,"station_id":"TKO","line":5,"is_transit":false,"i_lat":-6.1587309999999995,"station_name":"Taman Kota","time":2,"distance":1614,"i_long":106.756522}],[{"i_lat":-6.174784,"is_transit":false,"time":0,"distance":0,"line":11,"station_id":"PSE","transit":false,"station_name":"Pasar Senen","i_long":106.84368},{"station_id":"GST","i_long":106.850107,"line":11,"distance":1567,"station_name":"Gang Sentiong","is_transit":false,"i_lat":-6.185975,"transit":false,"time":8},{"station_id":"KMT","i_lat":-6.193792,"transit":false,"time":1,"station_name":"Kramat","distance":973,"is_transit":false,"i_long":106.855437,"line":11},{"i_long":106.861737,"line":11,"station_id":"POK","is_transit":false,"i_lat":-6.209188,"station_name":"Pondok Jati","transit":false,"time":2,"distance":1829},{"time":9,"station_name":"Jatinegara","transit":true,"line":1,"station_id":"JNG","is_transit":true,"distance":1236,"i_lat":-6.215091,"i_long":106.86807400000001},{"is_transit":false,"line":1,"time":2,"i_lat":-6.212485,"station_id":"MTR","transit":false,"i_long":106.858896,"station_name":"Matraman","distance":1377},{"i_lat":-6.209883,"line":2,"station_name":"Manggarai","is_transit":true,"i_long":106.84912,"distance":1275,"transit":true,"station_id":"MRI","time":2},{"is_transit":false,"station_name":"Cikini","time":4,"distance":1590,"transit":false,"line":2,"i_lat":-6.198556,"station_id":"CKI","i_long":106.840169},{"station_id":"GDD","distance":1750,"i_lat":-6.186295,"transit":false,"station_name":"Gondangdia","is_transit":false,"time":3,"i_long":106.832183,"line":2},{"distance":2015,"i_long":106.828284,"station_name":"Juanda","time":4,"is_transit":false,"transit":false,"i_lat":-6.166716,"line":2,"station_id":"JUA"},{"station_name":"Sawah Besar","distance":1149,"transit":false,"is_transit":false,"i_long":106.827103,"i_lat":-6.160725,"station_id":"SW","time":2,"line":2},{"line":2,"station_id":"MGB","time":2,"distance":906,"station_name":"Manggabesar","is_transit":false,"i_lat":-6.149769,"transit":false,"i_long":106.82482},{"i_lat":-6.141205,"line":2,"station_id":"JAY","i_long":106.820901,"distance":1080,"is_transit":false,"station_name":"Jayakarta","time":2,"transit":false},{"i_long":106.812439,"line":2,"i_lat":-6.137569,"transit":true,"station_name":"Jakarta Kota","time":4,"distance":1264,"station_id":"JAKK","is_transit":true},{"transit":true,"i_long":106.826365,"distance":1364,"line":4,"station_id":"KPB","i_lat":-6.132549,"station_name":"Kampung Bandan","time":3,"is_transit":true},{"transit":false,"is_transit":false,"i_lat":-6.144674,"i_long":106.79867,"station_name":"Angke","line":1,"distance":4102,"time":9,"station_id":"AK"},{"transit":true,"time":4,"station_name":"Duri","distance":1230,"i_lat":-6.155215,"i_long":106.800832,"line":1,"is_transit":true,"station_id":"DU"},{"is_transit":false,"station_id":"GGL","time":3,"distance":1700,"station_name":"Grogol","i_lat":-6.162021,"line":5,"transit":false,"i_long":106.788277},{"i_lat":-6.161433,"transit":false,"i_long":106.771379,"station_name":"Pesing","is_transit":false,"distance":2036,"line":5,"time":2,"station_id":"PSG"},{"time":2,"station_id":"TKO","i_lat":-6.1587309999999995,"transit":false,"distance":1614,"station_name":"Taman Kota","is_transit":false,"line":5,"i_long":106.756522}],[{"is_transit":false,"station_id":"PSE","i_lat":-6.174784,"transit":false,"time":0,"distance":0,"station_name":"Pasar Senen","i_long":106.84368,"line":11},{"transit":false,"is_transit":false,"line":11,"distance":1436,"station_id":"KMO","time":4,"i_lat":-6.161728,"i_long":106.839204,"station_name":"Kemayoran"},{"is_transit":false,"i_long":106.836569,"station_name":"Rajawali","distance":1901,"station_id":"RJW","time":5,"line":11,"transit":false,"i_lat":-6.14505},{"station_id":"KPB","time":3,"i_long":106.826365,"i_lat":-6.132549,"transit":true,"line":4,"is_transit":true,"distance":1444,"station_name":"Kampung Bandan"},{"station_name":"Jakarta Kota","distance":1364,"is_transit":true,"transit":true,"station_id":"JAKK","time":3,"i_lat":-6.137569,"i_long":106.812439,"line":2},{"transit":false,"is_transit":false,"line":2,"i_lat":-6.141205,"time":4,"station_name":"Jayakarta","i_long":106.820901,"station_id":"JAY","distance":1264},{"station_name":"Manggabesar","distance":1080,"i_lat":-6.149769,"is_transit":false,"transit":false,"line":2,"station_id":"MGB","time":2,"i_long":106.82482},{"is_transit":false,"distance":906,"i_lat":-6.160725,"i_long":106.827103,"line":2,"time":2,"station_name":"Sawah Besar","station_id":"SW","transit":false},{"transit":false,"time":2,"distance":1149,"line":2,"i_lat":-6.166716,"station_name":"Juanda","i_long":106.828284,"station_id":"JUA","is_transit":false},{"i_long":106.832183,"station_name":"Gondangdia","i_lat":-6.186295,"time":4,"station_id":"GDD","distance":2015,"line":2,"transit":false,"is_transit":false},{"station_name":"Cikini","is_transit":false,"i_lat":-6.198556,"distance":1750,"time":3,"station_id":"CKI","i_long":106.840169,"line":2,"transit":false},{"station_name":"Manggarai","time":4,"is_transit":true,"station_id":"MRI","distance":1590,"i_lat":-6.209883,"line":2,"transit":true,"i_long":106.84912},{"station_name":"Sudirman","transit":false,"line":1,"i_lat":-6.202263,"time":4,"distance":3186,"is_transit":false,"station_id":"SUD","i_long":106.822649},{"i_long":106.819881,"station_name":"Sudirman Baru","line":1,"is_transit":false,"transit":false,"station_id":"SUDB","i_lat":-6.201433,"time":1,"distance":280},{"is_transit":false,"transit":false,"station_id":"KAT","station_name":"Karet","time":1,"i_lat":-6.20132,"line":1,"i_long":106.816351,"distance":471},{"is_transit":false,"station_name":"Tanah Abang","distance":2029,"i_long":106.811091,"station_id":"THB","i_lat":-6.185545,"transit":false,"line":1,"time":5},{"transit":true,"is_transit":true,"i_long":106.800832,"station_name":"Duri","line":1,"station_id":"DU","distance":3632,"time":8,"i_lat":-6.155215},{"station_id":"GGL","i_long":106.788277,"transit":false,"station_name":"Grogol","time":3,"line":5,"i_lat":-6.162021,"is_transit":false,"distance":1700},{"distance":2036,"time":2,"line":5,"i_lat":-6.161433,"transit":false,"station_name":"Pesing","station_id":"PSG","i_long":106.771379,"is_transit":false},{"time":2,"station_name":"Taman Kota","is_transit":false,"distance":1614,"station_id":"TKO","i_lat":-6.1587309999999995,"i_long":106.756522,"line":5,"transit":false}]]}