{"data":[[{"i_lat":-6.174784,"station_id":"PSE","is_transit":false,"line":11,"i_long":106.84368,"station_name":"Pasar Senen","time":0,"transit":false,"distance":0},{"transit":false,"station_name":"Gang Sentiong","station_id":"GST","i_lat":-6.185975,"is_transit":false,"line":11,"time":8,"distance":1567,"i_long":106.850107},{"line":11,"transit":false,"time":1,"is_transit":false,"distance":973,"station_name":"Kramat","i_lat":-6.193792,"i_long":106.855437,"station_id":"KMT"},{"i_lat":-6.209188,"is_transit":false,"station_id":"POK","line":11,"i_long":106.861737,"station_name":"Pondok Jati","transit":false,"distance":1829,"time":2},{"i_lat":-6.215091,"transit":true,"station_name":"Jatinegara","distance":1236,"station_id":"JNG","time":9,"line":1,"is_transit":true,"i_long":106.86807400000001},{"is_transit":false,"i_lat":-6.212485,"i_long":106.858896,"station_name":"Matraman","distance":1377,"station_id":"MTR","line":1,"time":2,"transit":false},{"is_transit":true,"time":2,"i_long":106.84912,"i_lat":-6.209883,"station_id":"MRI","station_name":"Manggarai","line":2,"distance":1275,"transit":true},{"line":2,"station_id":"TEB","transit":false,"is_transit":false,"time":4,"i_lat":-6.226659,"i_long":106.857948,"station_name":"Tebet","distance":2610},{"transit":false,"is_transit":false,"line":2,"distance":1230,"station_name":"Cawang","i_lat":-6.242512,"time":2,"station_id":"CW","i_long":106.856607},{"line":2,"i_long":106.85449,"station_id":"DRN","time":3,"station_name":"Duren Kalibata","transit":false,"is_transit":false,"distance":1546,"i_lat":-6.255332},{"i_lat":-6.263214,"transit":false,"distance":824,"station_id":"PSMB","line":2,"time":2,"station_name":"Pasar Minggu Baru","is_transit":false,"i_long":106.851577},{"transit":false,"is_transit":false,"distance":2380,"i_lat":-6.2842400000000005,"i_long":106.843999,"time":2,"line":2,"station_id":"PSM","station_name":"Pasar Minggu"},{"station_name":"Tanjung Barat","transit":false,"station_id":"TNT","i_lat":-6.3080680000000005,"line":2,"time":4,"is_transit":false,"distance":2820,"i_long":106.838896},{"time":3,"i_lat":-6.330363,"is_transit":false,"i_long":106.832616,"distance":2671,"line":2,"station_id":"LNA","transit":false,"station_name":"Lenteng Agung"},{"transit":false,"line":2,"station_id":"UP","is_transit":false,"i_lat":-6.339291,"station_name":"Univ. Pancasila","time":2,"distance":1029,"i_long":106.834175},{"i_long":106.831474,"station_id":"UI","distance":2264,"is_transit":false,"transit":false,"time":3,"i_lat":-6.360749,"station_name":"Univ. Indonesia","line":2},{"time":2,"distance":1109,"i_lat":-6.369073,"i_long":106.831114,"line":2,"station_name":"Pondok Cina","station_id":"POC","transit":false,"is_transit":false},{"distance":2727,"i_lat":-6.391065,"i_long":106.819451,"line":2,"transit":false,"is_transit":false,"station_name":"Depokbaru","station_id":"DPB","time":4},{"distance":1584,"i_long":106.816926,"station_name":"Depok","transit":false,"time":3,"is_transit":false,"line":2,"station_id":"DP","i_lat":-6.405256},{"is_transit":true,"distance":5084,"i_lat":-6.448811,"line":2,"i_long":106.800298,"station_name":"Citayam","transit":true,"station_id":"CTA","time":6},{"station_name":"Pondok Rajeg","transit":false,"station_id":"PDRG","is_transit":false,"i_lat":-6.460735,"line":21,"i_long":106.824374,"distance":0,"time":0},{"i_lat":-6.46424,"line":21,"time":0,"i_long":106.851978,"is_transit":false,"distance":0,"station_name":"Cibinong","transit":false,"station_id":"CBN"}],[{"line":11,"station_name":"Pasar Senen","distance":0,"i_long":106.84368,"i_lat":-6.174784,"transit":false,"is_transit":false,"time":0,"station_id":"PSE"},{"line":11,"distance":1436,"is_transit":false,"transit":false,"station_name":"Kemayoran","station_id":"KMO","i_long":106.839204,"time":4,"i_lat":-6.161728},{"station_name":"Rajawali","is_transit":false,"station_id":"RJW","i_long":106.836569,"time":5,"line":11,"i_lat":-6.14505,"distance":1901,"transit":false},{"is_transit":true,"station_id":"KPB","i_long":106.826365,"transit":true,"i_lat":-6.132549,"station_name":"Kampung Bandan","time":3,"line":4,"distance":1444},{"i_lat":-6.144674,"station_name":"Angke","distance":4102,"line":1,"i_long":106.79867,"station_id":"AK","is_transit":false,"transit":false,"time":9},{"station_id":"DU","is_transit":false,"i_lat":-6.155215,"i_long":106.800832,"station_name":"Duri","line":1,"transit":false,"distance":1230,"time":4},{"line":1,"distance":3632,"is_transit":false,"transit":false,"i_long":106.811091,"i_lat":-6.185545,"time":8,"station_id":"THB","station_name":"Tanah Abang"},{"is_transit":false,"i_long":106.816351,"station_name":"Karet","station_id":"KAT","time":5,"distance":2029,"line":1,"i_lat":-6.20132,"transit":false},{"time":1,"i_lat":-6.201433,"i_long":106.819881,"transit":false,"distance":471,"line":1,"station_id":"SUDB","is_transit":false,"station_name":"Sudirman Baru"},{"line":1,"time":1,"station_id":"SUD","i_long":106.822649,"transit":false,"is_transit":false,"distance":280,"station_name":"Sudirman","i_lat":-6.202263},{"station_name":"Manggarai","i_long":106.84912,"line":2,"station_id":"MRI","i_lat":-6.209883,"distance":3186,"time":4,"transit":true,"is_transit":true},{"i_long":106.857948,"distance":2610,"i_lat":-6.226659,"line":2,"time":4,"station_name":"Tebet","is_transit":false,"transit":false,"station_id":"TEB"},{"line":2,"station_name":"Cawang","time":2,"distance":1230,"is_transit":false,"i_long":106.856607,"transit":false,"station_id":"CW","i_lat":-6.242512},{"station_name":"Duren Kalibata","station_id":"DRN","is_transit":false,"time":3,"line":2,"transit":false,"i_long":106.85449,"distance":1546,"i_lat":-6.255332},{"transit":false,"is_transit":false,"time":2,"distance":824,"i_lat":-6.263214,"station_id":"PSMB","i_long":106.851577,"line":2,"station_name":"Pasar Minggu Baru"},{"transit":false,"distance":2380,"is_transit":false,"i_long":106.843999,"line":2,"station_id":"PSM","time":2,"station_name":"Pasar Minggu","i_lat":-6.2842400000000005},{"station_id":"TNT","time":4,"station_name":"Tanjung Barat","i_lat":-6.3080680000000005,"line":2,"is_transit":false,"distance":2820,"transit":false,"i_long":106.838896},{"line":2,"distance":2671,"station_name":"Lenteng Agung","is_transit":false,"transit":false,"time":3,"i_lat":-6.330363,"i_long":106.832616,"station_id":"LNA"},{"station_name":"Univ. Pancasila","time":2,"line":2,"distance":1029,"i_long":106.834175,"transit":false,"station_id":"UP","is_transit":false,"i_lat":-6.339291},{"line":2,"i_long":106.831474,"time":3,"station_id":"UI","station_name":"Univ. Indonesia","transit":false,"i_lat":-6.360749,"is_transit":false,"distance":2264},{"transit":false,"is_transit":false,"i_long":106.831114,"distance":1109,"station_name":"Pondok Cina","time":2,"station_id":"POC","i_lat":-6.369073,"line":2},{"i_lat":-6.391065,"station_id":"DPB","transit":false,"distance":2727,"time":4,"i_long":106.819451,"station_name":"Depokbaru","line":2,"is_transit":false},{"station_id":"DP","is_transit":false,"transit":false,"time":3,"distance":1584,"i_lat":-6.405256,"station_name":"Depok","i_long":106.816926,"line":2},{"distance":5084,"time":6,"line":2,"station_id":"CTA","i_long":106.800298,"transit":true,"i_lat":-6.448811,"station_name":"Citayam","is_transit":true},{"i_lat":-6.460735,"distance":0,"i_long":106.824374,"station_name":"Pondok Rajeg","station_id":"PDRG","transit":false,"is_transit":false,"time":0,"line":21},{"i_long":106.851978,"transit":false,"distance":0,"is_transit":false,"line":21,"station_id":"CBN","station_name":"Cibinong","time":0,"i_lat":-6.46424}],[{"station_id":"PSE","i_long":106.84368,"is_transit":false,"transit":false,"station_name":"Pasar Senen","line":11,"i_lat":-6.174784,"distance":0,"time":0},{"i_long":106.839204,"line":11,"station_name":"Kemayoran","station_id":"KMO","is_transit":false,"transit":false,"distance":1436,"time":4,"i_lat":-6.161728},{"station_id":"RJW","i_long":106.836569,"time":5,"distance":1901,"transit":false,"i_lat":-6.14505,"line":11,"station_name":"Rajawali","is_transit":false},{"line":4,"transit":true,"i_long":106.826365,"distance":1444,"i_lat":-6.132549,"station_name":"Kampung Bandan","is_transit":true,"station_id":"KPB","time":3},{"i_lat":-6.137569,"i_long":106.812439,"distance":1364,"transit":true,"station_name":"Jakarta Kota","station_id":"JAKK","line":2,"is_transit":true,"time":3},{"line":2,"transit":false,"distance":1264,"station_name":"Jayakarta","time":4,"station_id":"JAY","i_lat":-6.141205,"i_long":106.820901,"is_transit":false},{"transit":false,"station_id":"MGB","line":2,"time":2,"i_lat":-6.149769,"i_long":106.82482,"is_transit":false,"station_name":"Manggabesar","distance":1080},{"time":2,"distance":906,"line":2,"i_long":106.827103,"station_id":"SW","transit":false,"is_transit":false,"station_name":"Sawah Besar","i_lat":-6.160725},{"is_transit":false,"i_long":106.828284,"time":2,"line":2,"station_id":"JUA","transit":false,"distance":1149,"station_name":"Juanda","i_lat":-6.166716},{"is_transit":false,"i_lat":-6.186295,"transit":false,"i_long":106.832183,"time":4,"distance":2015,"line":2,"station_name":"Gondangdia","station_id":"GDD"},{"station_id":"CKI","i_long":106.840169,"is_transit":false,"transit":false,"station_name":"Cikini","distance":1750,"line":2,"time":3,"i_lat":-6.198556},{"station_name":"Manggarai","transit":false,"line":2,"distance":1590,"time":4,"i_long":106.84912,"station_id":"MRI","i_lat":-6.209883,"is_transit":false},{"station_id":"TEB","time":4,"distance":2610,"i_long":106.857948,"line":2,"is_transit":false,"station_name":"Tebet","i_lat":-6.226659,"transit":false},{"line":2,"transit":false,"time":2,"i_long":106.856607,"station_name":"Cawang","station_id":"CW","distance":1230,"i_lat":-6.242512,"is_transit":false},{"transit":false,"is_transit":false,"i_long":106.85449,"station_name":"Duren Kalibata","line":2,"time":3,"i_lat":-6.255332,"station_id":"DRN","distance":1546},{"line":2,"is_transit":false,"station_id":"PSMB","station_name":"Pasar Minggu Baru","distance":824,"i_long":106.851577,"time":2,"i_lat":-6.263214,"transit":false},{"transit":false,"time":2,"i_lat":-6.2842400000000005,"is_transit":false,"distance":2380,"i_long":106.843999,"station_name":"Pasar Minggu","station_id":"PSM","line":2},{"time":4,"line":2,"transit":false,"station_id":"TNT","distance":2820,"i_long":106.838896,"i_lat":-6.3080680000000005,"is_transit":false,"station_name":"Tanjung Barat"},{"i_lat":-6.330363,"distance":2671,"transit":false,"station_id":"LNA","i_long":106.832616,"station_name":"Lenteng Agung","time":3,"is_transit":false,"line":2},{"time":2,"i_lat":-6.339291,"i_long":106.834175,"line":2,"transit":false,"station_id":"UP","station_name":"Univ. Pancasila","is_transit":false,"distance":1029},{"transit":false,"station_id":"UI","is_transit":false,"i_lat":-6.360749,"station_name":"Univ. Indonesia","time":3,"distance":2264,"line":2,"i_long":106.831474},{"station_id":"POC","transit":false,"is_transit":false,"time":2,"i_lat":-6.369073,"station_name":"Pondok Cina","line":2,"i_long":106.831114,"distance":1109},{"time":4,"station_name":"Depokbaru","i_lat":-6.391065,"line":2,"is_transit":false,"distance":2727,"transit":false,"station_id":"DPB","i_long":106.819451},{"i_long":106.816926,"transit":false,"is_transit":false,"time":3,"station_name":"Depok","station_id":"DP","distance":1584,"line":2,"i_lat":-6.405256},{"transit":true,"station_id":"CTA","is_transit":true,"time":6,"distance":5084,"i_lat":-6.448811,"i_long":106.800298,"station_name":"Citayam","line":2},{"station_id":"PDRG","station_name":"Pondok Rajeg","line":21,"time":0,"i_lat":-6.460735,"i_long":106.824374,"distance":0,"is_transit":false,"transit":false},{"distance":0,"i_long":106.851978,"station_name":"Cibinong","transit":false,"station_id":"CBN","time":0,"is_transit":false,"line":21,"i_lat":-6.46424}]]}