{"data":[[{"time":0,"line":11,"distance":0,"transit":false,"station_id":"PSE","i_long":106.84368,"i_lat":-6.174784,"station_name":"Pasar Senen","is_transit":false},{"i_long":106.850107,"transit":false,"station_id":"GST","i_lat":-6.185975,"time":8,"line":11,"station_name":"Gang Sentiong","is_transit":false,"distance":1567},{"is_transit":false,"distance":973,"time":1,"i_long":106.855437,"i_lat":-6.193792,"station_id":"KMT","transit":false,"station_name":"Kramat","line":11},{"i_lat":-6.209188,"transit":false,"station_name":"Pondok Jati","station_id":"POK","time":2,"i_long":106.861737,"line":11,"is_transit":false,"distance":1829},{"station_name":"Jatinegara","transit":true,"i_lat":-6.215091,"i_long":106.86807400000001,"distance":1236,"line":1,"is_transit":true,"time":9,"station_id":"JNG"},{"time":2,"i_long":106.858896,"station_name":"Matraman","distance":1377,"is_transit":false,"i_lat":-6.212485,"transit":false,"station_id":"MTR","line":1},{"transit":true,"station_id":"MRI","i_lat":-6.209883,"distance":1275,"line":2,"time":2,"i_long":106.84912,"station_name":"Manggarai","is_transit":true},{"station_name":"Tebet","i_lat":-6.226659,"line":2,"is_transit":false,"time":4,"transit":false,"station_id":"TEB","i_long":106.857948,"distance":2610},{"time":2,"is_transit":false,"station_name":"Cawang","i_long":106.856607,"line":2,"station_id":"CW","distance":1230,"transit":false,"i_lat":-6.242512},{"i_lat":-6.255332,"is_transit":false,"line":2,"transit":false,"station_id":"DRN","distance":1546,"station_name":"Duren Kalibata","time":3,"i_long":106.85449},{"distance":824,"station_id":"PSMB","transit":false,"is_transit":false,"i_lat":-6.263214,"i_long":106.851577,"station_name":"Pasar Minggu Baru","time":2,"line":2},{"is_transit":false,"transit":false,"station_name":"Pasar Minggu","station_id":"PSM","line":2,"i_long":106.843999,"distance":2380,"time":2,"i_lat":-6.2842400000000005},{"station_id":"TNT","i_long":106.838896,"transit":false,"i_lat":-6.3080680000000005,"station_name":"Tanjung Barat","is_transit":false,"line":2,"distance":2820,"time":4},{"is_transit":false,"i_long":106.832616,"time":3,"transit":false,"station_id":"LNA","distance":2671,"i_lat":-6.330363,"line":2,"station_name":"Lenteng Agung"},{"station_id":"UP","i_long":106.834175,"line":2,"transit":false,"time":2,"i_lat":-6.339291,"station_name":"Univ. Pancasila","is_transit":false,"distance":1029},{"distance":2264,"is_transit":false,"i_lat":-6.360749,"station_id":"UI","transit":false,"i_long":106.831474,"line":2,"time":3,"station_name":"Univ. Indonesia"},{"transit":false,"i_lat":-6.369073,"station_id":"POC","i_long":106.831114,"is_transit":false,"time":2,"line":2,"station_name":"Pondok Cina","distance":1109},{"is_transit":false,"station_name":"Depokbaru","time":4,"i_long":106.819451,"station_id":"DPB","i_lat":-6.391065,"distance":2727,"line":2,"transit":false},{"line":2,"time":3,"i_lat":-6.405256,"station_id":"DP","distance":1584,"is_transit":false,"i_long":106.816926,"transit":false,"station_name":"Depok"},{"transit":false,"station_id":"CTA","is_transit":false,"i_long":106.800298,"station_name":"Citayam","time":6,"line":2,"distance":5084,"i_lat":-6.448811},{"is_transit":false,"distance":5197,"i_lat":-6.493243,"line":2,"station_id":"BJD","station_name":"Bojonggede","transit":false,"time":5,"i_long":106.792719}],[{"time":0,"transit":false,"distance":0,"station_id":"PSE","i_lat":-6.174784,"i_long":106.84368,"station_name":"Pasar Senen","is_transit":false,"line":11},{"line":11,"transit":false,"station_id":"KMO","is_transit":false,"i_long":106.839204,"station_name":"Kemayoran","time":4,"i_lat":-6.161728,"distance":1436},{"transit":false,"station_id":"RJW","i_lat":-6.14505,"station_name":"Rajawali","time":5,"line":11,"is_transit":false,"distance":1901,"i_long":106.836569},{"line":4,"is_transit":true,"station_name":"Kampung Bandan","transit":true,"station_id":"KPB","time":3,"i_lat":-6.132549,"i_long":106.826365,"distance":1444},{"line":1,"i_lat":-6.144674,"station_name":"Angke","station_id":"AK","distance":4102,"i_long":106.79867,"transit":false,"is_transit":false,"time":9},{"distance":1230,"i_long":106.800832,"is_transit":false,"station_id":"DU","time":4,"transit":false,"station_name":"Duri","i_lat":-6.155215,"line":1},{"distance":3632,"station_id":"THB","time":8,"i_lat":-6.185545,"transit":false,"station_name":"Tanah Abang","is_transit":false,"i_long":106.811091,"line":1},{"transit":false,"is_transit":false,"i_lat":-6.20132,"station_id":"KAT","i_long":106.816351,"line":1,"time":5,"station_name":"Karet","distance":2029},{"time":1,"is_transit":false,"distance":471,"station_name":"Sudirman Baru","transit":false,"i_lat":-6.201433,"i_long":106.819881,"station_id":"SUDB","line":1},{"i_long":106.822649,"time":1,"transit":false,"station_name":"Sudirman","distance":280,"is_transit":false,"line":1,"station_id":"SUD","i_lat":-6.202263},{"i_lat":-6.209883,"station_id":"MRI","i_long":106.84912,"is_transit":true,"distance":3186,"transit":true,"station_name":"Manggarai","time":4,"line":2},{"station_id":"TEB","time":4,"is_transit":false,"station_name":"Tebet","distance":2610,"i_long":106.857948,"line":2,"transit":false,"i_lat":-6.226659},{"time":2,"i_long":106.856607,"station_name":"Cawang","is_transit":false,"line":2,"distance":1230,"station_id":"CW","i_lat":-6.242512,"transit":false},{"station_name":"Duren Kalibata","time":3,"station_id":"DRN","i_lat":-6.255332,"transit":false,"is_transit":false,"distance":1546,"i_long":106.85449,"line":2},{"station_name":"Pasar Minggu Baru","station_id":"PSMB","is_transit":false,"time":2,"distance":824,"i_long":106.851577,"i_lat":-6.263214,"transit":false,"line":2},{"transit":false,"i_long":106.843999,"line":2,"station_id":"PSM","is_transit":false,"time":2,"station_name":"Pasar Minggu","i_lat":-6.2842400000000005,"distance":2380},{"i_long":106.838896,"station_name":"Tanjung Barat","distance":2820,"station_id":"TNT","time":4,"is_transit":false,"transit":false,"i_lat":-6.3080680000000005,"line":2},{"i_long":106.832616,"station_id":"LNA","distance":2671,"i_lat":-6.330363,"is_transit":false,"station_name":"Lenteng Agung","line":2,"transit":false,"time":3},{"time":2,"station_name":"Univ. Pancasila","station_id":"UP","i_lat":-6.339291,"line":2,"distance":1029,"transit":false,"is_transit":false,"i_long":106.834175},{"line":2,"station_id":"UI","transit":false,"is_transit":false,"station_name":"Univ. Indonesia","i_long":106.831474,"i_lat":-6.360749,"time":3,"distance":2264},{"time":2,"i_lat":-6.369073,"station_name":"Pondok Cina","distance":1109,"station_id":"POC","transit":false,"i_long":106.831114,"is_transit":false,"line":2},{"station_id":"DPB","i_long":106.819451,"line":2,"station_name":"Depokbaru","is_transit":false,"transit":false,"distance":2727,"i_lat":-6.391065,"time":4},{"time":3,"i_long":106.816926,"station_id":"DP","line":2,"i_lat":-6.405256,"transit":false,"distance":1584,"is_transit":false,"station_name":"Depok"},{"distance":5084,"is_transit":false,"station_id":"CTA","time":6,"i_lat":-6.448811,"station_name":"Citayam","i_long":106.800298,"line":2,"transit":false},{"i_lat":-6.493243,"distance":5197,"is_transit":false,"i_long":106.792719,"transit":false,"station_name":"Bojonggede","line":2,"time":5,"station_id":"BJD"}],[{"i_lat":-6.174784,"i_long":106.84368,"transit":false,"line":11,"station_id":"PSE","station_name":"Pasar Senen","time":0,"is_transit":false,"distance":0},{"time":4,"line":11,"i_long":106.839204,"i_lat":-6.161728,"station_id":"KMO","is_transit":false,"transit":false,"distance":1436,"station_name":"Kemayoran"},{"station_id":"RJW","distance":1901,"i_lat":-6.14505,"i_long":106.836569,"is_transit":false,"time":5,"line":11,"transit":false,"station_name":"Rajawali"},{"i_long":106.826365,"i_lat":-6.132549,"station_id":"KPB","time":3,"transit":true,"line":4,"is_transit":true,"distance":1444,"station_name":"Kampung Bandan"},{"i_lat":-6.137569,"transit":true,"i_long":106.812439,"distance":1364,"station_name":"Jakarta Kota","is_transit":true,"station_id":"JAKK","line":2,"time":3},{"transit":false,"station_name":"Jayakarta","distance":1264,"i_long":106.820901,"is_transit":false,"time":4,"i_lat":-6.141205,"station_id":"JAY","line":2},{"time":2,"station_name":"Manggabesar","station_id":"MGB","is_transit":false,"distance":1080,"i_lat":-6.149769,"line":2,"i_long":106.82482,"transit":false},{"station_name":"Sawah Besar","distance":906,"i_lat":-6.160725,"station_id":"SW","time":2,"line":2,"transit":false,"is_transit":false,"i_long":106.827103},{"is_transit":false,"station_id":"JUA","i_lat":-6.166716,"distance":1149,"transit":false,"line":2,"time":2,"station_name":"Juanda","i_long":106.828284},{"i_long":106.832183,"distance":2015,"time":4,"i_lat":-6.186295,"is_transit":false,"station_name":"Gondangdia","transit":false,"station_id":"GDD","line":2},{"station_name":"Cikini","distance":1750,"i_long":106.840169,"line":2,"transit":false,"station_id":"CKI","time":3,"is_transit":false,"i_lat":-6.198556},{"station_name":"Manggarai","station_id":"MRI","is_transit":false,"i_lat":-6.209883,"line":2,"time":4,"transit":false,"i_long":106.84912,"distance":1590},{"line":2,"transit":false,"distance":2610,"i_long":106.857948,"i_lat":-6.226659,"is_transit":false,"time":4,"station_name":"Tebet","station_id":"TEB"},{"i_long":106.856607,"time":2,"line":2,"station_name":"Cawang","i_lat":-6.242512,"transit":false,"station_id":"CW","distance":1230,"is_transit":false},{"transit":false,"line":2,"distance":1546,"station_name":"Duren Kalibata","station_id":"DRN","time":3,"is_transit":false,"i_lat":-6.255332,"i_long":106.85449},{"distance":824,"i_long":106.851577,"line":2,"i_lat":-6.263214,"station_name":"Pasar Minggu Baru","time":2,"is_transit":false,"station_id":"PSMB","transit":false},{"station_id":"PSM","i_lat":-6.2842400000000005,"transit":false,"time":2,"i_long":106.843999,"station_name":"Pasar Minggu","distance":2380,"line":2,"is_transit":false},{"time":4,"station_name":"Tanjung Barat","station_id":"TNT","transit":false,"is_transit":false,"i_long":106.838896,"distance":2820,"line":2,"i_lat":-6.3080680000000005},{"i_long":106.832616,"transit":false,"station_name":"Lenteng Agung","distance":2671,"time":3,"i_lat":-6.330363,"is_transit":false,"station_id":"LNA","line":2},{"is_transit":false,"transit":false,"station_id":"UP","i_long":106.834175,"distance":1029,"line":2,"station_name":"Univ. Pancasila","time":2,"i_lat":-6.339291},{"station_name":"Univ. Indonesia","station_id":"UI","is_transit":false,"line":2,"transit":false,"time":3,"distance":2264,"i_lat":-6.360749,"i_long":106.831474},{"is_transit":false,"time":2,"station_id":"POC","distance":1109,"i_long":106.831114,"station_name":"Pondok Cina","line":2,"i_lat":-6.369073,"transit":false},{"time":4,"line":2,"distance":2727,"i_long":106.819451,"transit":false,"i_lat":-6.391065,"is_transit":false,"station_name":"Depokbaru","station_id":"DPB"},{"is_transit":false,"time":3,"i_lat":-6.405256,"transit":false,"station_id":"DP","line":2,"distance":1584,"i_long":106.816926,"station_name":"Depok"},{"transit":false,"line":2,"time":6,"station_name":"Citayam","i_long":106.800298,"is_transit":false,"station_id":"CTA","distance":5084,"i_lat":-6.448811},{"i_long":106.792719,"line":2,"transit":false,"distance":5197,"is_transit":false,"time":5,"station_id":"BJD","i_lat":-6.493243,"station_name":"Bojonggede"}]]}