{"data":[[{"time":0,"transit":false,"station_id":"PSE","station_name":"Pasar Senen","distance":0,"line":11,"is_transit":false,"i_lat":-6.174784,"i_long":106.84368},{"i_long":106.850107,"station_name":"Gang Sentiong","is_transit":false,"line":11,"i_lat":-6.185975,"transit":false,"time":8,"station_id":"GST","distance":1567},{"distance":973,"station_id":"KMT","i_long":106.855437,"transit":false,"is_transit":false,"i_lat":-6.193792,"line":11,"time":1,"station_name":"Kramat"},{"station_name":"Pondok Jati","is_transit":false,"transit":false,"i_lat":-6.209188,"i_long":106.861737,"time":2,"distance":1829,"line":11,"station_id":"POK"},{"station_name":"Jatinegara","is_transit":true,"i_long":106.86807400000001,"line":1,"station_id":"JNG","time":9,"i_lat":-6.215091,"distance":1236,"transit":true},{"time":2,"station_id":"MTR","i_long":106.858896,"line":1,"i_lat":-6.212485,"transit":false,"station_name":"Matraman","is_transit":false,"distance":1377},{"i_long":106.84912,"station_name":"Manggarai","i_lat":-6.209883,"distance":1275,"line":2,"is_transit":true,"time":2,"transit":true,"station_id":"MRI"},{"station_name":"Tebet","i_long":106.857948,"time":4,"line":2,"station_id":"TEB","is_transit":false,"distance":2610,"i_lat":-6.226659,"transit":false},{"is_transit":false,"time":2,"transit":false,"i_lat":-6.242512,"station_id":"CW","i_long":106.856607,"distance":1230,"line":2,"station_name":"Cawang"},{"time":3,"i_lat":-6.255332,"line":2,"station_name":"Duren Kalibata","station_id":"DRN","i_long":106.85449,"distance":1546,"transit":false,"is_transit":false},{"station_name":"Pasar Minggu Baru","time":2,"distance":824,"transit":false,"is_transit":false,"line":2,"station_id":"PSMB","i_lat":-6.263214,"i_long":106.851577},{"transit":false,"is_transit":false,"time":2,"distance":2380,"station_id":"PSM","station_name":"Pasar Minggu","i_lat":-6.2842400000000005,"i_long":106.843999,"line":2},{"station_name":"Tanjung Barat","time":4,"i_long":106.838896,"station_id":"TNT","i_lat":-6.3080680000000005,"is_transit":false,"line":2,"distance":2820,"transit":false},{"station_name":"Lenteng Agung","station_id":"LNA","transit":false,"i_lat":-6.330363,"i_long":106.832616,"distance":2671,"line":2,"time":3,"is_transit":false},{"station_id":"UP","time":2,"station_name":"Univ. Pancasila","transit":false,"is_transit":false,"i_long":106.834175,"line":2,"distance":1029,"i_lat":-6.339291},{"station_name":"Univ. Indonesia","is_transit":false,"station_id":"UI","i_long":106.831474,"time":3,"i_lat":-6.360749,"distance":2264,"line":2,"transit":false},{"station_name":"Pondok Cina","time":2,"distance":1109,"i_long":106.831114,"line":2,"i_lat":-6.369073,"station_id":"POC","transit":false,"is_transit":false}],[{"distance":0,"station_id":"PSE","transit":false,"station_name":"Pasar Senen","i_long":106.84368,"is_transit":false,"line":11,"i_lat":-6.174784,"time":0},{"distance":1436,"is_transit":false,"station_id":"KMO","transit":false,"i_lat":-6.161728,"time":4,"i_long":106.839204,"station_name":"Kemayoran","line":11},{"station_id":"RJW","time":5,"line":11,"transit":false,"i_long":106.836569,"station_name":"Rajawali","is_transit":false,"i_lat":-6.14505,"distance":1901},{"station_id":"KPB","transit":true,"i_long":106.826365,"is_transit":true,"i_lat":-6.132549,"line":4,"distance":1444,"station_name":"Kampung Bandan","time":3},{"i_lat":-6.144674,"distance":4102,"is_transit":false,"i_long":106.79867,"line":1,"station_name":"Angke","transit":false,"station_id":"AK","time":9},{"time":4,"station_id":"DU","is_transit":false,"i_long":106.800832,"line":1,"distance":1230,"station_name":"Duri","transit":false,"i_lat":-6.155215},{"is_transit":false,"distance":3632,"i_lat":-6.185545,"station_name":"Tanah Abang","line":1,"transit":false,"i_long":106.811091,"time":8,"station_id":"THB"},{"station_id":"KAT","line":1,"transit":false,"is_transit":false,"time":5,"i_long":106.816351,"distance":2029,"station_name":"Karet","i_lat":-6.20132},{"time":1,"line":1,"i_lat":-6.201433,"station_id":"SUDB","distance":471,"is_transit":false,"i_long":106.819881,"transit":false,"station_name":"Sudirman Baru"},{"station_id":"SUD","transit":false,"i_long":106.822649,"is_transit":false,"i_lat":-6.202263,"station_name":"Sudirman","time":1,"line":1,"distance":280},{"is_transit":true,"transit":true,"i_long":106.84912,"distance":3186,"i_lat":-6.209883,"station_name":"Manggarai","station_id":"MRI","line":2,"time":4},{"line":2,"is_transit":false,"i_long":106.857948,"transit":false,"station_name":"Tebet","time":4,"station_id":"TEB","i_lat":-6.226659,"distance":2610},{"time":2,"i_long":106.856607,"line":2,"station_id":"CW","distance":1230,"transit":false,"i_lat":-6.242512,"is_transit":false,"station_name":"Cawang"},{"i_long":106.85449,"time":3,"station_id":"DRN","i_lat":-6.255332,"station_name":"Duren Kalibata","is_transit":false,"transit":false,"distance":1546,"line":2},{"station_id":"PSMB","is_transit":false,"transit":false,"line":2,"i_lat":-6.263214,"station_name":"Pasar Minggu Baru","distance":824,"i_long":106.851577,"time":2},{"i_long":106.843999,"is_transit":false,"distance":2380,"time":2,"i_lat":-6.2842400000000005,"station_name":"Pasar Minggu","station_id":"PSM","line":2,"transit":false},{"station_name":"Tanjung Barat","distance":2820,"line":2,"time":4,"is_transit":false,"i_long":106.838896,"station_id":"TNT","transit":false,"i_lat":-6.3080680000000005},{"is_transit":false,"i_long":106.832616,"station_name":"Lenteng Agung","station_id":"LNA","i_lat":-6.330363,"time":3,"distance":2671,"transit":false,"line":2},{"station_id":"UP","distance":1029,"i_lat":-6.339291,"station_name":"Univ. Pancasila","time":2,"i_long":106.834175,"is_transit":false,"transit":false,"line":2},{"line":2,"station_id":"UI","is_transit":false,"i_lat":-6.360749,"transit":false,"time":3,"station_name":"Univ. Indonesia","distance":2264,"i_long":106.831474},{"i_long":106.831114,"station_name":"Pondok Cina","line":2,"is_transit":false,"transit":false,"i_lat":-6.369073,"station_id":"POC","distance":1109,"time":2}],[{"station_id":"PSE","is_transit":false,"transit":false,"station_name":"Pasar Senen","time":0,"distance":0,"line":11,"i_lat":-6.174784,"i_long":106.84368},{"station_name":"Kemayoran","transit":false,"time":4,"i_long":106.839204,"line":11,"is_transit":false,"station_id":"KMO","distance":1436,"i_lat":-6.161728},{"station_name":"Rajawali","i_long":106.836569,"line":11,"is_transit":false,"distance":1901,"i_lat":-6.14505,"transit":false,"station_id":"RJW","time":5},{"i_long":106.826365,"time":3,"is_transit":true,"station_id":"KPB","line":4,"distance":1444,"station_name":"Kampung Bandan","i_lat":-6.132549,"transit":true},{"station_id":"JAKK","time":3,"distance":1364,"station_name":"Jakarta Kota","transit":true,"line":2,"i_lat":-6.137569,"i_long":106.812439,"is_transit":true},{"is_transit":false,"i_lat":-6.141205,"transit":false,"station_id":"JAY","distance":1264,"time":4,"i_long":106.820901,"station_name":"Jayakarta","line":2},{"line":2,"time":2,"station_name":"Manggabesar","station_id":"MGB","is_transit":false,"distance":1080,"transit":false,"i_lat":-6.149769,"i_long":106.82482},{"station_name":"Sawah Besar","i_lat":-6.160725,"i_long":106.827103,"line":2,"distance":906,"transit":false,"station_id":"SW","is_transit":false,"time":2},{"station_name":"Juanda","station_id":"JUA","is_transit":false,"i_lat":-6.166716,"line":2,"distance":1149,"i_long":106.828284,"time":2,"transit":false},{"distance":2015,"transit":false,"station_id":"GDD","i_long":106.832183,"is_transit":false,"i_lat":-6.186295,"station_name":"Gondangdia","time":4,"line":2},{"station_name":"Cikini","i_lat":-6.198556,"time":3,"distance":1750,"transit":false,"line":2,"i_long":106.840169,"is_transit":false,"station_id":"CKI"},{"i_lat":-6.209883,"i_long":106.84912,"line":2,"station_name":"Manggarai","station_id":"MRI","distance":1590,"transit":false,"is_transit":false,"time":4},{"distance":2610,"time":4,"is_transit":false,"line":2,"i_long":106.857948,"i_lat":-6.226659,"transit":false,"station_id":"TEB","station_name":"Tebet"},{"time":2,"i_long":106.856607,"line":2,"is_transit":false,"distance":1230,"transit":false,"i_lat":-6.242512,"station_name":"Cawang","station_id":"CW"},{"i_long":106.85449,"time":3,"line":2,"station_name":"Duren Kalibata","distance":1546,"transit":false,"station_id":"DRN","i_lat":-6.255332,"is_transit":false},{"is_transit":false,"distance":824,"station_id":"PSMB","transit":false,"station_name":"Pasar Minggu Baru","i_lat":-6.263214,"i_long":106.851577,"time":2,"line":2},{"line":2,"i_long":106.843999,"i_lat":-6.2842400000000005,"distance":2380,"station_name":"Pasar Minggu","is_transit":false,"station_id":"PSM","transit":false,"time":2},{"distance":2820,"i_lat":-6.3080680000000005,"line":2,"transit":false,"time":4,"station_name":"Tanjung Barat","i_long":106.838896,"station_id":"TNT","is_transit":false},{"station_name":"Lenteng Agung","is_transit":false,"distance":2671,"station_id":"LNA","i_lat":-6.330363,"line":2,"transit":false,"i_long":106.832616,"time":3},{"station_id":"UP","transit":false,"i_lat":-6.339291,"station_name":"Univ. Pancasila","time":2,"distance":1029,"i_long":106.834175,"line":2,"is_transit":false},{"i_lat":-6.360749,"line":2,"transit":false,"is_transit":false,"station_name":"Univ. Indonesia","i_long":106.831474,"distance":2264,"time":3,"station_id":"UI"},{"station_id":"POC","i_long":106.831114,"transit":false,"time":2,"line":2,"station_name":"Pondok Cina","distance":1109,"i_lat":-6.369073,"is_transit":false}]]}