{"data":[[{"station_name":"Pasar Senen","is_transit":false,"transit":false,"i_lat":-6.174784,"i_long":106.84368,"time":0,"station_id":"PSE","line":11,"distance":0},{"i_long":106.850107,"station_name":"Gang Sentiong","i_lat":-6.185975,"distance":1567,"time":8,"station_id":"GST","is_transit":false,"transit":false,"line":11},{"transit":false,"i_long":106.855437,"line":11,"distance":973,"time":1,"is_transit":false,"station_id":"KMT","station_name":"Kramat","i_lat":-6.193792},{"i_long":106.861737,"distance":1829,"station_name":"Pondok Jati","i_lat":-6.209188,"is_transit":false,"line":11,"transit":false,"time":2,"station_id":"POK"},{"station_name":"Jatinegara","i_lat":-6.215091,"line":1,"distance":1236,"station_id":"JNG","is_transit":true,"i_long":106.86807400000001,"time":9,"transit":true},{"distance":1377,"is_transit":false,"i_long":106.858896,"time":2,"station_name":"Matraman","transit":false,"i_lat":-6.212485,"line":1,"station_id":"MTR"}],[{"station_name":"Pasar Senen","i_lat":-6.174784,"station_id":"PSE","time":0,"is_transit":false,"transit":false,"line":11,"i_long":106.84368,"distance":0},{"distance":1436,"i_lat":-6.161728,"time":4,"is_transit":false,"station_name":"Kemayoran","transit":false,"i_long":106.839204,"station_id":"KMO","line":11},{"transit":false,"i_long":106.836569,"time":5,"station_id":"RJW","is_transit":false,"distance":1901,"i_lat":-6.14505,"line":11,"station_name":"Rajawali"},{"line":4,"i_lat":-6.132549,"transit":true,"station_name":"Kampung Bandan","time":3,"is_transit":true,"i_long":106.826365,"distance":1444,"station_id":"KPB"},{"distance":4102,"is_transit":false,"transit":false,"i_lat":-6.144674,"i_long":106.79867,"time":9,"station_id":"AK","line":1,"station_name":"Angke"},{"i_long":106.800832,"distance":1230,"is_transit":false,"i_lat":-6.155215,"transit":false,"line":1,"station_id":"DU","station_name":"Duri","time":4},{"station_name":"Tanah Abang","i_long":106.811091,"transit":false,"i_lat":-6.185545,"line":1,"distance":3632,"station_id":"THB","is_transit":false,"time":8},{"i_lat":-6.20132,"transit":false,"is_transit":false,"distance":2029,"line":1,"time":5,"station_id":"KAT","station_name":"Karet","i_long":106.816351},{"station_name":"Sudirman Baru","is_transit":false,"line":1,"distance":471,"time":1,"transit":false,"i_lat":-6.201433,"station_id":"SUDB","i_long":106.819881},{"transit":false,"distance":280,"time":1,"station_name":"Sudirman","i_lat":-6.202263,"is_transit":false,"i_long":106.822649,"line":1,"station_id":"SUD"},{"station_id":"MRI","time":4,"station_name":"Manggarai","transit":false,"is_transit":false,"i_lat":-6.209883,"i_long":106.84912,"line":2,"distance":3186},{"time":2,"station_id":"MTR","line":1,"is_transit":false,"distance":1275,"i_lat":-6.212485,"i_long":106.858896,"transit":false,"station_name":"Matraman"}],[{"station_id":"PSE","is_transit":false,"line":11,"i_lat":-6.174784,"i_long":106.84368,"distance":0,"time":0,"station_name":"Pasar Senen","transit":false},{"time":4,"is_transit":false,"distance":1436,"station_name":"Kemayoran","i_lat":-6.161728,"station_id":"KMO","i_long":106.839204,"line":11,"transit":false},{"transit":false,"station_id":"RJW","station_name":"Rajawali","i_long":106.836569,"distance":1901,"time":5,"line":11,"i_lat":-6.14505,"is_transit":false},{"station_id":"KPB","time":3,"distance":1444,"transit":true,"i_long":106.826365,"is_transit":true,"line":4,"station_name":"Kampung Bandan","i_lat":-6.132549},{"is_transit":true,"station_name":"Jakarta Kota","distance":1364,"transit":true,"time":3,"i_lat":-6.137569,"station_id":"JAKK","i_long":106.812439,"line":2},{"i_lat":-6.141205,"distance":1264,"transit":false,"i_long":106.820901,"time":4,"station_name":"Jayakarta","line":2,"station_id":"JAY","is_transit":false},{"time":2,"station_id":"MGB","transit":false,"station_name":"Manggabesar","line":2,"distance":1080,"i_lat":-6.149769,"i_long":106.82482,"is_transit":false},{"i_long":106.827103,"time":2,"line":2,"distance":906,"is_transit":false,"i_lat":-6.160725,"station_id":"SW","station_name":"Sawah Besar","transit":false},{"time":2,"distance":1149,"i_lat":-6.166716,"station_id":"JUA","is_transit":false,"transit":false,"station_name":"Juanda","i_long":106.828284,"line":2},{"time":4,"station_name":"Gondangdia","station_id":"GDD","i_lat":-6.186295,"is_transit":false,"transit":false,"i_long":106.832183,"line":2,"distance":2015},{"transit":false,"is_transit":false,"i_lat":-6.198556,"station_id":"CKI","station_name":"Cikini","distance":1750,"i_long":106.840169,"time":3,"line":2},{"transit":true,"station_id":"MRI","is_transit":true,"i_long":106.84912,"distance":1590,"station_name":"Manggarai","i_lat":-6.209883,"line":2,"time":4},{"i_lat":-6.212485,"station_id":"MTR","station_name":"Matraman","i_long":106.858896,"distance":1275,"is_transit":false,"transit":false,"time":2,"line":1}]]}