{"data":[[{"station_id":"PSE","time":0,"i_lat":-6.174784,"distance":0,"transit":false,"line":11,"station_name":"Pasar Senen","is_transit":false,"i_long":106.84368},{"station_id":"GST","transit":false,"is_transit":false,"station_name":"Gang Sentiong","i_lat":-6.185975,"line":11,"i_long":106.850107,"time":8,"distance":1567},{"i_long":106.855437,"station_id":"KMT","line":11,"station_name":"Kramat","time":1,"transit":false,"is_transit":false,"distance":973,"i_lat":-6.193792},{"time":2,"distance":1829,"i_long":106.861737,"station_id":"POK","is_transit":false,"i_lat":-6.209188,"transit":false,"line":11,"station_name":"Pondok Jati"},{"distance":1236,"transit":true,"time":9,"i_lat":-6.215091,"i_long":106.86807400000001,"line":1,"is_transit":true,"station_id":"JNG","station_name":"Jatinegara"},{"distance":3395,"station_id":"KLD","station_name":"Klender","transit":false,"i_lat":-6.2135,"time":3,"line":1,"is_transit":false,"i_long":106.899548},{"line":1,"transit":false,"i_lat":-6.215568,"station_name":"Buaran","is_transit":false,"distance":3100,"station_id":"BUA","i_long":106.922662,"time":2},{"time":1,"distance":1305,"i_lat":-6.217455,"line":1,"station_name":"Klenderbaru","station_id":"KLDB","is_transit":false,"i_long":106.939679,"transit":false},{"transit":false,"station_id":"CUK","station_name":"Cakung","time":8,"distance":1385,"line":1,"is_transit":false,"i_lat":-6.219053,"i_long":106.951283},{"is_transit":false,"i_long":106.977657,"station_name":"Kranji","time":3,"transit":false,"station_id":"KRI","distance":3097,"i_lat":-6.224515,"line":1},{"distance":2520,"station_id":"BKS","transit":false,"station_name":"Bekasi","i_long":106.997013,"line":1,"is_transit":false,"time":4,"i_lat":-6.236616},{"line":1,"distance":2368,"i_long":107.016735,"i_lat":-6.248029,"transit":false,"station_name":"Bekasi Timur","is_transit":false,"time":2,"station_id":"BKST"},{"is_transit":false,"transit":false,"line":1,"time":7,"station_name":"Tambun","distance":4460,"i_lat":-6.258864,"station_id":"TB","i_long":107.055722},{"i_lat":-6.261877,"time":3,"is_transit":false,"station_name":"Cibitung","transit":false,"line":1,"distance":3420,"station_id":"CIT","i_long":107.083084},{"transit":false,"is_transit":false,"distance":2800,"station_name":"Metland Telaga Murni","time":2,"line":1,"station_id":"TLM","i_long":107.093313,"i_lat":-6.262938},{"station_id":"CKR","is_transit":false,"station_name":"Cikarang","i_long":107.144613,"time":4,"distance":3689,"i_lat":-6.2553149999999995,"line":1,"transit":false}],[{"line":11,"transit":false,"is_transit":false,"station_name":"Pasar Senen","time":0,"i_long":106.84368,"station_id":"PSE","distance":0,"i_lat":-6.174784},{"station_id":"KMO","station_name":"Kemayoran","i_long":106.839204,"line":11,"transit":false,"distance":1436,"i_lat":-6.161728,"is_transit":false,"time":4},{"station_name":"Rajawali","line":11,"time":5,"station_id":"RJW","i_long":106.836569,"transit":false,"is_transit":false,"i_lat":-6.14505,"distance":1901},{"station_id":"KPB","time":3,"station_name":"Kampung Bandan","i_long":106.826365,"distance":1444,"is_transit":true,"line":4,"i_lat":-6.132549,"transit":true},{"station_id":"AK","distance":4102,"transit":false,"is_transit":false,"i_lat":-6.144674,"i_long":106.79867,"line":1,"station_name":"Angke","time":9},{"distance":1230,"is_transit":false,"transit":false,"station_id":"DU","i_lat":-6.155215,"i_long":106.800832,"station_name":"Duri","time":4,"line":1},{"is_transit":false,"time":8,"distance":3632,"i_long":106.811091,"line":1,"station_id":"THB","i_lat":-6.185545,"station_name":"Tanah Abang","transit":false},{"time":5,"distance":2029,"station_name":"Karet","station_id":"KAT","transit":false,"is_transit":false,"i_lat":-6.20132,"i_long":106.816351,"line":1},{"station_id":"SUDB","line":1,"time":1,"distance":471,"i_long":106.819881,"station_name":"Sudirman Baru","is_transit":false,"i_lat":-6.201433,"transit":false},{"transit":false,"station_name":"Sudirman","station_id":"SUD","time":1,"i_lat":-6.202263,"line":1,"i_long":106.822649,"is_transit":false,"distance":280},{"i_long":106.84912,"time":4,"is_transit":false,"i_lat":-6.209883,"distance":3186,"transit":false,"station_id":"MRI","station_name":"Manggarai","line":2},{"station_id":"MTR","time":2,"is_transit":false,"distance":1275,"line":1,"i_long":106.858896,"i_lat":-6.212485,"transit":false,"station_name":"Matraman"},{"i_lat":-6.215091,"i_long":106.86807400000001,"time":8,"distance":1377,"is_transit":false,"station_name":"Jatinegara","station_id":"JNG","line":1,"transit":false},{"transit":false,"station_id":"KLD","line":1,"time":3,"i_long":106.899548,"i_lat":-6.2135,"distance":3395,"station_name":"Klender","is_transit":false},{"distance":3100,"i_long":106.922662,"transit":false,"is_transit":false,"station_name":"Buaran","time":2,"i_lat":-6.215568,"line":1,"station_id":"BUA"},{"line":1,"time":1,"is_transit":false,"station_id":"KLDB","distance":1305,"transit":false,"station_name":"Klenderbaru","i_long":106.939679,"i_lat":-6.217455},{"line":1,"time":8,"transit":false,"station_name":"Cakung","distance":1385,"i_long":106.951283,"is_transit":false,"station_id":"CUK","i_lat":-6.219053},{"station_id":"KRI","transit":false,"station_name":"Kranji","i_long":106.977657,"i_lat":-6.224515,"distance":3097,"line":1,"is_transit":false,"time":3},{"station_name":"Bekasi","i_lat":-6.236616,"transit":false,"time":4,"is_transit":false,"line":1,"distance":2520,"station_id":"BKS","i_long":106.997013},{"i_long":107.016735,"line":1,"i_lat":-6.248029,"transit":false,"station_id":"BKST","distance":2368,"station_name":"Bekasi Timur","is_transit":false,"time":2},{"i_long":107.055722,"transit":false,"station_id":"TB","line":1,"station_name":"Tambun","is_transit":false,"i_lat":-6.258864,"distance":4460,"time":7},{"i_lat":-6.261877,"distance":3420,"line":1,"station_id":"CIT","time":3,"is_transit":false,"i_long":107.083084,"station_name":"Cibitung","transit":false},{"i_lat":-6.262938,"transit":false,"i_long":107.093313,"line":1,"is_transit":false,"distance":2800,"time":2,"station_id":"TLM","station_name":"Metland Telaga Murni"},{"transit":false,"station_name":"Cikarang","station_id":"CKR","i_lat":-6.2553149999999995,"time":4,"is_transit":false,"line":1,"i_long":107.144613,"distance":3689}],[{"i_lat":-6.174784,"station_name":"Pasar Senen","line":11,"transit":false,"station_id":"PSE","is_transit":false,"i_long":106.84368,"distance":0,"time":0},{"i_long":106.839204,"distance":1436,"i_lat":-6.161728,"station_id":"KMO","time":4,"transit":false,"is_transit":false,"line":11,"station_name":"Kemayoran"},{"i_lat":-6.14505,"station_id":"RJW","transit":false,"is_transit":false,"i_long":106.836569,"time":5,"distance":1901,"line":11,"station_name":"Rajawali"},{"transit":true,"i_lat":-6.132549,"line":4,"i_long":106.826365,"is_transit":true,"station_id":"KPB","time":3,"distance":1444,"station_name":"Kampung Bandan"},{"is_transit":true,"distance":1364,"line":2,"station_id":"JAKK","i_long":106.812439,"i_lat":-6.137569,"station_name":"Jakarta Kota","transit":true,"time":3},{"station_name":"Jayakarta","transit":false,"is_transit":false,"station_id":"JAY","time":4,"distance":1264,"i_lat":-6.141205,"i_long":106.820901,"line":2},{"is_transit":false,"transit":false,"time":2,"station_name":"Manggabesar","i_lat":-6.149769,"i_long":106.82482,"station_id":"MGB","distance":1080,"line":2},{"i_long":106.827103,"station_id":"SW","station_name":"Sawah Besar","i_lat":-6.160725,"time":2,"is_transit":false,"transit":false,"distance":906,"line":2},{"i_long":106.828284,"line":2,"distance":1149,"transit":false,"station_name":"Juanda","time":2,"is_transit":false,"station_id":"JUA","i_lat":-6.166716},{"i_lat":-6.186295,"transit":false,"station_id":"GDD","time":4,"station_name":"Gondangdia","is_transit":false,"line":2,"distance":2015,"i_long":106.832183},{"distance":1750,"station_id":"CKI","i_lat":-6.198556,"time":3,"i_long":106.840169,"is_transit":false,"transit":false,"line":2,"station_name":"Cikini"},{"time":4,"is_transit":true,"transit":true,"distance":1590,"i_lat":-6.209883,"i_long":106.84912,"line":2,"station_name":"Manggarai","station_id":"MRI"},{"transit":false,"i_long":106.858896,"station_id":"MTR","is_transit":false,"i_lat":-6.212485,"line":1,"time":2,"distance":1275,"station_name":"Matraman"},{"i_long":106.86807400000001,"line":1,"station_name":"Jatinegara","station_id":"JNG","i_lat":-6.215091,"distance":1377,"time":8,"is_transit":false,"transit":false},{"line":1,"i_long":106.899548,"is_transit":false,"station_id":"KLD","time":3,"transit":false,"station_name":"Klender","distance":3395,"i_lat":-6.2135},{"transit":false,"station_id":"BUA","line":1,"time":2,"station_name":"Buaran","is_transit":false,"distance":3100,"i_lat":-6.215568,"i_long":106.922662},{"distance":1305,"line":1,"is_transit":false,"i_long":106.939679,"transit":false,"i_lat":-6.217455,"time":1,"station_id":"KLDB","station_name":"Klenderbaru"},{"is_transit":false,"transit":false,"station_name":"Cakung","time":8,"station_id":"CUK","distance":1385,"i_lat":-6.219053,"i_long":106.951283,"line":1},{"station_id":"KRI","distance":3097,"transit":false,"time":3,"line":1,"station_name":"Kranji","is_transit":false,"i_lat":-6.224515,"i_long":106.977657},{"i_long":106.997013,"transit":false,"is_transit":false,"line":1,"i_lat":-6.236616,"station_name":"Bekasi","station_id":"BKS","time":4,"distance":2520},{"i_lat":-6.248029,"line":1,"is_transit":false,"transit":false,"time":2,"i_long":107.016735,"station_id":"BKST","station_name":"Bekasi Timur","distance":2368},{"transit":false,"station_id":"TB","station_name":"Tambun","line":1,"is_transit":false,"time":7,"i_long":107.055722,"distance":4460,"i_lat":-6.258864},{"i_long":107.083084,"time":3,"is_transit":false,"i_lat":-6.261877,"line":1,"transit":false,"station_name":"Cibitung","distance":3420,"station_id":"CIT"},{"i_lat":-6.262938,"i_long":107.093313,"station_name":"Metland Telaga Murni","transit":false,"station_id":"TLM","time":2,"is_transit":false,"distance":2800,"line":1},{"station_id":"CKR","line":1,"distance":3689,"i_long":107.144613,"transit":false,"station_name":"Cikarang","is_transit":false,"time":4,"i_lat":-6.2553149999999995}]]}