{"data":[[{"station_name":"Pasar Senen","time":0,"is_transit":false,"station_id":"PSE","i_lat":-6.174784,"distance":0,"i_long":106.84368,"transit":false,"line":11},{"distance":1567,"is_transit":false,"line":11,"transit":false,"time":8,"station_id":"GST","station_name":"Gang Sentiong","i_lat":-6.185975,"i_long":106.850107},{"distance":973,"station_id":"KMT","line":11,"transit":false,"i_lat":-6.193792,"time":1,"station_name":"Kramat","i_long":106.855437,"is_transit":false},{"time":2,"i_long":106.861737,"transit":false,"distance":1829,"i_lat":-6.209188,"station_name":"Pondok Jati","station_id":"POK","line":11,"is_transit":false},{"distance":1236,"is_transit":true,"station_id":"JNG","transit":true,"time":9,"i_lat":-6.215091,"i_long":106.86807400000001,"line":0,"station_name":"Jatinegara"},{"station_name":"Matraman","i_long":106.858896,"is_transit":false,"distance":1377,"station_id":"MTR","i_lat":-6.212485,"line":1,"transit":false,"time":2},{"i_long":106.84912,"transit":true,"station_name":"Manggarai","distance":1275,"line":0,"is_transit":true,"station_id":"MRI","time":2,"i_lat":-6.209883},{"station_id":"CKI","transit":false,"is_transit":false,"station_name":"Cikini","time":4,"i_lat":-6.198556,"i_long":106.840169,"line":0,"distance":1590}],[{"i_long":106.84368,"is_transit":false,"time":0,"line":11,"station_name":"Pasar Senen","transit":false,"i_lat":-6.174784,"distance":0,"station_id":"PSE"},{"station_name":"Kemayoran","is_transit":false,"station_id":"KMO","time":4,"i_lat":-6.161728,"i_long":106.839204,"line":11,"distance":1436,"transit":false},{"i_lat":-6.14505,"distance":1901,"transit":false,"station_id":"RJW","time":5,"is_transit":false,"station_name":"Rajawali","i_long":106.836569,"line":11},{"transit":true,"is_transit":true,"distance":1444,"station_name":"Kampung Bandan","line":0,"station_id":"KPB","time":3,"i_long":106.826365,"i_lat":-6.132549},{"is_transit":true,"i_lat":-6.137569,"station_id":"JAKK","station_name":"Jakarta Kota","time":3,"line":0,"i_long":106.812439,"distance":1364,"transit":true},{"i_lat":-6.141205,"is_transit":false,"station_id":"JAY","station_name":"Jayakarta","i_long":106.820901,"transit":false,"line":7,"distance":1264,"time":4},{"time":2,"station_name":"Manggabesar","is_transit":false,"transit":false,"i_lat":-6.149769,"i_long":106.82482,"distance":1080,"line":2,"station_id":"MGB"},{"time":2,"is_transit":false,"station_id":"SW","distance":906,"transit":false,"i_long":106.827103,"line":2,"station_name":"Sawah Besar","i_lat":-6.160725},{"distance":1149,"station_id":"JUA","i_long":106.828284,"station_name":"Juanda","i_lat":-6.166716,"time":2,"is_transit":false,"transit":false,"line":2},{"distance":2015,"transit":false,"i_lat":-6.186295,"station_name":"Gondangdia","i_long":106.832183,"station_id":"GDD","is_transit":false,"line":2,"time":4},{"distance":1750,"transit":false,"station_id":"CKI","time":3,"i_long":106.840169,"line":0,"station_name":"Cikini","is_transit":false,"i_lat":-6.198556}],[{"distance":0,"is_transit":false,"station_name":"Pasar Senen","station_id":"PSE","time":0,"i_long":106.84368,"line":11,"transit":false,"i_lat":-6.174784},{"station_id":"KMO","is_transit":false,"time":4,"station_name":"Kemayoran","i_long":106.839204,"transit":false,"i_lat":-6.161728,"distance":1436,"line":11},{"i_lat":-6.14505,"station_id":"RJW","distance":1901,"station_name":"Rajawali","transit":false,"line":11,"time":5,"is_transit":false,"i_long":106.836569},{"time":3,"i_lat":-6.132549,"station_id":"KPB","distance":1444,"station_name":"Kampung Bandan","is_transit":true,"i_long":106.826365,"transit":true,"line":0},{"i_lat":-6.144674,"transit":false,"distance":4102,"station_name":"Angke","i_long":106.79867,"line":0,"is_transit":false,"station_id":"AK","time":9},{"i_long":106.800832,"transit":true,"is_transit":true,"station_name":"Duri","distance":1230,"time":4,"i_lat":-6.155215,"station_id":"DU","line":1},{"line":1,"is_transit":true,"time":8,"station_id":"THB","i_lat":-6.185545,"transit":false,"distance":3632,"i_long":106.811091,"station_name":"Tanah Abang"},{"distance":2029,"station_name":"Karet","is_transit":false,"time":5,"line":1,"station_id":"KAT","transit":false,"i_lat":-6.20132,"i_long":106.816351},{"i_long":106.819881,"distance":471,"station_name":"Sudirman Baru","is_transit":false,"station_id":"SUDB","i_lat":-6.201433,"line":1,"time":1,"transit":false},{"is_transit":false,"i_long":106.822649,"station_id":"SUD","i_lat":-6.202263,"transit":false,"line":1,"station_name":"Sudirman","distance":280,"time":1},{"line":0,"station_name":"Manggarai","i_long":106.84912,"station_id":"MRI","i_lat":-6.209883,"transit":true,"is_transit":true,"distance":3186,"time":4},{"station_name":"Cikini","station_id":"CKI","is_transit":false,"time":4,"line":0,"transit":false,"distance":1590,"i_long":106.840169,"i_lat":-6.198556}],[{"distance":0,"transit":false,"i_long":106.84368,"time":0,"line":11,"i_lat":-6.174784,"station_name":"Pasar Senen","is_transit":false,"station_id":"PSE"},{"station_id":"GST","line":11,"station_name":"Gang Sentiong","transit":false,"distance":1567,"time":8,"is_transit":false,"i_lat":-6.185975,"i_long":106.850107},{"station_id":"KMT","station_name":"Kramat","time":1,"line":11,"i_lat":-6.193792,"distance":973,"transit":false,"i_long":106.855437,"is_transit":false},{"station_id":"POK","i_lat":-6.209188,"line":11,"i_long":106.861737,"time":2,"distance":1829,"is_transit":false,"station_name":"Pondok Jati","transit":false},{"line":0,"is_transit":true,"station_name":"Jatinegara","distance":1236,"station_id":"JNG","transit":true,"time":9,"i_lat":-6.215091,"i_long":106.86807400000001},{"transit":false,"i_lat":-6.212485,"station_id":"MTR","i_long":106.858896,"distance":1377,"time":2,"station_name":"Matraman","line":1,"is_transit":false},{"is_transit":true,"station_name":"Manggarai","i_lat":-6.209883,"i_long":106.84912,"distance":1275,"station_id":"MRI","transit":false,"line":0,"time":2},{"distance":3186,"time":4,"station_id":"SUD","station_name":"Sudirman","i_long":106.822649,"i_lat":-6.202263,"line":1,"is_transit":false,"transit":false},{"transit":false,"line":1,"is_transit":false,"station_id":"SUDB","distance":280,"i_lat":-6.201433,"time":1,"station_name":"Sudirman Baru","i_long":106.819881},{"i_lat":-6.20132,"i_long":106.816351,"time":1,"is_transit":false,"transit":false,"station_name":"Karet","distance":471,"line":1,"station_id":"KAT"},{"station_id":"THB","time":5,"station_name":"Tanah Abang","distance":2029,"is_transit":true,"transit":false,"i_lat":-6.185545,"i_long":106.811091,"line":1},{"time":8,"line":1,"distance":3632,"transit":true,"is_transit":true,"station_id":"DU","i_lat":-6.155215,"station_name":"Duri","i_long":106.800832},{"time":4,"i_long":106.79867,"station_name":"Angke","line":0,"i_lat":-6.144674,"station_id":"AK","transit":false,"distance":1230,"is_transit":false},{"is_transit":true,"station_id":"KPB","station_name":"Kampung Bandan","i_lat":-6.132549,"time":9,"transit":false,"distance":4102,"i_long":106.826365,"line":0},{"station_id":"JAKK","transit":true,"distance":1364,"station_name":"Jakarta Kota","i_lat":-6.137569,"i_long":106.812439,"is_transit":true,"line":0,"time":3},{"transit":false,"i_lat":-6.141205,"i_long":106.820901,"is_transit":false,"line":7,"station_name":"Jayakarta","time":4,"distance":1264,"station_id":"JAY"},{"is_transit":false,"distance":1080,"station_name":"Manggabesar","transit":false,"line":2,"i_lat":-6.149769,"i_long":106.82482,"time":2,"station_id":"MGB"},{"i_long":106.827103,"time":2,"station_name":"Sawah Besar","distance":906,"is_transit":false,"i_lat":-6.160725,"station_id":"SW","transit":false,"line":2},{"transit":false,"is_transit":false,"station_id":"JUA","distance":1149,"i_lat":-6.166716,"i_long":106.828284,"line":2,"time":2,"station_name":"Juanda"},{"time":4,"is_transit":false,"station_name":"Gondangdia","i_long":106.832183,"i_lat":-6.186295,"distance":2015,"line":2,"station_id":"GDD","transit":false},{"station_id":"CKI","line":0,"time":3,"i_lat":-6.198556,"distance":1750,"station_name":"Cikini","is_transit":false,"i_long":106.840169,"transit":false}]]}