{"data":[[{"transit":false,"i_long":106.84368,"station_id":"PSE","station_name":"Pasar Senen","is_transit":false,"i_lat":-6.174784,"line":11,"distance":0,"time":0},{"distance":1436,"line":11,"station_name":"Kemayoran","i_long":106.839204,"time":4,"transit":false,"i_lat":-6.161728,"station_id":"KMO","is_transit":false},{"distance":1901,"transit":false,"i_lat":-6.14505,"is_transit":false,"line":11,"station_name":"Rajawali","station_id":"RJW","i_long":106.836569,"time":5},{"i_lat":-6.132549,"time":3,"line":4,"i_long":106.826365,"distance":1444,"station_id":"KPB","station_name":"Kampung Bandan","transit":true,"is_transit":true},{"i_long":106.79867,"station_id":"AK","distance":4102,"is_transit":false,"i_lat":-6.144674,"line":1,"time":9,"station_name":"Angke","transit":false},{"line":1,"station_name":"Duri","time":4,"i_lat":-6.155215,"transit":false,"distance":1230,"station_id":"DU","i_long":106.800832,"is_transit":false},{"i_lat":-6.185545,"time":8,"transit":true,"distance":3632,"station_id":"THB","station_name":"Tanah Abang","is_transit":true,"i_long":106.811091,"line":1},{"i_long":106.79689,"line":6,"i_lat":-6.207404,"distance":3191,"station_id":"PLM","time":6,"station_name":"Palmerah","is_transit":false,"transit":false},{"station_id":"KBY","time":7,"distance":3737,"station_name":"Kebayoran","is_transit":false,"i_lat":-6.237242,"i_long":106.780334,"line":6,"transit":false},{"is_transit":false,"station_id":"PDJ","transit":false,"distance":6218,"line":6,"i_long":106.74273,"time":8,"i_lat":-6.276362,"station_name":"Pondokranji"},{"station_name":"Jurangmangu","distance":2179,"transit":false,"i_lat":-6.288927,"i_long":106.728916,"line":6,"station_id":"JMU","is_transit":false,"time":3},{"station_name":"Sudimara","time":4,"station_id":"SDM","i_lat":-6.296963,"i_long":106.712277,"line":6,"is_transit":false,"distance":1994,"transit":false},{"time":6,"station_id":"RU","is_transit":false,"i_long":106.675475,"station_name":"Rawa Buntu","line":6,"distance":4566,"i_lat":-6.314823,"transit":false},{"time":4,"distance":2413,"is_transit":false,"line":6,"i_long":106.66566,"station_id":"SRP","transit":false,"station_name":"Serpong","i_lat":-6.319871},{"i_lat":-6.32484,"station_id":"CSK","station_name":"Cisauk","distance":1784,"is_transit":false,"transit":false,"i_long":106.640411,"line":3,"time":4},{"i_long":106.617853,"time":4,"line":3,"distance":2519,"transit":false,"is_transit":false,"i_lat":-6.329547,"station_id":"CC","station_name":"Cicayur"},{"station_id":"PRP","station_name":"Parung Panjang","transit":false,"line":6,"is_transit":false,"i_lat":-6.3441410000000005,"time":8,"distance":5968,"i_long":106.568863},{"i_lat":-6.354349,"transit":false,"distance":7025,"i_long":106.508482,"station_name":"Cilejit","time":9,"line":3,"is_transit":false,"station_id":"CJT"},{"time":6,"is_transit":false,"i_lat":-6.338021,"station_id":"DAR","distance":2675,"i_long":106.491338,"line":0,"station_name":"Daru","transit":false},{"distance":3902,"time":5,"i_long":106.460812,"transit":false,"station_name":"Tenjo","i_lat":-6.327251,"line":6,"is_transit":false,"station_id":"TEJ"},{"line":6,"time":5,"i_lat":-6.328533,"station_id":"TGS","station_name":"Tigaraksa","transit":false,"is_transit":false,"distance":2974,"i_long":106.425991}],[{"is_transit":false,"transit":false,"line":11,"time":0,"i_lat":-6.174784,"distance":0,"station_name":"Pasar Senen","station_id":"PSE","i_long":106.84368},{"is_transit":false,"distance":1567,"time":8,"i_lat":-6.185975,"transit":false,"station_id":"GST","line":11,"station_name":"Gang Sentiong","i_long":106.850107},{"i_long":106.855437,"time":1,"transit":false,"is_transit":false,"distance":973,"station_name":"Kramat","line":11,"i_lat":-6.193792,"station_id":"KMT"},{"i_long":106.861737,"line":11,"transit":false,"station_id":"POK","i_lat":-6.209188,"time":2,"is_transit":false,"distance":1829,"station_name":"Pondok Jati"},{"i_long":106.86807400000001,"distance":1236,"transit":true,"line":1,"station_name":"Jatinegara","time":9,"is_transit":true,"i_lat":-6.215091,"station_id":"JNG"},{"station_id":"MTR","i_long":106.858896,"is_transit":false,"transit":false,"station_name":"Matraman","distance":1377,"time":2,"i_lat":-6.212485,"line":1},{"transit":false,"distance":1275,"i_lat":-6.209883,"station_name":"Manggarai","station_id":"MRI","time":2,"line":2,"is_transit":false,"i_long":106.84912},{"station_name":"Sudirman","transit":false,"is_transit":false,"station_id":"SUD","time":4,"i_long":106.822649,"i_lat":-6.202263,"distance":3186,"line":1},{"distance":280,"time":1,"i_lat":-6.201433,"is_transit":false,"i_long":106.819881,"line":1,"transit":false,"station_id":"SUDB","station_name":"Sudirman Baru"},{"transit":false,"distance":471,"i_lat":-6.20132,"is_transit":false,"station_id":"KAT","station_name":"Karet","time":1,"line":1,"i_long":106.816351},{"is_transit":true,"station_name":"Tanah Abang","transit":true,"i_long":106.811091,"line":1,"i_lat":-6.185545,"time":5,"station_id":"THB","distance":2029},{"time":6,"distance":3191,"station_name":"Palmerah","transit":false,"i_lat":-6.207404,"i_long":106.79689,"is_transit":false,"station_id":"PLM","line":6},{"time":7,"station_id":"KBY","i_long":106.780334,"transit":false,"station_name":"Kebayoran","is_transit":false,"i_lat":-6.237242,"distance":3737,"line":6},{"time":8,"transit":false,"i_long":106.74273,"distance":6218,"i_lat":-6.276362,"station_id":"PDJ","is_transit":false,"line":6,"station_name":"Pondokranji"},{"i_long":106.728916,"i_lat":-6.288927,"time":3,"is_transit":false,"station_name":"Jurangmangu","line":6,"transit":false,"station_id":"JMU","distance":2179},{"time":4,"distance":1994,"i_long":106.712277,"transit":false,"is_transit":false,"i_lat":-6.296963,"line":6,"station_id":"SDM","station_name":"Sudimara"},{"distance":4566,"is_transit":false,"transit":false,"station_name":"Rawa Buntu","time":6,"station_id":"RU","i_long":106.675475,"i_lat":-6.314823,"line":6},{"transit":false,"station_name":"Serpong","is_transit":false,"time":4,"station_id":"SRP","i_long":106.66566,"distance":2413,"i_lat":-6.319871,"line":6},{"distance":1784,"time":4,"station_name":"Cisauk","i_long":106.640411,"transit":false,"is_transit":false,"station_id":"CSK","line":3,"i_lat":-6.32484},{"i_long":106.617853,"station_id":"CC","is_transit":false,"station_name":"Cicayur","i_lat":-6.329547,"distance":2519,"time":4,"line":3,"transit":false},{"i_lat":-6.3441410000000005,"station_id":"PRP","i_long":106.568863,"is_transit":false,"station_name":"Parung Panjang","transit":false,"distance":5968,"time":8,"line":6},{"time":9,"is_transit":false,"station_id":"CJT","i_lat":-6.354349,"line":3,"transit":false,"distance":7025,"i_long":106.508482,"station_name":"Cilejit"},{"station_name":"Daru","is_transit":false,"time":6,"i_lat":-6.338021,"distance":2675,"transit":false,"i_long":106.491338,"line":0,"station_id":"DAR"},{"line":6,"transit":false,"distance":3902,"station_id":"TEJ","i_long":106.460812,"i_lat":-6.327251,"is_transit":false,"station_name":"Tenjo","time":5},{"line":6,"is_transit":false,"time":5,"i_long":106.425991,"distance":2974,"station_name":"Tigaraksa","transit":false,"i_lat":-6.328533,"station_id":"TGS"}],[{"i_lat":-6.174784,"is_transit":false,"station_name":"Pasar Senen","i_long":106.84368,"line":11,"station_id":"PSE","time":0,"distance":0,"transit":false},{"line":11,"station_id":"KMO","i_long":106.839204,"time":4,"station_name":"Kemayoran","transit":false,"is_transit":false,"i_lat":-6.161728,"distance":1436},{"transit":false,"station_id":"RJW","station_name":"Rajawali","line":11,"distance":1901,"time":5,"is_transit":false,"i_long":106.836569,"i_lat":-6.14505},{"time":3,"distance":1444,"is_transit":true,"station_id":"KPB","i_lat":-6.132549,"i_long":106.826365,"station_name":"Kampung Bandan","line":4,"transit":true},{"transit":true,"distance":1364,"time":3,"i_lat":-6.137569,"line":2,"is_transit":true,"station_name":"Jakarta Kota","i_long":106.812439,"station_id":"JAKK"},{"i_lat":-6.141205,"i_long":106.820901,"time":4,"station_id":"JAY","transit":false,"distance":1264,"station_name":"Jayakarta","line":2,"is_transit":false},{"transit":false,"station_id":"MGB","i_lat":-6.149769,"is_transit":false,"i_long":106.82482,"distance":1080,"time":2,"station_name":"Manggabesar","line":2},{"distance":906,"is_transit":false,"station_id":"SW","time":2,"line":2,"i_lat":-6.160725,"transit":false,"i_long":106.827103,"station_name":"Sawah Besar"},{"transit":false,"distance":1149,"i_lat":-6.166716,"station_id":"JUA","station_name":"Juanda","time":2,"is_transit":false,"i_long":106.828284,"line":2},{"is_transit":false,"station_name":"Gondangdia","i_long":106.832183,"time":4,"distance":2015,"i_lat":-6.186295,"line":2,"station_id":"GDD","transit":false},{"time":3,"station_name":"Cikini","station_id":"CKI","i_lat":-6.198556,"line":2,"distance":1750,"i_long":106.840169,"is_transit":false,"transit":false},{"i_long":106.84912,"line":2,"is_transit":true,"time":4,"station_id":"MRI","distance":1590,"transit":true,"station_name":"Manggarai","i_lat":-6.209883},{"i_long":106.822649,"distance":3186,"transit":false,"line":1,"is_transit":false,"time":4,"station_id":"SUD","i_lat":-6.202263,"station_name":"Sudirman"},{"station_id":"SUDB","station_name":"Sudirman Baru","transit":false,"i_long":106.819881,"is_transit":false,"time":1,"i_lat":-6.201433,"distance":280,"line":1},{"i_lat":-6.20132,"station_id":"KAT","distance":471,"is_transit":false,"station_name":"Karet","i_long":106.816351,"line":1,"transit":false,"time":1},{"i_long":106.811091,"line":1,"station_id":"THB","i_lat":-6.185545,"time":5,"is_transit":true,"station_name":"Tanah Abang","distance":2029,"transit":true},{"time":6,"station_name":"Palmerah","station_id":"PLM","i_long":106.79689,"transit":false,"is_transit":false,"i_lat":-6.207404,"line":6,"distance":3191},{"is_transit":false,"i_lat":-6.237242,"i_long":106.780334,"station_name":"Kebayoran","transit":false,"line":6,"time":7,"distance":3737,"station_id":"KBY"},{"distance":6218,"station_id":"PDJ","transit":false,"time":8,"is_transit":false,"i_lat":-6.276362,"i_long":106.74273,"line":6,"station_name":"Pondokranji"},{"is_transit":false,"i_long":106.728916,"distance":2179,"transit":false,"station_id":"JMU","station_name":"Jurangmangu","time":3,"i_lat":-6.288927,"line":6},{"time":4,"i_long":106.712277,"station_id":"SDM","line":6,"is_transit":false,"distance":1994,"station_name":"Sudimara","i_lat":-6.296963,"transit":false},{"i_lat":-6.314823,"station_name":"Rawa Buntu","is_transit":false,"i_long":106.675475,"line":6,"transit":false,"distance":4566,"station_id":"RU","time":6},{"station_id":"SRP","transit":false,"line":6,"is_transit":false,"time":4,"i_long":106.66566,"distance":2413,"station_name":"Serpong","i_lat":-6.319871},{"distance":1784,"is_transit":false,"transit":false,"time":4,"station_name":"Cisauk","line":3,"i_long":106.640411,"station_id":"CSK","i_lat":-6.32484},{"transit":false,"time":4,"distance":2519,"i_lat":-6.329547,"station_id":"CC","i_long":106.617853,"station_name":"Cicayur","line":3,"is_transit":false},{"i_lat":-6.3441410000000005,"line":6,"i_long":106.568863,"is_transit":false,"time":8,"distance":5968,"station_id":"PRP","transit":false,"station_name":"Parung Panjang"},{"time":9,"station_id":"CJT","is_transit":false,"i_lat":-6.354349,"distance":7025,"i_long":106.508482,"line":3,"station_name":"Cilejit","transit":false},{"time":6,"line":0,"station_id":"DAR","station_name":"Daru","transit":false,"distance":2675,"i_lat":-6.338021,"i_long":106.491338,"is_transit":false},{"transit":false,"distance":3902,"is_transit":false,"station_id":"TEJ","station_name":"Tenjo","line":6,"i_long":106.460812,"i_lat":-6.327251,"time":5},{"station_name":"Tigaraksa","i_long":106.425991,"transit":false,"time":5,"is_transit":false,"distance":2974,"station_id":"TGS","i_lat":-6.328533,"line":6}],[{"i_long":106.84368,"transit":false,"distance":0,"i_lat":-6.174784,"station_id":"PSE","time":0,"is_transit":false,"station_name":"Pasar Senen","line":11},{"i_long":106.850107,"i_lat":-6.185975,"line":11,"is_transit":false,"station_id":"GST","distance":1567,"time":8,"station_name":"Gang Sentiong","transit":false},{"i_long":106.855437,"line":11,"i_lat":-6.193792,"transit":false,"time":1,"distance":973,"station_id":"KMT","is_transit":false,"station_name":"Kramat"},{"i_lat":-6.209188,"i_long":106.861737,"is_transit":false,"station_id":"POK","line":11,"station_name":"Pondok Jati","distance":1829,"time":2,"transit":false},{"line":1,"time":9,"distance":1236,"station_id":"JNG","station_name":"Jatinegara","transit":true,"is_transit":true,"i_long":106.86807400000001,"i_lat":-6.215091},{"transit":false,"time":2,"i_long":106.858896,"line":1,"is_transit":false,"distance":1377,"i_lat":-6.212485,"station_id":"MTR","station_name":"Matraman"},{"station_id":"MRI","i_long":106.84912,"transit":true,"is_transit":true,"time":2,"station_name":"Manggarai","distance":1275,"i_lat":-6.209883,"line":2},{"line":2,"is_transit":false,"i_lat":-6.198556,"station_id":"CKI","distance":1590,"station_name":"Cikini","i_long":106.840169,"transit":false,"time":4},{"i_long":106.832183,"transit":false,"station_name":"Gondangdia","line":2,"is_transit":false,"i_lat":-6.186295,"station_id":"GDD","distance":1750,"time":3},{"line":2,"station_name":"Juanda","i_lat":-6.166716,"i_long":106.828284,"distance":2015,"transit":false,"is_transit":false,"station_id":"JUA","time":4},{"i_long":106.827103,"time":2,"distance":1149,"transit":false,"is_transit":false,"station_name":"Sawah Besar","i_lat":-6.160725,"line":2,"station_id":"SW"},{"station_id":"MGB","is_transit":false,"time":2,"station_name":"Manggabesar","i_lat":-6.149769,"line":2,"distance":906,"transit":false,"i_long":106.82482},{"transit":false,"station_name":"Jayakarta","i_long":106.820901,"line":2,"station_id":"JAY","is_transit":false,"distance":1080,"i_lat":-6.141205,"time":2},{"transit":true,"distance":1264,"station_id":"JAKK","station_name":"Jakarta Kota","i_lat":-6.137569,"is_transit":true,"line":2,"time":4,"i_long":106.812439},{"time":3,"i_lat":-6.132549,"transit":true,"i_long":106.826365,"distance":1364,"station_id":"KPB","station_name":"Kampung Bandan","line":4,"is_transit":true},{"i_lat":-6.144674,"station_id":"AK","transit":false,"line":1,"distance":4102,"time":9,"station_name":"Angke","i_long":106.79867,"is_transit":false},{"line":1,"time":4,"distance":1230,"i_long":106.800832,"transit":false,"is_transit":false,"station_id":"DU","station_name":"Duri","i_lat":-6.155215},{"station_name":"Tanah Abang","line":1,"transit":true,"distance":3632,"time":8,"is_transit":true,"station_id":"THB","i_lat":-6.185545,"i_long":106.811091},{"distance":3191,"station_id":"PLM","i_lat":-6.207404,"transit":false,"time":6,"i_long":106.79689,"is_transit":false,"station_name":"Palmerah","line":6},{"station_id":"KBY","station_name":"Kebayoran","transit":false,"i_lat":-6.237242,"i_long":106.780334,"is_transit":false,"distance":3737,"line":6,"time":7},{"station_id":"PDJ","line":6,"is_transit":false,"i_long":106.74273,"station_name":"Pondokranji","transit":false,"i_lat":-6.276362,"distance":6218,"time":8},{"is_transit":false,"station_id":"JMU","station_name":"Jurangmangu","transit":false,"line":6,"i_long":106.728916,"i_lat":-6.288927,"distance":2179,"time":3},{"transit":false,"line":6,"time":4,"i_long":106.712277,"is_transit":false,"distance":1994,"station_id":"SDM","station_name":"Sudimara","i_lat":-6.296963},{"distance":4566,"station_name":"Rawa Buntu","time":6,"i_lat":-6.314823,"i_long":106.675475,"station_id":"RU","transit":false,"is_transit":false,"line":6},{"station_id":"SRP","transit":false,"i_long":106.66566,"line":6,"distance":2413,"is_transit":false,"i_lat":-6.319871,"station_name":"Serpong","time":4},{"i_long":106.640411,"transit":false,"is_transit":false,"time":4,"line":3,"i_lat":-6.32484,"station_name":"Cisauk","distance":1784,"station_id":"CSK"},{"time":4,"transit":false,"distance":2519,"is_transit":false,"station_name":"Cicayur","i_long":106.617853,"station_id":"CC","line":3,"i_lat":-6.329547},{"station_name":"Parung Panjang","i_long":106.568863,"is_transit":false,"station_id":"PRP","time":8,"transit":false,"distance":5968,"i_lat":-6.3441410000000005,"line":6},{"i_long":106.508482,"distance":7025,"transit":false,"time":9,"station_name":"Cilejit","is_transit":false,"line":3,"station_id":"CJT","i_lat":-6.354349},{"time":6,"distance":2675,"i_lat":-6.338021,"station_id":"DAR","station_name":"Daru","transit":false,"i_long":106.491338,"is_transit":false,"line":0},{"station_id":"TEJ","time":5,"i_lat":-6.327251,"line":6,"transit":false,"i_long":106.460812,"station_name":"Tenjo","distance":3902,"is_transit":false},{"transit":false,"distance":2974,"station_name":"Tigaraksa","line":6,"time":5,"is_transit":false,"i_lat":-6.328533,"station_id":"TGS","i_long":106.425991}]]}