{"data":[[{"station_id":"PSE","distance":0,"line":11,"transit":false,"time":0,"station_name":"Pasar Senen","i_lat":-6.174784,"is_transit":false,"i_long":106.84368},{"station_id":"KMO","distance":1436,"i_long":106.839204,"i_lat":-6.161728,"transit":false,"is_transit":false,"time":4,"line":11,"station_name":"Kemayoran"},{"i_lat":-6.14505,"is_transit":false,"i_long":106.836569,"transit":false,"line":11,"time":5,"distance":1901,"station_id":"RJW","station_name":"Rajawali"},{"distance":1444,"line":4,"i_lat":-6.132549,"time":3,"transit":true,"station_id":"KPB","is_transit":true,"i_long":106.826365,"station_name":"Kampung Bandan"},{"line":1,"i_lat":-6.144674,"station_id":"AK","distance":4102,"is_transit":false,"i_long":106.79867,"transit":false,"station_name":"Angke","time":9},{"station_name":"Duri","i_lat":-6.155215,"i_long":106.800832,"time":4,"line":1,"station_id":"DU","transit":false,"is_transit":false,"distance":1230},{"line":1,"station_id":"THB","station_name":"Tanah Abang","distance":3632,"transit":true,"i_long":106.811091,"time":8,"i_lat":-6.185545,"is_transit":true},{"transit":false,"is_transit":false,"distance":3191,"station_name":"Palmerah","line":6,"time":6,"station_id":"PLM","i_long":106.79689,"i_lat":-6.207404},{"station_name":"Kebayoran","i_long":106.780334,"is_transit":false,"transit":false,"distance":3737,"line":6,"station_id":"KBY","time":7,"i_lat":-6.237242},{"time":8,"transit":false,"is_transit":false,"distance":6218,"i_lat":-6.276362,"line":6,"station_id":"PDJ","i_long":106.74273,"station_name":"Pondokranji"},{"line":6,"transit":false,"station_id":"JMU","distance":2179,"i_long":106.728916,"station_name":"Jurangmangu","time":3,"i_lat":-6.288927,"is_transit":false},{"i_lat":-6.296963,"time":4,"i_long":106.712277,"distance":1994,"line":6,"is_transit":false,"transit":false,"station_name":"Sudimara","station_id":"SDM"},{"distance":4566,"i_lat":-6.314823,"station_name":"Rawa Buntu","i_long":106.675475,"station_id":"RU","is_transit":false,"line":6,"time":6,"transit":false},{"station_id":"SRP","time":4,"i_lat":-6.319871,"station_name":"Serpong","transit":false,"is_transit":false,"distance":2413,"i_long":106.66566,"line":6},{"station_id":"CSK","is_transit":false,"i_lat":-6.32484,"station_name":"Cisauk","time":4,"line":3,"distance":1784,"i_long":106.640411,"transit":false},{"station_name":"Cicayur","i_long":106.617853,"line":3,"transit":false,"is_transit":false,"distance":2519,"i_lat":-6.329547,"station_id":"CC","time":4},{"i_lat":-6.3441410000000005,"i_long":106.568863,"line":6,"is_transit":false,"station_name":"Parung Panjang","transit":false,"time":8,"station_id":"PRP","distance":5968},{"line":3,"is_transit":false,"transit":false,"station_name":"Cilejit","time":9,"station_id":"CJT","distance":7025,"i_lat":-6.354349,"i_long":106.508482},{"line":0,"station_id":"DAR","time":6,"is_transit":false,"station_name":"Daru","i_long":106.491338,"i_lat":-6.338021,"distance":2675,"transit":false}],[{"station_name":"Pasar Senen","distance":0,"time":0,"line":11,"is_transit":false,"i_lat":-6.174784,"station_id":"PSE","i_long":106.84368,"transit":false},{"i_lat":-6.185975,"line":11,"transit":false,"time":8,"i_long":106.850107,"distance":1567,"station_name":"Gang Sentiong","station_id":"GST","is_transit":false},{"is_transit":false,"distance":973,"station_name":"Kramat","i_lat":-6.193792,"time":1,"transit":false,"line":11,"i_long":106.855437,"station_id":"KMT"},{"station_name":"Pondok Jati","distance":1829,"transit":false,"i_long":106.861737,"line":11,"station_id":"POK","i_lat":-6.209188,"time":2,"is_transit":false},{"station_id":"JNG","distance":1236,"time":9,"i_long":106.86807400000001,"is_transit":true,"transit":true,"station_name":"Jatinegara","i_lat":-6.215091,"line":1},{"station_id":"MTR","line":1,"station_name":"Matraman","distance":1377,"is_transit":false,"i_long":106.858896,"transit":false,"time":2,"i_lat":-6.212485},{"i_long":106.84912,"distance":1275,"i_lat":-6.209883,"time":2,"transit":false,"station_id":"MRI","station_name":"Manggarai","line":2,"is_transit":false},{"transit":false,"is_transit":false,"i_lat":-6.202263,"time":4,"i_long":106.822649,"station_name":"Sudirman","line":1,"station_id":"SUD","distance":3186},{"i_long":106.819881,"line":1,"transit":false,"distance":280,"time":1,"station_id":"SUDB","is_transit":false,"i_lat":-6.201433,"station_name":"Sudirman Baru"},{"station_id":"KAT","distance":471,"time":1,"transit":false,"i_long":106.816351,"is_transit":false,"i_lat":-6.20132,"station_name":"Karet","line":1},{"i_lat":-6.185545,"i_long":106.811091,"line":1,"time":5,"transit":true,"station_id":"THB","is_transit":true,"station_name":"Tanah Abang","distance":2029},{"distance":3191,"transit":false,"i_long":106.79689,"time":6,"is_transit":false,"station_id":"PLM","i_lat":-6.207404,"line":6,"station_name":"Palmerah"},{"station_name":"Kebayoran","time":7,"transit":false,"distance":3737,"i_lat":-6.237242,"is_transit":false,"i_long":106.780334,"line":6,"station_id":"KBY"},{"is_transit":false,"line":6,"time":8,"i_lat":-6.276362,"station_name":"Pondokranji","transit":false,"distance":6218,"station_id":"PDJ","i_long":106.74273},{"time":3,"transit":false,"is_transit":false,"station_id":"JMU","i_long":106.728916,"line":6,"station_name":"Jurangmangu","i_lat":-6.288927,"distance":2179},{"line":6,"distance":1994,"station_name":"Sudimara","station_id":"SDM","i_lat":-6.296963,"time":4,"i_long":106.712277,"is_transit":false,"transit":false},{"transit":false,"is_transit":false,"i_long":106.675475,"station_name":"Rawa Buntu","time":6,"station_id":"RU","distance":4566,"i_lat":-6.314823,"line":6},{"line":6,"transit":false,"station_name":"Serpong","i_lat":-6.319871,"is_transit":false,"i_long":106.66566,"station_id":"SRP","time":4,"distance":2413},{"i_lat":-6.32484,"line":3,"station_id":"CSK","is_transit":false,"time":4,"i_long":106.640411,"station_name":"Cisauk","transit":false,"distance":1784},{"time":4,"transit":false,"station_name":"Cicayur","station_id":"CC","i_lat":-6.329547,"is_transit":false,"i_long":106.617853,"line":3,"distance":2519},{"transit":false,"station_name":"Parung Panjang","station_id":"PRP","i_long":106.568863,"line":6,"distance":5968,"time":8,"is_transit":false,"i_lat":-6.3441410000000005},{"i_lat":-6.354349,"is_transit":false,"i_long":106.508482,"distance":7025,"station_id":"CJT","line":3,"time":9,"transit":false,"station_name":"Cilejit"},{"station_id":"DAR","time":6,"is_transit":false,"station_name":"Daru","i_long":106.491338,"line":0,"transit":false,"distance":2675,"i_lat":-6.338021}],[{"is_transit":false,"transit":false,"station_name":"Pasar Senen","time":0,"i_lat":-6.174784,"distance":0,"station_id":"PSE","i_long":106.84368,"line":11},{"station_name":"Kemayoran","station_id":"KMO","time":4,"i_long":106.839204,"is_transit":false,"distance":1436,"i_lat":-6.161728,"line":11,"transit":false},{"station_id":"RJW","station_name":"Rajawali","time":5,"i_lat":-6.14505,"i_long":106.836569,"distance":1901,"is_transit":false,"line":11,"transit":false},{"is_transit":true,"i_lat":-6.132549,"i_long":106.826365,"transit":true,"line":4,"time":3,"distance":1444,"station_name":"Kampung Bandan","station_id":"KPB"},{"station_id":"JAKK","time":3,"transit":true,"station_name":"Jakarta Kota","distance":1364,"i_long":106.812439,"i_lat":-6.137569,"line":2,"is_transit":true},{"distance":1264,"i_long":106.820901,"station_name":"Jayakarta","transit":false,"station_id":"JAY","i_lat":-6.141205,"is_transit":false,"line":2,"time":4},{"time":2,"transit":false,"distance":1080,"is_transit":false,"station_name":"Manggabesar","line":2,"i_lat":-6.149769,"station_id":"MGB","i_long":106.82482},{"distance":906,"is_transit":false,"time":2,"station_name":"Sawah Besar","i_lat":-6.160725,"i_long":106.827103,"line":2,"transit":false,"station_id":"SW"},{"i_lat":-6.166716,"i_long":106.828284,"station_name":"Juanda","transit":false,"time":2,"line":2,"is_transit":false,"station_id":"JUA","distance":1149},{"line":2,"is_transit":false,"station_name":"Gondangdia","distance":2015,"station_id":"GDD","transit":false,"time":4,"i_lat":-6.186295,"i_long":106.832183},{"line":2,"station_name":"Cikini","i_lat":-6.198556,"i_long":106.840169,"time":3,"transit":false,"station_id":"CKI","distance":1750,"is_transit":false},{"i_long":106.84912,"time":4,"transit":true,"station_name":"Manggarai","station_id":"MRI","is_transit":true,"i_lat":-6.209883,"line":2,"distance":1590},{"station_id":"SUD","transit":false,"i_lat":-6.202263,"line":1,"station_name":"Sudirman","is_transit":false,"distance":3186,"time":4,"i_long":106.822649},{"distance":280,"transit":false,"is_transit":false,"station_name":"Sudirman Baru","i_lat":-6.201433,"line":1,"time":1,"i_long":106.819881,"station_id":"SUDB"},{"i_long":106.816351,"is_transit":false,"line":1,"distance":471,"station_id":"KAT","time":1,"station_name":"Karet","i_lat":-6.20132,"transit":false},{"is_transit":true,"time":5,"station_id":"THB","i_long":106.811091,"line":1,"distance":2029,"i_lat":-6.185545,"station_name":"Tanah Abang","transit":true},{"i_lat":-6.207404,"transit":false,"distance":3191,"time":6,"station_id":"PLM","is_transit":false,"station_name":"Palmerah","i_long":106.79689,"line":6},{"distance":3737,"station_id":"KBY","station_name":"Kebayoran","time":7,"transit":false,"is_transit":false,"i_long":106.780334,"i_lat":-6.237242,"line":6},{"transit":false,"distance":6218,"i_long":106.74273,"is_transit":false,"line":6,"time":8,"station_name":"Pondokranji","i_lat":-6.276362,"station_id":"PDJ"},{"transit":false,"station_id":"JMU","line":6,"station_name":"Jurangmangu","i_long":106.728916,"is_transit":false,"distance":2179,"i_lat":-6.288927,"time":3},{"station_name":"Sudimara","line":6,"i_long":106.712277,"distance":1994,"transit":false,"is_transit":false,"i_lat":-6.296963,"time":4,"station_id":"SDM"},{"time":6,"is_transit":false,"transit":false,"line":6,"i_lat":-6.314823,"station_name":"Rawa Buntu","station_id":"RU","i_long":106.675475,"distance":4566},{"transit":false,"is_transit":false,"i_long":106.66566,"distance":2413,"i_lat":-6.319871,"time":4,"station_name":"Serpong","station_id":"SRP","line":6},{"i_lat":-6.32484,"i_long":106.640411,"time":4,"station_id":"CSK","distance":1784,"is_transit":false,"station_name":"Cisauk","transit":false,"line":3},{"station_name":"Cicayur","i_lat":-6.329547,"station_id":"CC","is_transit":false,"transit":false,"i_long":106.617853,"time":4,"distance":2519,"line":3},{"transit":false,"distance":5968,"line":6,"time":8,"i_lat":-6.3441410000000005,"i_long":106.568863,"is_transit":false,"station_id":"PRP","station_name":"Parung Panjang"},{"line":3,"transit":false,"distance":7025,"i_long":106.508482,"i_lat":-6.354349,"time":9,"is_transit":false,"station_name":"Cilejit","station_id":"CJT"},{"is_transit":false,"time":6,"station_id":"DAR","transit":false,"i_lat":-6.338021,"station_name":"Daru","distance":2675,"i_long":106.491338,"line":0}],[{"is_transit":false,"transit":false,"station_id":"PSE","i_lat":-6.174784,"station_name":"Pasar Senen","distance":0,"i_long":106.84368,"time":0,"line":11},{"time":8,"i_lat":-6.185975,"i_long":106.850107,"distance":1567,"transit":false,"station_id":"GST","is_transit":false,"station_name":"Gang Sentiong","line":11},{"station_name":"Kramat","distance":973,"i_long":106.855437,"i_lat":-6.193792,"is_transit":false,"transit":false,"line":11,"station_id":"KMT","time":1},{"is_transit":false,"station_name":"Pondok Jati","time":2,"distance":1829,"i_long":106.861737,"station_id":"POK","i_lat":-6.209188,"transit":false,"line":11},{"station_name":"Jatinegara","distance":1236,"line":1,"transit":true,"i_lat":-6.215091,"station_id":"JNG","is_transit":true,"i_long":106.86807400000001,"time":9},{"station_name":"Matraman","time":2,"is_transit":false,"distance":1377,"station_id":"MTR","i_long":106.858896,"transit":false,"i_lat":-6.212485,"line":1},{"station_name":"Manggarai","i_lat":-6.209883,"i_long":106.84912,"distance":1275,"station_id":"MRI","is_transit":true,"line":2,"transit":true,"time":2},{"station_name":"Cikini","i_lat":-6.198556,"time":4,"transit":false,"station_id":"CKI","is_transit":false,"distance":1590,"i_long":106.840169,"line":2},{"station_id":"GDD","station_name":"Gondangdia","transit":false,"i_long":106.832183,"is_transit":false,"line":2,"distance":1750,"i_lat":-6.186295,"time":3},{"time":4,"i_lat":-6.166716,"is_transit":false,"station_name":"Juanda","station_id":"JUA","distance":2015,"line":2,"i_long":106.828284,"transit":false},{"distance":1149,"station_id":"SW","i_long":106.827103,"i_lat":-6.160725,"line":2,"station_name":"Sawah Besar","time":2,"transit":false,"is_transit":false},{"station_name":"Manggabesar","transit":false,"is_transit":false,"i_long":106.82482,"line":2,"station_id":"MGB","time":2,"i_lat":-6.149769,"distance":906},{"station_id":"JAY","i_long":106.820901,"i_lat":-6.141205,"time":2,"is_transit":false,"transit":false,"distance":1080,"station_name":"Jayakarta","line":2},{"distance":1264,"i_lat":-6.137569,"i_long":106.812439,"station_name":"Jakarta Kota","station_id":"JAKK","line":2,"is_transit":true,"transit":true,"time":4},{"i_long":106.826365,"station_id":"KPB","is_transit":true,"line":4,"station_name":"Kampung Bandan","time":3,"i_lat":-6.132549,"distance":1364,"transit":true},{"is_transit":false,"line":1,"transit":false,"time":9,"station_name":"Angke","station_id":"AK","i_lat":-6.144674,"i_long":106.79867,"distance":4102},{"transit":false,"is_transit":false,"distance":1230,"station_id":"DU","i_lat":-6.155215,"station_name":"Duri","line":1,"time":4,"i_long":106.800832},{"time":8,"station_id":"THB","is_transit":true,"i_lat":-6.185545,"distance":3632,"transit":true,"line":1,"i_long":106.811091,"station_name":"Tanah Abang"},{"station_id":"PLM","line":6,"distance":3191,"station_name":"Palmerah","i_lat":-6.207404,"is_transit":false,"i_long":106.79689,"transit":false,"time":6},{"is_transit":false,"station_name":"Kebayoran","line":6,"time":7,"transit":false,"i_lat":-6.237242,"i_long":106.780334,"station_id":"KBY","distance":3737},{"time":8,"i_long":106.74273,"station_name":"Pondokranji","distance":6218,"i_lat":-6.276362,"station_id":"PDJ","is_transit":false,"transit":false,"line":6},{"distance":2179,"i_lat":-6.288927,"station_name":"Jurangmangu","line":6,"i_long":106.728916,"station_id":"JMU","transit":false,"is_transit":false,"time":3},{"is_transit":false,"transit":false,"i_lat":-6.296963,"line":6,"station_id":"SDM","i_long":106.712277,"station_name":"Sudimara","distance":1994,"time":4},{"time":6,"station_name":"Rawa Buntu","is_transit":false,"i_lat":-6.314823,"distance":4566,"i_long":106.675475,"line":6,"station_id":"RU","transit":false},{"station_id":"SRP","distance":2413,"is_transit":false,"i_lat":-6.319871,"i_long":106.66566,"station_name":"Serpong","transit":false,"line":6,"time":4},{"line":3,"i_long":106.640411,"station_name":"Cisauk","is_transit":false,"station_id":"CSK","time":4,"transit":false,"distance":1784,"i_lat":-6.32484},{"i_long":106.617853,"is_transit":false,"distance":2519,"transit":false,"station_id":"CC","i_lat":-6.329547,"line":3,"time":4,"station_name":"Cicayur"},{"i_long":106.568863,"line":6,"time":8,"distance":5968,"is_transit":false,"station_name":"Parung Panjang","transit":false,"i_lat":-6.3441410000000005,"station_id":"PRP"},{"station_id":"CJT","i_lat":-6.354349,"line":3,"station_name":"Cilejit","is_transit":false,"distance":7025,"i_long":106.508482,"time":9,"transit":false},{"line":0,"transit":false,"station_name":"Daru","time":6,"i_lat":-6.338021,"i_long":106.491338,"station_id":"DAR","distance":2675,"is_transit":false}]]}