{"data":[[{"transit":false,"station_name":"Pasar Senen","is_transit":false,"distance":0,"i_lat":-6.174784,"i_long":106.84368,"line":11,"station_id":"PSE","time":0},{"station_name":"Gang Sentiong","i_lat":-6.185975,"transit":false,"time":8,"distance":1567,"i_long":106.850107,"line":11,"is_transit":false,"station_id":"GST"},{"i_lat":-6.193792,"station_name":"Kramat","is_transit":false,"station_id":"KMT","time":1,"i_long":106.855437,"distance":973,"transit":false,"line":11},{"is_transit":false,"i_long":106.861737,"line":11,"time":2,"station_name":"Pondok Jati","i_lat":-6.209188,"distance":1829,"station_id":"POK","transit":false},{"line":1,"i_long":106.86807400000001,"transit":true,"time":9,"distance":1236,"i_lat":-6.215091,"station_id":"JNG","is_transit":true,"station_name":"Jatinegara"},{"transit":false,"is_transit":false,"distance":1377,"i_lat":-6.212485,"i_long":106.858896,"station_name":"Matraman","line":1,"time":2,"station_id":"MTR"},{"station_id":"MRI","distance":1275,"time":2,"i_long":106.84912,"station_name":"Manggarai","is_transit":true,"i_lat":-6.209883,"transit":true,"line":2},{"time":4,"line":2,"station_name":"Tebet","transit":false,"is_transit":false,"i_lat":-6.226659,"distance":2610,"station_id":"TEB","i_long":106.857948},{"station_name":"Cawang","transit":false,"i_lat":-6.242512,"is_transit":false,"line":2,"station_id":"CW","i_long":106.856607,"time":2,"distance":1230},{"distance":1546,"station_name":"Duren Kalibata","transit":false,"i_lat":-6.255332,"i_long":106.85449,"line":2,"station_id":"DRN","is_transit":false,"time":3},{"is_transit":false,"transit":false,"station_id":"PSMB","line":2,"i_lat":-6.263214,"distance":824,"i_long":106.851577,"station_name":"Pasar Minggu Baru","time":2},{"transit":false,"station_name":"Pasar Minggu","is_transit":false,"time":2,"distance":2380,"line":2,"station_id":"PSM","i_long":106.843999,"i_lat":-6.2842400000000005},{"i_long":106.838896,"line":2,"station_name":"Tanjung Barat","transit":false,"distance":2820,"is_transit":false,"time":4,"i_lat":-6.3080680000000005,"station_id":"TNT"},{"time":3,"is_transit":false,"i_lat":-6.330363,"transit":false,"station_id":"LNA","station_name":"Lenteng Agung","line":2,"distance":2671,"i_long":106.832616},{"is_transit":false,"station_id":"UP","line":2,"distance":1029,"i_long":106.834175,"i_lat":-6.339291,"transit":false,"time":2,"station_name":"Univ. Pancasila"},{"distance":2264,"line":2,"station_id":"UI","is_transit":false,"time":3,"station_name":"Univ. Indonesia","i_lat":-6.360749,"i_long":106.831474,"transit":false},{"line":2,"time":2,"is_transit":false,"station_name":"Pondok Cina","station_id":"POC","distance":1109,"transit":false,"i_lat":-6.369073,"i_long":106.831114},{"distance":2727,"station_id":"DPB","is_transit":false,"i_long":106.819451,"line":2,"time":4,"station_name":"Depokbaru","transit":false,"i_lat":-6.391065},{"i_long":106.816926,"line":2,"time":3,"station_name":"Depok","i_lat":-6.405256,"transit":false,"distance":1584,"is_transit":false,"station_id":"DP"},{"time":6,"line":2,"i_long":106.800298,"is_transit":true,"station_name":"Citayam","distance":5084,"i_lat":-6.448811,"transit":true,"station_id":"CTA"},{"transit":false,"time":0,"is_transit":false,"i_long":106.824374,"station_id":"PDRG","distance":0,"line":21,"station_name":"Pondok Rajeg","i_lat":-6.460735},{"station_name":"Cibinong","station_id":"CBN","distance":0,"i_lat":-6.46424,"is_transit":false,"i_long":106.851978,"transit":false,"line":21,"time":0},{"time":10,"distance":6527,"station_name":"Nambo","transit":false,"i_lat":-6.466285,"station_id":"NMO","is_transit":false,"line":21,"i_long":106.905196}],[{"line":11,"is_transit":false,"distance":0,"time":0,"i_lat":-6.174784,"transit":false,"station_name":"Pasar Senen","i_long":106.84368,"station_id":"PSE"},{"i_lat":-6.161728,"line":11,"distance":1436,"station_id":"KMO","i_long":106.839204,"is_transit":false,"transit":false,"station_name":"Kemayoran","time":4},{"station_name":"Rajawali","i_long":106.836569,"transit":false,"time":5,"is_transit":false,"station_id":"RJW","line":11,"distance":1901,"i_lat":-6.14505},{"is_transit":true,"station_name":"Kampung Bandan","i_long":106.826365,"station_id":"KPB","transit":true,"i_lat":-6.132549,"line":4,"time":3,"distance":1444},{"line":1,"is_transit":false,"station_name":"Angke","i_lat":-6.144674,"station_id":"AK","time":9,"transit":false,"distance":4102,"i_long":106.79867},{"station_name":"Duri","i_long":106.800832,"transit":false,"distance":1230,"station_id":"DU","line":1,"time":4,"is_transit":false,"i_lat":-6.155215},{"distance":3632,"transit":false,"station_id":"THB","station_name":"Tanah Abang","i_long":106.811091,"i_lat":-6.185545,"line":1,"time":8,"is_transit":false},{"station_id":"KAT","line":1,"is_transit":false,"i_lat":-6.20132,"time":5,"i_long":106.816351,"distance":2029,"station_name":"Karet","transit":false},{"line":1,"transit":false,"station_id":"SUDB","i_lat":-6.201433,"distance":471,"station_name":"Sudirman Baru","is_transit":false,"time":1,"i_long":106.819881},{"transit":false,"station_id":"SUD","is_transit":false,"station_name":"Sudirman","i_lat":-6.202263,"i_long":106.822649,"line":1,"distance":280,"time":1},{"transit":true,"line":2,"distance":3186,"time":4,"station_name":"Manggarai","station_id":"MRI","is_transit":true,"i_lat":-6.209883,"i_long":106.84912},{"i_lat":-6.226659,"is_transit":false,"distance":2610,"time":4,"transit":false,"line":2,"i_long":106.857948,"station_id":"TEB","station_name":"Tebet"},{"line":2,"is_transit":false,"transit":false,"station_id":"CW","time":2,"i_long":106.856607,"i_lat":-6.242512,"distance":1230,"station_name":"Cawang"},{"i_lat":-6.255332,"i_long":106.85449,"is_transit":false,"transit":false,"time":3,"station_id":"DRN","distance":1546,"station_name":"Duren Kalibata","line":2},{"i_long":106.851577,"is_transit":false,"station_id":"PSMB","transit":false,"distance":824,"time":2,"line":2,"station_name":"Pasar Minggu Baru","i_lat":-6.263214},{"i_long":106.843999,"line":2,"i_lat":-6.2842400000000005,"station_id":"PSM","time":2,"is_transit":false,"transit":false,"distance":2380,"station_name":"Pasar Minggu"},{"i_lat":-6.3080680000000005,"i_long":106.838896,"distance":2820,"line":2,"is_transit":false,"time":4,"transit":false,"station_id":"TNT","station_name":"Tanjung Barat"},{"station_name":"Lenteng Agung","i_long":106.832616,"station_id":"LNA","time":3,"transit":false,"distance":2671,"is_transit":false,"i_lat":-6.330363,"line":2},{"line":2,"distance":1029,"station_id":"UP","is_transit":false,"transit":false,"time":2,"i_lat":-6.339291,"i_long":106.834175,"station_name":"Univ. Pancasila"},{"distance":2264,"i_lat":-6.360749,"is_transit":false,"line":2,"time":3,"i_long":106.831474,"transit":false,"station_name":"Univ. Indonesia","station_id":"UI"},{"station_name":"Pondok Cina","station_id":"POC","i_long":106.831114,"time":2,"transit":false,"distance":1109,"line":2,"i_lat":-6.369073,"is_transit":false},{"transit":false,"station_id":"DPB","is_transit":false,"time":4,"i_lat":-6.391065,"distance":2727,"line":2,"station_name":"Depokbaru","i_long":106.819451},{"i_long":106.816926,"transit":false,"is_transit":false,"time":3,"distance":1584,"line":2,"station_id":"DP","station_name":"Depok","i_lat":-6.405256},{"time":6,"line":2,"i_long":106.800298,"is_transit":true,"distance":5084,"station_id":"CTA","i_lat":-6.448811,"transit":true,"station_name":"Citayam"},{"line":21,"distance":0,"station_name":"Pondok Rajeg","i_lat":-6.460735,"time":0,"is_transit":false,"transit":false,"station_id":"PDRG","i_long":106.824374},{"time":0,"i_lat":-6.46424,"i_long":106.851978,"station_id":"CBN","is_transit":false,"distance":0,"line":21,"station_name":"Cibinong","transit":false},{"line":21,"time":10,"distance":6527,"i_long":106.905196,"station_name":"Nambo","i_lat":-6.466285,"transit":false,"station_id":"NMO","is_transit":false}],[{"station_name":"Pasar Senen","station_id":"PSE","distance":0,"is_transit":false,"time":0,"line":11,"transit":false,"i_long":106.84368,"i_lat":-6.174784},{"distance":1436,"line":11,"station_id":"KMO","transit":false,"is_transit":false,"i_long":106.839204,"station_name":"Kemayoran","i_lat":-6.161728,"time":4},{"station_name":"Rajawali","line":11,"i_lat":-6.14505,"station_id":"RJW","distance":1901,"is_transit":false,"i_long":106.836569,"transit":false,"time":5},{"distance":1444,"is_transit":true,"station_name":"Kampung Bandan","time":3,"station_id":"KPB","i_lat":-6.132549,"line":4,"i_long":106.826365,"transit":true},{"is_transit":true,"distance":1364,"station_name":"Jakarta Kota","time":3,"i_long":106.812439,"line":2,"station_id":"JAKK","transit":true,"i_lat":-6.137569},{"station_id":"JAY","distance":1264,"is_transit":false,"station_name":"Jayakarta","i_lat":-6.141205,"time":4,"i_long":106.820901,"line":2,"transit":false},{"station_id":"MGB","i_lat":-6.149769,"is_transit":false,"i_long":106.82482,"distance":1080,"line":2,"transit":false,"station_name":"Manggabesar","time":2},{"time":2,"i_lat":-6.160725,"transit":false,"is_transit":false,"line":2,"station_name":"Sawah Besar","station_id":"SW","i_long":106.827103,"distance":906},{"i_lat":-6.166716,"distance":1149,"station_id":"JUA","is_transit":false,"time":2,"line":2,"station_name":"Juanda","transit":false,"i_long":106.828284},{"station_name":"Gondangdia","time":4,"station_id":"GDD","distance":2015,"line":2,"i_lat":-6.186295,"is_transit":false,"i_long":106.832183,"transit":false},{"is_transit":false,"line":2,"station_name":"Cikini","station_id":"CKI","time":3,"i_lat":-6.198556,"distance":1750,"transit":false,"i_long":106.840169},{"time":4,"station_id":"MRI","i_lat":-6.209883,"station_name":"Manggarai","transit":false,"distance":1590,"is_transit":false,"i_long":106.84912,"line":2},{"i_long":106.857948,"distance":2610,"is_transit":false,"station_name":"Tebet","time":4,"i_lat":-6.226659,"transit":false,"station_id":"TEB","line":2},{"i_lat":-6.242512,"station_id":"CW","is_transit":false,"i_long":106.856607,"station_name":"Cawang","distance":1230,"transit":false,"time":2,"line":2},{"i_long":106.85449,"line":2,"station_name":"Duren Kalibata","distance":1546,"station_id":"DRN","transit":false,"time":3,"i_lat":-6.255332,"is_transit":false},{"transit":false,"distance":824,"is_transit":false,"time":2,"station_id":"PSMB","line":2,"i_long":106.851577,"station_name":"Pasar Minggu Baru","i_lat":-6.263214},{"transit":false,"is_transit":false,"i_lat":-6.2842400000000005,"station_name":"Pasar Minggu","line":2,"distance":2380,"i_long":106.843999,"time":2,"station_id":"PSM"},{"distance":2820,"station_id":"TNT","transit":false,"i_long":106.838896,"i_lat":-6.3080680000000005,"line":2,"station_name":"Tanjung Barat","is_transit":false,"time":4},{"is_transit":false,"distance":2671,"i_lat":-6.330363,"station_name":"Lenteng Agung","line":2,"time":3,"i_long":106.832616,"transit":false,"station_id":"LNA"},{"station_name":"Univ. Pancasila","station_id":"UP","is_transit":false,"i_lat":-6.339291,"i_long":106.834175,"time":2,"transit":false,"distance":1029,"line":2},{"station_name":"Univ. Indonesia","i_long":106.831474,"i_lat":-6.360749,"line":2,"transit":false,"is_transit":false,"time":3,"station_id":"UI","distance":2264},{"time":2,"line":2,"transit":false,"is_transit":false,"distance":1109,"i_lat":-6.369073,"station_id":"POC","i_long":106.831114,"station_name":"Pondok Cina"},{"is_transit":false,"station_name":"Depokbaru","transit":false,"i_lat":-6.391065,"i_long":106.819451,"station_id":"DPB","distance":2727,"line":2,"time":4},{"distance":1584,"is_transit":false,"transit":false,"station_name":"Depok","time":3,"i_lat":-6.405256,"i_long":106.816926,"line":2,"station_id":"DP"},{"line":2,"transit":true,"distance":5084,"i_long":106.800298,"station_name":"Citayam","station_id":"CTA","is_transit":true,"i_lat":-6.448811,"time":6},{"transit":false,"time":0,"distance":0,"i_long":106.824374,"station_id":"PDRG","line":21,"station_name":"Pondok Rajeg","is_transit":false,"i_lat":-6.460735},{"i_lat":-6.46424,"transit":false,"i_long":106.851978,"distance":0,"time":0,"station_name":"Cibinong","is_transit":false,"station_id":"CBN","line":21},{"i_lat":-6.466285,"station_name":"Nambo","is_transit":false,"time":10,"transit":false,"station_id":"NMO","distance":6527,"i_long":106.905196,"line":21}]]}