{"data":[[{"station_id":"PSE","i_long":106.84368,"line":11,"station_name":"Pasar Senen","time":0,"i_lat":-6.174784,"transit":false,"is_transit":false,"distance":0},{"time":4,"i_lat":-6.161728,"line":11,"is_transit":false,"transit":false,"distance":1436,"station_id":"KMO","i_long":106.839204,"station_name":"Kemayoran"},{"i_long":106.836569,"is_transit":false,"transit":false,"line":11,"distance":1901,"station_name":"Rajawali","i_lat":-6.14505,"time":5,"station_id":"RJW"},{"station_id":"KPB","i_lat":-6.132549,"station_name":"Kampung Bandan","i_long":106.826365,"transit":true,"is_transit":true,"line":4,"distance":1444,"time":3},{"transit":false,"line":4,"station_name":"Ancol","is_transit":false,"distance":2185,"i_long":106.84464,"time":4,"i_lat":-6.128023,"station_id":"AC"}],[{"is_transit":false,"i_lat":-6.174784,"station_name":"Pasar Senen","line":11,"i_long":106.84368,"station_id":"PSE","distance":0,"time":0,"transit":false},{"distance":1567,"i_long":106.850107,"line":11,"station_id":"GST","i_lat":-6.185975,"station_name":"Gang Sentiong","is_transit":false,"time":8,"transit":false},{"i_lat":-6.193792,"time":1,"is_transit":false,"distance":973,"station_name":"Kramat","station_id":"KMT","i_long":106.855437,"transit":false,"line":11},{"station_name":"Pondok Jati","i_lat":-6.209188,"distance":1829,"station_id":"POK","i_long":106.861737,"time":2,"transit":false,"is_transit":false,"line":11},{"station_name":"Jatinegara","line":1,"distance":1236,"is_transit":true,"time":9,"i_lat":-6.215091,"i_long":106.86807400000001,"station_id":"JNG","transit":true},{"is_transit":false,"transit":false,"station_id":"MTR","station_name":"Matraman","time":2,"line":1,"distance":1377,"i_lat":-6.212485,"i_long":106.858896},{"i_lat":-6.209883,"i_long":106.84912,"is_transit":false,"time":2,"station_id":"MRI","distance":1275,"line":2,"transit":false,"station_name":"Manggarai"},{"time":4,"line":1,"i_lat":-6.202263,"transit":false,"station_name":"Sudirman","is_transit":false,"distance":3186,"i_long":106.822649,"station_id":"SUD"},{"station_id":"SUDB","distance":280,"station_name":"Sudirman Baru","i_long":106.819881,"line":1,"is_transit":false,"i_lat":-6.201433,"time":1,"transit":false},{"i_long":106.816351,"transit":false,"distance":471,"station_id":"KAT","station_name":"Karet","is_transit":false,"i_lat":-6.20132,"time":1,"line":1},{"distance":2029,"time":5,"transit":false,"is_transit":false,"i_lat":-6.185545,"station_name":"Tanah Abang","line":1,"i_long":106.811091,"station_id":"THB"},{"transit":false,"time":8,"line":1,"is_transit":false,"i_lat":-6.155215,"distance":3632,"i_long":106.800832,"station_id":"DU","station_name":"Duri"},{"i_long":106.79867,"line":1,"station_name":"Angke","distance":1230,"transit":false,"time":4,"station_id":"AK","is_transit":false,"i_lat":-6.144674},{"transit":true,"distance":4102,"station_name":"Kampung Bandan","i_long":106.826365,"station_id":"KPB","is_transit":true,"i_lat":-6.132549,"time":9,"line":4},{"station_name":"Ancol","i_lat":-6.128023,"line":4,"i_long":106.84464,"is_transit":false,"distance":2185,"time":4,"station_id":"AC","transit":false}],[{"transit":false,"i_long":106.84368,"time":0,"is_transit":false,"station_name":"Pasar Senen","line":11,"distance":0,"station_id":"PSE","i_lat":-6.174784},{"distance":1567,"is_transit":false,"transit":false,"station_name":"Gang Sentiong","station_id":"GST","time":8,"line":11,"i_lat":-6.185975,"i_long":106.850107},{"distance":973,"station_id":"KMT","transit":false,"station_name":"Kramat","i_long":106.855437,"i_lat":-6.193792,"time":1,"line":11,"is_transit":false},{"i_lat":-6.209188,"i_long":106.861737,"distance":1829,"line":11,"transit":false,"station_name":"Pondok Jati","station_id":"POK","time":2,"is_transit":false},{"transit":true,"time":9,"is_transit":true,"distance":1236,"station_id":"JNG","station_name":"Jatinegara","i_lat":-6.215091,"line":1,"i_long":106.86807400000001},{"i_lat":-6.212485,"is_transit":false,"station_id":"MTR","line":1,"time":2,"transit":false,"distance":1377,"i_long":106.858896,"station_name":"Matraman"},{"transit":true,"i_long":106.84912,"i_lat":-6.209883,"time":2,"line":2,"station_id":"MRI","station_name":"Manggarai","is_transit":true,"distance":1275},{"station_id":"CKI","transit":false,"is_transit":false,"time":4,"distance":1590,"station_name":"Cikini","line":2,"i_lat":-6.198556,"i_long":106.840169},{"i_lat":-6.186295,"is_transit":false,"station_name":"Gondangdia","time":3,"station_id":"GDD","distance":1750,"transit":false,"i_long":106.832183,"line":2},{"distance":2015,"i_lat":-6.166716,"time":4,"is_transit":false,"transit":false,"i_long":106.828284,"station_name":"Juanda","line":2,"station_id":"JUA"},{"is_transit":false,"station_id":"SW","distance":1149,"i_lat":-6.160725,"i_long":106.827103,"line":2,"time":2,"station_name":"Sawah Besar","transit":false},{"time":2,"is_transit":false,"station_name":"Manggabesar","distance":906,"i_long":106.82482,"line":2,"transit":false,"i_lat":-6.149769,"station_id":"MGB"},{"station_id":"JAY","time":2,"station_name":"Jayakarta","i_lat":-6.141205,"transit":false,"is_transit":false,"i_long":106.820901,"line":2,"distance":1080},{"station_name":"Jakarta Kota","line":2,"station_id":"JAKK","distance":1264,"is_transit":true,"time":4,"transit":true,"i_lat":-6.137569,"i_long":106.812439},{"line":4,"station_name":"Kampung Bandan","transit":true,"is_transit":true,"distance":1364,"time":3,"i_long":106.826365,"station_id":"KPB","i_lat":-6.132549},{"distance":2185,"i_long":106.84464,"line":4,"station_name":"Ancol","is_transit":false,"time":4,"station_id":"AC","i_lat":-6.128023,"transit":false}]]}