{"data":[[{"i_lat":-6.174784,"line":11,"transit":false,"i_long":106.84368,"station_name":"Pasar Senen","time":0,"station_id":"PSE","distance":0,"is_transit":false},{"station_name":"Kemayoran","line":11,"is_transit":false,"i_long":106.839204,"i_lat":-6.161728,"station_id":"KMO","transit":false,"time":4,"distance":1436},{"i_long":106.836569,"transit":false,"station_id":"RJW","distance":1901,"i_lat":-6.14505,"is_transit":false,"station_name":"Rajawali","time":5,"line":11},{"station_name":"Kampung Bandan","transit":false,"line":4,"i_long":106.826365,"time":3,"distance":1444,"station_id":"KPB","is_transit":false,"i_lat":-6.132549}],[{"station_id":"PSE","transit":false,"is_transit":false,"distance":0,"i_long":106.84368,"time":0,"station_name":"Pasar Senen","line":11,"i_lat":-6.174784},{"i_long":106.850107,"line":11,"time":8,"station_name":"Gang Sentiong","is_transit":false,"distance":1567,"transit":false,"station_id":"GST","i_lat":-6.185975},{"i_lat":-6.193792,"transit":false,"station_id":"KMT","station_name":"Kramat","is_transit":false,"line":11,"i_long":106.855437,"time":1,"distance":973},{"i_long":106.861737,"i_lat":-6.209188,"transit":false,"line":11,"station_id":"POK","distance":1829,"time":2,"is_transit":false,"station_name":"Pondok Jati"},{"station_id":"JNG","transit":true,"line":1,"i_long":106.86807400000001,"distance":1236,"station_name":"Jatinegara","i_lat":-6.215091,"time":9,"is_transit":true},{"i_lat":-6.212485,"i_long":106.858896,"line":1,"station_name":"Matraman","distance":1377,"is_transit":false,"time":2,"station_id":"MTR","transit":false},{"time":2,"i_lat":-6.209883,"transit":false,"station_id":"MRI","line":2,"distance":1275,"is_transit":false,"i_long":106.84912,"station_name":"Manggarai"},{"station_id":"SUD","i_long":106.822649,"station_name":"Sudirman","transit":false,"time":4,"distance":3186,"i_lat":-6.202263,"is_transit":false,"line":1},{"i_lat":-6.201433,"line":1,"distance":280,"station_id":"SUDB","time":1,"is_transit":false,"transit":false,"station_name":"Sudirman Baru","i_long":106.819881},{"station_id":"KAT","time":1,"station_name":"Karet","i_lat":-6.20132,"i_long":106.816351,"distance":471,"is_transit":false,"line":1,"transit":false},{"time":5,"is_transit":false,"i_lat":-6.185545,"i_long":106.811091,"station_id":"THB","station_name":"Tanah Abang","transit":false,"line":1,"distance":2029},{"time":8,"distance":3632,"station_name":"Duri","i_lat":-6.155215,"transit":false,"station_id":"DU","line":1,"is_transit":false,"i_long":106.800832},{"station_id":"AK","time":4,"station_name":"Angke","transit":false,"i_long":106.79867,"is_transit":false,"line":1,"distance":1230,"i_lat":-6.144674},{"transit":false,"i_lat":-6.132549,"time":9,"station_id":"KPB","distance":4102,"is_transit":false,"station_name":"Kampung Bandan","line":4,"i_long":106.826365}],[{"station_name":"Pasar Senen","transit":false,"time":0,"line":11,"i_lat":-6.174784,"is_transit":false,"i_long":106.84368,"station_id":"PSE","distance":0},{"i_lat":-6.185975,"i_long":106.850107,"line":11,"distance":1567,"station_id":"GST","station_name":"Gang Sentiong","is_transit":false,"time":8,"transit":false},{"time":1,"is_transit":false,"distance":973,"station_name":"Kramat","transit":false,"station_id":"KMT","i_long":106.855437,"line":11,"i_lat":-6.193792},{"transit":false,"distance":1829,"i_lat":-6.209188,"i_long":106.861737,"station_id":"POK","line":11,"time":2,"station_name":"Pondok Jati","is_transit":false},{"i_long":106.86807400000001,"distance":1236,"is_transit":true,"station_name":"Jatinegara","transit":true,"line":1,"i_lat":-6.215091,"time":9,"station_id":"JNG"},{"line":1,"station_id":"MTR","distance":1377,"i_long":106.858896,"is_transit":false,"transit":false,"station_name":"Matraman","time":2,"i_lat":-6.212485},{"station_id":"MRI","time":2,"station_name":"Manggarai","is_transit":true,"distance":1275,"i_lat":-6.209883,"line":2,"transit":true,"i_long":106.84912},{"line":2,"distance":1590,"station_name":"Cikini","time":4,"i_lat":-6.198556,"is_transit":false,"transit":false,"i_long":106.840169,"station_id":"CKI"},{"station_id":"GDD","is_transit":false,"distance":1750,"station_name":"Gondangdia","transit":false,"line":2,"i_long":106.832183,"i_lat":-6.186295,"time":3},{"transit":false,"station_name":"Juanda","is_transit":false,"time":4,"line":2,"i_lat":-6.166716,"station_id":"JUA","i_long":106.828284,"distance":2015},{"station_id":"SW","distance":1149,"i_long":106.827103,"station_name":"Sawah Besar","transit":false,"i_lat":-6.160725,"line":2,"time":2,"is_transit":false},{"i_long":106.82482,"time":2,"station_id":"MGB","i_lat":-6.149769,"station_name":"Manggabesar","is_transit":false,"line":2,"distance":906,"transit":false},{"is_transit":false,"i_long":106.820901,"transit":false,"station_name":"Jayakarta","i_lat":-6.141205,"distance":1080,"time":2,"station_id":"JAY","line":2},{"transit":true,"time":4,"is_transit":true,"distance":1264,"i_lat":-6.137569,"station_name":"Jakarta Kota","i_long":106.812439,"line":2,"station_id":"JAKK"},{"is_transit":false,"time":3,"station_name":"Kampung Bandan","transit":false,"station_id":"KPB","i_long":106.826365,"line":4,"i_lat":-6.132549,"distance":1364}]]}