{"data":[[{"distance":0,"station_name":"Pasar Senen","station_id":"PSE","transit":false,"is_transit":false,"i_long":106.84368,"i_lat":-6.174784,"time":0,"line":11},{"i_lat":-6.185975,"station_name":"Gang Sentiong","distance":1567,"is_transit":false,"i_long":106.850107,"time":8,"line":11,"transit":false,"station_id":"GST"},{"is_transit":false,"distance":973,"line":11,"station_id":"KMT","i_long":106.855437,"station_name":"Kramat","i_lat":-6.193792,"time":1,"transit":false},{"distance":1829,"is_transit":false,"station_name":"Pondok Jati","i_lat":-6.209188,"line":11,"transit":false,"i_long":106.861737,"station_id":"POK","time":2},{"transit":true,"station_name":"Jatinegara","time":9,"i_lat":-6.215091,"is_transit":true,"distance":1236,"line":1,"station_id":"JNG","i_long":106.86807400000001},{"distance":1377,"transit":false,"station_name":"Matraman","i_long":106.858896,"line":1,"station_id":"MTR","is_transit":false,"i_lat":-6.212485,"time":2}],[{"is_transit":false,"transit":false,"i_lat":-6.174784,"i_long":106.84368,"station_name":"Pasar Senen","time":0,"station_id":"PSE","distance":0,"line":11},{"i_long":106.839204,"line":11,"transit":false,"i_lat":-6.161728,"time":4,"distance":1436,"station_id":"KMO","station_name":"Kemayoran","is_transit":false},{"i_lat":-6.14505,"transit":false,"station_name":"Rajawali","i_long":106.836569,"station_id":"RJW","line":11,"time":5,"is_transit":false,"distance":1901},{"station_name":"Kampung Bandan","transit":true,"i_lat":-6.132549,"i_long":106.826365,"station_id":"KPB","distance":1444,"is_transit":true,"time":3,"line":4},{"distance":4102,"time":9,"station_name":"Angke","is_transit":false,"i_lat":-6.144674,"i_long":106.79867,"line":1,"station_id":"AK","transit":false},{"line":1,"time":4,"i_lat":-6.155215,"i_long":106.800832,"transit":false,"station_name":"Duri","is_transit":false,"distance":1230,"station_id":"DU"},{"is_transit":false,"station_id":"THB","transit":false,"station_name":"Tanah Abang","time":8,"i_long":106.811091,"i_lat":-6.185545,"line":1,"distance":3632},{"time":5,"i_lat":-6.20132,"i_long":106.816351,"transit":false,"station_name":"Karet","distance":2029,"is_transit":false,"station_id":"KAT","line":1},{"transit":false,"i_lat":-6.201433,"i_long":106.819881,"distance":471,"station_id":"SUDB","is_transit":false,"time":1,"station_name":"Sudirman Baru","line":1},{"station_id":"SUD","is_transit":false,"time":1,"line":1,"distance":280,"i_lat":-6.202263,"i_long":106.822649,"transit":false,"station_name":"Sudirman"},{"distance":3186,"line":2,"i_long":106.84912,"station_id":"MRI","transit":false,"station_name":"Manggarai","is_transit":false,"time":4,"i_lat":-6.209883},{"time":2,"station_id":"MTR","distance":1275,"i_lat":-6.212485,"station_name":"Matraman","i_long":106.858896,"is_transit":false,"transit":false,"line":1}],[{"transit":false,"station_id":"PSE","time":0,"i_long":106.84368,"is_transit":false,"station_name":"Pasar Senen","distance":0,"i_lat":-6.174784,"line":11},{"i_lat":-6.161728,"station_name":"Kemayoran","is_transit":false,"time":4,"station_id":"KMO","i_long":106.839204,"distance":1436,"line":11,"transit":false},{"distance":1901,"i_lat":-6.14505,"i_long":106.836569,"time":5,"station_id":"RJW","is_transit":false,"line":11,"transit":false,"station_name":"Rajawali"},{"station_id":"KPB","is_transit":true,"time":3,"i_long":106.826365,"station_name":"Kampung Bandan","i_lat":-6.132549,"transit":true,"distance":1444,"line":4},{"i_lat":-6.137569,"station_name":"Jakarta Kota","station_id":"JAKK","distance":1364,"line":2,"i_long":106.812439,"is_transit":true,"time":3,"transit":true},{"time":4,"line":2,"distance":1264,"i_lat":-6.141205,"transit":false,"station_name":"Jayakarta","station_id":"JAY","i_long":106.820901,"is_transit":false},{"distance":1080,"line":2,"station_id":"MGB","time":2,"transit":false,"i_lat":-6.149769,"station_name":"Manggabesar","i_long":106.82482,"is_transit":false},{"time":2,"is_transit":false,"i_long":106.827103,"station_id":"SW","station_name":"Sawah Besar","distance":906,"i_lat":-6.160725,"transit":false,"line":2},{"line":2,"i_lat":-6.166716,"is_transit":false,"time":2,"distance":1149,"i_long":106.828284,"transit":false,"station_id":"JUA","station_name":"Juanda"},{"line":2,"is_transit":false,"time":4,"i_long":106.832183,"station_name":"Gondangdia","i_lat":-6.186295,"station_id":"GDD","distance":2015,"transit":false},{"line":2,"station_id":"CKI","station_name":"Cikini","time":3,"distance":1750,"i_long":106.840169,"i_lat":-6.198556,"transit":false,"is_transit":false},{"is_transit":true,"i_long":106.84912,"station_name":"Manggarai","i_lat":-6.209883,"distance":1590,"transit":true,"time":4,"line":2,"station_id":"MRI"},{"i_long":106.858896,"line":1,"time":2,"i_lat":-6.212485,"distance":1275,"station_id":"MTR","is_transit":false,"transit":false,"station_name":"Matraman"}]]}