{"data":[[{"distance":0,"transit":false,"i_lat":-6.174784,"is_transit":false,"time":0,"i_long":106.84368,"station_name":"Pasar Senen","station_id":"PSE","line":11},{"station_name":"Kemayoran","station_id":"KMO","time":4,"transit":false,"i_lat":-6.161728,"i_long":106.839204,"line":11,"distance":1436,"is_transit":false},{"time":5,"line":11,"i_long":106.836569,"station_id":"RJW","is_transit":false,"i_lat":-6.14505,"transit":false,"station_name":"Rajawali","distance":1901},{"line":4,"time":3,"transit":true,"i_lat":-6.132549,"is_transit":true,"distance":1444,"station_name":"Kampung Bandan","i_long":106.826365,"station_id":"KPB"},{"station_name":"Jakarta Kota","transit":true,"is_transit":true,"line":2,"station_id":"JAKK","distance":1364,"i_lat":-6.137569,"i_long":106.812439,"time":3},{"transit":false,"station_id":"JAY","time":4,"i_long":106.820901,"line":2,"is_transit":false,"station_name":"Jayakarta","i_lat":-6.141205,"distance":1264},{"transit":false,"station_name":"Manggabesar","is_transit":false,"i_lat":-6.149769,"time":2,"line":2,"i_long":106.82482,"station_id":"MGB","distance":1080}],[{"distance":0,"i_lat":-6.174784,"time":0,"line":11,"station_name":"Pasar Senen","i_long":106.84368,"is_transit":false,"transit":false,"station_id":"PSE"},{"distance":1567,"i_lat":-6.185975,"i_long":106.850107,"station_name":"Gang Sentiong","station_id":"GST","time":8,"transit":false,"line":11,"is_transit":false},{"station_name":"Kramat","transit":false,"line":11,"station_id":"KMT","time":1,"is_transit":false,"i_long":106.855437,"distance":973,"i_lat":-6.193792},{"transit":false,"line":11,"i_lat":-6.209188,"i_long":106.861737,"station_id":"POK","station_name":"Pondok Jati","time":2,"distance":1829,"is_transit":false},{"distance":1236,"time":9,"i_long":106.86807400000001,"line":1,"is_transit":true,"station_id":"JNG","i_lat":-6.215091,"transit":true,"station_name":"Jatinegara"},{"i_lat":-6.212485,"transit":false,"line":1,"station_id":"MTR","i_long":106.858896,"distance":1377,"station_name":"Matraman","is_transit":false,"time":2},{"transit":true,"distance":1275,"i_lat":-6.209883,"station_name":"Manggarai","i_long":106.84912,"line":2,"station_id":"MRI","is_transit":true,"time":2},{"i_long":106.840169,"time":4,"i_lat":-6.198556,"line":2,"distance":1590,"station_name":"Cikini","station_id":"CKI","is_transit":false,"transit":false},{"i_lat":-6.186295,"station_name":"Gondangdia","time":3,"transit":false,"station_id":"GDD","i_long":106.832183,"line":2,"is_transit":false,"distance":1750},{"transit":false,"time":4,"i_lat":-6.166716,"i_long":106.828284,"distance":2015,"station_name":"Juanda","line":2,"station_id":"JUA","is_transit":false},{"distance":1149,"station_id":"SW","i_long":106.827103,"line":2,"time":2,"is_transit":false,"station_name":"Sawah Besar","transit":false,"i_lat":-6.160725},{"is_transit":false,"transit":false,"station_id":"MGB","time":2,"distance":906,"i_long":106.82482,"line":2,"station_name":"Manggabesar","i_lat":-6.149769}],[{"station_id":"PSE","line":11,"station_name":"Pasar Senen","is_transit":false,"i_long":106.84368,"distance":0,"i_lat":-6.174784,"transit":false,"time":0},{"time":4,"distance":1436,"i_long":106.839204,"transit":false,"station_id":"KMO","is_transit":false,"i_lat":-6.161728,"line":11,"station_name":"Kemayoran"},{"distance":1901,"line":11,"station_id":"RJW","station_name":"Rajawali","i_long":106.836569,"transit":false,"i_lat":-6.14505,"time":5,"is_transit":false},{"i_long":106.826365,"station_id":"KPB","is_transit":true,"time":3,"distance":1444,"i_lat":-6.132549,"line":4,"transit":true,"station_name":"Kampung Bandan"},{"line":1,"transit":false,"i_long":106.79867,"time":9,"station_name":"Angke","distance":4102,"i_lat":-6.144674,"station_id":"AK","is_transit":false},{"is_transit":false,"time":4,"station_id":"DU","distance":1230,"i_lat":-6.155215,"line":1,"transit":false,"i_long":106.800832,"station_name":"Duri"},{"i_long":106.811091,"line":1,"time":8,"distance":3632,"station_id":"THB","i_lat":-6.185545,"station_name":"Tanah Abang","is_transit":false,"transit":false},{"i_long":106.816351,"station_id":"KAT","distance":2029,"is_transit":false,"time":5,"transit":false,"station_name":"Karet","i_lat":-6.20132,"line":1},{"station_name":"Sudirman Baru","is_transit":false,"time":1,"i_lat":-6.201433,"i_long":106.819881,"distance":471,"station_id":"SUDB","transit":false,"line":1},{"time":1,"transit":false,"i_long":106.822649,"line":1,"station_name":"Sudirman","i_lat":-6.202263,"is_transit":false,"station_id":"SUD","distance":280},{"line":2,"is_transit":true,"i_long":106.84912,"time":4,"transit":true,"distance":3186,"station_name":"Manggarai","station_id":"MRI","i_lat":-6.209883},{"transit":false,"station_name":"Cikini","line":2,"station_id":"CKI","time":4,"i_long":106.840169,"i_lat":-6.198556,"is_transit":false,"distance":1590},{"line":2,"station_name":"Gondangdia","is_transit":false,"transit":false,"station_id":"GDD","time":3,"i_lat":-6.186295,"distance":1750,"i_long":106.832183},{"station_name":"Juanda","station_id":"JUA","distance":2015,"time":4,"transit":false,"line":2,"i_lat":-6.166716,"i_long":106.828284,"is_transit":false},{"i_long":106.827103,"is_transit":false,"distance":1149,"transit":false,"station_name":"Sawah Besar","station_id":"SW","time":2,"line":2,"i_lat":-6.160725},{"is_transit":false,"station_id":"MGB","distance":906,"line":2,"time":2,"i_long":106.82482,"station_name":"Manggabesar","i_lat":-6.149769,"transit":false}],[{"i_long":106.84368,"time":0,"transit":false,"line":11,"station_id":"PSE","is_transit":false,"station_name":"Pasar Senen","distance":0,"i_lat":-6.174784},{"i_lat":-6.185975,"station_id":"GST","line":11,"is_transit":false,"time":8,"i_long":106.850107,"station_name":"Gang Sentiong","distance":1567,"transit":false},{"time":1,"i_long":106.855437,"line":11,"i_lat":-6.193792,"transit":false,"station_id":"KMT","station_name":"Kramat","is_transit":false,"distance":973},{"transit":false,"distance":1829,"station_id":"POK","station_name":"Pondok Jati","time":2,"line":11,"i_lat":-6.209188,"is_transit":false,"i_long":106.861737},{"i_long":106.86807400000001,"line":1,"station_name":"Jatinegara","station_id":"JNG","transit":true,"is_transit":true,"time":9,"distance":1236,"i_lat":-6.215091},{"i_lat":-6.212485,"transit":false,"distance":1377,"line":1,"station_name":"Matraman","station_id":"MTR","is_transit":false,"i_long":106.858896,"time":2},{"distance":1275,"station_name":"Manggarai","is_transit":false,"i_long":106.84912,"transit":false,"line":2,"station_id":"MRI","i_lat":-6.209883,"time":2},{"line":1,"station_id":"SUD","time":4,"i_lat":-6.202263,"distance":3186,"i_long":106.822649,"is_transit":false,"transit":false,"station_name":"Sudirman"},{"time":1,"is_transit":false,"transit":false,"distance":280,"i_lat":-6.201433,"line":1,"station_id":"SUDB","station_name":"Sudirman Baru","i_long":106.819881},{"i_lat":-6.20132,"transit":false,"distance":471,"station_name":"Karet","i_long":106.816351,"time":1,"station_id":"KAT","line":1,"is_transit":false},{"i_long":106.811091,"time":5,"line":1,"i_lat":-6.185545,"station_id":"THB","distance":2029,"transit":false,"is_transit":false,"station_name":"Tanah Abang"},{"i_long":106.800832,"distance":3632,"transit":false,"is_transit":false,"time":8,"line":1,"i_lat":-6.155215,"station_id":"DU","station_name":"Duri"},{"station_id":"AK","distance":1230,"transit":false,"i_lat":-6.144674,"is_transit":false,"line":1,"time":4,"i_long":106.79867,"station_name":"Angke"},{"is_transit":true,"time":9,"i_lat":-6.132549,"station_name":"Kampung Bandan","station_id":"KPB","line":4,"distance":4102,"transit":true,"i_long":106.826365},{"distance":1364,"i_lat":-6.137569,"station_id":"JAKK","station_name":"Jakarta Kota","i_long":106.812439,"transit":true,"line":2,"is_transit":true,"time":3},{"i_long":106.820901,"station_name":"Jayakarta","is_transit":false,"transit":false,"time":4,"i_lat":-6.141205,"line":2,"station_id":"JAY","distance":1264},{"transit":false,"is_transit":false,"time":2,"station_name":"Manggabesar","distance":1080,"i_lat":-6.149769,"line":2,"station_id":"MGB","i_long":106.82482}]]}