{"data":[[{"time":0,"station_id":"PSE","is_transit":false,"i_lat":-6.174784,"line":11,"station_name":"Pasar Senen","i_long":106.84368,"transit":false,"distance":0},{"time":4,"i_lat":-6.161728,"distance":1436,"is_transit":false,"line":11,"i_long":106.839204,"station_id":"KMO","station_name":"Kemayoran","transit":false},{"i_long":106.836569,"station_id":"RJW","distance":1901,"station_name":"Rajawali","time":5,"is_transit":false,"line":11,"transit":false,"i_lat":-6.14505},{"time":3,"i_lat":-6.132549,"is_transit":true,"line":4,"station_name":"Kampung Bandan","distance":1444,"i_long":106.826365,"station_id":"KPB","transit":true},{"line":1,"station_name":"Angke","i_lat":-6.144674,"time":9,"is_transit":false,"transit":false,"distance":4102,"i_long":106.79867,"station_id":"AK"},{"line":1,"distance":1230,"time":4,"transit":true,"i_lat":-6.155215,"station_id":"DU","station_name":"Duri","i_long":106.800832,"is_transit":true},{"i_long":106.788277,"distance":1700,"i_lat":-6.162021,"station_name":"Grogol","line":5,"transit":false,"station_id":"GGL","time":3,"is_transit":false},{"time":2,"transit":false,"is_transit":false,"line":5,"distance":2036,"i_lat":-6.161433,"i_long":106.771379,"station_name":"Pesing","station_id":"PSG"},{"transit":false,"i_lat":-6.1587309999999995,"is_transit":false,"line":5,"time":2,"distance":1614,"station_id":"TKO","station_name":"Taman Kota","i_long":106.756522}],[{"transit":false,"station_id":"PSE","distance":0,"time":0,"station_name":"Pasar Senen","is_transit":false,"i_long":106.84368,"i_lat":-6.174784,"line":11},{"distance":1567,"transit":false,"station_name":"Gang Sentiong","line":11,"time":8,"station_id":"GST","is_transit":false,"i_long":106.850107,"i_lat":-6.185975},{"i_lat":-6.193792,"station_id":"KMT","line":11,"time":1,"station_name":"Kramat","i_long":106.855437,"distance":973,"is_transit":false,"transit":false},{"is_transit":false,"i_lat":-6.209188,"station_name":"Pondok Jati","line":11,"distance":1829,"transit":false,"time":2,"i_long":106.861737,"station_id":"POK"},{"i_lat":-6.215091,"station_name":"Jatinegara","line":1,"i_long":106.86807400000001,"time":9,"distance":1236,"is_transit":true,"transit":true,"station_id":"JNG"},{"i_lat":-6.212485,"line":1,"is_transit":false,"i_long":106.858896,"time":2,"station_id":"MTR","distance":1377,"station_name":"Matraman","transit":false},{"is_transit":false,"time":2,"station_id":"MRI","i_lat":-6.209883,"i_long":106.84912,"transit":false,"line":2,"distance":1275,"station_name":"Manggarai"},{"time":4,"station_name":"Sudirman","line":1,"distance":3186,"i_lat":-6.202263,"is_transit":false,"transit":false,"i_long":106.822649,"station_id":"SUD"},{"time":1,"station_name":"Sudirman Baru","line":1,"transit":false,"station_id":"SUDB","i_long":106.819881,"distance":280,"i_lat":-6.201433,"is_transit":false},{"i_lat":-6.20132,"station_id":"KAT","i_long":106.816351,"distance":471,"station_name":"Karet","time":1,"transit":false,"line":1,"is_transit":false},{"is_transit":false,"time":5,"station_name":"Tanah Abang","transit":false,"i_lat":-6.185545,"i_long":106.811091,"line":1,"station_id":"THB","distance":2029},{"station_name":"Duri","is_transit":true,"i_lat":-6.155215,"line":1,"time":8,"distance":3632,"i_long":106.800832,"transit":true,"station_id":"DU"},{"i_lat":-6.162021,"time":3,"distance":1700,"station_name":"Grogol","i_long":106.788277,"transit":false,"station_id":"GGL","line":5,"is_transit":false},{"distance":2036,"transit":false,"time":2,"is_transit":false,"i_long":106.771379,"station_id":"PSG","station_name":"Pesing","line":5,"i_lat":-6.161433},{"transit":false,"time":2,"is_transit":false,"i_long":106.756522,"station_id":"TKO","i_lat":-6.1587309999999995,"line":5,"distance":1614,"station_name":"Taman Kota"}],[{"transit":false,"station_id":"PSE","is_transit":false,"distance":0,"line":11,"time":0,"station_name":"Pasar Senen","i_lat":-6.174784,"i_long":106.84368},{"is_transit":false,"i_lat":-6.185975,"i_long":106.850107,"time":8,"distance":1567,"station_id":"GST","transit":false,"station_name":"Gang Sentiong","line":11},{"i_long":106.855437,"station_id":"KMT","distance":973,"transit":false,"is_transit":false,"i_lat":-6.193792,"time":1,"line":11,"station_name":"Kramat"},{"i_long":106.861737,"line":11,"transit":false,"time":2,"station_id":"POK","distance":1829,"is_transit":false,"i_lat":-6.209188,"station_name":"Pondok Jati"},{"time":9,"i_lat":-6.215091,"line":1,"distance":1236,"station_id":"JNG","station_name":"Jatinegara","is_transit":true,"transit":true,"i_long":106.86807400000001},{"i_long":106.858896,"is_transit":false,"station_name":"Matraman","time":2,"station_id":"MTR","i_lat":-6.212485,"transit":false,"distance":1377,"line":1},{"station_id":"MRI","station_name":"Manggarai","i_long":106.84912,"transit":true,"i_lat":-6.209883,"time":2,"is_transit":true,"line":2,"distance":1275},{"line":2,"transit":false,"station_name":"Cikini","time":4,"distance":1590,"station_id":"CKI","is_transit":false,"i_lat":-6.198556,"i_long":106.840169},{"time":3,"line":2,"i_lat":-6.186295,"distance":1750,"station_id":"GDD","is_transit":false,"transit":false,"i_long":106.832183,"station_name":"Gondangdia"},{"i_lat":-6.166716,"i_long":106.828284,"is_transit":false,"distance":2015,"transit":false,"time":4,"line":2,"station_name":"Juanda","station_id":"JUA"},{"time":2,"line":2,"transit":false,"is_transit":false,"station_name":"Sawah Besar","distance":1149,"station_id":"SW","i_lat":-6.160725,"i_long":106.827103},{"distance":906,"is_transit":false,"transit":false,"time":2,"i_long":106.82482,"station_id":"MGB","i_lat":-6.149769,"line":2,"station_name":"Manggabesar"},{"i_lat":-6.141205,"transit":false,"i_long":106.820901,"distance":1080,"station_id":"JAY","time":2,"station_name":"Jayakarta","line":2,"is_transit":false},{"station_name":"Jakarta Kota","i_long":106.812439,"distance":1264,"line":2,"time":4,"is_transit":true,"transit":true,"i_lat":-6.137569,"station_id":"JAKK"},{"transit":true,"distance":1364,"station_name":"Kampung Bandan","time":3,"is_transit":true,"i_long":106.826365,"station_id":"KPB","line":4,"i_lat":-6.132549},{"transit":false,"line":1,"i_lat":-6.144674,"time":9,"station_id":"AK","distance":4102,"is_transit":false,"station_name":"Angke","i_long":106.79867},{"station_id":"DU","distance":1230,"line":1,"transit":true,"time":4,"station_name":"Duri","i_lat":-6.155215,"is_transit":true,"i_long":106.800832},{"i_long":106.788277,"i_lat":-6.162021,"line":5,"time":3,"distance":1700,"station_id":"GGL","station_name":"Grogol","transit":false,"is_transit":false},{"distance":2036,"station_id":"PSG","is_transit":false,"i_long":106.771379,"i_lat":-6.161433,"time":2,"transit":false,"station_name":"Pesing","line":5},{"time":2,"station_id":"TKO","station_name":"Taman Kota","is_transit":false,"distance":1614,"transit":false,"i_lat":-6.1587309999999995,"line":5,"i_long":106.756522}],[{"i_lat":-6.174784,"line":11,"station_name":"Pasar Senen","station_id":"PSE","distance":0,"i_long":106.84368,"is_transit":false,"transit":false,"time":0},{"time":4,"i_long":106.839204,"distance":1436,"transit":false,"station_id":"KMO","line":11,"station_name":"Kemayoran","is_transit":false,"i_lat":-6.161728},{"distance":1901,"transit":false,"station_name":"Rajawali","station_id":"RJW","i_lat":-6.14505,"is_transit":false,"line":11,"i_long":106.836569,"time":5},{"i_lat":-6.132549,"is_transit":true,"station_name":"Kampung Bandan","i_long":106.826365,"station_id":"KPB","transit":true,"distance":1444,"time":3,"line":4},{"station_name":"Jakarta Kota","station_id":"JAKK","transit":true,"i_long":106.812439,"distance":1364,"i_lat":-6.137569,"is_transit":true,"line":2,"time":3},{"i_long":106.820901,"i_lat":-6.141205,"time":4,"is_transit":false,"distance":1264,"transit":false,"station_name":"Jayakarta","station_id":"JAY","line":2},{"transit":false,"distance":1080,"station_name":"Manggabesar","is_transit":false,"time":2,"station_id":"MGB","i_long":106.82482,"i_lat":-6.149769,"line":2},{"time":2,"is_transit":false,"i_long":106.827103,"line":2,"station_id":"SW","station_name":"Sawah Besar","distance":906,"transit":false,"i_lat":-6.160725},{"i_lat":-6.166716,"i_long":106.828284,"station_id":"JUA","station_name":"Juanda","transit":false,"is_transit":false,"distance":1149,"line":2,"time":2},{"i_long":106.832183,"station_id":"GDD","i_lat":-6.186295,"is_transit":false,"time":4,"distance":2015,"station_name":"Gondangdia","line":2,"transit":false},{"i_lat":-6.198556,"station_name":"Cikini","transit":false,"line":2,"station_id":"CKI","time":3,"i_long":106.840169,"distance":1750,"is_transit":false},{"transit":true,"i_lat":-6.209883,"station_name":"Manggarai","time":4,"distance":1590,"station_id":"MRI","is_transit":true,"i_long":106.84912,"line":2},{"station_id":"SUD","i_long":106.822649,"time":4,"distance":3186,"station_name":"Sudirman","i_lat":-6.202263,"line":1,"is_transit":false,"transit":false},{"i_lat":-6.201433,"line":1,"i_long":106.819881,"distance":280,"transit":false,"is_transit":false,"station_name":"Sudirman Baru","time":1,"station_id":"SUDB"},{"line":1,"transit":false,"station_id":"KAT","time":1,"i_long":106.816351,"distance":471,"i_lat":-6.20132,"station_name":"Karet","is_transit":false},{"distance":2029,"transit":false,"time":5,"is_transit":false,"station_name":"Tanah Abang","station_id":"THB","i_lat":-6.185545,"i_long":106.811091,"line":1},{"line":1,"transit":true,"i_lat":-6.155215,"i_long":106.800832,"station_name":"Duri","is_transit":true,"station_id":"DU","time":8,"distance":3632},{"i_long":106.788277,"i_lat":-6.162021,"line":5,"transit":false,"time":3,"is_transit":false,"station_name":"Grogol","station_id":"GGL","distance":1700},{"line":5,"is_transit":false,"i_long":106.771379,"i_lat":-6.161433,"station_name":"Pesing","transit":false,"station_id":"PSG","time":2,"distance":2036},{"i_long":106.756522,"distance":1614,"i_lat":-6.1587309999999995,"station_name":"Taman Kota","line":5,"is_transit":false,"transit":false,"station_id":"TKO","time":2}]]}