{"data":[[{"distance":0,"station_name":"Pasar Senen","time":0,"transit":false,"i_long":106.84368,"line":11,"is_transit":false,"i_lat":-6.174784,"station_id":"PSE"},{"line":11,"time":4,"transit":false,"i_long":106.839204,"distance":1436,"station_name":"Kemayoran","station_id":"KMO","is_transit":false,"i_lat":-6.161728},{"distance":1901,"transit":false,"station_id":"RJW","station_name":"Rajawali","is_transit":false,"i_lat":-6.14505,"line":11,"i_long":106.836569,"time":5},{"time":3,"i_long":106.826365,"station_name":"Kampung Bandan","station_id":"KPB","line":4,"is_transit":true,"distance":1444,"transit":true,"i_lat":-6.132549},{"distance":1364,"station_id":"JAKK","time":3,"i_lat":-6.137569,"i_long":106.812439,"transit":true,"is_transit":true,"line":2,"station_name":"Jakarta Kota"},{"line":2,"station_name":"Jayakarta","transit":false,"station_id":"JAY","i_long":106.820901,"time":4,"i_lat":-6.141205,"distance":1264,"is_transit":false}],[{"is_transit":false,"transit":false,"distance":0,"line":11,"i_lat":-6.174784,"time":0,"i_long":106.84368,"station_name":"Pasar Senen","station_id":"PSE"},{"i_lat":-6.185975,"time":8,"transit":false,"is_transit":false,"line":11,"station_name":"Gang Sentiong","distance":1567,"station_id":"GST","i_long":106.850107},{"time":1,"transit":false,"i_lat":-6.193792,"station_id":"KMT","line":11,"i_long":106.855437,"distance":973,"is_transit":false,"station_name":"Kramat"},{"time":2,"station_id":"POK","distance":1829,"i_long":106.861737,"is_transit":false,"station_name":"Pondok Jati","transit":false,"i_lat":-6.209188,"line":11},{"line":1,"is_transit":true,"station_id":"JNG","i_long":106.86807400000001,"station_name":"Jatinegara","time":9,"i_lat":-6.215091,"distance":1236,"transit":true},{"station_name":"Matraman","i_long":106.858896,"line":1,"distance":1377,"transit":false,"time":2,"station_id":"MTR","is_transit":false,"i_lat":-6.212485},{"i_long":106.84912,"line":2,"station_id":"MRI","transit":true,"time":2,"i_lat":-6.209883,"station_name":"Manggarai","distance":1275,"is_transit":true},{"i_lat":-6.198556,"is_transit":false,"station_id":"CKI","i_long":106.840169,"line":2,"time":4,"distance":1590,"station_name":"Cikini","transit":false},{"is_transit":false,"station_name":"Gondangdia","time":3,"line":2,"station_id":"GDD","i_lat":-6.186295,"i_long":106.832183,"transit":false,"distance":1750},{"time":4,"i_long":106.828284,"is_transit":false,"line":2,"distance":2015,"station_id":"JUA","transit":false,"i_lat":-6.166716,"station_name":"Juanda"},{"station_name":"Sawah Besar","station_id":"SW","line":2,"is_transit":false,"i_long":106.827103,"i_lat":-6.160725,"transit":false,"time":2,"distance":1149},{"station_id":"MGB","i_lat":-6.149769,"is_transit":false,"i_long":106.82482,"time":2,"distance":906,"transit":false,"station_name":"Manggabesar","line":2},{"line":2,"is_transit":false,"time":2,"distance":1080,"i_lat":-6.141205,"station_id":"JAY","transit":false,"station_name":"Jayakarta","i_long":106.820901}],[{"station_id":"PSE","time":0,"distance":0,"is_transit":false,"transit":false,"i_long":106.84368,"line":11,"i_lat":-6.174784,"station_name":"Pasar Senen"},{"station_id":"GST","station_name":"Gang Sentiong","is_transit":false,"time":8,"i_lat":-6.185975,"i_long":106.850107,"transit":false,"distance":1567,"line":11},{"station_name":"Kramat","is_transit":false,"transit":false,"distance":973,"station_id":"KMT","i_lat":-6.193792,"i_long":106.855437,"line":11,"time":1},{"i_long":106.861737,"station_id":"POK","transit":false,"i_lat":-6.209188,"time":2,"station_name":"Pondok Jati","distance":1829,"is_transit":false,"line":11},{"time":9,"distance":1236,"i_long":106.86807400000001,"station_name":"Jatinegara","station_id":"JNG","is_transit":true,"i_lat":-6.215091,"line":1,"transit":true},{"i_long":106.858896,"transit":false,"distance":1377,"is_transit":false,"i_lat":-6.212485,"line":1,"station_id":"MTR","time":2,"station_name":"Matraman"},{"i_long":106.84912,"is_transit":false,"transit":false,"distance":1275,"station_name":"Manggarai","i_lat":-6.209883,"line":2,"time":2,"station_id":"MRI"},{"is_transit":false,"transit":false,"line":1,"distance":3186,"station_id":"SUD","station_name":"Sudirman","i_lat":-6.202263,"time":4,"i_long":106.822649},{"station_name":"Sudirman Baru","station_id":"SUDB","line":1,"transit":false,"i_long":106.819881,"is_transit":false,"time":1,"i_lat":-6.201433,"distance":280},{"line":1,"is_transit":false,"transit":false,"time":1,"i_lat":-6.20132,"distance":471,"station_id":"KAT","i_long":106.816351,"station_name":"Karet"},{"station_id":"THB","station_name":"Tanah Abang","time":5,"distance":2029,"line":1,"is_transit":false,"i_long":106.811091,"i_lat":-6.185545,"transit":false},{"i_long":106.800832,"is_transit":false,"time":8,"transit":false,"station_id":"DU","distance":3632,"i_lat":-6.155215,"station_name":"Duri","line":1},{"i_long":106.79867,"is_transit":false,"i_lat":-6.144674,"line":1,"station_name":"Angke","distance":1230,"time":4,"station_id":"AK","transit":false},{"i_lat":-6.132549,"is_transit":true,"i_long":106.826365,"station_name":"Kampung Bandan","station_id":"KPB","line":4,"distance":4102,"time":9,"transit":true},{"transit":true,"is_transit":true,"station_name":"Jakarta Kota","time":3,"station_id":"JAKK","distance":1364,"i_lat":-6.137569,"line":2,"i_long":106.812439},{"is_transit":false,"station_name":"Jayakarta","transit":false,"i_long":106.820901,"distance":1264,"time":4,"station_id":"JAY","i_lat":-6.141205,"line":2}],[{"line":11,"i_long":106.84368,"time":0,"station_name":"Pasar Senen","is_transit":false,"station_id":"PSE","i_lat":-6.174784,"transit":false,"distance":0},{"i_long":106.839204,"station_name":"Kemayoran","i_lat":-6.161728,"line":11,"time":4,"is_transit":false,"transit":false,"station_id":"KMO","distance":1436},{"transit":false,"distance":1901,"is_transit":false,"station_name":"Rajawali","i_lat":-6.14505,"time":5,"i_long":106.836569,"line":11,"station_id":"RJW"},{"i_long":106.826365,"station_name":"Kampung Bandan","transit":true,"line":4,"station_id":"KPB","distance":1444,"is_transit":true,"time":3,"i_lat":-6.132549},{"station_id":"AK","transit":false,"i_lat":-6.144674,"i_long":106.79867,"line":1,"time":9,"distance":4102,"station_name":"Angke","is_transit":false},{"station_id":"DU","i_lat":-6.155215,"i_long":106.800832,"line":1,"distance":1230,"is_transit":false,"time":4,"transit":false,"station_name":"Duri"},{"is_transit":false,"line":1,"time":8,"station_id":"THB","station_name":"Tanah Abang","i_long":106.811091,"transit":false,"i_lat":-6.185545,"distance":3632},{"transit":false,"station_name":"Karet","line":1,"station_id":"KAT","time":5,"distance":2029,"i_long":106.816351,"is_transit":false,"i_lat":-6.20132},{"transit":false,"station_id":"SUDB","station_name":"Sudirman Baru","i_long":106.819881,"distance":471,"is_transit":false,"line":1,"time":1,"i_lat":-6.201433},{"station_name":"Sudirman","line":1,"transit":false,"time":1,"is_transit":false,"i_long":106.822649,"station_id":"SUD","distance":280,"i_lat":-6.202263},{"station_id":"MRI","time":4,"is_transit":true,"i_lat":-6.209883,"station_name":"Manggarai","i_long":106.84912,"distance":3186,"transit":true,"line":2},{"i_lat":-6.198556,"line":2,"station_name":"Cikini","i_long":106.840169,"time":4,"transit":false,"distance":1590,"station_id":"CKI","is_transit":false},{"line":2,"transit":false,"station_id":"GDD","time":3,"is_transit":false,"i_long":106.832183,"station_name":"Gondangdia","distance":1750,"i_lat":-6.186295},{"distance":2015,"time":4,"i_lat":-6.166716,"station_id":"JUA","station_name":"Juanda","transit":false,"is_transit":false,"i_long":106.828284,"line":2},{"line":2,"distance":1149,"station_id":"SW","time":2,"is_transit":false,"i_lat":-6.160725,"i_long":106.827103,"station_name":"Sawah Besar","transit":false},{"i_long":106.82482,"is_transit":false,"station_name":"Manggabesar","line":2,"time":2,"station_id":"MGB","transit":false,"distance":906,"i_lat":-6.149769},{"i_long":106.820901,"i_lat":-6.141205,"time":2,"station_id":"JAY","station_name":"Jayakarta","is_transit":false,"transit":false,"distance":1080,"line":2}]]}