{"data":[[{"transit":false,"line":11,"station_name":"Pasar Senen","time":0,"is_transit":false,"i_long":106.84368,"distance":0,"station_id":"PSE","i_lat":-6.174784},{"distance":1567,"line":11,"station_name":"Gang Sentiong","is_transit":false,"station_id":"GST","time":8,"i_lat":-6.185975,"transit":false,"i_long":106.850107},{"line":11,"station_id":"KMT","station_name":"Kramat","is_transit":false,"i_lat":-6.193792,"transit":false,"i_long":106.855437,"time":1,"distance":973}],[{"i_long":106.84368,"station_id":"PSE","distance":0,"time":0,"i_lat":-6.174784,"is_transit":false,"transit":false,"line":11,"station_name":"Pasar Senen"},{"line":11,"time":4,"transit":false,"station_name":"Kemayoran","i_lat":-6.161728,"distance":1436,"station_id":"KMO","is_transit":false,"i_long":106.839204},{"i_lat":-6.14505,"distance":1901,"station_name":"Rajawali","is_transit":false,"transit":false,"line":11,"time":5,"i_long":106.836569,"station_id":"RJW"},{"station_id":"KPB","station_name":"Kampung Bandan","is_transit":true,"transit":true,"time":3,"distance":1444,"line":4,"i_lat":-6.132549,"i_long":106.826365},{"time":9,"line":1,"i_lat":-6.144674,"is_transit":false,"transit":false,"station_name":"Angke","station_id":"AK","distance":4102,"i_long":106.79867},{"i_long":106.800832,"station_id":"DU","time":4,"distance":1230,"i_lat":-6.155215,"transit":false,"line":1,"station_name":"Duri","is_transit":false},{"distance":3632,"station_id":"THB","i_long":106.811091,"transit":false,"time":8,"i_lat":-6.185545,"station_name":"Tanah Abang","is_transit":false,"line":1},{"distance":2029,"i_lat":-6.20132,"station_id":"KAT","station_name":"Karet","time":5,"is_transit":false,"transit":false,"line":1,"i_long":106.816351},{"is_transit":false,"station_id":"SUDB","station_name":"Sudirman Baru","transit":false,"i_long":106.819881,"time":1,"i_lat":-6.201433,"distance":471,"line":1},{"i_long":106.822649,"distance":280,"time":1,"station_id":"SUD","station_name":"Sudirman","is_transit":false,"line":1,"i_lat":-6.202263,"transit":false},{"time":4,"is_transit":false,"station_name":"Manggarai","i_lat":-6.209883,"transit":false,"i_long":106.84912,"line":2,"distance":3186,"station_id":"MRI"},{"i_lat":-6.212485,"distance":1275,"transit":false,"line":1,"time":2,"station_id":"MTR","station_name":"Matraman","is_transit":false,"i_long":106.858896},{"line":1,"station_name":"Jatinegara","time":8,"i_long":106.86807400000001,"station_id":"JNG","transit":true,"i_lat":-6.215091,"distance":1377,"is_transit":true},{"i_lat":-6.209188,"line":11,"transit":false,"time":2,"station_id":"POK","station_name":"Pondok Jati","distance":1236,"is_transit":false,"i_long":106.861737},{"distance":1829,"is_transit":false,"transit":false,"i_lat":-6.193792,"i_long":106.855437,"station_name":"Kramat","line":11,"station_id":"KMT","time":2}],[{"transit":false,"i_long":106.84368,"line":11,"station_id":"PSE","station_name":"Pasar Senen","distance":0,"time":0,"is_transit":false,"i_lat":-6.174784},{"i_long":106.839204,"station_name":"Kemayoran","time":4,"line":11,"station_id":"KMO","is_transit":false,"transit":false,"i_lat":-6.161728,"distance":1436},{"transit":false,"i_long":106.836569,"is_transit":false,"i_lat":-6.14505,"station_id":"RJW","distance":1901,"station_name":"Rajawali","line":11,"time":5},{"i_long":106.826365,"time":3,"station_name":"Kampung Bandan","station_id":"KPB","i_lat":-6.132549,"line":4,"distance":1444,"transit":true,"is_transit":true},{"transit":true,"i_lat":-6.137569,"i_long":106.812439,"station_id":"JAKK","distance":1364,"line":2,"is_transit":true,"station_name":"Jakarta Kota","time":3},{"station_id":"JAY","is_transit":false,"distance":1264,"transit":false,"i_lat":-6.141205,"time":4,"line":2,"station_name":"Jayakarta","i_long":106.820901},{"station_name":"Manggabesar","transit":false,"time":2,"distance":1080,"i_long":106.82482,"line":2,"station_id":"MGB","is_transit":false,"i_lat":-6.149769},{"time":2,"transit":false,"i_lat":-6.160725,"i_long":106.827103,"line":2,"station_name":"Sawah Besar","station_id":"SW","is_transit":false,"distance":906},{"distance":1149,"transit":false,"i_lat":-6.166716,"time":2,"station_id":"JUA","is_transit":false,"station_name":"Juanda","i_long":106.828284,"line":2},{"line":2,"is_transit":false,"i_lat":-6.186295,"time":4,"distance":2015,"station_id":"GDD","station_name":"Gondangdia","i_long":106.832183,"transit":false},{"station_name":"Cikini","is_transit":false,"station_id":"CKI","i_lat":-6.198556,"i_long":106.840169,"time":3,"distance":1750,"transit":false,"line":2},{"i_long":106.84912,"i_lat":-6.209883,"distance":1590,"transit":true,"time":4,"station_id":"MRI","station_name":"Manggarai","is_transit":true,"line":2},{"i_lat":-6.212485,"distance":1275,"station_name":"Matraman","transit":false,"i_long":106.858896,"time":2,"station_id":"MTR","line":1,"is_transit":false},{"time":8,"station_id":"JNG","is_transit":true,"transit":true,"i_lat":-6.215091,"line":1,"station_name":"Jatinegara","i_long":106.86807400000001,"distance":1377},{"time":2,"station_id":"POK","transit":false,"i_lat":-6.209188,"station_name":"Pondok Jati","is_transit":false,"line":11,"i_long":106.861737,"distance":1236},{"distance":1829,"station_id":"KMT","i_long":106.855437,"is_transit":false,"transit":false,"i_lat":-6.193792,"line":11,"station_name":"Kramat","time":2}]]}