{"data":[[{"time":0,"station_id":"PSE","i_long":106.84368,"station_name":"Pasar Senen","transit":false,"i_lat":-6.174784,"line":11,"is_transit":false,"distance":0},{"distance":1567,"station_id":"GST","transit":false,"i_long":106.850107,"i_lat":-6.185975,"line":11,"station_name":"Gang Sentiong","is_transit":false,"time":8},{"line":11,"transit":false,"station_name":"Kramat","i_lat":-6.193792,"is_transit":false,"distance":973,"station_id":"KMT","time":1,"i_long":106.855437},{"transit":false,"time":2,"station_id":"POK","i_lat":-6.209188,"i_long":106.861737,"line":11,"station_name":"Pondok Jati","distance":1829,"is_transit":false},{"line":1,"time":9,"distance":1236,"i_long":106.86807400000001,"station_id":"JNG","transit":true,"is_transit":true,"i_lat":-6.215091,"station_name":"Jatinegara"},{"time":3,"station_name":"Klender","i_lat":-6.2135,"transit":false,"i_long":106.899548,"is_transit":false,"station_id":"KLD","line":1,"distance":3395},{"distance":3100,"i_long":106.922662,"is_transit":false,"transit":false,"line":1,"station_id":"BUA","station_name":"Buaran","time":2,"i_lat":-6.215568}],[{"line":11,"i_lat":-6.174784,"station_id":"PSE","station_name":"Pasar Senen","transit":false,"i_long":106.84368,"time":0,"distance":0,"is_transit":false},{"transit":false,"station_id":"KMO","i_lat":-6.161728,"time":4,"station_name":"Kemayoran","line":11,"is_transit":false,"distance":1436,"i_long":106.839204},{"time":5,"distance":1901,"is_transit":false,"line":11,"transit":false,"station_id":"RJW","station_name":"Rajawali","i_lat":-6.14505,"i_long":106.836569},{"i_long":106.826365,"station_name":"Kampung Bandan","distance":1444,"transit":true,"is_transit":true,"time":3,"line":4,"station_id":"KPB","i_lat":-6.132549},{"station_id":"AK","is_transit":false,"line":1,"distance":4102,"transit":false,"i_lat":-6.144674,"time":9,"station_name":"Angke","i_long":106.79867},{"station_id":"DU","station_name":"Duri","is_transit":false,"transit":false,"i_long":106.800832,"distance":1230,"line":1,"i_lat":-6.155215,"time":4},{"i_long":106.811091,"station_name":"Tanah Abang","distance":3632,"time":8,"i_lat":-6.185545,"station_id":"THB","transit":false,"line":1,"is_transit":false},{"is_transit":false,"i_lat":-6.20132,"line":1,"distance":2029,"transit":false,"i_long":106.816351,"station_id":"KAT","time":5,"station_name":"Karet"},{"is_transit":false,"time":1,"transit":false,"i_long":106.819881,"line":1,"distance":471,"i_lat":-6.201433,"station_id":"SUDB","station_name":"Sudirman Baru"},{"time":1,"station_name":"Sudirman","transit":false,"distance":280,"line":1,"station_id":"SUD","i_lat":-6.202263,"i_long":106.822649,"is_transit":false},{"is_transit":false,"i_lat":-6.209883,"time":4,"transit":false,"station_id":"MRI","line":2,"i_long":106.84912,"distance":3186,"station_name":"Manggarai"},{"i_long":106.858896,"distance":1275,"station_name":"Matraman","station_id":"MTR","transit":false,"time":2,"i_lat":-6.212485,"line":1,"is_transit":false},{"i_long":106.86807400000001,"distance":1377,"i_lat":-6.215091,"station_name":"Jatinegara","time":8,"station_id":"JNG","transit":false,"line":1,"is_transit":false},{"station_name":"Klender","time":3,"is_transit":false,"distance":3395,"transit":false,"line":1,"i_long":106.899548,"i_lat":-6.2135,"station_id":"KLD"},{"station_id":"BUA","station_name":"Buaran","i_lat":-6.215568,"time":2,"transit":false,"i_long":106.922662,"is_transit":false,"line":1,"distance":3100}],[{"i_lat":-6.174784,"line":11,"is_transit":false,"transit":false,"time":0,"station_name":"Pasar Senen","distance":0,"station_id":"PSE","i_long":106.84368},{"station_id":"KMO","is_transit":false,"transit":false,"line":11,"station_name":"Kemayoran","time":4,"i_long":106.839204,"i_lat":-6.161728,"distance":1436},{"line":11,"station_name":"Rajawali","distance":1901,"transit":false,"i_lat":-6.14505,"i_long":106.836569,"time":5,"is_transit":false,"station_id":"RJW"},{"distance":1444,"i_long":106.826365,"station_id":"KPB","transit":true,"time":3,"station_name":"Kampung Bandan","i_lat":-6.132549,"is_transit":true,"line":4},{"is_transit":true,"transit":true,"i_long":106.812439,"distance":1364,"line":2,"station_id":"JAKK","i_lat":-6.137569,"time":3,"station_name":"Jakarta Kota"},{"is_transit":false,"station_id":"JAY","distance":1264,"station_name":"Jayakarta","line":2,"i_lat":-6.141205,"transit":false,"time":4,"i_long":106.820901},{"station_name":"Manggabesar","is_transit":false,"distance":1080,"station_id":"MGB","time":2,"i_lat":-6.149769,"transit":false,"i_long":106.82482,"line":2},{"transit":false,"time":2,"station_id":"SW","distance":906,"is_transit":false,"i_lat":-6.160725,"line":2,"station_name":"Sawah Besar","i_long":106.827103},{"i_lat":-6.166716,"station_name":"Juanda","i_long":106.828284,"time":2,"line":2,"distance":1149,"station_id":"JUA","is_transit":false,"transit":false},{"transit":false,"i_long":106.832183,"line":2,"is_transit":false,"station_id":"GDD","distance":2015,"station_name":"Gondangdia","i_lat":-6.186295,"time":4},{"line":2,"time":3,"station_name":"Cikini","distance":1750,"i_lat":-6.198556,"i_long":106.840169,"is_transit":false,"station_id":"CKI","transit":false},{"station_id":"MRI","station_name":"Manggarai","is_transit":true,"transit":true,"i_long":106.84912,"distance":1590,"i_lat":-6.209883,"time":4,"line":2},{"distance":1275,"is_transit":false,"i_lat":-6.212485,"station_id":"MTR","transit":false,"line":1,"i_long":106.858896,"time":2,"station_name":"Matraman"},{"i_long":106.86807400000001,"line":1,"time":8,"distance":1377,"station_name":"Jatinegara","is_transit":false,"transit":false,"station_id":"JNG","i_lat":-6.215091},{"transit":false,"distance":3395,"station_name":"Klender","i_lat":-6.2135,"i_long":106.899548,"station_id":"KLD","line":1,"is_transit":false,"time":3},{"transit":false,"station_id":"BUA","time":2,"i_long":106.922662,"i_lat":-6.215568,"distance":3100,"station_name":"Buaran","line":1,"is_transit":false}]]}