{"data":[[{"i_long":106.84368,"station_id":"PSE","transit":false,"i_lat":-6.174784,"line":11,"time":0,"is_transit":false,"distance":0,"station_name":"Pasar Senen"},{"station_id":"GST","transit":false,"station_name":"Gang Sentiong","time":8,"i_lat":-6.185975,"is_transit":false,"i_long":106.850107,"distance":1567,"line":11},{"transit":false,"i_lat":-6.193792,"time":1,"is_transit":false,"line":11,"station_id":"KMT","station_name":"Kramat","i_long":106.855437,"distance":973},{"station_id":"POK","i_long":106.861737,"time":2,"is_transit":false,"distance":1829,"i_lat":-6.209188,"line":11,"transit":false,"station_name":"Pondok Jati"},{"is_transit":true,"time":9,"transit":true,"i_long":106.86807400000001,"line":1,"i_lat":-6.215091,"distance":1236,"station_name":"Jatinegara","station_id":"JNG"},{"line":1,"station_id":"MTR","distance":1377,"time":2,"is_transit":false,"i_long":106.858896,"i_lat":-6.212485,"station_name":"Matraman","transit":false},{"station_name":"Manggarai","transit":true,"station_id":"MRI","is_transit":true,"time":2,"i_lat":-6.209883,"i_long":106.84912,"distance":1275,"line":2},{"station_id":"TEB","distance":2610,"transit":false,"i_lat":-6.226659,"time":4,"line":2,"i_long":106.857948,"is_transit":false,"station_name":"Tebet"},{"is_transit":false,"i_long":106.856607,"line":2,"station_name":"Cawang","time":2,"station_id":"CW","i_lat":-6.242512,"distance":1230,"transit":false},{"i_lat":-6.255332,"is_transit":false,"transit":false,"station_name":"Duren Kalibata","time":3,"distance":1546,"line":2,"i_long":106.85449,"station_id":"DRN"},{"time":2,"is_transit":false,"line":2,"i_long":106.851577,"transit":false,"station_id":"PSMB","i_lat":-6.263214,"station_name":"Pasar Minggu Baru","distance":824},{"is_transit":false,"station_id":"PSM","i_long":106.843999,"station_name":"Pasar Minggu","distance":2380,"time":2,"transit":false,"i_lat":-6.2842400000000005,"line":2},{"distance":2820,"is_transit":false,"i_lat":-6.3080680000000005,"station_id":"TNT","station_name":"Tanjung Barat","time":4,"i_long":106.838896,"line":2,"transit":false},{"distance":2671,"is_transit":false,"i_long":106.832616,"station_id":"LNA","i_lat":-6.330363,"time":3,"transit":false,"station_name":"Lenteng Agung","line":2},{"time":2,"is_transit":false,"station_name":"Univ. Pancasila","i_long":106.834175,"line":2,"station_id":"UP","distance":1029,"i_lat":-6.339291,"transit":false},{"i_lat":-6.360749,"i_long":106.831474,"transit":false,"time":3,"station_id":"UI","line":2,"distance":2264,"station_name":"Univ. Indonesia","is_transit":false},{"line":2,"distance":1109,"station_id":"POC","transit":false,"i_lat":-6.369073,"station_name":"Pondok Cina","time":2,"i_long":106.831114,"is_transit":false},{"transit":false,"distance":2727,"i_lat":-6.391065,"line":2,"station_name":"Depokbaru","is_transit":false,"time":4,"station_id":"DPB","i_long":106.819451},{"line":2,"distance":1584,"is_transit":false,"station_name":"Depok","transit":false,"i_lat":-6.405256,"i_long":106.816926,"station_id":"DP","time":3},{"station_id":"CTA","is_transit":true,"station_name":"Citayam","transit":true,"i_lat":-6.448811,"i_long":106.800298,"time":6,"line":2,"distance":5084},{"time":0,"line":21,"station_id":"PDRG","i_long":106.824374,"i_lat":-6.460735,"is_transit":false,"distance":0,"station_name":"Pondok Rajeg","transit":false}],[{"station_id":"PSE","is_transit":false,"time":0,"i_lat":-6.174784,"i_long":106.84368,"distance":0,"transit":false,"station_name":"Pasar Senen","line":11},{"time":4,"is_transit":false,"transit":false,"station_name":"Kemayoran","distance":1436,"station_id":"KMO","i_long":106.839204,"i_lat":-6.161728,"line":11},{"is_transit":false,"i_lat":-6.14505,"transit":false,"time":5,"station_name":"Rajawali","i_long":106.836569,"station_id":"RJW","line":11,"distance":1901},{"transit":true,"time":3,"station_id":"KPB","i_lat":-6.132549,"station_name":"Kampung Bandan","i_long":106.826365,"line":4,"is_transit":true,"distance":1444},{"station_id":"AK","distance":4102,"line":1,"i_long":106.79867,"time":9,"transit":false,"i_lat":-6.144674,"station_name":"Angke","is_transit":false},{"station_name":"Duri","distance":1230,"transit":false,"i_long":106.800832,"line":1,"i_lat":-6.155215,"time":4,"is_transit":false,"station_id":"DU"},{"is_transit":false,"station_name":"Tanah Abang","time":8,"transit":false,"i_lat":-6.185545,"i_long":106.811091,"line":1,"station_id":"THB","distance":3632},{"station_id":"KAT","is_transit":false,"i_long":106.816351,"line":1,"distance":2029,"transit":false,"i_lat":-6.20132,"time":5,"station_name":"Karet"},{"line":1,"transit":false,"i_long":106.819881,"time":1,"distance":471,"is_transit":false,"station_id":"SUDB","station_name":"Sudirman Baru","i_lat":-6.201433},{"station_name":"Sudirman","distance":280,"transit":false,"line":1,"station_id":"SUD","is_transit":false,"time":1,"i_lat":-6.202263,"i_long":106.822649},{"time":4,"i_long":106.84912,"distance":3186,"is_transit":true,"transit":true,"station_id":"MRI","station_name":"Manggarai","line":2,"i_lat":-6.209883},{"time":4,"line":2,"station_name":"Tebet","distance":2610,"is_transit":false,"transit":false,"station_id":"TEB","i_lat":-6.226659,"i_long":106.857948},{"line":2,"station_id":"CW","time":2,"station_name":"Cawang","is_transit":false,"i_lat":-6.242512,"distance":1230,"transit":false,"i_long":106.856607},{"is_transit":false,"i_long":106.85449,"station_id":"DRN","transit":false,"line":2,"station_name":"Duren Kalibata","distance":1546,"time":3,"i_lat":-6.255332},{"i_long":106.851577,"station_id":"PSMB","is_transit":false,"station_name":"Pasar Minggu Baru","i_lat":-6.263214,"line":2,"transit":false,"time":2,"distance":824},{"i_lat":-6.2842400000000005,"line":2,"distance":2380,"is_transit":false,"station_id":"PSM","station_name":"Pasar Minggu","time":2,"i_long":106.843999,"transit":false},{"station_id":"TNT","i_lat":-6.3080680000000005,"i_long":106.838896,"station_name":"Tanjung Barat","is_transit":false,"transit":false,"line":2,"distance":2820,"time":4},{"is_transit":false,"distance":2671,"time":3,"transit":false,"station_id":"LNA","i_long":106.832616,"line":2,"station_name":"Lenteng Agung","i_lat":-6.330363},{"station_id":"UP","line":2,"i_lat":-6.339291,"is_transit":false,"distance":1029,"time":2,"transit":false,"station_name":"Univ. Pancasila","i_long":106.834175},{"transit":false,"station_name":"Univ. Indonesia","i_lat":-6.360749,"line":2,"time":3,"is_transit":false,"distance":2264,"station_id":"UI","i_long":106.831474},{"i_long":106.831114,"distance":1109,"station_id":"POC","line":2,"is_transit":false,"time":2,"station_name":"Pondok Cina","transit":false,"i_lat":-6.369073},{"i_long":106.819451,"station_id":"DPB","transit":false,"line":2,"distance":2727,"station_name":"Depokbaru","is_transit":false,"time":4,"i_lat":-6.391065},{"transit":false,"i_long":106.816926,"line":2,"time":3,"station_name":"Depok","distance":1584,"i_lat":-6.405256,"station_id":"DP","is_transit":false},{"transit":true,"i_lat":-6.448811,"distance":5084,"i_long":106.800298,"is_transit":true,"station_name":"Citayam","time":6,"station_id":"CTA","line":2},{"line":21,"time":0,"distance":0,"i_lat":-6.460735,"is_transit":false,"station_name":"Pondok Rajeg","transit":false,"i_long":106.824374,"station_id":"PDRG"}],[{"distance":0,"station_name":"Pasar Senen","transit":false,"i_lat":-6.174784,"i_long":106.84368,"line":11,"station_id":"PSE","is_transit":false,"time":0},{"station_id":"KMO","line":11,"distance":1436,"i_long":106.839204,"station_name":"Kemayoran","time":4,"is_transit":false,"transit":false,"i_lat":-6.161728},{"station_id":"RJW","i_lat":-6.14505,"transit":false,"i_long":106.836569,"line":11,"time":5,"is_transit":false,"station_name":"Rajawali","distance":1901},{"time":3,"station_name":"Kampung Bandan","station_id":"KPB","transit":true,"line":4,"i_lat":-6.132549,"distance":1444,"is_transit":true,"i_long":106.826365},{"is_transit":true,"transit":true,"i_long":106.812439,"time":3,"line":2,"distance":1364,"i_lat":-6.137569,"station_name":"Jakarta Kota","station_id":"JAKK"},{"i_lat":-6.141205,"line":2,"is_transit":false,"i_long":106.820901,"time":4,"distance":1264,"station_id":"JAY","transit":false,"station_name":"Jayakarta"},{"transit":false,"station_id":"MGB","line":2,"i_long":106.82482,"distance":1080,"is_transit":false,"i_lat":-6.149769,"station_name":"Manggabesar","time":2},{"is_transit":false,"i_lat":-6.160725,"line":2,"station_name":"Sawah Besar","transit":false,"station_id":"SW","time":2,"i_long":106.827103,"distance":906},{"station_id":"JUA","time":2,"distance":1149,"transit":false,"is_transit":false,"i_lat":-6.166716,"i_long":106.828284,"station_name":"Juanda","line":2},{"time":4,"i_lat":-6.186295,"i_long":106.832183,"is_transit":false,"distance":2015,"station_name":"Gondangdia","station_id":"GDD","transit":false,"line":2},{"time":3,"transit":false,"i_lat":-6.198556,"station_name":"Cikini","station_id":"CKI","i_long":106.840169,"line":2,"is_transit":false,"distance":1750},{"distance":1590,"station_id":"MRI","time":4,"i_long":106.84912,"line":2,"transit":false,"is_transit":false,"station_name":"Manggarai","i_lat":-6.209883},{"time":4,"distance":2610,"i_lat":-6.226659,"i_long":106.857948,"line":2,"station_name":"Tebet","station_id":"TEB","is_transit":false,"transit":false},{"distance":1230,"i_lat":-6.242512,"station_id":"CW","is_transit":false,"time":2,"i_long":106.856607,"transit":false,"line":2,"station_name":"Cawang"},{"line":2,"i_long":106.85449,"station_name":"Duren Kalibata","distance":1546,"is_transit":false,"time":3,"i_lat":-6.255332,"transit":false,"station_id":"DRN"},{"is_transit":false,"line":2,"transit":false,"time":2,"distance":824,"station_name":"Pasar Minggu Baru","i_lat":-6.263214,"station_id":"PSMB","i_long":106.851577},{"time":2,"distance":2380,"i_lat":-6.2842400000000005,"transit":false,"line":2,"station_id":"PSM","is_transit":false,"station_name":"Pasar Minggu","i_long":106.843999},{"i_lat":-6.3080680000000005,"transit":false,"station_name":"Tanjung Barat","is_transit":false,"line":2,"station_id":"TNT","i_long":106.838896,"time":4,"distance":2820},{"line":2,"i_long":106.832616,"time":3,"station_name":"Lenteng Agung","distance":2671,"is_transit":false,"transit":false,"i_lat":-6.330363,"station_id":"LNA"},{"distance":1029,"station_id":"UP","transit":false,"station_name":"Univ. Pancasila","time":2,"i_lat":-6.339291,"i_long":106.834175,"is_transit":false,"line":2},{"is_transit":false,"time":3,"distance":2264,"line":2,"i_long":106.831474,"i_lat":-6.360749,"transit":false,"station_name":"Univ. Indonesia","station_id":"UI"},{"time":2,"station_name":"Pondok Cina","station_id":"POC","line":2,"is_transit":false,"transit":false,"i_lat":-6.369073,"distance":1109,"i_long":106.831114},{"time":4,"i_lat":-6.391065,"is_transit":false,"station_name":"Depokbaru","station_id":"DPB","line":2,"i_long":106.819451,"distance":2727,"transit":false},{"station_name":"Depok","transit":false,"distance":1584,"station_id":"DP","i_lat":-6.405256,"i_long":106.816926,"line":2,"is_transit":false,"time":3},{"distance":5084,"time":6,"station_name":"Citayam","is_transit":true,"i_long":106.800298,"station_id":"CTA","transit":true,"line":2,"i_lat":-6.448811},{"station_name":"Pondok Rajeg","line":21,"station_id":"PDRG","i_lat":-6.460735,"i_long":106.824374,"distance":0,"time":0,"transit":false,"is_transit":false}]]}