{"data":[[{"station_name":"Pasar Senen","i_lat":-6.174784,"line":11,"time":0,"station_id":"PSE","is_transit":false,"transit":false,"i_long":106.84368,"distance":0},{"line":11,"i_long":106.839204,"transit":false,"time":4,"distance":1436,"station_id":"KMO","is_transit":false,"i_lat":-6.161728,"station_name":"Kemayoran"},{"transit":false,"i_lat":-6.14505,"i_long":106.836569,"station_name":"Rajawali","station_id":"RJW","is_transit":false,"line":11,"time":5,"distance":1901},{"i_long":106.826365,"line":4,"station_name":"Kampung Bandan","is_transit":true,"transit":true,"time":3,"distance":1444,"station_id":"KPB","i_lat":-6.132549},{"time":9,"transit":false,"station_id":"AK","line":1,"distance":4102,"i_lat":-6.144674,"station_name":"Angke","is_transit":false,"i_long":106.79867},{"station_id":"DU","time":4,"is_transit":false,"transit":false,"line":1,"station_name":"Duri","i_long":106.800832,"i_lat":-6.155215,"distance":1230},{"distance":3632,"station_id":"THB","station_name":"Tanah Abang","is_transit":true,"line":1,"time":8,"i_long":106.811091,"transit":true,"i_lat":-6.185545},{"station_name":"Palmerah","station_id":"PLM","is_transit":false,"transit":false,"i_long":106.79689,"line":6,"time":6,"distance":3191,"i_lat":-6.207404},{"time":7,"station_id":"KBY","station_name":"Kebayoran","i_long":106.780334,"is_transit":false,"line":6,"transit":false,"distance":3737,"i_lat":-6.237242},{"is_transit":false,"distance":6218,"line":6,"time":8,"station_id":"PDJ","i_long":106.74273,"station_name":"Pondokranji","transit":false,"i_lat":-6.276362},{"i_lat":-6.288927,"is_transit":false,"transit":false,"time":3,"station_id":"JMU","line":6,"distance":2179,"station_name":"Jurangmangu","i_long":106.728916},{"is_transit":false,"i_lat":-6.296963,"station_id":"SDM","time":4,"i_long":106.712277,"distance":1994,"station_name":"Sudimara","transit":false,"line":6},{"i_long":106.675475,"is_transit":false,"line":6,"time":6,"i_lat":-6.314823,"distance":4566,"station_id":"RU","transit":false,"station_name":"Rawa Buntu"},{"i_lat":-6.319871,"line":6,"time":4,"distance":2413,"is_transit":false,"i_long":106.66566,"station_id":"SRP","station_name":"Serpong","transit":false},{"i_lat":-6.32484,"station_id":"CSK","time":4,"station_name":"Cisauk","line":3,"i_long":106.640411,"distance":1784,"transit":false,"is_transit":false},{"i_lat":-6.329547,"distance":2519,"station_name":"Cicayur","i_long":106.617853,"station_id":"CC","time":4,"is_transit":false,"transit":false,"line":3},{"i_lat":-6.3441410000000005,"transit":false,"line":6,"station_id":"PRP","i_long":106.568863,"distance":5968,"station_name":"Parung Panjang","time":8,"is_transit":false},{"distance":7025,"time":9,"transit":false,"station_id":"CJT","i_long":106.508482,"i_lat":-6.354349,"is_transit":false,"line":3,"station_name":"Cilejit"},{"transit":false,"time":6,"is_transit":false,"line":0,"station_id":"DAR","i_long":106.491338,"distance":2675,"station_name":"Daru","i_lat":-6.338021}],[{"time":0,"is_transit":false,"station_id":"PSE","i_lat":-6.174784,"station_name":"Pasar Senen","distance":0,"transit":false,"i_long":106.84368,"line":11},{"distance":1567,"station_id":"GST","line":11,"i_lat":-6.185975,"time":8,"station_name":"Gang Sentiong","i_long":106.850107,"is_transit":false,"transit":false},{"transit":false,"station_name":"Kramat","distance":973,"station_id":"KMT","time":1,"is_transit":false,"i_lat":-6.193792,"line":11,"i_long":106.855437},{"is_transit":false,"station_name":"Pondok Jati","transit":false,"i_lat":-6.209188,"i_long":106.861737,"distance":1829,"station_id":"POK","line":11,"time":2},{"transit":true,"i_long":106.86807400000001,"line":1,"i_lat":-6.215091,"time":9,"distance":1236,"station_name":"Jatinegara","station_id":"JNG","is_transit":true},{"i_lat":-6.212485,"i_long":106.858896,"time":2,"station_id":"MTR","is_transit":false,"transit":false,"line":1,"station_name":"Matraman","distance":1377},{"transit":false,"time":2,"line":2,"i_lat":-6.209883,"i_long":106.84912,"station_name":"Manggarai","distance":1275,"is_transit":false,"station_id":"MRI"},{"station_name":"Sudirman","time":4,"station_id":"SUD","i_long":106.822649,"transit":false,"i_lat":-6.202263,"line":1,"distance":3186,"is_transit":false},{"station_name":"Sudirman Baru","i_long":106.819881,"time":1,"transit":false,"i_lat":-6.201433,"distance":280,"station_id":"SUDB","line":1,"is_transit":false},{"station_name":"Karet","distance":471,"line":1,"i_long":106.816351,"time":1,"transit":false,"is_transit":false,"station_id":"KAT","i_lat":-6.20132},{"station_id":"THB","time":5,"i_lat":-6.185545,"distance":2029,"line":1,"transit":true,"is_transit":true,"station_name":"Tanah Abang","i_long":106.811091},{"distance":3191,"is_transit":false,"transit":false,"station_id":"PLM","station_name":"Palmerah","i_lat":-6.207404,"i_long":106.79689,"line":6,"time":6},{"time":7,"distance":3737,"is_transit":false,"station_id":"KBY","station_name":"Kebayoran","i_lat":-6.237242,"transit":false,"line":6,"i_long":106.780334},{"station_id":"PDJ","line":6,"time":8,"is_transit":false,"transit":false,"i_lat":-6.276362,"station_name":"Pondokranji","i_long":106.74273,"distance":6218},{"station_id":"JMU","i_lat":-6.288927,"i_long":106.728916,"is_transit":false,"time":3,"transit":false,"station_name":"Jurangmangu","line":6,"distance":2179},{"transit":false,"station_name":"Sudimara","time":4,"i_lat":-6.296963,"i_long":106.712277,"line":6,"is_transit":false,"distance":1994,"station_id":"SDM"},{"is_transit":false,"distance":4566,"line":6,"time":6,"station_id":"RU","i_lat":-6.314823,"i_long":106.675475,"transit":false,"station_name":"Rawa Buntu"},{"time":4,"is_transit":false,"station_id":"SRP","station_name":"Serpong","i_long":106.66566,"i_lat":-6.319871,"line":6,"transit":false,"distance":2413},{"distance":1784,"i_long":106.640411,"i_lat":-6.32484,"is_transit":false,"time":4,"line":3,"station_id":"CSK","station_name":"Cisauk","transit":false},{"i_lat":-6.329547,"transit":false,"time":4,"distance":2519,"i_long":106.617853,"station_id":"CC","line":3,"station_name":"Cicayur","is_transit":false},{"time":8,"is_transit":false,"distance":5968,"line":6,"station_name":"Parung Panjang","i_lat":-6.3441410000000005,"station_id":"PRP","transit":false,"i_long":106.568863},{"distance":7025,"line":3,"i_long":106.508482,"transit":false,"station_name":"Cilejit","is_transit":false,"station_id":"CJT","i_lat":-6.354349,"time":9},{"i_lat":-6.338021,"transit":false,"time":6,"i_long":106.491338,"station_id":"DAR","station_name":"Daru","distance":2675,"line":0,"is_transit":false}],[{"line":11,"transit":false,"station_id":"PSE","station_name":"Pasar Senen","i_lat":-6.174784,"distance":0,"is_transit":false,"i_long":106.84368,"time":0},{"line":11,"transit":false,"i_lat":-6.161728,"is_transit":false,"i_long":106.839204,"station_name":"Kemayoran","time":4,"distance":1436,"station_id":"KMO"},{"line":11,"i_long":106.836569,"transit":false,"station_name":"Rajawali","time":5,"distance":1901,"i_lat":-6.14505,"is_transit":false,"station_id":"RJW"},{"time":3,"i_lat":-6.132549,"i_long":106.826365,"is_transit":true,"transit":true,"station_name":"Kampung Bandan","station_id":"KPB","line":4,"distance":1444},{"station_name":"Jakarta Kota","station_id":"JAKK","i_lat":-6.137569,"i_long":106.812439,"line":2,"time":3,"distance":1364,"is_transit":true,"transit":true},{"distance":1264,"station_id":"JAY","time":4,"is_transit":false,"i_lat":-6.141205,"transit":false,"station_name":"Jayakarta","i_long":106.820901,"line":2},{"i_long":106.82482,"transit":false,"i_lat":-6.149769,"station_name":"Manggabesar","distance":1080,"station_id":"MGB","line":2,"is_transit":false,"time":2},{"station_id":"SW","i_lat":-6.160725,"time":2,"station_name":"Sawah Besar","distance":906,"line":2,"transit":false,"is_transit":false,"i_long":106.827103},{"distance":1149,"time":2,"i_lat":-6.166716,"line":2,"i_long":106.828284,"station_name":"Juanda","transit":false,"station_id":"JUA","is_transit":false},{"is_transit":false,"transit":false,"station_id":"GDD","station_name":"Gondangdia","i_long":106.832183,"i_lat":-6.186295,"distance":2015,"time":4,"line":2},{"is_transit":false,"transit":false,"station_id":"CKI","i_long":106.840169,"station_name":"Cikini","time":3,"line":2,"distance":1750,"i_lat":-6.198556},{"distance":1590,"is_transit":true,"station_id":"MRI","i_lat":-6.209883,"line":2,"transit":true,"station_name":"Manggarai","i_long":106.84912,"time":4},{"time":4,"is_transit":false,"i_lat":-6.202263,"i_long":106.822649,"station_id":"SUD","station_name":"Sudirman","distance":3186,"line":1,"transit":false},{"transit":false,"is_transit":false,"i_lat":-6.201433,"station_name":"Sudirman Baru","time":1,"i_long":106.819881,"station_id":"SUDB","distance":280,"line":1},{"i_long":106.816351,"line":1,"station_id":"KAT","time":1,"distance":471,"is_transit":false,"station_name":"Karet","transit":false,"i_lat":-6.20132},{"i_lat":-6.185545,"station_id":"THB","distance":2029,"line":1,"station_name":"Tanah Abang","time":5,"i_long":106.811091,"transit":true,"is_transit":true},{"i_long":106.79689,"line":6,"station_name":"Palmerah","is_transit":false,"transit":false,"distance":3191,"time":6,"station_id":"PLM","i_lat":-6.207404},{"i_lat":-6.237242,"i_long":106.780334,"time":7,"station_id":"KBY","transit":false,"distance":3737,"station_name":"Kebayoran","line":6,"is_transit":false},{"i_lat":-6.276362,"i_long":106.74273,"line":6,"time":8,"distance":6218,"transit":false,"station_name":"Pondokranji","station_id":"PDJ","is_transit":false},{"station_name":"Jurangmangu","time":3,"i_long":106.728916,"line":6,"is_transit":false,"station_id":"JMU","distance":2179,"i_lat":-6.288927,"transit":false},{"line":6,"station_id":"SDM","i_lat":-6.296963,"i_long":106.712277,"transit":false,"station_name":"Sudimara","time":4,"is_transit":false,"distance":1994},{"distance":4566,"station_name":"Rawa Buntu","transit":false,"i_lat":-6.314823,"is_transit":false,"line":6,"station_id":"RU","time":6,"i_long":106.675475},{"time":4,"transit":false,"station_name":"Serpong","is_transit":false,"line":6,"station_id":"SRP","i_lat":-6.319871,"i_long":106.66566,"distance":2413},{"transit":false,"station_name":"Cisauk","station_id":"CSK","line":3,"is_transit":false,"i_long":106.640411,"distance":1784,"i_lat":-6.32484,"time":4},{"line":3,"i_long":106.617853,"distance":2519,"station_id":"CC","station_name":"Cicayur","is_transit":false,"time":4,"i_lat":-6.329547,"transit":false},{"transit":false,"station_name":"Parung Panjang","station_id":"PRP","i_long":106.568863,"line":6,"is_transit":false,"distance":5968,"time":8,"i_lat":-6.3441410000000005},{"i_long":106.508482,"time":9,"transit":false,"station_id":"CJT","i_lat":-6.354349,"distance":7025,"line":3,"station_name":"Cilejit","is_transit":false},{"is_transit":false,"time":6,"station_id":"DAR","distance":2675,"i_lat":-6.338021,"transit":false,"line":0,"station_name":"Daru","i_long":106.491338}],[{"station_id":"PSE","station_name":"Pasar Senen","i_long":106.84368,"distance":0,"line":11,"i_lat":-6.174784,"is_transit":false,"time":0,"transit":false},{"transit":false,"station_id":"GST","distance":1567,"line":11,"time":8,"i_lat":-6.185975,"station_name":"Gang Sentiong","is_transit":false,"i_long":106.850107},{"is_transit":false,"station_name":"Kramat","station_id":"KMT","i_lat":-6.193792,"time":1,"transit":false,"i_long":106.855437,"line":11,"distance":973},{"is_transit":false,"station_id":"POK","station_name":"Pondok Jati","distance":1829,"line":11,"transit":false,"i_lat":-6.209188,"i_long":106.861737,"time":2},{"time":9,"distance":1236,"station_name":"Jatinegara","station_id":"JNG","i_lat":-6.215091,"transit":true,"line":1,"is_transit":true,"i_long":106.86807400000001},{"i_long":106.858896,"transit":false,"time":2,"station_id":"MTR","station_name":"Matraman","line":1,"is_transit":false,"distance":1377,"i_lat":-6.212485},{"time":2,"i_lat":-6.209883,"i_long":106.84912,"is_transit":true,"station_id":"MRI","line":2,"distance":1275,"station_name":"Manggarai","transit":true},{"station_id":"CKI","is_transit":false,"i_long":106.840169,"line":2,"station_name":"Cikini","distance":1590,"i_lat":-6.198556,"time":4,"transit":false},{"time":3,"is_transit":false,"i_long":106.832183,"station_id":"GDD","station_name":"Gondangdia","i_lat":-6.186295,"transit":false,"distance":1750,"line":2},{"line":2,"i_long":106.828284,"transit":false,"i_lat":-6.166716,"station_id":"JUA","distance":2015,"is_transit":false,"station_name":"Juanda","time":4},{"transit":false,"time":2,"distance":1149,"station_id":"SW","i_lat":-6.160725,"i_long":106.827103,"line":2,"is_transit":false,"station_name":"Sawah Besar"},{"i_long":106.82482,"line":2,"transit":false,"is_transit":false,"i_lat":-6.149769,"distance":906,"station_name":"Manggabesar","time":2,"station_id":"MGB"},{"transit":false,"i_lat":-6.141205,"is_transit":false,"station_id":"JAY","distance":1080,"i_long":106.820901,"time":2,"line":2,"station_name":"Jayakarta"},{"transit":true,"station_name":"Jakarta Kota","is_transit":true,"station_id":"JAKK","i_lat":-6.137569,"time":4,"distance":1264,"i_long":106.812439,"line":2},{"line":4,"i_lat":-6.132549,"station_id":"KPB","transit":true,"station_name":"Kampung Bandan","time":3,"is_transit":true,"i_long":106.826365,"distance":1364},{"transit":false,"station_name":"Angke","distance":4102,"is_transit":false,"time":9,"station_id":"AK","i_long":106.79867,"line":1,"i_lat":-6.144674},{"i_long":106.800832,"station_name":"Duri","transit":false,"distance":1230,"is_transit":false,"time":4,"line":1,"station_id":"DU","i_lat":-6.155215},{"transit":true,"time":8,"distance":3632,"i_lat":-6.185545,"is_transit":true,"i_long":106.811091,"station_name":"Tanah Abang","station_id":"THB","line":1},{"station_id":"PLM","station_name":"Palmerah","transit":false,"is_transit":false,"time":6,"distance":3191,"i_long":106.79689,"line":6,"i_lat":-6.207404},{"is_transit":false,"line":6,"distance":3737,"transit":false,"station_name":"Kebayoran","time":7,"station_id":"KBY","i_long":106.780334,"i_lat":-6.237242},{"transit":false,"station_id":"PDJ","i_long":106.74273,"station_name":"Pondokranji","distance":6218,"time":8,"line":6,"is_transit":false,"i_lat":-6.276362},{"station_name":"Jurangmangu","station_id":"JMU","distance":2179,"line":6,"is_transit":false,"transit":false,"i_lat":-6.288927,"i_long":106.728916,"time":3},{"transit":false,"i_long":106.712277,"station_id":"SDM","is_transit":false,"station_name":"Sudimara","time":4,"distance":1994,"i_lat":-6.296963,"line":6},{"station_id":"RU","i_lat":-6.314823,"station_name":"Rawa Buntu","i_long":106.675475,"distance":4566,"line":6,"is_transit":false,"time":6,"transit":false},{"i_lat":-6.319871,"time":4,"distance":2413,"i_long":106.66566,"transit":false,"is_transit":false,"station_name":"Serpong","line":6,"station_id":"SRP"},{"station_id":"CSK","i_lat":-6.32484,"transit":false,"distance":1784,"station_name":"Cisauk","i_long":106.640411,"line":3,"is_transit":false,"time":4},{"distance":2519,"line":3,"station_id":"CC","i_lat":-6.329547,"i_long":106.617853,"transit":false,"station_name":"Cicayur","is_transit":false,"time":4},{"transit":false,"i_lat":-6.3441410000000005,"line":6,"distance":5968,"station_name":"Parung Panjang","is_transit":false,"time":8,"station_id":"PRP","i_long":106.568863},{"i_long":106.508482,"line":3,"time":9,"i_lat":-6.354349,"station_name":"Cilejit","distance":7025,"station_id":"CJT","transit":false,"is_transit":false},{"i_lat":-6.338021,"station_id":"DAR","line":0,"time":6,"is_transit":false,"distance":2675,"i_long":106.491338,"transit":false,"station_name":"Daru"}]]}