{"data":[[{"station_name":"Pasar Senen","distance":0,"i_long":106.84368,"line":11,"time":0,"transit":false,"i_lat":-6.174784,"is_transit":false,"station_id":"PSE"},{"transit":false,"i_long":106.839204,"distance":1436,"station_name":"Kemayoran","time":4,"is_transit":false,"i_lat":-6.161728,"station_id":"KMO","line":11},{"i_long":106.836569,"i_lat":-6.14505,"is_transit":false,"transit":false,"station_id":"RJW","time":5,"station_name":"Rajawali","line":11,"distance":1901},{"is_transit":true,"time":3,"distance":1444,"transit":true,"station_name":"Kampung Bandan","i_long":106.826365,"i_lat":-6.132549,"line":0,"station_id":"KPB"},{"i_long":106.79867,"i_lat":-6.144674,"station_name":"Angke","transit":false,"distance":4102,"station_id":"AK","is_transit":false,"time":9,"line":0},{"transit":true,"i_lat":-6.155215,"is_transit":true,"station_id":"DU","distance":1230,"time":4,"line":1,"i_long":106.800832,"station_name":"Duri"},{"is_transit":true,"i_long":106.811091,"line":1,"station_name":"Tanah Abang","distance":3632,"transit":true,"station_id":"THB","time":8,"i_lat":-6.185545},{"distance":3191,"station_name":"Palmerah","time":6,"is_transit":false,"station_id":"PLM","line":6,"i_lat":-6.207404,"i_long":106.79689,"transit":false},{"station_id":"KBY","line":6,"transit":false,"i_lat":-6.237242,"time":7,"is_transit":false,"station_name":"Kebayoran","distance":3737,"i_long":106.780334}],[{"line":11,"time":0,"is_transit":false,"distance":0,"station_name":"Pasar Senen","i_long":106.84368,"station_id":"PSE","transit":false,"i_lat":-6.174784},{"station_name":"Gang Sentiong","transit":false,"line":11,"is_transit":false,"distance":1567,"time":8,"station_id":"GST","i_long":106.850107,"i_lat":-6.185975},{"i_long":106.855437,"transit":false,"station_id":"KMT","time":1,"station_name":"Kramat","i_lat":-6.193792,"line":11,"distance":973,"is_transit":false},{"is_transit":false,"line":11,"i_lat":-6.209188,"i_long":106.861737,"transit":false,"station_name":"Pondok Jati","distance":1829,"time":2,"station_id":"POK"},{"station_id":"JNG","station_name":"Jatinegara","transit":true,"time":9,"line":0,"distance":1236,"is_transit":true,"i_long":106.86807400000001,"i_lat":-6.215091},{"line":1,"i_lat":-6.212485,"distance":1377,"is_transit":false,"station_id":"MTR","time":2,"i_long":106.858896,"station_name":"Matraman","transit":false},{"is_transit":true,"distance":1275,"i_lat":-6.209883,"time":2,"i_long":106.84912,"station_name":"Manggarai","line":0,"transit":false,"station_id":"MRI"},{"station_id":"SUD","time":4,"is_transit":false,"line":1,"i_lat":-6.202263,"distance":3186,"station_name":"Sudirman","transit":false,"i_long":106.822649},{"station_name":"Sudirman Baru","time":1,"transit":false,"line":1,"i_lat":-6.201433,"i_long":106.819881,"is_transit":false,"station_id":"SUDB","distance":280},{"line":1,"distance":471,"station_name":"Karet","time":1,"i_lat":-6.20132,"is_transit":false,"i_long":106.816351,"station_id":"KAT","transit":false},{"time":5,"i_lat":-6.185545,"line":1,"transit":true,"is_transit":true,"station_name":"Tanah Abang","i_long":106.811091,"station_id":"THB","distance":2029},{"is_transit":false,"line":6,"distance":3191,"station_id":"PLM","station_name":"Palmerah","transit":false,"time":6,"i_lat":-6.207404,"i_long":106.79689},{"transit":false,"time":7,"station_name":"Kebayoran","line":6,"is_transit":false,"i_long":106.780334,"station_id":"KBY","i_lat":-6.237242,"distance":3737}],[{"station_id":"PSE","line":11,"time":0,"i_long":106.84368,"distance":0,"station_name":"Pasar Senen","transit":false,"i_lat":-6.174784,"is_transit":false},{"time":4,"transit":false,"is_transit":false,"distance":1436,"station_id":"KMO","i_long":106.839204,"line":11,"station_name":"Kemayoran","i_lat":-6.161728},{"is_transit":false,"i_long":106.836569,"time":5,"i_lat":-6.14505,"distance":1901,"station_name":"Rajawali","transit":false,"station_id":"RJW","line":11},{"time":3,"station_id":"KPB","station_name":"Kampung Bandan","distance":1444,"transit":true,"i_lat":-6.132549,"i_long":106.826365,"line":0,"is_transit":true},{"line":0,"station_id":"JAKK","i_long":106.812439,"station_name":"Jakarta Kota","transit":true,"time":3,"i_lat":-6.137569,"distance":1364,"is_transit":true},{"station_id":"JAY","i_lat":-6.141205,"transit":false,"i_long":106.820901,"line":7,"time":4,"is_transit":false,"distance":1264,"station_name":"Jayakarta"},{"is_transit":false,"station_name":"Manggabesar","distance":1080,"time":2,"transit":false,"i_lat":-6.149769,"i_long":106.82482,"line":2,"station_id":"MGB"},{"station_id":"SW","is_transit":false,"i_lat":-6.160725,"distance":906,"transit":false,"time":2,"i_long":106.827103,"station_name":"Sawah Besar","line":2},{"transit":false,"is_transit":false,"i_long":106.828284,"time":2,"distance":1149,"i_lat":-6.166716,"station_id":"JUA","line":2,"station_name":"Juanda"},{"distance":2015,"station_id":"GDD","is_transit":false,"i_lat":-6.186295,"station_name":"Gondangdia","time":4,"i_long":106.832183,"transit":false,"line":2},{"transit":false,"i_lat":-6.198556,"i_long":106.840169,"distance":1750,"time":3,"station_id":"CKI","station_name":"Cikini","line":0,"is_transit":false},{"station_id":"MRI","transit":true,"is_transit":true,"distance":1590,"time":4,"station_name":"Manggarai","i_long":106.84912,"i_lat":-6.209883,"line":0},{"i_lat":-6.202263,"i_long":106.822649,"distance":3186,"station_name":"Sudirman","transit":false,"station_id":"SUD","time":4,"line":1,"is_transit":false},{"station_id":"SUDB","transit":false,"time":1,"i_long":106.819881,"station_name":"Sudirman Baru","is_transit":false,"line":1,"i_lat":-6.201433,"distance":280},{"line":1,"i_lat":-6.20132,"distance":471,"time":1,"transit":false,"is_transit":false,"station_id":"KAT","i_long":106.816351,"station_name":"Karet"},{"time":5,"i_lat":-6.185545,"is_transit":true,"distance":2029,"station_name":"Tanah Abang","transit":true,"station_id":"THB","i_long":106.811091,"line":1},{"distance":3191,"is_transit":false,"i_long":106.79689,"station_id":"PLM","transit":false,"time":6,"station_name":"Palmerah","i_lat":-6.207404,"line":6},{"i_lat":-6.237242,"distance":3737,"line":6,"station_name":"Kebayoran","is_transit":false,"time":7,"station_id":"KBY","transit":false,"i_long":106.780334}],[{"i_lat":-6.174784,"distance":0,"station_name":"Pasar Senen","line":11,"i_long":106.84368,"station_id":"PSE","transit":false,"is_transit":false,"time":0},{"station_id":"GST","i_long":106.850107,"distance":1567,"i_lat":-6.185975,"line":11,"station_name":"Gang Sentiong","transit":false,"is_transit":false,"time":8},{"station_name":"Kramat","distance":973,"transit":false,"time":1,"is_transit":false,"station_id":"KMT","i_lat":-6.193792,"i_long":106.855437,"line":11},{"distance":1829,"is_transit":false,"station_id":"POK","station_name":"Pondok Jati","line":11,"transit":false,"i_long":106.861737,"time":2,"i_lat":-6.209188},{"time":9,"line":0,"i_long":106.86807400000001,"distance":1236,"is_transit":true,"station_id":"JNG","station_name":"Jatinegara","i_lat":-6.215091,"transit":true},{"station_id":"MTR","station_name":"Matraman","transit":false,"i_lat":-6.212485,"time":2,"i_long":106.858896,"distance":1377,"line":1,"is_transit":false},{"is_transit":true,"time":2,"i_lat":-6.209883,"line":0,"distance":1275,"i_long":106.84912,"station_id":"MRI","transit":true,"station_name":"Manggarai"},{"transit":false,"distance":1590,"is_transit":false,"i_long":106.840169,"station_name":"Cikini","i_lat":-6.198556,"line":0,"time":4,"station_id":"CKI"},{"line":2,"station_id":"GDD","is_transit":false,"station_name":"Gondangdia","distance":1750,"transit":false,"time":3,"i_lat":-6.186295,"i_long":106.832183},{"i_lat":-6.166716,"line":2,"distance":2015,"i_long":106.828284,"is_transit":false,"station_id":"JUA","transit":false,"time":4,"station_name":"Juanda"},{"distance":1149,"is_transit":false,"line":2,"i_long":106.827103,"station_name":"Sawah Besar","i_lat":-6.160725,"transit":false,"time":2,"station_id":"SW"},{"i_lat":-6.149769,"is_transit":false,"time":2,"station_name":"Manggabesar","i_long":106.82482,"transit":false,"line":2,"distance":906,"station_id":"MGB"},{"station_name":"Jayakarta","transit":false,"time":2,"station_id":"JAY","i_lat":-6.141205,"i_long":106.820901,"distance":1080,"is_transit":false,"line":7},{"distance":1264,"is_transit":true,"transit":true,"station_id":"JAKK","time":4,"line":0,"i_lat":-6.137569,"i_long":106.812439,"station_name":"Jakarta Kota"},{"time":3,"is_transit":true,"station_id":"KPB","i_long":106.826365,"distance":1364,"station_name":"Kampung Bandan","i_lat":-6.132549,"line":0,"transit":false},{"line":0,"i_lat":-6.144674,"transit":false,"distance":4102,"station_id":"AK","time":9,"i_long":106.79867,"station_name":"Angke","is_transit":false},{"i_lat":-6.155215,"time":4,"transit":true,"is_transit":true,"station_name":"Duri","i_long":106.800832,"line":1,"distance":1230,"station_id":"DU"},{"station_name":"Tanah Abang","transit":true,"distance":3632,"time":8,"station_id":"THB","i_long":106.811091,"line":1,"is_transit":true,"i_lat":-6.185545},{"transit":false,"i_lat":-6.207404,"distance":3191,"time":6,"is_transit":false,"station_id":"PLM","i_long":106.79689,"line":6,"station_name":"Palmerah"},{"i_lat":-6.237242,"distance":3737,"i_long":106.780334,"time":7,"line":6,"transit":false,"station_id":"KBY","station_name":"Kebayoran","is_transit":false}]]}