{"data":[[{"station_id":"PSE","time":0,"is_transit":false,"i_lat":-6.174784,"transit":false,"distance":0,"i_long":106.84368,"station_name":"Pasar Senen","line":11},{"transit":false,"time":8,"is_transit":false,"line":11,"i_long":106.850107,"i_lat":-6.185975,"station_id":"GST","distance":1567,"station_name":"Gang Sentiong"},{"distance":973,"time":1,"station_id":"KMT","transit":false,"i_lat":-6.193792,"station_name":"Kramat","is_transit":false,"i_long":106.855437,"line":11},{"time":2,"i_long":106.861737,"distance":1829,"line":11,"transit":false,"station_id":"POK","i_lat":-6.209188,"is_transit":false,"station_name":"Pondok Jati"},{"distance":1236,"line":1,"is_transit":true,"station_id":"JNG","transit":true,"time":9,"station_name":"Jatinegara","i_long":106.86807400000001,"i_lat":-6.215091},{"i_lat":-6.2135,"time":3,"station_name":"Klender","is_transit":false,"line":1,"station_id":"KLD","i_long":106.899548,"distance":3395,"transit":false},{"transit":false,"i_lat":-6.215568,"i_long":106.922662,"station_name":"Buaran","is_transit":false,"distance":3100,"line":1,"time":2,"station_id":"BUA"},{"station_name":"Klenderbaru","is_transit":false,"i_lat":-6.217455,"time":1,"i_long":106.939679,"transit":false,"line":1,"distance":1305,"station_id":"KLDB"},{"i_long":106.951283,"distance":1385,"time":8,"transit":false,"i_lat":-6.219053,"is_transit":false,"station_name":"Cakung","line":1,"station_id":"CUK"},{"i_lat":-6.224515,"is_transit":false,"station_id":"KRI","distance":3097,"transit":false,"line":1,"time":3,"i_long":106.977657,"station_name":"Kranji"},{"distance":2520,"station_name":"Bekasi","line":1,"i_lat":-6.236616,"is_transit":false,"i_long":106.997013,"transit":false,"time":4,"station_id":"BKS"},{"station_name":"Bekasi Timur","station_id":"BKST","i_lat":-6.248029,"time":2,"distance":2368,"transit":false,"line":1,"i_long":107.016735,"is_transit":false},{"distance":4460,"line":1,"time":7,"is_transit":false,"transit":false,"station_id":"TB","station_name":"Tambun","i_long":107.055722,"i_lat":-6.258864},{"i_long":107.083084,"i_lat":-6.261877,"station_id":"CIT","time":3,"distance":3420,"transit":false,"is_transit":false,"station_name":"Cibitung","line":1},{"station_name":"Metland Telaga Murni","distance":2800,"line":1,"time":2,"station_id":"TLM","transit":false,"i_lat":-6.262938,"i_long":107.093313,"is_transit":false},{"station_id":"CKR","is_transit":false,"station_name":"Cikarang","i_long":107.144613,"distance":3689,"transit":false,"i_lat":-6.2553149999999995,"time":4,"line":1}],[{"distance":0,"station_id":"PSE","line":11,"is_transit":false,"time":0,"transit":false,"i_long":106.84368,"i_lat":-6.174784,"station_name":"Pasar Senen"},{"transit":false,"line":11,"i_lat":-6.161728,"station_id":"KMO","i_long":106.839204,"time":4,"distance":1436,"station_name":"Kemayoran","is_transit":false},{"transit":false,"i_long":106.836569,"is_transit":false,"line":11,"station_id":"RJW","time":5,"distance":1901,"i_lat":-6.14505,"station_name":"Rajawali"},{"i_lat":-6.132549,"time":3,"station_name":"Kampung Bandan","distance":1444,"transit":true,"i_long":106.826365,"station_id":"KPB","line":4,"is_transit":true},{"line":1,"distance":4102,"time":9,"station_id":"AK","transit":false,"i_lat":-6.144674,"is_transit":false,"i_long":106.79867,"station_name":"Angke"},{"i_long":106.800832,"distance":1230,"station_id":"DU","line":1,"time":4,"is_transit":false,"station_name":"Duri","transit":false,"i_lat":-6.155215},{"station_id":"THB","line":1,"time":8,"distance":3632,"station_name":"Tanah Abang","transit":false,"is_transit":false,"i_lat":-6.185545,"i_long":106.811091},{"station_name":"Karet","i_long":106.816351,"is_transit":false,"line":1,"transit":false,"station_id":"KAT","time":5,"i_lat":-6.20132,"distance":2029},{"is_transit":false,"transit":false,"distance":471,"time":1,"station_name":"Sudirman Baru","i_long":106.819881,"line":1,"i_lat":-6.201433,"station_id":"SUDB"},{"i_long":106.822649,"line":1,"distance":280,"station_id":"SUD","transit":false,"time":1,"station_name":"Sudirman","i_lat":-6.202263,"is_transit":false},{"transit":false,"distance":3186,"station_id":"MRI","station_name":"Manggarai","is_transit":false,"i_lat":-6.209883,"line":2,"time":4,"i_long":106.84912},{"i_lat":-6.212485,"i_long":106.858896,"station_id":"MTR","is_transit":false,"time":2,"distance":1275,"station_name":"Matraman","line":1,"transit":false},{"station_name":"Jatinegara","i_long":106.86807400000001,"distance":1377,"line":1,"station_id":"JNG","time":8,"is_transit":false,"transit":false,"i_lat":-6.215091},{"station_name":"Klender","i_lat":-6.2135,"station_id":"KLD","distance":3395,"time":3,"transit":false,"i_long":106.899548,"is_transit":false,"line":1},{"i_lat":-6.215568,"distance":3100,"transit":false,"i_long":106.922662,"time":2,"station_id":"BUA","station_name":"Buaran","is_transit":false,"line":1},{"time":1,"i_lat":-6.217455,"is_transit":false,"station_id":"KLDB","station_name":"Klenderbaru","line":1,"distance":1305,"i_long":106.939679,"transit":false},{"station_id":"CUK","i_lat":-6.219053,"time":8,"transit":false,"i_long":106.951283,"distance":1385,"station_name":"Cakung","is_transit":false,"line":1},{"time":3,"i_long":106.977657,"station_name":"Kranji","line":1,"station_id":"KRI","distance":3097,"is_transit":false,"transit":false,"i_lat":-6.224515},{"line":1,"station_id":"BKS","i_lat":-6.236616,"i_long":106.997013,"time":4,"station_name":"Bekasi","distance":2520,"transit":false,"is_transit":false},{"station_name":"Bekasi Timur","line":1,"distance":2368,"transit":false,"i_long":107.016735,"i_lat":-6.248029,"time":2,"is_transit":false,"station_id":"BKST"},{"i_long":107.055722,"line":1,"station_name":"Tambun","station_id":"TB","time":7,"transit":false,"is_transit":false,"i_lat":-6.258864,"distance":4460},{"is_transit":false,"station_id":"CIT","time":3,"station_name":"Cibitung","line":1,"i_lat":-6.261877,"transit":false,"i_long":107.083084,"distance":3420},{"is_transit":false,"transit":false,"station_name":"Metland Telaga Murni","i_lat":-6.262938,"time":2,"station_id":"TLM","line":1,"i_long":107.093313,"distance":2800},{"is_transit":false,"distance":3689,"transit":false,"i_lat":-6.2553149999999995,"time":4,"i_long":107.144613,"line":1,"station_name":"Cikarang","station_id":"CKR"}],[{"i_long":106.84368,"distance":0,"i_lat":-6.174784,"line":11,"station_name":"Pasar Senen","station_id":"PSE","is_transit":false,"time":0,"transit":false},{"distance":1436,"station_name":"Kemayoran","transit":false,"i_lat":-6.161728,"i_long":106.839204,"time":4,"is_transit":false,"station_id":"KMO","line":11},{"distance":1901,"transit":false,"station_name":"Rajawali","i_lat":-6.14505,"i_long":106.836569,"is_transit":false,"line":11,"station_id":"RJW","time":5},{"is_transit":true,"station_id":"KPB","distance":1444,"line":4,"transit":true,"i_lat":-6.132549,"station_name":"Kampung Bandan","i_long":106.826365,"time":3},{"i_lat":-6.137569,"station_name":"Jakarta Kota","is_transit":true,"transit":true,"station_id":"JAKK","time":3,"i_long":106.812439,"distance":1364,"line":2},{"i_long":106.820901,"line":2,"station_name":"Jayakarta","is_transit":false,"distance":1264,"station_id":"JAY","time":4,"transit":false,"i_lat":-6.141205},{"time":2,"distance":1080,"transit":false,"i_lat":-6.149769,"is_transit":false,"station_name":"Manggabesar","i_long":106.82482,"line":2,"station_id":"MGB"},{"distance":906,"i_lat":-6.160725,"station_id":"SW","station_name":"Sawah Besar","transit":false,"is_transit":false,"time":2,"i_long":106.827103,"line":2},{"time":2,"line":2,"station_id":"JUA","i_long":106.828284,"is_transit":false,"distance":1149,"transit":false,"station_name":"Juanda","i_lat":-6.166716},{"time":4,"is_transit":false,"station_id":"GDD","station_name":"Gondangdia","i_long":106.832183,"i_lat":-6.186295,"line":2,"transit":false,"distance":2015},{"transit":false,"i_long":106.840169,"i_lat":-6.198556,"is_transit":false,"time":3,"line":2,"station_id":"CKI","station_name":"Cikini","distance":1750},{"i_lat":-6.209883,"time":4,"distance":1590,"transit":true,"i_long":106.84912,"station_id":"MRI","line":2,"station_name":"Manggarai","is_transit":true},{"time":2,"distance":1275,"is_transit":false,"line":1,"station_name":"Matraman","i_lat":-6.212485,"station_id":"MTR","transit":false,"i_long":106.858896},{"distance":1377,"line":1,"i_long":106.86807400000001,"is_transit":false,"transit":false,"station_name":"Jatinegara","station_id":"JNG","i_lat":-6.215091,"time":8},{"i_lat":-6.2135,"transit":false,"time":3,"i_long":106.899548,"station_id":"KLD","distance":3395,"station_name":"Klender","line":1,"is_transit":false},{"line":1,"transit":false,"station_id":"BUA","station_name":"Buaran","i_lat":-6.215568,"distance":3100,"is_transit":false,"i_long":106.922662,"time":2},{"line":1,"transit":false,"i_lat":-6.217455,"is_transit":false,"i_long":106.939679,"station_name":"Klenderbaru","time":1,"distance":1305,"station_id":"KLDB"},{"line":1,"distance":1385,"is_transit":false,"transit":false,"time":8,"station_name":"Cakung","station_id":"CUK","i_lat":-6.219053,"i_long":106.951283},{"i_long":106.977657,"is_transit":false,"line":1,"time":3,"transit":false,"i_lat":-6.224515,"distance":3097,"station_id":"KRI","station_name":"Kranji"},{"distance":2520,"station_name":"Bekasi","station_id":"BKS","i_long":106.997013,"is_transit":false,"line":1,"transit":false,"time":4,"i_lat":-6.236616},{"time":2,"station_id":"BKST","i_long":107.016735,"is_transit":false,"i_lat":-6.248029,"station_name":"Bekasi Timur","transit":false,"line":1,"distance":2368},{"time":7,"transit":false,"station_name":"Tambun","i_lat":-6.258864,"station_id":"TB","i_long":107.055722,"distance":4460,"is_transit":false,"line":1},{"station_name":"Cibitung","station_id":"CIT","line":1,"is_transit":false,"i_lat":-6.261877,"distance":3420,"time":3,"transit":false,"i_long":107.083084},{"line":1,"station_id":"TLM","time":2,"distance":2800,"station_name":"Metland Telaga Murni","is_transit":false,"transit":false,"i_long":107.093313,"i_lat":-6.262938},{"i_lat":-6.2553149999999995,"line":1,"distance":3689,"transit":false,"station_name":"Cikarang","time":4,"is_transit":false,"i_long":107.144613,"station_id":"CKR"}]]}