{"data":[[{"line":11,"is_transit":false,"transit":false,"distance":0,"i_lat":-6.174784,"i_long":106.84368,"station_name":"Pasar Senen","station_id":"PSE","time":0},{"station_id":"KMO","line":11,"time":4,"station_name":"Kemayoran","distance":1436,"i_lat":-6.161728,"i_long":106.839204,"transit":false,"is_transit":false},{"is_transit":false,"line":11,"time":5,"station_id":"RJW","station_name":"Rajawali","i_lat":-6.14505,"i_long":106.836569,"transit":false,"distance":1901},{"transit":true,"station_id":"KPB","i_long":106.826365,"is_transit":true,"station_name":"Kampung Bandan","time":3,"distance":1444,"i_lat":-6.132549,"line":0},{"line":0,"station_name":"Angke","transit":false,"distance":4102,"is_transit":false,"station_id":"AK","time":9,"i_lat":-6.144674,"i_long":106.79867},{"distance":1230,"transit":true,"i_long":106.800832,"time":4,"station_name":"Duri","station_id":"DU","line":1,"is_transit":true,"i_lat":-6.155215},{"transit":false,"time":3,"i_lat":-6.162021,"line":5,"distance":1700,"station_id":"GGL","is_transit":false,"station_name":"Grogol","i_long":106.788277},{"line":5,"time":2,"station_id":"PSG","is_transit":false,"i_long":106.771379,"transit":false,"distance":2036,"i_lat":-6.161433,"station_name":"Pesing"},{"station_name":"Taman Kota","transit":false,"distance":1614,"station_id":"TKO","time":2,"i_lat":-6.1587309999999995,"i_long":106.756522,"is_transit":false,"line":5},{"station_name":"Bojongindah","line":0,"is_transit":false,"i_lat":-6.159876,"transit":false,"time":2,"distance":2334,"station_id":"BOI","i_long":106.737035},{"distance":1152,"time":4,"transit":false,"is_transit":false,"station_id":"RW","i_lat":-6.162758,"i_long":106.723064,"line":5,"station_name":"Rawa Buaya"},{"is_transit":false,"time":3,"i_lat":-6.166068,"transit":false,"station_name":"Kalideres","line":5,"i_long":106.701612,"station_id":"KDS","distance":2504}],[{"distance":0,"transit":false,"i_lat":-6.174784,"station_id":"PSE","time":0,"station_name":"Pasar Senen","i_long":106.84368,"line":11,"is_transit":false},{"station_name":"Gang Sentiong","i_long":106.850107,"i_lat":-6.185975,"transit":false,"is_transit":false,"time":8,"line":11,"station_id":"GST","distance":1567},{"distance":973,"station_name":"Kramat","time":1,"station_id":"KMT","transit":false,"is_transit":false,"i_lat":-6.193792,"line":11,"i_long":106.855437},{"line":11,"time":2,"i_lat":-6.209188,"is_transit":false,"distance":1829,"station_id":"POK","transit":false,"i_long":106.861737,"station_name":"Pondok Jati"},{"line":0,"transit":true,"i_long":106.86807400000001,"station_id":"JNG","time":9,"station_name":"Jatinegara","distance":1236,"is_transit":true,"i_lat":-6.215091},{"station_id":"MTR","is_transit":false,"distance":1377,"transit":false,"station_name":"Matraman","time":2,"i_long":106.858896,"line":1,"i_lat":-6.212485},{"line":0,"distance":1275,"transit":false,"is_transit":true,"time":2,"i_lat":-6.209883,"station_id":"MRI","station_name":"Manggarai","i_long":106.84912},{"line":1,"time":4,"distance":3186,"is_transit":false,"station_id":"SUD","station_name":"Sudirman","transit":false,"i_lat":-6.202263,"i_long":106.822649},{"station_name":"Sudirman Baru","i_lat":-6.201433,"transit":false,"line":1,"station_id":"SUDB","time":1,"i_long":106.819881,"distance":280,"is_transit":false},{"i_lat":-6.20132,"transit":false,"station_id":"KAT","distance":471,"is_transit":false,"line":1,"i_long":106.816351,"time":1,"station_name":"Karet"},{"distance":2029,"i_lat":-6.185545,"i_long":106.811091,"line":1,"is_transit":true,"station_id":"THB","station_name":"Tanah Abang","transit":false,"time":5},{"station_id":"DU","transit":true,"distance":3632,"is_transit":true,"line":1,"station_name":"Duri","time":8,"i_long":106.800832,"i_lat":-6.155215},{"i_lat":-6.162021,"time":3,"station_name":"Grogol","line":5,"is_transit":false,"i_long":106.788277,"distance":1700,"transit":false,"station_id":"GGL"},{"line":5,"time":2,"i_long":106.771379,"station_id":"PSG","is_transit":false,"transit":false,"distance":2036,"station_name":"Pesing","i_lat":-6.161433},{"is_transit":false,"station_id":"TKO","line":5,"time":2,"i_lat":-6.1587309999999995,"i_long":106.756522,"distance":1614,"station_name":"Taman Kota","transit":false},{"distance":2334,"i_lat":-6.159876,"station_name":"Bojongindah","i_long":106.737035,"is_transit":false,"station_id":"BOI","line":0,"transit":false,"time":2},{"transit":false,"distance":1152,"is_transit":false,"station_id":"RW","station_name":"Rawa Buaya","i_lat":-6.162758,"line":5,"time":4,"i_long":106.723064},{"transit":false,"station_name":"Kalideres","time":3,"i_long":106.701612,"station_id":"KDS","i_lat":-6.166068,"distance":2504,"line":5,"is_transit":false}],[{"i_long":106.84368,"station_name":"Pasar Senen","i_lat":-6.174784,"time":0,"line":11,"is_transit":false,"distance":0,"station_id":"PSE","transit":false},{"station_id":"GST","transit":false,"is_transit":false,"station_name":"Gang Sentiong","i_long":106.850107,"time":8,"i_lat":-6.185975,"line":11,"distance":1567},{"is_transit":false,"station_name":"Kramat","i_long":106.855437,"station_id":"KMT","transit":false,"i_lat":-6.193792,"time":1,"line":11,"distance":973},{"time":2,"line":11,"distance":1829,"is_transit":false,"transit":false,"i_long":106.861737,"station_name":"Pondok Jati","i_lat":-6.209188,"station_id":"POK"},{"station_id":"JNG","line":0,"is_transit":true,"i_lat":-6.215091,"time":9,"i_long":106.86807400000001,"distance":1236,"station_name":"Jatinegara","transit":true},{"station_name":"Matraman","line":1,"is_transit":false,"time":2,"i_long":106.858896,"transit":false,"i_lat":-6.212485,"distance":1377,"station_id":"MTR"},{"i_long":106.84912,"distance":1275,"is_transit":true,"transit":true,"line":0,"time":2,"station_id":"MRI","station_name":"Manggarai","i_lat":-6.209883},{"i_lat":-6.198556,"line":0,"station_id":"CKI","station_name":"Cikini","time":4,"distance":1590,"transit":false,"i_long":106.840169,"is_transit":false},{"distance":1750,"i_long":106.832183,"station_name":"Gondangdia","time":3,"i_lat":-6.186295,"is_transit":false,"line":2,"transit":false,"station_id":"GDD"},{"station_name":"Juanda","distance":2015,"time":4,"i_lat":-6.166716,"transit":false,"station_id":"JUA","i_long":106.828284,"is_transit":false,"line":2},{"distance":1149,"is_transit":false,"time":2,"line":2,"i_lat":-6.160725,"i_long":106.827103,"station_name":"Sawah Besar","station_id":"SW","transit":false},{"i_long":106.82482,"time":2,"is_transit":false,"line":2,"station_name":"Manggabesar","i_lat":-6.149769,"distance":906,"station_id":"MGB","transit":false},{"i_lat":-6.141205,"transit":false,"i_long":106.820901,"line":7,"is_transit":false,"distance":1080,"station_name":"Jayakarta","station_id":"JAY","time":2},{"station_id":"JAKK","time":4,"i_lat":-6.137569,"distance":1264,"station_name":"Jakarta Kota","transit":true,"i_long":106.812439,"is_transit":true,"line":0},{"is_transit":true,"time":3,"i_lat":-6.132549,"i_long":106.826365,"station_name":"Kampung Bandan","transit":false,"line":0,"distance":1364,"station_id":"KPB"},{"station_id":"AK","distance":4102,"i_long":106.79867,"station_name":"Angke","is_transit":false,"line":0,"i_lat":-6.144674,"transit":false,"time":9},{"i_lat":-6.155215,"is_transit":true,"i_long":106.800832,"station_id":"DU","distance":1230,"time":4,"line":1,"station_name":"Duri","transit":true},{"i_lat":-6.162021,"station_id":"GGL","i_long":106.788277,"station_name":"Grogol","is_transit":false,"transit":false,"line":5,"distance":1700,"time":3},{"time":2,"station_id":"PSG","i_long":106.771379,"distance":2036,"transit":false,"is_transit":false,"line":5,"i_lat":-6.161433,"station_name":"Pesing"},{"station_id":"TKO","is_transit":false,"time":2,"line":5,"i_lat":-6.1587309999999995,"transit":false,"distance":1614,"station_name":"Taman Kota","i_long":106.756522},{"station_id":"BOI","transit":false,"distance":2334,"station_name":"Bojongindah","is_transit":false,"time":2,"line":0,"i_lat":-6.159876,"i_long":106.737035},{"time":4,"station_id":"RW","is_transit":false,"i_lat":-6.162758,"station_name":"Rawa Buaya","i_long":106.723064,"distance":1152,"transit":false,"line":5},{"station_id":"KDS","line":5,"distance":2504,"i_lat":-6.166068,"is_transit":false,"station_name":"Kalideres","i_long":106.701612,"transit":false,"time":3}],[{"is_transit":false,"i_long":106.84368,"time":0,"station_id":"PSE","i_lat":-6.174784,"station_name":"Pasar Senen","distance":0,"transit":false,"line":11},{"transit":false,"time":4,"station_name":"Kemayoran","line":11,"is_transit":false,"i_long":106.839204,"distance":1436,"i_lat":-6.161728,"station_id":"KMO"},{"distance":1901,"transit":false,"i_long":106.836569,"station_id":"RJW","is_transit":false,"station_name":"Rajawali","i_lat":-6.14505,"time":5,"line":11},{"i_lat":-6.132549,"i_long":106.826365,"time":3,"line":0,"distance":1444,"station_name":"Kampung Bandan","station_id":"KPB","is_transit":true,"transit":true},{"is_transit":true,"station_id":"JAKK","transit":true,"i_long":106.812439,"time":3,"distance":1364,"station_name":"Jakarta Kota","i_lat":-6.137569,"line":0},{"time":4,"transit":false,"line":7,"i_long":106.820901,"i_lat":-6.141205,"is_transit":false,"distance":1264,"station_id":"JAY","station_name":"Jayakarta"},{"station_id":"MGB","i_long":106.82482,"line":2,"station_name":"Manggabesar","i_lat":-6.149769,"time":2,"transit":false,"distance":1080,"is_transit":false},{"time":2,"line":2,"transit":false,"i_lat":-6.160725,"station_id":"SW","distance":906,"i_long":106.827103,"station_name":"Sawah Besar","is_transit":false},{"distance":1149,"i_lat":-6.166716,"time":2,"line":2,"is_transit":false,"station_id":"JUA","transit":false,"i_long":106.828284,"station_name":"Juanda"},{"time":4,"is_transit":false,"transit":false,"distance":2015,"station_id":"GDD","station_name":"Gondangdia","i_lat":-6.186295,"line":2,"i_long":106.832183},{"time":3,"line":0,"is_transit":false,"distance":1750,"i_long":106.840169,"station_name":"Cikini","i_lat":-6.198556,"transit":false,"station_id":"CKI"},{"station_id":"MRI","station_name":"Manggarai","transit":true,"time":4,"distance":1590,"i_long":106.84912,"line":0,"is_transit":true,"i_lat":-6.209883},{"line":1,"i_long":106.822649,"time":4,"transit":false,"distance":3186,"i_lat":-6.202263,"is_transit":false,"station_id":"SUD","station_name":"Sudirman"},{"station_name":"Sudirman Baru","time":1,"line":1,"is_transit":false,"station_id":"SUDB","i_lat":-6.201433,"transit":false,"i_long":106.819881,"distance":280},{"line":1,"i_long":106.816351,"is_transit":false,"i_lat":-6.20132,"distance":471,"time":1,"transit":false,"station_name":"Karet","station_id":"KAT"},{"station_id":"THB","time":5,"i_long":106.811091,"station_name":"Tanah Abang","line":1,"i_lat":-6.185545,"is_transit":true,"distance":2029,"transit":false},{"line":1,"station_name":"Duri","distance":3632,"transit":true,"is_transit":true,"time":8,"i_lat":-6.155215,"i_long":106.800832,"station_id":"DU"},{"transit":false,"distance":1700,"is_transit":false,"station_id":"GGL","time":3,"i_lat":-6.162021,"i_long":106.788277,"station_name":"Grogol","line":5},{"distance":2036,"i_long":106.771379,"is_transit":false,"station_name":"Pesing","station_id":"PSG","time":2,"i_lat":-6.161433,"transit":false,"line":5},{"distance":1614,"is_transit":false,"station_id":"TKO","i_long":106.756522,"station_name":"Taman Kota","transit":false,"time":2,"i_lat":-6.1587309999999995,"line":5},{"station_name":"Bojongindah","i_lat":-6.159876,"station_id":"BOI","distance":2334,"transit":false,"time":2,"is_transit":false,"line":0,"i_long":106.737035},{"time":4,"i_lat":-6.162758,"distance":1152,"station_name":"Rawa Buaya","is_transit":false,"transit":false,"i_long":106.723064,"station_id":"RW","line":5},{"i_long":106.701612,"is_transit":false,"distance":2504,"line":5,"time":3,"i_lat":-6.166068,"station_name":"Kalideres","station_id":"KDS","transit":false}]]}