{"data":[[{"time":0,"i_long":106.84368,"line":11,"i_lat":-6.174784,"station_name":"Pasar Senen","transit":false,"is_transit":false,"station_id":"PSE","distance":0},{"time":4,"i_lat":-6.161728,"i_long":106.839204,"line":11,"is_transit":false,"station_id":"KMO","distance":1436,"station_name":"Kemayoran","transit":false},{"station_id":"RJW","distance":1901,"station_name":"Rajawali","is_transit":false,"time":5,"i_lat":-6.14505,"i_long":106.836569,"line":11,"transit":false},{"i_long":106.826365,"transit":true,"distance":1444,"station_name":"Kampung Bandan","is_transit":true,"i_lat":-6.132549,"line":0,"station_id":"KPB","time":3},{"i_lat":-6.128023,"line":0,"transit":false,"distance":2185,"is_transit":false,"time":4,"i_long":106.84464,"station_id":"AC","station_name":"Ancol"}],[{"is_transit":false,"station_id":"PSE","i_lat":-6.174784,"transit":false,"time":0,"i_long":106.84368,"station_name":"Pasar Senen","distance":0,"line":11},{"i_lat":-6.185975,"station_name":"Gang Sentiong","line":11,"i_long":106.850107,"distance":1567,"is_transit":false,"station_id":"GST","time":8,"transit":false},{"distance":973,"is_transit":false,"line":11,"station_name":"Kramat","station_id":"KMT","i_lat":-6.193792,"i_long":106.855437,"transit":false,"time":1},{"distance":1829,"is_transit":false,"line":11,"station_id":"POK","i_long":106.861737,"time":2,"transit":false,"station_name":"Pondok Jati","i_lat":-6.209188},{"distance":1236,"i_long":106.86807400000001,"time":9,"line":0,"i_lat":-6.215091,"station_name":"Jatinegara","station_id":"JNG","transit":true,"is_transit":true},{"station_id":"MTR","station_name":"Matraman","distance":1377,"is_transit":false,"i_long":106.858896,"line":1,"transit":false,"time":2,"i_lat":-6.212485},{"transit":false,"line":0,"i_long":106.84912,"distance":1275,"i_lat":-6.209883,"time":2,"station_id":"MRI","is_transit":true,"station_name":"Manggarai"},{"station_id":"SUD","line":1,"transit":false,"station_name":"Sudirman","i_long":106.822649,"i_lat":-6.202263,"distance":3186,"time":4,"is_transit":false},{"i_lat":-6.201433,"line":1,"distance":280,"is_transit":false,"station_name":"Sudirman Baru","station_id":"SUDB","transit":false,"time":1,"i_long":106.819881},{"station_id":"KAT","transit":false,"i_long":106.816351,"station_name":"Karet","time":1,"is_transit":false,"i_lat":-6.20132,"line":1,"distance":471},{"i_lat":-6.185545,"station_id":"THB","distance":2029,"time":5,"i_long":106.811091,"transit":false,"line":1,"station_name":"Tanah Abang","is_transit":true},{"transit":true,"distance":3632,"is_transit":true,"time":8,"i_long":106.800832,"line":1,"station_id":"DU","station_name":"Duri","i_lat":-6.155215},{"time":4,"station_id":"AK","transit":false,"i_lat":-6.144674,"i_long":106.79867,"distance":1230,"station_name":"Angke","line":0,"is_transit":false},{"line":0,"station_id":"KPB","station_name":"Kampung Bandan","time":9,"i_lat":-6.132549,"i_long":106.826365,"distance":4102,"is_transit":true,"transit":false},{"i_long":106.84464,"line":0,"station_name":"Ancol","i_lat":-6.128023,"is_transit":false,"station_id":"AC","time":4,"transit":false,"distance":2185}],[{"is_transit":false,"transit":false,"distance":0,"i_long":106.84368,"station_name":"Pasar Senen","i_lat":-6.174784,"time":0,"station_id":"PSE","line":11},{"transit":false,"is_transit":false,"i_long":106.850107,"station_name":"Gang Sentiong","time":8,"line":11,"station_id":"GST","i_lat":-6.185975,"distance":1567},{"time":1,"is_transit":false,"transit":false,"i_long":106.855437,"line":11,"station_id":"KMT","station_name":"Kramat","i_lat":-6.193792,"distance":973},{"is_transit":false,"i_long":106.861737,"transit":false,"time":2,"distance":1829,"station_name":"Pondok Jati","station_id":"POK","line":11,"i_lat":-6.209188},{"i_long":106.86807400000001,"station_name":"Jatinegara","is_transit":true,"i_lat":-6.215091,"line":0,"distance":1236,"station_id":"JNG","transit":true,"time":9},{"time":2,"i_lat":-6.212485,"line":1,"i_long":106.858896,"is_transit":false,"transit":false,"distance":1377,"station_id":"MTR","station_name":"Matraman"},{"station_name":"Manggarai","distance":1275,"is_transit":true,"transit":true,"time":2,"i_lat":-6.209883,"i_long":106.84912,"line":0,"station_id":"MRI"},{"station_name":"Cikini","transit":false,"station_id":"CKI","is_transit":false,"distance":1590,"i_lat":-6.198556,"i_long":106.840169,"line":0,"time":4},{"distance":1750,"time":3,"station_name":"Gondangdia","i_long":106.832183,"is_transit":false,"transit":false,"line":2,"station_id":"GDD","i_lat":-6.186295},{"i_lat":-6.166716,"station_id":"JUA","transit":false,"is_transit":false,"i_long":106.828284,"time":4,"distance":2015,"line":2,"station_name":"Juanda"},{"station_name":"Sawah Besar","line":2,"transit":false,"time":2,"i_lat":-6.160725,"i_long":106.827103,"is_transit":false,"distance":1149,"station_id":"SW"},{"station_name":"Manggabesar","i_long":106.82482,"transit":false,"i_lat":-6.149769,"station_id":"MGB","distance":906,"time":2,"line":2,"is_transit":false},{"station_name":"Jayakarta","line":7,"i_lat":-6.141205,"transit":false,"time":2,"i_long":106.820901,"station_id":"JAY","is_transit":false,"distance":1080},{"i_long":106.812439,"station_name":"Jakarta Kota","distance":1264,"time":4,"is_transit":true,"i_lat":-6.137569,"line":0,"transit":true,"station_id":"JAKK"},{"station_id":"KPB","is_transit":true,"distance":1364,"station_name":"Kampung Bandan","i_lat":-6.132549,"transit":false,"time":3,"i_long":106.826365,"line":0},{"is_transit":false,"distance":2185,"station_id":"AC","transit":false,"i_long":106.84464,"i_lat":-6.128023,"station_name":"Ancol","time":4,"line":0}]]}