{"data":[[{"line":11,"station_name":"Pasar Senen","i_lat":-6.174784,"time":0,"transit":false,"distance":0,"is_transit":false,"station_id":"PSE","i_long":106.84368},{"distance":1567,"line":11,"i_lat":-6.185975,"transit":false,"is_transit":false,"station_name":"Gang Sentiong","time":8,"i_long":106.850107,"station_id":"GST"},{"transit":false,"i_lat":-6.193792,"is_transit":false,"station_name":"Kramat","i_long":106.855437,"distance":973,"time":1,"station_id":"KMT","line":11},{"line":11,"station_name":"Pondok Jati","station_id":"POK","time":2,"is_transit":false,"distance":1829,"i_lat":-6.209188,"transit":false,"i_long":106.861737},{"station_id":"JNG","distance":1236,"station_name":"Jatinegara","i_lat":-6.215091,"line":1,"i_long":106.86807400000001,"is_transit":true,"transit":true,"time":9},{"is_transit":false,"i_lat":-6.212485,"line":1,"distance":1377,"transit":false,"i_long":106.858896,"station_id":"MTR","time":2,"station_name":"Matraman"},{"is_transit":true,"transit":true,"i_lat":-6.209883,"line":2,"time":2,"distance":1275,"station_id":"MRI","station_name":"Manggarai","i_long":106.84912},{"line":2,"i_long":106.857948,"is_transit":false,"time":4,"distance":2610,"station_name":"Tebet","i_lat":-6.226659,"transit":false,"station_id":"TEB"},{"station_id":"CW","i_lat":-6.242512,"transit":false,"station_name":"Cawang","is_transit":false,"line":2,"i_long":106.856607,"distance":1230,"time":2},{"i_lat":-6.255332,"transit":false,"distance":1546,"i_long":106.85449,"time":3,"station_id":"DRN","is_transit":false,"line":2,"station_name":"Duren Kalibata"},{"station_name":"Pasar Minggu Baru","line":2,"time":2,"i_long":106.851577,"i_lat":-6.263214,"is_transit":false,"station_id":"PSMB","transit":false,"distance":824},{"line":2,"i_lat":-6.2842400000000005,"time":2,"transit":false,"distance":2380,"is_transit":false,"i_long":106.843999,"station_id":"PSM","station_name":"Pasar Minggu"},{"distance":2820,"i_lat":-6.3080680000000005,"is_transit":false,"station_id":"TNT","transit":false,"station_name":"Tanjung Barat","time":4,"i_long":106.838896,"line":2}],[{"is_transit":false,"i_long":106.84368,"station_id":"PSE","station_name":"Pasar Senen","transit":false,"i_lat":-6.174784,"line":11,"time":0,"distance":0},{"station_name":"Kemayoran","i_lat":-6.161728,"time":4,"transit":false,"station_id":"KMO","line":11,"distance":1436,"is_transit":false,"i_long":106.839204},{"distance":1901,"time":5,"is_transit":false,"i_long":106.836569,"i_lat":-6.14505,"station_id":"RJW","station_name":"Rajawali","transit":false,"line":11},{"distance":1444,"station_name":"Kampung Bandan","station_id":"KPB","i_long":106.826365,"is_transit":true,"transit":true,"line":4,"i_lat":-6.132549,"time":3},{"i_long":106.79867,"i_lat":-6.144674,"line":1,"station_id":"AK","transit":false,"station_name":"Angke","distance":4102,"is_transit":false,"time":9},{"time":4,"i_lat":-6.155215,"station_id":"DU","is_transit":false,"transit":false,"i_long":106.800832,"station_name":"Duri","line":1,"distance":1230},{"time":8,"transit":false,"i_lat":-6.185545,"distance":3632,"is_transit":false,"station_name":"Tanah Abang","i_long":106.811091,"line":1,"station_id":"THB"},{"is_transit":false,"station_id":"KAT","i_lat":-6.20132,"station_name":"Karet","line":1,"time":5,"transit":false,"distance":2029,"i_long":106.816351},{"transit":false,"i_lat":-6.201433,"distance":471,"time":1,"i_long":106.819881,"is_transit":false,"line":1,"station_id":"SUDB","station_name":"Sudirman Baru"},{"transit":false,"i_lat":-6.202263,"station_name":"Sudirman","time":1,"is_transit":false,"line":1,"distance":280,"station_id":"SUD","i_long":106.822649},{"i_lat":-6.209883,"distance":3186,"is_transit":true,"station_name":"Manggarai","station_id":"MRI","time":4,"line":2,"transit":true,"i_long":106.84912},{"i_long":106.857948,"station_name":"Tebet","transit":false,"line":2,"is_transit":false,"time":4,"i_lat":-6.226659,"distance":2610,"station_id":"TEB"},{"station_name":"Cawang","line":2,"i_long":106.856607,"distance":1230,"time":2,"station_id":"CW","i_lat":-6.242512,"is_transit":false,"transit":false},{"i_long":106.85449,"i_lat":-6.255332,"station_name":"Duren Kalibata","station_id":"DRN","distance":1546,"line":2,"time":3,"is_transit":false,"transit":false},{"i_lat":-6.263214,"time":2,"station_name":"Pasar Minggu Baru","i_long":106.851577,"is_transit":false,"distance":824,"line":2,"station_id":"PSMB","transit":false},{"station_name":"Pasar Minggu","line":2,"time":2,"i_lat":-6.2842400000000005,"is_transit":false,"i_long":106.843999,"distance":2380,"transit":false,"station_id":"PSM"},{"transit":false,"distance":2820,"is_transit":false,"i_long":106.838896,"i_lat":-6.3080680000000005,"station_id":"TNT","station_name":"Tanjung Barat","time":4,"line":2}],[{"i_lat":-6.174784,"station_id":"PSE","distance":0,"i_long":106.84368,"line":11,"station_name":"Pasar Senen","is_transit":false,"transit":false,"time":0},{"time":4,"transit":false,"distance":1436,"i_long":106.839204,"i_lat":-6.161728,"is_transit":false,"station_id":"KMO","station_name":"Kemayoran","line":11},{"station_id":"RJW","time":5,"i_lat":-6.14505,"is_transit":false,"line":11,"i_long":106.836569,"transit":false,"station_name":"Rajawali","distance":1901},{"i_long":106.826365,"line":4,"is_transit":true,"distance":1444,"transit":true,"station_name":"Kampung Bandan","station_id":"KPB","time":3,"i_lat":-6.132549},{"transit":true,"is_transit":true,"distance":1364,"station_id":"JAKK","time":3,"station_name":"Jakarta Kota","line":2,"i_long":106.812439,"i_lat":-6.137569},{"distance":1264,"transit":false,"station_name":"Jayakarta","station_id":"JAY","i_long":106.820901,"is_transit":false,"time":4,"i_lat":-6.141205,"line":2},{"time":2,"station_id":"MGB","i_long":106.82482,"transit":false,"line":2,"is_transit":false,"i_lat":-6.149769,"distance":1080,"station_name":"Manggabesar"},{"line":2,"transit":false,"station_id":"SW","is_transit":false,"station_name":"Sawah Besar","i_lat":-6.160725,"time":2,"i_long":106.827103,"distance":906},{"distance":1149,"is_transit":false,"i_lat":-6.166716,"line":2,"transit":false,"time":2,"station_name":"Juanda","i_long":106.828284,"station_id":"JUA"},{"is_transit":false,"i_long":106.832183,"line":2,"station_name":"Gondangdia","time":4,"station_id":"GDD","distance":2015,"transit":false,"i_lat":-6.186295},{"is_transit":false,"distance":1750,"time":3,"line":2,"station_id":"CKI","transit":false,"station_name":"Cikini","i_lat":-6.198556,"i_long":106.840169},{"is_transit":false,"station_id":"MRI","i_long":106.84912,"line":2,"distance":1590,"i_lat":-6.209883,"station_name":"Manggarai","time":4,"transit":false},{"station_name":"Tebet","transit":false,"line":2,"is_transit":false,"station_id":"TEB","distance":2610,"i_lat":-6.226659,"i_long":106.857948,"time":4},{"line":2,"distance":1230,"time":2,"station_name":"Cawang","i_lat":-6.242512,"station_id":"CW","i_long":106.856607,"transit":false,"is_transit":false},{"is_transit":false,"distance":1546,"time":3,"transit":false,"station_id":"DRN","i_long":106.85449,"line":2,"station_name":"Duren Kalibata","i_lat":-6.255332},{"station_id":"PSMB","line":2,"i_lat":-6.263214,"is_transit":false,"transit":false,"time":2,"distance":824,"station_name":"Pasar Minggu Baru","i_long":106.851577},{"transit":false,"station_name":"Pasar Minggu","i_lat":-6.2842400000000005,"line":2,"time":2,"is_transit":false,"distance":2380,"station_id":"PSM","i_long":106.843999},{"i_lat":-6.3080680000000005,"i_long":106.838896,"station_id":"TNT","is_transit":false,"transit":false,"station_name":"Tanjung Barat","distance":2820,"line":2,"time":4}]]}