{"data":[[{"distance":0,"i_long":106.84368,"transit":false,"station_id":"PSE","station_name":"Pasar Senen","time":0,"is_transit":false,"line":11,"i_lat":-6.174784},{"i_lat":-6.161728,"station_id":"KMO","time":4,"transit":false,"distance":1436,"station_name":"Kemayoran","is_transit":false,"line":11,"i_long":106.839204},{"distance":1901,"i_long":106.836569,"line":11,"transit":false,"station_id":"RJW","is_transit":false,"i_lat":-6.14505,"station_name":"Rajawali","time":5},{"station_id":"KPB","station_name":"Kampung Bandan","i_lat":-6.132549,"transit":true,"line":4,"is_transit":true,"i_long":106.826365,"time":3,"distance":1444},{"station_name":"Angke","is_transit":false,"i_long":106.79867,"station_id":"AK","time":9,"line":1,"distance":4102,"i_lat":-6.144674,"transit":false},{"i_lat":-6.155215,"line":1,"station_name":"Duri","distance":1230,"is_transit":false,"station_id":"DU","transit":false,"time":4,"i_long":106.800832},{"station_name":"Tanah Abang","line":1,"distance":3632,"time":8,"station_id":"THB","is_transit":true,"i_long":106.811091,"i_lat":-6.185545,"transit":true},{"transit":false,"station_id":"PLM","distance":3191,"station_name":"Palmerah","i_lat":-6.207404,"line":6,"is_transit":false,"time":6,"i_long":106.79689}],[{"transit":false,"time":0,"i_long":106.84368,"is_transit":false,"station_id":"PSE","distance":0,"i_lat":-6.174784,"line":11,"station_name":"Pasar Senen"},{"distance":1567,"i_lat":-6.185975,"i_long":106.850107,"time":8,"is_transit":false,"station_id":"GST","station_name":"Gang Sentiong","line":11,"transit":false},{"i_lat":-6.193792,"time":1,"distance":973,"is_transit":false,"i_long":106.855437,"station_id":"KMT","transit":false,"station_name":"Kramat","line":11},{"station_name":"Pondok Jati","distance":1829,"is_transit":false,"transit":false,"time":2,"line":11,"i_long":106.861737,"station_id":"POK","i_lat":-6.209188},{"i_long":106.86807400000001,"is_transit":true,"station_id":"JNG","transit":true,"time":9,"distance":1236,"station_name":"Jatinegara","i_lat":-6.215091,"line":1},{"station_name":"Matraman","is_transit":false,"station_id":"MTR","time":2,"transit":false,"i_lat":-6.212485,"i_long":106.858896,"distance":1377,"line":1},{"is_transit":false,"distance":1275,"transit":false,"station_id":"MRI","station_name":"Manggarai","i_lat":-6.209883,"time":2,"i_long":106.84912,"line":2},{"station_name":"Sudirman","time":4,"i_lat":-6.202263,"transit":false,"is_transit":false,"distance":3186,"i_long":106.822649,"line":1,"station_id":"SUD"},{"distance":280,"i_long":106.819881,"station_id":"SUDB","line":1,"station_name":"Sudirman Baru","time":1,"transit":false,"is_transit":false,"i_lat":-6.201433},{"i_long":106.816351,"line":1,"distance":471,"station_name":"Karet","is_transit":false,"time":1,"i_lat":-6.20132,"transit":false,"station_id":"KAT"},{"transit":true,"station_name":"Tanah Abang","i_long":106.811091,"is_transit":true,"station_id":"THB","i_lat":-6.185545,"distance":2029,"time":5,"line":1},{"transit":false,"station_id":"PLM","i_long":106.79689,"station_name":"Palmerah","is_transit":false,"distance":3191,"line":6,"i_lat":-6.207404,"time":6}],[{"station_id":"PSE","transit":false,"time":0,"station_name":"Pasar Senen","is_transit":false,"line":11,"distance":0,"i_long":106.84368,"i_lat":-6.174784},{"i_long":106.839204,"transit":false,"time":4,"distance":1436,"is_transit":false,"line":11,"station_id":"KMO","i_lat":-6.161728,"station_name":"Kemayoran"},{"is_transit":false,"i_lat":-6.14505,"station_name":"Rajawali","i_long":106.836569,"transit":false,"distance":1901,"time":5,"line":11,"station_id":"RJW"},{"is_transit":true,"i_long":106.826365,"distance":1444,"transit":true,"i_lat":-6.132549,"time":3,"line":4,"station_id":"KPB","station_name":"Kampung Bandan"},{"time":3,"line":2,"station_id":"JAKK","station_name":"Jakarta Kota","i_lat":-6.137569,"i_long":106.812439,"transit":true,"is_transit":true,"distance":1364},{"is_transit":false,"line":2,"transit":false,"station_id":"JAY","station_name":"Jayakarta","i_lat":-6.141205,"time":4,"i_long":106.820901,"distance":1264},{"station_id":"MGB","i_long":106.82482,"time":2,"distance":1080,"transit":false,"line":2,"i_lat":-6.149769,"station_name":"Manggabesar","is_transit":false},{"station_name":"Sawah Besar","transit":false,"station_id":"SW","i_lat":-6.160725,"time":2,"distance":906,"line":2,"is_transit":false,"i_long":106.827103},{"station_id":"JUA","i_lat":-6.166716,"line":2,"time":2,"i_long":106.828284,"distance":1149,"transit":false,"is_transit":false,"station_name":"Juanda"},{"i_long":106.832183,"line":2,"distance":2015,"transit":false,"station_name":"Gondangdia","time":4,"is_transit":false,"i_lat":-6.186295,"station_id":"GDD"},{"line":2,"i_lat":-6.198556,"distance":1750,"transit":false,"time":3,"station_id":"CKI","is_transit":false,"i_long":106.840169,"station_name":"Cikini"},{"distance":1590,"is_transit":true,"time":4,"station_name":"Manggarai","i_long":106.84912,"transit":true,"i_lat":-6.209883,"line":2,"station_id":"MRI"},{"station_name":"Sudirman","station_id":"SUD","is_transit":false,"transit":false,"i_lat":-6.202263,"time":4,"distance":3186,"i_long":106.822649,"line":1},{"time":1,"i_lat":-6.201433,"is_transit":false,"transit":false,"i_long":106.819881,"station_name":"Sudirman Baru","line":1,"distance":280,"station_id":"SUDB"},{"time":1,"i_long":106.816351,"transit":false,"station_id":"KAT","line":1,"i_lat":-6.20132,"distance":471,"station_name":"Karet","is_transit":false},{"transit":true,"is_transit":true,"time":5,"i_long":106.811091,"station_name":"Tanah Abang","station_id":"THB","i_lat":-6.185545,"distance":2029,"line":1},{"station_name":"Palmerah","time":6,"transit":false,"is_transit":false,"i_lat":-6.207404,"i_long":106.79689,"station_id":"PLM","distance":3191,"line":6}],[{"line":11,"station_name":"Pasar Senen","i_lat":-6.174784,"transit":false,"is_transit":false,"time":0,"distance":0,"station_id":"PSE","i_long":106.84368},{"distance":1567,"is_transit":false,"transit":false,"station_name":"Gang Sentiong","station_id":"GST","time":8,"i_lat":-6.185975,"i_long":106.850107,"line":11},{"i_long":106.855437,"station_name":"Kramat","distance":973,"station_id":"KMT","time":1,"transit":false,"is_transit":false,"i_lat":-6.193792,"line":11},{"distance":1829,"transit":false,"is_transit":false,"line":11,"time":2,"station_id":"POK","i_lat":-6.209188,"station_name":"Pondok Jati","i_long":106.861737},{"time":9,"distance":1236,"i_long":106.86807400000001,"transit":true,"is_transit":true,"line":1,"i_lat":-6.215091,"station_id":"JNG","station_name":"Jatinegara"},{"i_lat":-6.212485,"station_id":"MTR","is_transit":false,"transit":false,"time":2,"distance":1377,"station_name":"Matraman","i_long":106.858896,"line":1},{"i_long":106.84912,"transit":true,"is_transit":true,"line":2,"station_id":"MRI","time":2,"station_name":"Manggarai","distance":1275,"i_lat":-6.209883},{"i_long":106.840169,"distance":1590,"transit":false,"line":2,"station_name":"Cikini","station_id":"CKI","time":4,"i_lat":-6.198556,"is_transit":false},{"station_id":"GDD","line":2,"distance":1750,"station_name":"Gondangdia","time":3,"transit":false,"is_transit":false,"i_lat":-6.186295,"i_long":106.832183},{"i_long":106.828284,"station_name":"Juanda","i_lat":-6.166716,"transit":false,"distance":2015,"station_id":"JUA","is_transit":false,"time":4,"line":2},{"time":2,"is_transit":false,"i_lat":-6.160725,"station_id":"SW","line":2,"transit":false,"i_long":106.827103,"station_name":"Sawah Besar","distance":1149},{"distance":906,"transit":false,"i_long":106.82482,"is_transit":false,"i_lat":-6.149769,"line":2,"time":2,"station_id":"MGB","station_name":"Manggabesar"},{"station_name":"Jayakarta","line":2,"time":2,"distance":1080,"transit":false,"i_lat":-6.141205,"is_transit":false,"station_id":"JAY","i_long":106.820901},{"transit":true,"station_name":"Jakarta Kota","station_id":"JAKK","time":4,"i_long":106.812439,"i_lat":-6.137569,"line":2,"is_transit":true,"distance":1264},{"is_transit":true,"line":4,"i_long":106.826365,"i_lat":-6.132549,"distance":1364,"time":3,"station_name":"Kampung Bandan","transit":true,"station_id":"KPB"},{"time":9,"i_lat":-6.144674,"distance":4102,"station_name":"Angke","transit":false,"is_transit":false,"i_long":106.79867,"line":1,"station_id":"AK"},{"i_long":106.800832,"station_id":"DU","is_transit":false,"transit":false,"station_name":"Duri","time":4,"distance":1230,"i_lat":-6.155215,"line":1},{"i_lat":-6.185545,"distance":3632,"transit":true,"time":8,"i_long":106.811091,"station_id":"THB","line":1,"station_name":"Tanah Abang","is_transit":true},{"time":6,"line":6,"distance":3191,"i_long":106.79689,"i_lat":-6.207404,"station_id":"PLM","station_name":"Palmerah","transit":false,"is_transit":false}]]}