{"data":[[{"line":11,"distance":0,"i_lat":-6.174784,"station_name":"Pasar Senen","transit":false,"station_id":"PSE","time":0,"i_long":106.84368,"is_transit":false},{"line":11,"distance":1436,"station_id":"KMO","transit":false,"time":4,"i_lat":-6.161728,"is_transit":false,"i_long":106.839204,"station_name":"Kemayoran"},{"time":5,"station_id":"RJW","station_name":"Rajawali","is_transit":false,"i_lat":-6.14505,"transit":false,"i_long":106.836569,"distance":1901,"line":11},{"distance":1444,"station_id":"KPB","station_name":"Kampung Bandan","is_transit":true,"i_long":106.826365,"transit":true,"line":0,"i_lat":-6.132549,"time":3},{"is_transit":false,"station_id":"AK","station_name":"Angke","transit":false,"i_lat":-6.144674,"time":9,"line":0,"i_long":106.79867,"distance":4102},{"time":4,"distance":1230,"station_name":"Duri","transit":true,"i_long":106.800832,"i_lat":-6.155215,"station_id":"DU","line":1,"is_transit":true},{"station_name":"Tanah Abang","line":1,"i_long":106.811091,"is_transit":true,"transit":true,"time":8,"i_lat":-6.185545,"station_id":"THB","distance":3632},{"is_transit":false,"i_long":106.79689,"transit":false,"i_lat":-6.207404,"distance":3191,"time":6,"station_name":"Palmerah","station_id":"PLM","line":6},{"i_lat":-6.237242,"distance":3737,"station_id":"KBY","station_name":"Kebayoran","line":6,"transit":false,"is_transit":false,"i_long":106.780334,"time":7},{"line":6,"distance":6218,"station_id":"PDJ","transit":false,"station_name":"Pondokranji","i_lat":-6.276362,"time":8,"is_transit":false,"i_long":106.74273},{"i_lat":-6.288927,"is_transit":false,"distance":2179,"time":3,"line":6,"station_id":"JMU","transit":false,"station_name":"Jurangmangu","i_long":106.728916},{"station_id":"SDM","station_name":"Sudimara","i_long":106.712277,"distance":1994,"line":6,"is_transit":false,"transit":false,"time":4,"i_lat":-6.296963},{"line":6,"is_transit":false,"i_long":106.675475,"station_id":"RU","i_lat":-6.314823,"station_name":"Rawa Buntu","transit":false,"distance":4566,"time":6},{"station_name":"Serpong","distance":2413,"i_lat":-6.319871,"i_long":106.66566,"transit":false,"station_id":"SRP","line":6,"is_transit":false,"time":4},{"time":4,"i_lat":-6.32484,"distance":1784,"station_id":"CSK","station_name":"Cisauk","i_long":106.640411,"transit":false,"is_transit":false,"line":0},{"is_transit":false,"station_id":"CC","station_name":"Cicayur","time":4,"i_lat":-6.329547,"transit":false,"distance":2519,"line":0,"i_long":106.617853},{"line":6,"station_id":"PRP","i_lat":-6.3441410000000005,"i_long":106.568863,"is_transit":false,"transit":false,"distance":5968,"station_name":"Parung Panjang","time":8},{"transit":false,"distance":7025,"station_id":"CJT","i_lat":-6.354349,"i_long":106.508482,"station_name":"Cilejit","line":0,"is_transit":false,"time":9},{"station_name":"Daru","time":6,"distance":2675,"i_long":106.491338,"i_lat":-6.338021,"line":0,"is_transit":false,"station_id":"DAR","transit":false}],[{"distance":0,"station_id":"PSE","i_long":106.84368,"time":0,"transit":false,"is_transit":false,"i_lat":-6.174784,"station_name":"Pasar Senen","line":11},{"is_transit":false,"i_long":106.850107,"transit":false,"i_lat":-6.185975,"station_name":"Gang Sentiong","time":8,"line":11,"distance":1567,"station_id":"GST"},{"transit":false,"is_transit":false,"station_id":"KMT","time":1,"i_lat":-6.193792,"station_name":"Kramat","distance":973,"line":11,"i_long":106.855437},{"distance":1829,"station_id":"POK","time":2,"transit":false,"line":11,"station_name":"Pondok Jati","i_long":106.861737,"i_lat":-6.209188,"is_transit":false},{"i_lat":-6.215091,"time":9,"line":0,"transit":true,"station_id":"JNG","station_name":"Jatinegara","is_transit":true,"i_long":106.86807400000001,"distance":1236},{"time":2,"i_long":106.858896,"is_transit":false,"distance":1377,"line":1,"station_id":"MTR","transit":false,"station_name":"Matraman","i_lat":-6.212485},{"is_transit":true,"station_name":"Manggarai","station_id":"MRI","transit":false,"i_long":106.84912,"distance":1275,"time":2,"i_lat":-6.209883,"line":0},{"time":4,"station_name":"Sudirman","transit":false,"line":1,"distance":3186,"is_transit":false,"i_lat":-6.202263,"i_long":106.822649,"station_id":"SUD"},{"station_id":"SUDB","transit":false,"distance":280,"line":1,"i_lat":-6.201433,"is_transit":false,"station_name":"Sudirman Baru","i_long":106.819881,"time":1},{"station_id":"KAT","i_lat":-6.20132,"distance":471,"station_name":"Karet","is_transit":false,"transit":false,"time":1,"i_long":106.816351,"line":1},{"transit":true,"line":1,"i_long":106.811091,"distance":2029,"station_name":"Tanah Abang","time":5,"is_transit":true,"i_lat":-6.185545,"station_id":"THB"},{"station_id":"PLM","i_long":106.79689,"distance":3191,"transit":false,"line":6,"time":6,"is_transit":false,"i_lat":-6.207404,"station_name":"Palmerah"},{"is_transit":false,"time":7,"i_long":106.780334,"station_name":"Kebayoran","i_lat":-6.237242,"station_id":"KBY","line":6,"transit":false,"distance":3737},{"station_id":"PDJ","station_name":"Pondokranji","distance":6218,"is_transit":false,"i_long":106.74273,"transit":false,"line":6,"time":8,"i_lat":-6.276362},{"line":6,"station_id":"JMU","is_transit":false,"station_name":"Jurangmangu","time":3,"i_lat":-6.288927,"i_long":106.728916,"transit":false,"distance":2179},{"station_name":"Sudimara","i_lat":-6.296963,"i_long":106.712277,"is_transit":false,"station_id":"SDM","line":6,"time":4,"distance":1994,"transit":false},{"time":6,"i_lat":-6.314823,"distance":4566,"line":6,"station_id":"RU","station_name":"Rawa Buntu","is_transit":false,"i_long":106.675475,"transit":false},{"station_id":"SRP","station_name":"Serpong","i_lat":-6.319871,"transit":false,"is_transit":false,"distance":2413,"time":4,"i_long":106.66566,"line":6},{"distance":1784,"station_name":"Cisauk","time":4,"is_transit":false,"station_id":"CSK","transit":false,"i_lat":-6.32484,"i_long":106.640411,"line":0},{"i_lat":-6.329547,"is_transit":false,"line":0,"station_id":"CC","station_name":"Cicayur","i_long":106.617853,"distance":2519,"transit":false,"time":4},{"station_id":"PRP","transit":false,"distance":5968,"time":8,"i_lat":-6.3441410000000005,"is_transit":false,"i_long":106.568863,"line":6,"station_name":"Parung Panjang"},{"station_id":"CJT","i_long":106.508482,"is_transit":false,"transit":false,"i_lat":-6.354349,"line":0,"time":9,"station_name":"Cilejit","distance":7025},{"is_transit":false,"line":0,"i_lat":-6.338021,"station_id":"DAR","station_name":"Daru","transit":false,"time":6,"i_long":106.491338,"distance":2675}],[{"i_long":106.84368,"line":11,"transit":false,"i_lat":-6.174784,"station_id":"PSE","distance":0,"is_transit":false,"station_name":"Pasar Senen","time":0},{"time":4,"transit":false,"station_id":"KMO","i_lat":-6.161728,"line":11,"is_transit":false,"distance":1436,"i_long":106.839204,"station_name":"Kemayoran"},{"station_id":"RJW","is_transit":false,"i_long":106.836569,"line":11,"distance":1901,"station_name":"Rajawali","i_lat":-6.14505,"time":5,"transit":false},{"station_id":"KPB","distance":1444,"transit":true,"time":3,"station_name":"Kampung Bandan","i_lat":-6.132549,"i_long":106.826365,"is_transit":true,"line":0},{"is_transit":true,"station_name":"Jakarta Kota","line":0,"transit":true,"i_lat":-6.137569,"i_long":106.812439,"distance":1364,"station_id":"JAKK","time":3},{"is_transit":false,"station_id":"JAY","line":7,"transit":false,"i_lat":-6.141205,"distance":1264,"i_long":106.820901,"time":4,"station_name":"Jayakarta"},{"distance":1080,"i_long":106.82482,"is_transit":false,"transit":false,"station_name":"Manggabesar","time":2,"i_lat":-6.149769,"line":2,"station_id":"MGB"},{"time":2,"is_transit":false,"i_long":106.827103,"distance":906,"line":2,"i_lat":-6.160725,"station_name":"Sawah Besar","transit":false,"station_id":"SW"},{"i_long":106.828284,"is_transit":false,"distance":1149,"i_lat":-6.166716,"transit":false,"station_id":"JUA","station_name":"Juanda","time":2,"line":2},{"distance":2015,"station_id":"GDD","is_transit":false,"i_long":106.832183,"line":2,"time":4,"transit":false,"station_name":"Gondangdia","i_lat":-6.186295},{"i_lat":-6.198556,"transit":false,"time":3,"i_long":106.840169,"line":0,"distance":1750,"station_id":"CKI","station_name":"Cikini","is_transit":false},{"i_long":106.84912,"time":4,"station_name":"Manggarai","i_lat":-6.209883,"transit":true,"is_transit":true,"line":0,"distance":1590,"station_id":"MRI"},{"line":1,"is_transit":false,"station_name":"Sudirman","distance":3186,"transit":false,"time":4,"station_id":"SUD","i_lat":-6.202263,"i_long":106.822649},{"i_long":106.819881,"line":1,"station_id":"SUDB","station_name":"Sudirman Baru","is_transit":false,"time":1,"distance":280,"transit":false,"i_lat":-6.201433},{"station_id":"KAT","is_transit":false,"transit":false,"time":1,"i_lat":-6.20132,"i_long":106.816351,"distance":471,"line":1,"station_name":"Karet"},{"line":1,"is_transit":true,"i_lat":-6.185545,"time":5,"i_long":106.811091,"station_id":"THB","station_name":"Tanah Abang","distance":2029,"transit":true},{"station_name":"Palmerah","station_id":"PLM","transit":false,"i_lat":-6.207404,"is_transit":false,"distance":3191,"time":6,"i_long":106.79689,"line":6},{"is_transit":false,"i_long":106.780334,"distance":3737,"time":7,"station_id":"KBY","station_name":"Kebayoran","line":6,"transit":false,"i_lat":-6.237242},{"station_id":"PDJ","line":6,"station_name":"Pondokranji","i_long":106.74273,"distance":6218,"is_transit":false,"transit":false,"i_lat":-6.276362,"time":8},{"line":6,"is_transit":false,"i_lat":-6.288927,"station_id":"JMU","station_name":"Jurangmangu","transit":false,"time":3,"distance":2179,"i_long":106.728916},{"time":4,"is_transit":false,"i_long":106.712277,"line":6,"distance":1994,"station_id":"SDM","station_name":"Sudimara","transit":false,"i_lat":-6.296963},{"station_name":"Rawa Buntu","i_lat":-6.314823,"time":6,"line":6,"transit":false,"i_long":106.675475,"is_transit":false,"distance":4566,"station_id":"RU"},{"is_transit":false,"station_name":"Serpong","time":4,"distance":2413,"station_id":"SRP","i_lat":-6.319871,"i_long":106.66566,"transit":false,"line":6},{"station_name":"Cisauk","i_lat":-6.32484,"transit":false,"i_long":106.640411,"line":0,"distance":1784,"is_transit":false,"time":4,"station_id":"CSK"},{"distance":2519,"time":4,"transit":false,"is_transit":false,"i_lat":-6.329547,"station_name":"Cicayur","station_id":"CC","line":0,"i_long":106.617853},{"time":8,"i_lat":-6.3441410000000005,"distance":5968,"station_id":"PRP","station_name":"Parung Panjang","i_long":106.568863,"transit":false,"line":6,"is_transit":false},{"distance":7025,"is_transit":false,"transit":false,"station_id":"CJT","station_name":"Cilejit","time":9,"i_long":106.508482,"i_lat":-6.354349,"line":0},{"line":0,"i_lat":-6.338021,"station_name":"Daru","i_long":106.491338,"is_transit":false,"time":6,"station_id":"DAR","transit":false,"distance":2675}],[{"transit":false,"i_lat":-6.174784,"station_id":"PSE","i_long":106.84368,"distance":0,"line":11,"time":0,"station_name":"Pasar Senen","is_transit":false},{"transit":false,"i_lat":-6.185975,"station_name":"Gang Sentiong","line":11,"distance":1567,"time":8,"station_id":"GST","is_transit":false,"i_long":106.850107},{"distance":973,"i_lat":-6.193792,"line":11,"station_id":"KMT","transit":false,"is_transit":false,"station_name":"Kramat","i_long":106.855437,"time":1},{"station_id":"POK","station_name":"Pondok Jati","transit":false,"time":2,"distance":1829,"is_transit":false,"i_long":106.861737,"line":11,"i_lat":-6.209188},{"line":0,"is_transit":true,"station_id":"JNG","i_lat":-6.215091,"station_name":"Jatinegara","time":9,"transit":true,"i_long":106.86807400000001,"distance":1236},{"transit":false,"i_lat":-6.212485,"i_long":106.858896,"line":1,"station_id":"MTR","time":2,"distance":1377,"is_transit":false,"station_name":"Matraman"},{"distance":1275,"time":2,"i_long":106.84912,"station_name":"Manggarai","transit":true,"is_transit":true,"i_lat":-6.209883,"line":0,"station_id":"MRI"},{"i_lat":-6.198556,"time":4,"station_name":"Cikini","station_id":"CKI","line":0,"transit":false,"is_transit":false,"i_long":106.840169,"distance":1590},{"is_transit":false,"time":3,"i_long":106.832183,"line":2,"i_lat":-6.186295,"distance":1750,"station_name":"Gondangdia","transit":false,"station_id":"GDD"},{"time":4,"i_long":106.828284,"transit":false,"i_lat":-6.166716,"distance":2015,"is_transit":false,"station_id":"JUA","line":2,"station_name":"Juanda"},{"station_name":"Sawah Besar","station_id":"SW","i_long":106.827103,"transit":false,"line":2,"is_transit":false,"time":2,"i_lat":-6.160725,"distance":1149},{"station_id":"MGB","time":2,"i_long":106.82482,"is_transit":false,"station_name":"Manggabesar","line":2,"i_lat":-6.149769,"transit":false,"distance":906},{"line":7,"i_lat":-6.141205,"station_id":"JAY","i_long":106.820901,"is_transit":false,"station_name":"Jayakarta","distance":1080,"time":2,"transit":false},{"is_transit":true,"i_long":106.812439,"i_lat":-6.137569,"line":0,"station_id":"JAKK","time":4,"distance":1264,"station_name":"Jakarta Kota","transit":true},{"station_id":"KPB","time":3,"is_transit":true,"distance":1364,"i_lat":-6.132549,"line":0,"station_name":"Kampung Bandan","transit":false,"i_long":106.826365},{"distance":4102,"line":0,"station_id":"AK","i_lat":-6.144674,"station_name":"Angke","is_transit":false,"transit":false,"time":9,"i_long":106.79867},{"time":4,"station_name":"Duri","transit":true,"distance":1230,"i_lat":-6.155215,"station_id":"DU","is_transit":true,"i_long":106.800832,"line":1},{"station_name":"Tanah Abang","i_long":106.811091,"is_transit":true,"line":1,"transit":true,"time":8,"distance":3632,"i_lat":-6.185545,"station_id":"THB"},{"station_name":"Palmerah","line":6,"i_long":106.79689,"time":6,"distance":3191,"transit":false,"is_transit":false,"station_id":"PLM","i_lat":-6.207404},{"is_transit":false,"i_lat":-6.237242,"station_id":"KBY","distance":3737,"transit":false,"time":7,"i_long":106.780334,"station_name":"Kebayoran","line":6},{"station_id":"PDJ","distance":6218,"i_lat":-6.276362,"i_long":106.74273,"time":8,"line":6,"station_name":"Pondokranji","transit":false,"is_transit":false},{"i_long":106.728916,"distance":2179,"station_id":"JMU","station_name":"Jurangmangu","is_transit":false,"line":6,"transit":false,"time":3,"i_lat":-6.288927},{"is_transit":false,"i_long":106.712277,"i_lat":-6.296963,"time":4,"distance":1994,"station_name":"Sudimara","transit":false,"line":6,"station_id":"SDM"},{"transit":false,"distance":4566,"is_transit":false,"time":6,"station_id":"RU","i_long":106.675475,"line":6,"station_name":"Rawa Buntu","i_lat":-6.314823},{"station_id":"SRP","transit":false,"i_long":106.66566,"line":6,"distance":2413,"time":4,"station_name":"Serpong","i_lat":-6.319871,"is_transit":false},{"i_lat":-6.32484,"distance":1784,"is_transit":false,"station_name":"Cisauk","line":0,"i_long":106.640411,"station_id":"CSK","transit":false,"time":4},{"station_id":"CC","i_lat":-6.329547,"is_transit":false,"line":0,"time":4,"distance":2519,"station_name":"Cicayur","transit":false,"i_long":106.617853},{"distance":5968,"i_long":106.568863,"is_transit":false,"transit":false,"station_name":"Parung Panjang","line":6,"station_id":"PRP","time":8,"i_lat":-6.3441410000000005},{"time":9,"distance":7025,"line":0,"is_transit":false,"station_id":"CJT","station_name":"Cilejit","i_lat":-6.354349,"i_long":106.508482,"transit":false},{"distance":2675,"station_id":"DAR","line":0,"i_long":106.491338,"i_lat":-6.338021,"transit":false,"is_transit":false,"time":6,"station_name":"Daru"}]]}