{"data":[[{"i_lat":-6.174784,"distance":0,"station_id":"PSE","station_name":"Pasar Senen","transit":false,"time":0,"i_long":106.84368,"is_transit":false,"line":11},{"is_transit":false,"i_long":106.850107,"station_id":"GST","distance":1567,"line":11,"time":8,"transit":false,"station_name":"Gang Sentiong","i_lat":-6.185975},{"line":11,"station_name":"Kramat","i_long":106.855437,"distance":973,"is_transit":false,"station_id":"KMT","transit":false,"time":1,"i_lat":-6.193792},{"is_transit":false,"i_lat":-6.209188,"distance":1829,"time":2,"i_long":106.861737,"station_name":"Pondok Jati","transit":false,"station_id":"POK","line":11},{"distance":1236,"time":9,"i_long":106.86807400000001,"line":0,"station_id":"JNG","transit":true,"is_transit":true,"station_name":"Jatinegara","i_lat":-6.215091},{"time":2,"line":1,"distance":1377,"i_long":106.858896,"is_transit":false,"i_lat":-6.212485,"transit":false,"station_id":"MTR","station_name":"Matraman"},{"station_id":"MRI","time":2,"i_long":106.84912,"is_transit":true,"i_lat":-6.209883,"line":0,"distance":1275,"station_name":"Manggarai","transit":true},{"i_lat":-6.226659,"is_transit":false,"station_name":"Tebet","i_long":106.857948,"distance":2610,"station_id":"TEB","transit":false,"line":2,"time":4},{"time":2,"station_id":"CW","distance":1230,"i_long":106.856607,"i_lat":-6.242512,"transit":false,"line":0,"is_transit":false,"station_name":"Cawang"},{"i_long":106.85449,"distance":1546,"is_transit":false,"line":0,"station_name":"Duren Kalibata","i_lat":-6.255332,"station_id":"DRN","time":3,"transit":false},{"station_name":"Pasar Minggu Baru","transit":false,"i_lat":-6.263214,"line":2,"distance":824,"station_id":"PSMB","is_transit":false,"i_long":106.851577,"time":2},{"distance":2380,"i_lat":-6.2842400000000005,"line":2,"i_long":106.843999,"station_name":"Pasar Minggu","transit":false,"is_transit":false,"station_id":"PSM","time":2},{"station_id":"TNT","is_transit":false,"i_lat":-6.3080680000000005,"line":2,"transit":false,"distance":2820,"i_long":106.838896,"time":4,"station_name":"Tanjung Barat"},{"station_name":"Lenteng Agung","line":2,"i_long":106.832616,"is_transit":false,"distance":2671,"station_id":"LNA","time":3,"i_lat":-6.330363,"transit":false},{"i_lat":-6.339291,"line":2,"time":2,"transit":false,"distance":1029,"is_transit":false,"i_long":106.834175,"station_id":"UP","station_name":"Univ. Pancasila"}],[{"i_long":106.84368,"station_id":"PSE","time":0,"is_transit":false,"i_lat":-6.174784,"station_name":"Pasar Senen","distance":0,"line":11,"transit":false},{"station_name":"Kemayoran","time":4,"i_long":106.839204,"transit":false,"i_lat":-6.161728,"distance":1436,"station_id":"KMO","is_transit":false,"line":11},{"station_id":"RJW","line":11,"is_transit":false,"time":5,"distance":1901,"i_long":106.836569,"transit":false,"station_name":"Rajawali","i_lat":-6.14505},{"is_transit":true,"i_lat":-6.132549,"transit":true,"station_name":"Kampung Bandan","distance":1444,"time":3,"i_long":106.826365,"line":0,"station_id":"KPB"},{"line":0,"i_long":106.79867,"is_transit":false,"station_id":"AK","time":9,"station_name":"Angke","transit":false,"i_lat":-6.144674,"distance":4102},{"station_id":"DU","time":4,"station_name":"Duri","is_transit":true,"transit":true,"i_lat":-6.155215,"i_long":106.800832,"line":1,"distance":1230},{"distance":3632,"is_transit":true,"line":1,"station_id":"THB","station_name":"Tanah Abang","transit":false,"i_lat":-6.185545,"i_long":106.811091,"time":8},{"transit":false,"line":1,"station_id":"KAT","station_name":"Karet","is_transit":false,"distance":2029,"i_long":106.816351,"time":5,"i_lat":-6.20132},{"station_id":"SUDB","station_name":"Sudirman Baru","distance":471,"i_long":106.819881,"time":1,"i_lat":-6.201433,"line":1,"transit":false,"is_transit":false},{"is_transit":false,"transit":false,"line":1,"station_id":"SUD","time":1,"station_name":"Sudirman","i_lat":-6.202263,"distance":280,"i_long":106.822649},{"time":4,"distance":3186,"i_long":106.84912,"station_name":"Manggarai","transit":true,"is_transit":true,"i_lat":-6.209883,"line":0,"station_id":"MRI"},{"distance":2610,"i_long":106.857948,"station_id":"TEB","i_lat":-6.226659,"is_transit":false,"line":2,"station_name":"Tebet","time":4,"transit":false},{"time":2,"distance":1230,"station_id":"CW","transit":false,"station_name":"Cawang","line":0,"is_transit":false,"i_lat":-6.242512,"i_long":106.856607},{"is_transit":false,"i_lat":-6.255332,"i_long":106.85449,"line":0,"distance":1546,"station_id":"DRN","time":3,"station_name":"Duren Kalibata","transit":false},{"distance":824,"line":2,"station_name":"Pasar Minggu Baru","transit":false,"i_long":106.851577,"station_id":"PSMB","is_transit":false,"time":2,"i_lat":-6.263214},{"is_transit":false,"time":2,"i_long":106.843999,"line":2,"station_name":"Pasar Minggu","i_lat":-6.2842400000000005,"transit":false,"station_id":"PSM","distance":2380},{"station_name":"Tanjung Barat","station_id":"TNT","distance":2820,"time":4,"i_long":106.838896,"transit":false,"i_lat":-6.3080680000000005,"line":2,"is_transit":false},{"i_lat":-6.330363,"station_id":"LNA","transit":false,"is_transit":false,"station_name":"Lenteng Agung","time":3,"line":2,"distance":2671,"i_long":106.832616},{"line":2,"station_id":"UP","i_long":106.834175,"transit":false,"is_transit":false,"distance":1029,"station_name":"Univ. Pancasila","i_lat":-6.339291,"time":2}],[{"line":11,"station_name":"Pasar Senen","time":0,"i_long":106.84368,"is_transit":false,"transit":false,"i_lat":-6.174784,"station_id":"PSE","distance":0},{"station_id":"KMO","transit":false,"station_name":"Kemayoran","i_long":106.839204,"is_transit":false,"i_lat":-6.161728,"line":11,"distance":1436,"time":4},{"i_lat":-6.14505,"station_id":"RJW","time":5,"line":11,"distance":1901,"is_transit":false,"i_long":106.836569,"station_name":"Rajawali","transit":false},{"transit":true,"i_long":106.826365,"station_id":"KPB","is_transit":true,"distance":1444,"time":3,"station_name":"Kampung Bandan","i_lat":-6.132549,"line":0},{"time":3,"distance":1364,"i_long":106.812439,"i_lat":-6.137569,"transit":true,"station_name":"Jakarta Kota","is_transit":true,"station_id":"JAKK","line":0},{"distance":1264,"station_id":"JAY","is_transit":false,"transit":false,"i_lat":-6.141205,"time":4,"i_long":106.820901,"station_name":"Jayakarta","line":7},{"station_name":"Manggabesar","transit":false,"station_id":"MGB","time":2,"i_long":106.82482,"line":2,"distance":1080,"i_lat":-6.149769,"is_transit":false},{"station_id":"SW","transit":false,"i_long":106.827103,"time":2,"station_name":"Sawah Besar","i_lat":-6.160725,"distance":906,"line":2,"is_transit":false},{"distance":1149,"station_id":"JUA","is_transit":false,"i_lat":-6.166716,"i_long":106.828284,"transit":false,"station_name":"Juanda","line":2,"time":2},{"time":4,"i_lat":-6.186295,"i_long":106.832183,"line":2,"distance":2015,"station_id":"GDD","station_name":"Gondangdia","is_transit":false,"transit":false},{"i_lat":-6.198556,"time":3,"i_long":106.840169,"line":0,"distance":1750,"station_name":"Cikini","is_transit":false,"station_id":"CKI","transit":false},{"i_lat":-6.209883,"line":0,"transit":true,"time":4,"station_name":"Manggarai","distance":1590,"i_long":106.84912,"station_id":"MRI","is_transit":true},{"station_id":"TEB","station_name":"Tebet","i_lat":-6.226659,"i_long":106.857948,"line":2,"transit":false,"is_transit":false,"distance":2610,"time":4},{"is_transit":false,"transit":false,"i_lat":-6.242512,"station_id":"CW","i_long":106.856607,"station_name":"Cawang","line":0,"distance":1230,"time":2},{"i_long":106.85449,"station_id":"DRN","station_name":"Duren Kalibata","transit":false,"line":0,"is_transit":false,"i_lat":-6.255332,"time":3,"distance":1546},{"i_long":106.851577,"time":2,"line":2,"station_name":"Pasar Minggu Baru","transit":false,"distance":824,"station_id":"PSMB","i_lat":-6.263214,"is_transit":false},{"i_lat":-6.2842400000000005,"distance":2380,"transit":false,"station_name":"Pasar Minggu","line":2,"station_id":"PSM","time":2,"is_transit":false,"i_long":106.843999},{"distance":2820,"station_name":"Tanjung Barat","line":2,"is_transit":false,"i_lat":-6.3080680000000005,"i_long":106.838896,"time":4,"station_id":"TNT","transit":false},{"i_long":106.832616,"i_lat":-6.330363,"line":2,"station_name":"Lenteng Agung","station_id":"LNA","transit":false,"distance":2671,"time":3,"is_transit":false},{"station_name":"Univ. Pancasila","distance":1029,"is_transit":false,"line":2,"time":2,"i_lat":-6.339291,"transit":false,"i_long":106.834175,"station_id":"UP"}]]}