{"data":[[{"is_transit":false,"time":0,"station_name":"Pasar Senen","station_id":"PSE","i_lat":-6.174784,"distance":0,"i_long":106.84368,"transit":false,"line":11},{"transit":false,"station_name":"Kemayoran","distance":1436,"line":11,"i_long":106.839204,"is_transit":false,"time":4,"station_id":"KMO","i_lat":-6.161728},{"transit":false,"station_name":"Rajawali","station_id":"RJW","is_transit":false,"i_lat":-6.14505,"i_long":106.836569,"distance":1901,"line":11,"time":5},{"transit":true,"time":3,"line":4,"i_long":106.826365,"station_name":"Kampung Bandan","is_transit":true,"distance":1444,"i_lat":-6.132549,"station_id":"KPB"},{"line":2,"is_transit":true,"time":3,"distance":1364,"transit":true,"i_long":106.812439,"station_name":"Jakarta Kota","station_id":"JAKK","i_lat":-6.137569},{"distance":1264,"time":4,"is_transit":false,"station_id":"JAY","i_lat":-6.141205,"i_long":106.820901,"line":2,"transit":false,"station_name":"Jayakarta"}],[{"i_lat":-6.174784,"i_long":106.84368,"is_transit":false,"distance":0,"line":11,"time":0,"station_id":"PSE","station_name":"Pasar Senen","transit":false},{"line":11,"station_name":"Gang Sentiong","distance":1567,"time":8,"is_transit":false,"transit":false,"station_id":"GST","i_lat":-6.185975,"i_long":106.850107},{"is_transit":false,"transit":false,"station_id":"KMT","time":1,"station_name":"Kramat","i_lat":-6.193792,"distance":973,"i_long":106.855437,"line":11},{"station_name":"Pondok Jati","distance":1829,"is_transit":false,"i_lat":-6.209188,"time":2,"transit":false,"i_long":106.861737,"station_id":"POK","line":11},{"station_name":"Jatinegara","time":9,"distance":1236,"is_transit":true,"transit":true,"station_id":"JNG","i_lat":-6.215091,"line":1,"i_long":106.86807400000001},{"station_id":"MTR","line":1,"time":2,"transit":false,"station_name":"Matraman","i_long":106.858896,"distance":1377,"is_transit":false,"i_lat":-6.212485},{"station_id":"MRI","transit":true,"i_lat":-6.209883,"i_long":106.84912,"is_transit":true,"line":2,"station_name":"Manggarai","time":2,"distance":1275},{"time":4,"i_lat":-6.198556,"i_long":106.840169,"station_name":"Cikini","is_transit":false,"line":2,"transit":false,"station_id":"CKI","distance":1590},{"i_long":106.832183,"is_transit":false,"station_id":"GDD","transit":false,"i_lat":-6.186295,"station_name":"Gondangdia","line":2,"distance":1750,"time":3},{"distance":2015,"is_transit":false,"transit":false,"station_id":"JUA","time":4,"line":2,"station_name":"Juanda","i_long":106.828284,"i_lat":-6.166716},{"line":2,"time":2,"i_long":106.827103,"is_transit":false,"distance":1149,"transit":false,"station_name":"Sawah Besar","i_lat":-6.160725,"station_id":"SW"},{"i_long":106.82482,"is_transit":false,"transit":false,"time":2,"line":2,"distance":906,"station_id":"MGB","i_lat":-6.149769,"station_name":"Manggabesar"},{"i_lat":-6.141205,"line":2,"is_transit":false,"station_name":"Jayakarta","i_long":106.820901,"transit":false,"distance":1080,"station_id":"JAY","time":2}],[{"is_transit":false,"station_name":"Pasar Senen","transit":false,"line":11,"time":0,"i_lat":-6.174784,"distance":0,"station_id":"PSE","i_long":106.84368},{"time":8,"station_name":"Gang Sentiong","station_id":"GST","i_lat":-6.185975,"distance":1567,"is_transit":false,"i_long":106.850107,"line":11,"transit":false},{"station_id":"KMT","i_lat":-6.193792,"station_name":"Kramat","i_long":106.855437,"time":1,"distance":973,"transit":false,"is_transit":false,"line":11},{"i_lat":-6.209188,"transit":false,"i_long":106.861737,"line":11,"distance":1829,"station_name":"Pondok Jati","station_id":"POK","time":2,"is_transit":false},{"transit":true,"i_long":106.86807400000001,"station_id":"JNG","time":9,"is_transit":true,"i_lat":-6.215091,"station_name":"Jatinegara","line":1,"distance":1236},{"transit":false,"is_transit":false,"line":1,"station_id":"MTR","time":2,"station_name":"Matraman","distance":1377,"i_lat":-6.212485,"i_long":106.858896},{"time":2,"is_transit":false,"station_name":"Manggarai","station_id":"MRI","transit":false,"distance":1275,"i_lat":-6.209883,"line":2,"i_long":106.84912},{"distance":3186,"i_long":106.822649,"line":1,"is_transit":false,"station_id":"SUD","station_name":"Sudirman","time":4,"transit":false,"i_lat":-6.202263},{"time":1,"transit":false,"line":1,"i_long":106.819881,"station_name":"Sudirman Baru","station_id":"SUDB","distance":280,"i_lat":-6.201433,"is_transit":false},{"station_name":"Karet","station_id":"KAT","time":1,"i_lat":-6.20132,"transit":false,"distance":471,"is_transit":false,"i_long":106.816351,"line":1},{"i_long":106.811091,"is_transit":false,"station_id":"THB","transit":false,"distance":2029,"i_lat":-6.185545,"line":1,"time":5,"station_name":"Tanah Abang"},{"i_lat":-6.155215,"station_id":"DU","time":8,"distance":3632,"transit":false,"is_transit":false,"i_long":106.800832,"station_name":"Duri","line":1},{"station_name":"Angke","station_id":"AK","time":4,"distance":1230,"i_lat":-6.144674,"i_long":106.79867,"is_transit":false,"line":1,"transit":false},{"i_long":106.826365,"station_id":"KPB","i_lat":-6.132549,"time":9,"line":4,"is_transit":true,"station_name":"Kampung Bandan","transit":true,"distance":4102},{"line":2,"time":3,"distance":1364,"transit":true,"is_transit":true,"station_name":"Jakarta Kota","i_lat":-6.137569,"i_long":106.812439,"station_id":"JAKK"},{"is_transit":false,"transit":false,"time":4,"i_long":106.820901,"distance":1264,"i_lat":-6.141205,"station_name":"Jayakarta","station_id":"JAY","line":2}],[{"is_transit":false,"time":0,"distance":0,"i_long":106.84368,"station_id":"PSE","line":11,"station_name":"Pasar Senen","transit":false,"i_lat":-6.174784},{"station_name":"Kemayoran","time":4,"transit":false,"i_lat":-6.161728,"station_id":"KMO","line":11,"i_long":106.839204,"is_transit":false,"distance":1436},{"station_id":"RJW","is_transit":false,"i_long":106.836569,"i_lat":-6.14505,"distance":1901,"station_name":"Rajawali","time":5,"line":11,"transit":false},{"line":4,"is_transit":true,"station_name":"Kampung Bandan","station_id":"KPB","transit":true,"distance":1444,"i_long":106.826365,"time":3,"i_lat":-6.132549},{"line":1,"i_long":106.79867,"station_name":"Angke","transit":false,"is_transit":false,"i_lat":-6.144674,"distance":4102,"time":9,"station_id":"AK"},{"i_long":106.800832,"line":1,"station_name":"Duri","distance":1230,"time":4,"i_lat":-6.155215,"transit":false,"station_id":"DU","is_transit":false},{"station_name":"Tanah Abang","line":1,"distance":3632,"is_transit":false,"i_long":106.811091,"station_id":"THB","time":8,"transit":false,"i_lat":-6.185545},{"station_name":"Karet","transit":false,"is_transit":false,"station_id":"KAT","distance":2029,"i_long":106.816351,"line":1,"time":5,"i_lat":-6.20132},{"i_long":106.819881,"is_transit":false,"time":1,"transit":false,"station_id":"SUDB","line":1,"station_name":"Sudirman Baru","distance":471,"i_lat":-6.201433},{"i_long":106.822649,"transit":false,"is_transit":false,"distance":280,"line":1,"time":1,"station_id":"SUD","station_name":"Sudirman","i_lat":-6.202263},{"is_transit":true,"time":4,"station_name":"Manggarai","i_lat":-6.209883,"line":2,"transit":true,"station_id":"MRI","i_long":106.84912,"distance":3186},{"i_long":106.840169,"is_transit":false,"distance":1590,"i_lat":-6.198556,"transit":false,"line":2,"station_id":"CKI","time":4,"station_name":"Cikini"},{"time":3,"distance":1750,"i_lat":-6.186295,"i_long":106.832183,"station_name":"Gondangdia","station_id":"GDD","is_transit":false,"line":2,"transit":false},{"distance":2015,"i_long":106.828284,"transit":false,"station_id":"JUA","time":4,"i_lat":-6.166716,"is_transit":false,"station_name":"Juanda","line":2},{"transit":false,"is_transit":false,"distance":1149,"line":2,"station_id":"SW","i_lat":-6.160725,"station_name":"Sawah Besar","time":2,"i_long":106.827103},{"transit":false,"i_lat":-6.149769,"is_transit":false,"distance":906,"line":2,"time":2,"station_name":"Manggabesar","station_id":"MGB","i_long":106.82482},{"distance":1080,"line":2,"i_long":106.820901,"transit":false,"i_lat":-6.141205,"station_name":"Jayakarta","station_id":"JAY","is_transit":false,"time":2}]]}