{"data":[[{"time":0,"i_lat":-6.174784,"transit":false,"i_long":106.84368,"station_name":"Pasar Senen","line":11,"is_transit":false,"distance":0,"station_id":"PSE"},{"station_id":"GST","i_lat":-6.185975,"i_long":106.850107,"station_name":"Gang Sentiong","is_transit":false,"time":8,"distance":1567,"transit":false,"line":11},{"i_lat":-6.193792,"is_transit":false,"i_long":106.855437,"line":11,"station_name":"Kramat","station_id":"KMT","transit":false,"time":1,"distance":973}],[{"station_name":"Pasar Senen","distance":0,"transit":false,"i_lat":-6.174784,"line":11,"station_id":"PSE","is_transit":false,"time":0,"i_long":106.84368},{"time":4,"station_name":"Kemayoran","transit":false,"i_lat":-6.161728,"distance":1436,"station_id":"KMO","line":11,"i_long":106.839204,"is_transit":false},{"station_name":"Rajawali","transit":false,"time":5,"line":11,"station_id":"RJW","is_transit":false,"i_long":106.836569,"distance":1901,"i_lat":-6.14505},{"station_name":"Kampung Bandan","distance":1444,"transit":true,"is_transit":true,"i_lat":-6.132549,"line":0,"i_long":106.826365,"station_id":"KPB","time":3},{"is_transit":false,"station_name":"Angke","transit":false,"station_id":"AK","i_long":106.79867,"line":0,"i_lat":-6.144674,"distance":4102,"time":9},{"distance":1230,"time":4,"station_id":"DU","i_long":106.800832,"line":1,"is_transit":true,"station_name":"Duri","transit":true,"i_lat":-6.155215},{"i_lat":-6.185545,"i_long":106.811091,"time":8,"station_name":"Tanah Abang","transit":false,"is_transit":true,"line":1,"station_id":"THB","distance":3632},{"transit":false,"station_id":"KAT","distance":2029,"time":5,"is_transit":false,"station_name":"Karet","i_long":106.816351,"line":1,"i_lat":-6.20132},{"i_long":106.819881,"transit":false,"i_lat":-6.201433,"is_transit":false,"time":1,"distance":471,"station_name":"Sudirman Baru","station_id":"SUDB","line":1},{"line":1,"transit":false,"i_long":106.822649,"time":1,"distance":280,"is_transit":false,"station_id":"SUD","station_name":"Sudirman","i_lat":-6.202263},{"station_name":"Manggarai","transit":false,"station_id":"MRI","is_transit":true,"i_lat":-6.209883,"line":0,"i_long":106.84912,"time":4,"distance":3186},{"distance":1275,"time":2,"i_long":106.858896,"transit":false,"station_id":"MTR","i_lat":-6.212485,"is_transit":false,"line":1,"station_name":"Matraman"},{"distance":1377,"station_name":"Jatinegara","i_lat":-6.215091,"line":0,"transit":true,"time":8,"i_long":106.86807400000001,"is_transit":true,"station_id":"JNG"},{"is_transit":false,"station_name":"Pondok Jati","line":11,"i_long":106.861737,"transit":false,"i_lat":-6.209188,"time":2,"station_id":"POK","distance":1236},{"transit":false,"i_long":106.855437,"is_transit":false,"i_lat":-6.193792,"time":2,"line":11,"station_name":"Kramat","station_id":"KMT","distance":1829}],[{"is_transit":false,"distance":0,"i_lat":-6.174784,"i_long":106.84368,"station_name":"Pasar Senen","time":0,"line":11,"station_id":"PSE","transit":false},{"station_id":"KMO","i_long":106.839204,"is_transit":false,"transit":false,"i_lat":-6.161728,"station_name":"Kemayoran","line":11,"distance":1436,"time":4},{"station_name":"Rajawali","i_long":106.836569,"is_transit":false,"distance":1901,"i_lat":-6.14505,"line":11,"time":5,"transit":false,"station_id":"RJW"},{"transit":true,"is_transit":true,"i_lat":-6.132549,"station_name":"Kampung Bandan","distance":1444,"time":3,"station_id":"KPB","i_long":106.826365,"line":0},{"i_long":106.812439,"is_transit":true,"line":0,"transit":true,"station_id":"JAKK","station_name":"Jakarta Kota","i_lat":-6.137569,"distance":1364,"time":3},{"station_name":"Jayakarta","is_transit":false,"transit":false,"distance":1264,"station_id":"JAY","i_lat":-6.141205,"i_long":106.820901,"line":7,"time":4},{"station_id":"MGB","station_name":"Manggabesar","transit":false,"i_long":106.82482,"line":2,"is_transit":false,"distance":1080,"time":2,"i_lat":-6.149769},{"i_lat":-6.160725,"i_long":106.827103,"line":2,"distance":906,"is_transit":false,"station_id":"SW","transit":false,"station_name":"Sawah Besar","time":2},{"distance":1149,"i_long":106.828284,"is_transit":false,"station_id":"JUA","i_lat":-6.166716,"station_name":"Juanda","transit":false,"line":2,"time":2},{"i_long":106.832183,"is_transit":false,"distance":2015,"line":2,"transit":false,"station_id":"GDD","time":4,"station_name":"Gondangdia","i_lat":-6.186295},{"is_transit":false,"station_name":"Cikini","distance":1750,"station_id":"CKI","transit":false,"line":0,"time":3,"i_long":106.840169,"i_lat":-6.198556},{"line":0,"distance":1590,"station_name":"Manggarai","i_lat":-6.209883,"is_transit":true,"time":4,"station_id":"MRI","transit":true,"i_long":106.84912},{"transit":false,"line":1,"is_transit":false,"time":2,"distance":1275,"i_lat":-6.212485,"station_id":"MTR","station_name":"Matraman","i_long":106.858896},{"distance":1377,"line":0,"station_id":"JNG","transit":true,"is_transit":true,"i_lat":-6.215091,"station_name":"Jatinegara","time":8,"i_long":106.86807400000001},{"i_lat":-6.209188,"i_long":106.861737,"time":2,"is_transit":false,"transit":false,"distance":1236,"station_name":"Pondok Jati","line":11,"station_id":"POK"},{"line":11,"i_long":106.855437,"i_lat":-6.193792,"distance":1829,"is_transit":false,"station_name":"Kramat","time":2,"transit":false,"station_id":"KMT"}]]}