{"data":[[{"is_transit":false,"distance":0,"transit":false,"i_lat":-6.174784,"station_id":"PSE","i_long":106.84368,"line":11,"station_name":"Pasar Senen","time":0},{"i_long":106.850107,"station_name":"Gang Sentiong","station_id":"GST","time":8,"distance":1567,"line":11,"transit":false,"i_lat":-6.185975,"is_transit":false},{"time":1,"line":11,"station_id":"KMT","i_lat":-6.193792,"station_name":"Kramat","transit":false,"distance":973,"i_long":106.855437,"is_transit":false},{"line":11,"station_id":"POK","station_name":"Pondok Jati","is_transit":false,"distance":1829,"i_lat":-6.209188,"time":2,"transit":false,"i_long":106.861737},{"transit":true,"distance":1236,"station_id":"JNG","is_transit":true,"i_lat":-6.215091,"i_long":106.86807400000001,"line":1,"station_name":"Jatinegara","time":9},{"transit":false,"line":1,"is_transit":false,"i_long":106.858896,"time":2,"station_id":"MTR","station_name":"Matraman","distance":1377,"i_lat":-6.212485},{"distance":1275,"is_transit":true,"time":2,"line":2,"transit":true,"i_lat":-6.209883,"i_long":106.84912,"station_id":"MRI","station_name":"Manggarai"},{"is_transit":false,"station_name":"Tebet","station_id":"TEB","transit":false,"i_long":106.857948,"line":2,"time":4,"i_lat":-6.226659,"distance":2610},{"transit":false,"time":2,"line":2,"is_transit":false,"distance":1230,"station_id":"CW","station_name":"Cawang","i_lat":-6.242512,"i_long":106.856607},{"i_long":106.85449,"station_name":"Duren Kalibata","is_transit":false,"distance":1546,"time":3,"transit":false,"line":2,"station_id":"DRN","i_lat":-6.255332},{"station_name":"Pasar Minggu Baru","i_long":106.851577,"line":2,"is_transit":false,"transit":false,"time":2,"station_id":"PSMB","distance":824,"i_lat":-6.263214},{"i_long":106.843999,"distance":2380,"i_lat":-6.2842400000000005,"station_name":"Pasar Minggu","time":2,"line":2,"transit":false,"station_id":"PSM","is_transit":false},{"station_name":"Tanjung Barat","i_long":106.838896,"time":4,"distance":2820,"station_id":"TNT","is_transit":false,"transit":false,"i_lat":-6.3080680000000005,"line":2}],[{"is_transit":false,"time":0,"i_lat":-6.174784,"station_id":"PSE","distance":0,"transit":false,"station_name":"Pasar Senen","i_long":106.84368,"line":11},{"distance":1436,"i_lat":-6.161728,"is_transit":false,"time":4,"station_id":"KMO","station_name":"Kemayoran","transit":false,"line":11,"i_long":106.839204},{"station_id":"RJW","time":5,"transit":false,"distance":1901,"i_lat":-6.14505,"i_long":106.836569,"station_name":"Rajawali","is_transit":false,"line":11},{"station_name":"Kampung Bandan","is_transit":true,"i_long":106.826365,"transit":true,"i_lat":-6.132549,"line":4,"time":3,"station_id":"KPB","distance":1444},{"station_name":"Angke","station_id":"AK","i_lat":-6.144674,"distance":4102,"time":9,"is_transit":false,"transit":false,"i_long":106.79867,"line":1},{"station_id":"DU","distance":1230,"station_name":"Duri","time":4,"is_transit":false,"i_lat":-6.155215,"line":1,"i_long":106.800832,"transit":false},{"i_lat":-6.185545,"transit":false,"i_long":106.811091,"distance":3632,"time":8,"station_name":"Tanah Abang","station_id":"THB","is_transit":false,"line":1},{"is_transit":false,"station_id":"KAT","station_name":"Karet","transit":false,"i_lat":-6.20132,"line":1,"time":5,"distance":2029,"i_long":106.816351},{"i_long":106.819881,"i_lat":-6.201433,"line":1,"time":1,"transit":false,"station_name":"Sudirman Baru","is_transit":false,"distance":471,"station_id":"SUDB"},{"is_transit":false,"distance":280,"time":1,"i_lat":-6.202263,"i_long":106.822649,"station_name":"Sudirman","line":1,"station_id":"SUD","transit":false},{"i_lat":-6.209883,"line":2,"station_name":"Manggarai","time":4,"is_transit":true,"station_id":"MRI","i_long":106.84912,"distance":3186,"transit":true},{"is_transit":false,"time":4,"transit":false,"i_lat":-6.226659,"i_long":106.857948,"station_id":"TEB","station_name":"Tebet","line":2,"distance":2610},{"is_transit":false,"station_name":"Cawang","transit":false,"line":2,"distance":1230,"time":2,"i_lat":-6.242512,"i_long":106.856607,"station_id":"CW"},{"distance":1546,"i_long":106.85449,"line":2,"is_transit":false,"station_id":"DRN","time":3,"transit":false,"station_name":"Duren Kalibata","i_lat":-6.255332},{"distance":824,"line":2,"station_id":"PSMB","is_transit":false,"station_name":"Pasar Minggu Baru","transit":false,"time":2,"i_lat":-6.263214,"i_long":106.851577},{"i_long":106.843999,"line":2,"time":2,"station_name":"Pasar Minggu","is_transit":false,"transit":false,"station_id":"PSM","i_lat":-6.2842400000000005,"distance":2380},{"is_transit":false,"line":2,"station_name":"Tanjung Barat","i_lat":-6.3080680000000005,"time":4,"distance":2820,"station_id":"TNT","transit":false,"i_long":106.838896}],[{"time":0,"distance":0,"is_transit":false,"transit":false,"station_id":"PSE","i_long":106.84368,"line":11,"station_name":"Pasar Senen","i_lat":-6.174784},{"i_long":106.839204,"distance":1436,"transit":false,"line":11,"is_transit":false,"time":4,"station_name":"Kemayoran","i_lat":-6.161728,"station_id":"KMO"},{"station_name":"Rajawali","line":11,"i_long":106.836569,"transit":false,"i_lat":-6.14505,"distance":1901,"is_transit":false,"station_id":"RJW","time":5},{"station_id":"KPB","time":3,"i_long":106.826365,"line":4,"is_transit":true,"distance":1444,"transit":true,"station_name":"Kampung Bandan","i_lat":-6.132549},{"is_transit":true,"transit":true,"line":2,"station_name":"Jakarta Kota","i_lat":-6.137569,"distance":1364,"i_long":106.812439,"station_id":"JAKK","time":3},{"station_name":"Jayakarta","time":4,"line":2,"transit":false,"i_lat":-6.141205,"station_id":"JAY","i_long":106.820901,"is_transit":false,"distance":1264},{"station_id":"MGB","time":2,"i_long":106.82482,"is_transit":false,"transit":false,"distance":1080,"i_lat":-6.149769,"line":2,"station_name":"Manggabesar"},{"line":2,"time":2,"station_name":"Sawah Besar","station_id":"SW","transit":false,"distance":906,"is_transit":false,"i_lat":-6.160725,"i_long":106.827103},{"distance":1149,"station_id":"JUA","i_lat":-6.166716,"station_name":"Juanda","is_transit":false,"transit":false,"line":2,"i_long":106.828284,"time":2},{"line":2,"station_id":"GDD","time":4,"distance":2015,"transit":false,"is_transit":false,"station_name":"Gondangdia","i_lat":-6.186295,"i_long":106.832183},{"is_transit":false,"i_lat":-6.198556,"time":3,"transit":false,"station_name":"Cikini","i_long":106.840169,"distance":1750,"line":2,"station_id":"CKI"},{"transit":false,"i_lat":-6.209883,"line":2,"time":4,"station_name":"Manggarai","is_transit":false,"distance":1590,"station_id":"MRI","i_long":106.84912},{"is_transit":false,"transit":false,"distance":2610,"time":4,"line":2,"i_lat":-6.226659,"station_id":"TEB","station_name":"Tebet","i_long":106.857948},{"station_id":"CW","line":2,"station_name":"Cawang","time":2,"distance":1230,"is_transit":false,"transit":false,"i_lat":-6.242512,"i_long":106.856607},{"time":3,"i_long":106.85449,"station_name":"Duren Kalibata","station_id":"DRN","is_transit":false,"line":2,"distance":1546,"transit":false,"i_lat":-6.255332},{"is_transit":false,"i_lat":-6.263214,"transit":false,"i_long":106.851577,"distance":824,"station_id":"PSMB","station_name":"Pasar Minggu Baru","time":2,"line":2},{"i_lat":-6.2842400000000005,"distance":2380,"time":2,"station_name":"Pasar Minggu","station_id":"PSM","is_transit":false,"i_long":106.843999,"line":2,"transit":false},{"line":2,"i_lat":-6.3080680000000005,"transit":false,"station_name":"Tanjung Barat","time":4,"distance":2820,"is_transit":false,"i_long":106.838896,"station_id":"TNT"}]]}