{"data":[[{"station_id":"PSE","is_transit":false,"station_name":"Pasar Senen","time":0,"transit":false,"line":11,"distance":0,"i_lat":-6.174784,"i_long":106.84368},{"distance":1567,"line":11,"station_name":"Gang Sentiong","i_long":106.850107,"i_lat":-6.185975,"time":8,"station_id":"GST","is_transit":false,"transit":false},{"is_transit":false,"distance":973,"station_name":"Kramat","station_id":"KMT","transit":false,"i_lat":-6.193792,"i_long":106.855437,"line":11,"time":1},{"is_transit":false,"time":2,"line":11,"i_lat":-6.209188,"i_long":106.861737,"station_name":"Pondok Jati","distance":1829,"transit":false,"station_id":"POK"},{"distance":1236,"station_name":"Jatinegara","transit":true,"time":9,"is_transit":true,"i_lat":-6.215091,"i_long":106.86807400000001,"line":0,"station_id":"JNG"},{"is_transit":false,"station_id":"MTR","station_name":"Matraman","i_lat":-6.212485,"time":2,"line":1,"distance":1377,"transit":false,"i_long":106.858896},{"line":0,"distance":1275,"i_lat":-6.209883,"i_long":106.84912,"time":2,"station_id":"MRI","station_name":"Manggarai","is_transit":true,"transit":true},{"i_long":106.857948,"station_name":"Tebet","transit":false,"station_id":"TEB","distance":2610,"time":4,"i_lat":-6.226659,"line":2,"is_transit":false},{"transit":false,"i_lat":-6.242512,"i_long":106.856607,"distance":1230,"is_transit":false,"time":2,"station_id":"CW","line":0,"station_name":"Cawang"},{"i_long":106.85449,"distance":1546,"transit":false,"time":3,"station_name":"Duren Kalibata","is_transit":false,"line":0,"i_lat":-6.255332,"station_id":"DRN"},{"line":2,"i_long":106.851577,"station_id":"PSMB","transit":false,"distance":824,"is_transit":false,"station_name":"Pasar Minggu Baru","time":2,"i_lat":-6.263214}],[{"distance":0,"station_id":"PSE","time":0,"is_transit":false,"transit":false,"i_long":106.84368,"station_name":"Pasar Senen","line":11,"i_lat":-6.174784},{"line":11,"i_long":106.839204,"i_lat":-6.161728,"station_id":"KMO","distance":1436,"is_transit":false,"transit":false,"time":4,"station_name":"Kemayoran"},{"station_name":"Rajawali","distance":1901,"is_transit":false,"transit":false,"time":5,"i_lat":-6.14505,"i_long":106.836569,"station_id":"RJW","line":11},{"station_name":"Kampung Bandan","distance":1444,"station_id":"KPB","time":3,"i_lat":-6.132549,"i_long":106.826365,"is_transit":true,"transit":true,"line":0},{"station_name":"Angke","i_long":106.79867,"distance":4102,"line":0,"time":9,"i_lat":-6.144674,"is_transit":false,"transit":false,"station_id":"AK"},{"transit":true,"station_name":"Duri","i_lat":-6.155215,"station_id":"DU","time":4,"i_long":106.800832,"distance":1230,"line":1,"is_transit":true},{"station_name":"Tanah Abang","transit":false,"line":1,"i_lat":-6.185545,"station_id":"THB","i_long":106.811091,"distance":3632,"is_transit":true,"time":8},{"distance":2029,"time":5,"i_lat":-6.20132,"station_name":"Karet","i_long":106.816351,"is_transit":false,"transit":false,"station_id":"KAT","line":1},{"station_id":"SUDB","i_long":106.819881,"station_name":"Sudirman Baru","i_lat":-6.201433,"time":1,"distance":471,"is_transit":false,"transit":false,"line":1},{"i_lat":-6.202263,"station_id":"SUD","i_long":106.822649,"station_name":"Sudirman","is_transit":false,"transit":false,"line":1,"distance":280,"time":1},{"time":4,"station_id":"MRI","i_long":106.84912,"distance":3186,"transit":true,"is_transit":true,"line":0,"i_lat":-6.209883,"station_name":"Manggarai"},{"station_id":"TEB","is_transit":false,"time":4,"line":2,"i_lat":-6.226659,"transit":false,"distance":2610,"station_name":"Tebet","i_long":106.857948},{"station_id":"CW","transit":false,"distance":1230,"station_name":"Cawang","is_transit":false,"time":2,"line":0,"i_lat":-6.242512,"i_long":106.856607},{"time":3,"station_id":"DRN","is_transit":false,"i_lat":-6.255332,"station_name":"Duren Kalibata","i_long":106.85449,"distance":1546,"transit":false,"line":0},{"station_id":"PSMB","line":2,"distance":824,"i_lat":-6.263214,"is_transit":false,"station_name":"Pasar Minggu Baru","i_long":106.851577,"transit":false,"time":2}],[{"is_transit":false,"i_long":106.84368,"time":0,"station_id":"PSE","i_lat":-6.174784,"station_name":"Pasar Senen","distance":0,"transit":false,"line":11},{"transit":false,"time":4,"station_name":"Kemayoran","line":11,"is_transit":false,"i_long":106.839204,"distance":1436,"i_lat":-6.161728,"station_id":"KMO"},{"distance":1901,"transit":false,"i_long":106.836569,"station_id":"RJW","is_transit":false,"station_name":"Rajawali","i_lat":-6.14505,"time":5,"line":11},{"i_lat":-6.132549,"i_long":106.826365,"time":3,"line":0,"distance":1444,"station_name":"Kampung Bandan","station_id":"KPB","is_transit":true,"transit":true},{"is_transit":true,"station_id":"JAKK","transit":true,"i_long":106.812439,"time":3,"distance":1364,"station_name":"Jakarta Kota","i_lat":-6.137569,"line":0},{"time":4,"transit":false,"line":7,"i_long":106.820901,"i_lat":-6.141205,"is_transit":false,"distance":1264,"station_id":"JAY","station_name":"Jayakarta"},{"station_id":"MGB","i_long":106.82482,"line":2,"station_name":"Manggabesar","i_lat":-6.149769,"time":2,"transit":false,"distance":1080,"is_transit":false},{"time":2,"line":2,"transit":false,"i_lat":-6.160725,"station_id":"SW","distance":906,"i_long":106.827103,"station_name":"Sawah Besar","is_transit":false},{"distance":1149,"i_lat":-6.166716,"time":2,"line":2,"is_transit":false,"station_id":"JUA","transit":false,"i_long":106.828284,"station_name":"Juanda"},{"time":4,"is_transit":false,"transit":false,"distance":2015,"station_id":"GDD","station_name":"Gondangdia","i_lat":-6.186295,"line":2,"i_long":106.832183},{"time":3,"line":0,"is_transit":false,"distance":1750,"i_long":106.840169,"station_name":"Cikini","i_lat":-6.198556,"transit":false,"station_id":"CKI"},{"station_id":"MRI","station_name":"Manggarai","transit":true,"time":4,"distance":1590,"i_long":106.84912,"line":0,"is_transit":true,"i_lat":-6.209883},{"line":2,"i_long":106.857948,"time":4,"transit":false,"distance":2610,"i_lat":-6.226659,"is_transit":false,"station_id":"TEB","station_name":"Tebet"},{"station_name":"Cawang","time":2,"line":0,"is_transit":false,"station_id":"CW","i_lat":-6.242512,"transit":false,"i_long":106.856607,"distance":1230},{"line":0,"i_long":106.85449,"is_transit":false,"i_lat":-6.255332,"distance":1546,"time":3,"transit":false,"station_name":"Duren Kalibata","station_id":"DRN"},{"station_id":"PSMB","time":2,"i_long":106.851577,"station_name":"Pasar Minggu Baru","line":2,"i_lat":-6.263214,"is_transit":false,"distance":824,"transit":false}]]}