{"data":[[{"station_id":"PSE","i_lat":-6.174784,"line":11,"distance":0,"i_long":106.84368,"transit":false,"time":0,"is_transit":false,"station_name":"Pasar Senen"},{"station_id":"GST","transit":false,"distance":1567,"is_transit":false,"station_name":"Gang Sentiong","i_lat":-6.185975,"line":11,"time":8,"i_long":106.850107},{"transit":false,"time":1,"i_lat":-6.193792,"distance":973,"station_name":"Kramat","i_long":106.855437,"line":11,"is_transit":false,"station_id":"KMT"},{"transit":false,"is_transit":false,"station_name":"Pondok Jati","i_lat":-6.209188,"line":11,"time":2,"station_id":"POK","i_long":106.861737,"distance":1829},{"distance":1236,"transit":true,"is_transit":true,"station_name":"Jatinegara","time":9,"station_id":"JNG","i_lat":-6.215091,"i_long":106.86807400000001,"line":1},{"time":2,"station_id":"MTR","i_long":106.858896,"transit":false,"line":1,"is_transit":false,"distance":1377,"i_lat":-6.212485,"station_name":"Matraman"},{"i_long":106.84912,"station_id":"MRI","station_name":"Manggarai","i_lat":-6.209883,"distance":1275,"transit":true,"time":2,"is_transit":true,"line":2},{"distance":2610,"station_id":"TEB","station_name":"Tebet","i_long":106.857948,"line":2,"i_lat":-6.226659,"is_transit":false,"time":4,"transit":false},{"distance":1230,"transit":false,"i_long":106.856607,"station_name":"Cawang","line":2,"station_id":"CW","i_lat":-6.242512,"is_transit":false,"time":2},{"transit":false,"i_lat":-6.255332,"i_long":106.85449,"line":2,"is_transit":false,"station_name":"Duren Kalibata","distance":1546,"time":3,"station_id":"DRN"},{"line":2,"transit":false,"station_name":"Pasar Minggu Baru","is_transit":false,"time":2,"i_long":106.851577,"i_lat":-6.263214,"distance":824,"station_id":"PSMB"}],[{"i_lat":-6.174784,"is_transit":false,"station_id":"PSE","i_long":106.84368,"station_name":"Pasar Senen","time":0,"transit":false,"line":11,"distance":0},{"i_long":106.839204,"line":11,"time":4,"is_transit":false,"transit":false,"i_lat":-6.161728,"distance":1436,"station_name":"Kemayoran","station_id":"KMO"},{"station_name":"Rajawali","i_lat":-6.14505,"is_transit":false,"station_id":"RJW","time":5,"distance":1901,"transit":false,"i_long":106.836569,"line":11},{"i_long":106.826365,"distance":1444,"line":4,"is_transit":true,"station_id":"KPB","station_name":"Kampung Bandan","transit":true,"time":3,"i_lat":-6.132549},{"station_name":"Angke","station_id":"AK","time":9,"i_long":106.79867,"transit":false,"line":1,"is_transit":false,"i_lat":-6.144674,"distance":4102},{"line":1,"station_name":"Duri","i_lat":-6.155215,"station_id":"DU","time":4,"transit":false,"is_transit":false,"i_long":106.800832,"distance":1230},{"i_long":106.811091,"station_name":"Tanah Abang","station_id":"THB","i_lat":-6.185545,"line":1,"time":8,"is_transit":false,"transit":false,"distance":3632},{"time":5,"i_lat":-6.20132,"i_long":106.816351,"station_name":"Karet","distance":2029,"station_id":"KAT","is_transit":false,"transit":false,"line":1},{"i_long":106.819881,"station_id":"SUDB","is_transit":false,"distance":471,"time":1,"line":1,"station_name":"Sudirman Baru","transit":false,"i_lat":-6.201433},{"i_lat":-6.202263,"is_transit":false,"station_id":"SUD","station_name":"Sudirman","time":1,"transit":false,"distance":280,"i_long":106.822649,"line":1},{"i_long":106.84912,"station_id":"MRI","i_lat":-6.209883,"is_transit":true,"line":2,"time":4,"distance":3186,"transit":true,"station_name":"Manggarai"},{"station_id":"TEB","is_transit":false,"transit":false,"distance":2610,"time":4,"i_long":106.857948,"line":2,"station_name":"Tebet","i_lat":-6.226659},{"station_id":"CW","is_transit":false,"transit":false,"i_long":106.856607,"station_name":"Cawang","time":2,"distance":1230,"i_lat":-6.242512,"line":2},{"i_long":106.85449,"time":3,"line":2,"station_name":"Duren Kalibata","station_id":"DRN","i_lat":-6.255332,"is_transit":false,"distance":1546,"transit":false},{"station_id":"PSMB","station_name":"Pasar Minggu Baru","i_long":106.851577,"time":2,"is_transit":false,"i_lat":-6.263214,"transit":false,"line":2,"distance":824}],[{"i_long":106.84368,"is_transit":false,"distance":0,"transit":false,"line":11,"time":0,"i_lat":-6.174784,"station_id":"PSE","station_name":"Pasar Senen"},{"transit":false,"time":4,"line":11,"station_id":"KMO","station_name":"Kemayoran","distance":1436,"i_lat":-6.161728,"i_long":106.839204,"is_transit":false},{"is_transit":false,"distance":1901,"i_long":106.836569,"transit":false,"i_lat":-6.14505,"time":5,"station_id":"RJW","station_name":"Rajawali","line":11},{"transit":true,"line":4,"time":3,"i_lat":-6.132549,"station_name":"Kampung Bandan","distance":1444,"i_long":106.826365,"station_id":"KPB","is_transit":true},{"station_id":"JAKK","is_transit":true,"distance":1364,"transit":true,"i_lat":-6.137569,"i_long":106.812439,"station_name":"Jakarta Kota","time":3,"line":2},{"time":4,"i_long":106.820901,"is_transit":false,"transit":false,"station_name":"Jayakarta","distance":1264,"station_id":"JAY","i_lat":-6.141205,"line":2},{"i_lat":-6.149769,"i_long":106.82482,"distance":1080,"transit":false,"time":2,"line":2,"station_id":"MGB","is_transit":false,"station_name":"Manggabesar"},{"distance":906,"station_id":"SW","time":2,"i_long":106.827103,"is_transit":false,"station_name":"Sawah Besar","i_lat":-6.160725,"line":2,"transit":false},{"i_lat":-6.166716,"distance":1149,"station_id":"JUA","transit":false,"i_long":106.828284,"station_name":"Juanda","time":2,"line":2,"is_transit":false},{"line":2,"time":4,"i_long":106.832183,"station_name":"Gondangdia","i_lat":-6.186295,"is_transit":false,"distance":2015,"station_id":"GDD","transit":false},{"time":3,"distance":1750,"station_name":"Cikini","transit":false,"i_long":106.840169,"line":2,"station_id":"CKI","i_lat":-6.198556,"is_transit":false},{"i_lat":-6.209883,"station_name":"Manggarai","distance":1590,"line":2,"is_transit":false,"time":4,"transit":false,"i_long":106.84912,"station_id":"MRI"},{"i_long":106.857948,"i_lat":-6.226659,"station_name":"Tebet","distance":2610,"transit":false,"line":2,"station_id":"TEB","is_transit":false,"time":4},{"line":2,"distance":1230,"is_transit":false,"i_lat":-6.242512,"i_long":106.856607,"transit":false,"station_id":"CW","station_name":"Cawang","time":2},{"station_name":"Duren Kalibata","is_transit":false,"line":2,"distance":1546,"transit":false,"i_lat":-6.255332,"time":3,"station_id":"DRN","i_long":106.85449},{"station_name":"Pasar Minggu Baru","i_lat":-6.263214,"station_id":"PSMB","is_transit":false,"time":2,"i_long":106.851577,"transit":false,"distance":824,"line":2}]]}