{"data":[[{"i_long":106.84368,"line":11,"is_transit":false,"station_name":"Pasar Senen","station_id":"PSE","transit":false,"time":0,"i_lat":-6.174784,"distance":0},{"station_id":"GST","station_name":"Gang Sentiong","i_lat":-6.185975,"distance":1567,"transit":false,"i_long":106.850107,"line":11,"is_transit":false,"time":8},{"distance":973,"i_lat":-6.193792,"is_transit":false,"line":11,"transit":false,"time":1,"i_long":106.855437,"station_name":"Kramat","station_id":"KMT"},{"i_lat":-6.209188,"i_long":106.861737,"station_name":"Pondok Jati","time":2,"distance":1829,"station_id":"POK","line":11,"transit":false,"is_transit":false},{"station_id":"JNG","time":9,"i_long":106.86807400000001,"transit":true,"i_lat":-6.215091,"distance":1236,"line":1,"station_name":"Jatinegara","is_transit":true},{"is_transit":false,"transit":false,"line":1,"station_name":"Matraman","distance":1377,"i_lat":-6.212485,"i_long":106.858896,"time":2,"station_id":"MTR"},{"distance":1275,"station_id":"MRI","i_lat":-6.209883,"transit":true,"station_name":"Manggarai","is_transit":true,"time":2,"line":2,"i_long":106.84912},{"i_long":106.857948,"station_id":"TEB","is_transit":false,"time":4,"line":2,"transit":false,"station_name":"Tebet","i_lat":-6.226659,"distance":2610},{"i_lat":-6.242512,"transit":false,"station_name":"Cawang","is_transit":false,"i_long":106.856607,"time":2,"line":2,"station_id":"CW","distance":1230},{"i_lat":-6.255332,"line":2,"time":3,"transit":false,"station_name":"Duren Kalibata","distance":1546,"i_long":106.85449,"station_id":"DRN","is_transit":false},{"is_transit":false,"station_id":"PSMB","i_long":106.851577,"distance":824,"line":2,"transit":false,"station_name":"Pasar Minggu Baru","time":2,"i_lat":-6.263214},{"station_id":"PSM","i_lat":-6.2842400000000005,"distance":2380,"transit":false,"line":2,"station_name":"Pasar Minggu","i_long":106.843999,"time":2,"is_transit":false},{"distance":2820,"i_lat":-6.3080680000000005,"line":2,"transit":false,"station_name":"Tanjung Barat","time":4,"is_transit":false,"i_long":106.838896,"station_id":"TNT"},{"station_id":"LNA","is_transit":false,"station_name":"Lenteng Agung","i_long":106.832616,"distance":2671,"i_lat":-6.330363,"time":3,"transit":false,"line":2},{"time":2,"is_transit":false,"i_lat":-6.339291,"line":2,"transit":false,"station_name":"Univ. Pancasila","station_id":"UP","distance":1029,"i_long":106.834175},{"station_name":"Univ. Indonesia","is_transit":false,"distance":2264,"line":2,"station_id":"UI","time":3,"i_lat":-6.360749,"transit":false,"i_long":106.831474},{"is_transit":false,"i_lat":-6.369073,"i_long":106.831114,"station_id":"POC","transit":false,"line":2,"station_name":"Pondok Cina","time":2,"distance":1109}],[{"i_lat":-6.174784,"i_long":106.84368,"station_id":"PSE","transit":false,"is_transit":false,"line":11,"time":0,"station_name":"Pasar Senen","distance":0},{"time":4,"i_lat":-6.161728,"line":11,"station_id":"KMO","station_name":"Kemayoran","is_transit":false,"transit":false,"i_long":106.839204,"distance":1436},{"time":5,"transit":false,"station_id":"RJW","distance":1901,"i_long":106.836569,"station_name":"Rajawali","i_lat":-6.14505,"is_transit":false,"line":11},{"is_transit":true,"line":4,"station_name":"Kampung Bandan","i_lat":-6.132549,"distance":1444,"station_id":"KPB","transit":true,"time":3,"i_long":106.826365},{"distance":4102,"station_id":"AK","i_lat":-6.144674,"time":9,"is_transit":false,"transit":false,"station_name":"Angke","i_long":106.79867,"line":1},{"station_id":"DU","transit":false,"is_transit":false,"distance":1230,"i_lat":-6.155215,"i_long":106.800832,"time":4,"line":1,"station_name":"Duri"},{"station_name":"Tanah Abang","is_transit":false,"station_id":"THB","time":8,"distance":3632,"i_lat":-6.185545,"line":1,"transit":false,"i_long":106.811091},{"i_lat":-6.20132,"is_transit":false,"time":5,"station_id":"KAT","i_long":106.816351,"transit":false,"station_name":"Karet","distance":2029,"line":1},{"station_id":"SUDB","i_lat":-6.201433,"station_name":"Sudirman Baru","time":1,"i_long":106.819881,"distance":471,"line":1,"transit":false,"is_transit":false},{"transit":false,"i_long":106.822649,"station_name":"Sudirman","is_transit":false,"time":1,"distance":280,"line":1,"station_id":"SUD","i_lat":-6.202263},{"distance":3186,"i_lat":-6.209883,"time":4,"station_name":"Manggarai","transit":true,"is_transit":true,"line":2,"i_long":106.84912,"station_id":"MRI"},{"time":4,"transit":false,"is_transit":false,"station_name":"Tebet","line":2,"i_lat":-6.226659,"i_long":106.857948,"station_id":"TEB","distance":2610},{"distance":1230,"line":2,"i_long":106.856607,"time":2,"transit":false,"station_id":"CW","is_transit":false,"station_name":"Cawang","i_lat":-6.242512},{"time":3,"i_long":106.85449,"transit":false,"distance":1546,"station_id":"DRN","i_lat":-6.255332,"line":2,"station_name":"Duren Kalibata","is_transit":false},{"time":2,"is_transit":false,"distance":824,"line":2,"station_id":"PSMB","i_lat":-6.263214,"i_long":106.851577,"station_name":"Pasar Minggu Baru","transit":false},{"is_transit":false,"transit":false,"line":2,"station_id":"PSM","station_name":"Pasar Minggu","i_lat":-6.2842400000000005,"i_long":106.843999,"time":2,"distance":2380},{"transit":false,"i_long":106.838896,"station_id":"TNT","station_name":"Tanjung Barat","distance":2820,"i_lat":-6.3080680000000005,"is_transit":false,"line":2,"time":4},{"time":3,"transit":false,"distance":2671,"i_lat":-6.330363,"line":2,"is_transit":false,"station_name":"Lenteng Agung","station_id":"LNA","i_long":106.832616},{"i_lat":-6.339291,"station_name":"Univ. Pancasila","distance":1029,"station_id":"UP","i_long":106.834175,"line":2,"transit":false,"is_transit":false,"time":2},{"i_long":106.831474,"station_name":"Univ. Indonesia","i_lat":-6.360749,"line":2,"distance":2264,"transit":false,"is_transit":false,"station_id":"UI","time":3},{"line":2,"distance":1109,"i_lat":-6.369073,"time":2,"station_name":"Pondok Cina","station_id":"POC","transit":false,"is_transit":false,"i_long":106.831114}],[{"time":0,"line":11,"transit":false,"i_long":106.84368,"station_id":"PSE","distance":0,"station_name":"Pasar Senen","i_lat":-6.174784,"is_transit":false},{"is_transit":false,"station_name":"Kemayoran","i_lat":-6.161728,"station_id":"KMO","distance":1436,"time":4,"transit":false,"i_long":106.839204,"line":11},{"distance":1901,"i_lat":-6.14505,"line":11,"station_id":"RJW","is_transit":false,"i_long":106.836569,"station_name":"Rajawali","transit":false,"time":5},{"i_lat":-6.132549,"is_transit":true,"line":4,"i_long":106.826365,"distance":1444,"station_id":"KPB","station_name":"Kampung Bandan","transit":true,"time":3},{"station_id":"JAKK","time":3,"i_lat":-6.137569,"line":2,"is_transit":true,"transit":true,"i_long":106.812439,"distance":1364,"station_name":"Jakarta Kota"},{"station_name":"Jayakarta","transit":false,"is_transit":false,"i_lat":-6.141205,"time":4,"station_id":"JAY","distance":1264,"line":2,"i_long":106.820901},{"transit":false,"time":2,"station_name":"Manggabesar","station_id":"MGB","is_transit":false,"i_lat":-6.149769,"distance":1080,"i_long":106.82482,"line":2},{"line":2,"i_lat":-6.160725,"station_id":"SW","is_transit":false,"time":2,"station_name":"Sawah Besar","distance":906,"transit":false,"i_long":106.827103},{"station_id":"JUA","line":2,"transit":false,"i_long":106.828284,"is_transit":false,"distance":1149,"time":2,"station_name":"Juanda","i_lat":-6.166716},{"transit":false,"station_name":"Gondangdia","station_id":"GDD","is_transit":false,"time":4,"distance":2015,"i_long":106.832183,"line":2,"i_lat":-6.186295},{"transit":false,"distance":1750,"station_id":"CKI","is_transit":false,"i_long":106.840169,"station_name":"Cikini","time":3,"i_lat":-6.198556,"line":2},{"station_name":"Manggarai","transit":false,"time":4,"station_id":"MRI","distance":1590,"i_long":106.84912,"i_lat":-6.209883,"line":2,"is_transit":false},{"i_long":106.857948,"transit":false,"time":4,"is_transit":false,"i_lat":-6.226659,"line":2,"station_id":"TEB","distance":2610,"station_name":"Tebet"},{"i_long":106.856607,"station_id":"CW","line":2,"distance":1230,"transit":false,"time":2,"is_transit":false,"i_lat":-6.242512,"station_name":"Cawang"},{"station_id":"DRN","distance":1546,"i_lat":-6.255332,"transit":false,"line":2,"is_transit":false,"i_long":106.85449,"station_name":"Duren Kalibata","time":3},{"transit":false,"i_long":106.851577,"station_id":"PSMB","time":2,"is_transit":false,"distance":824,"i_lat":-6.263214,"station_name":"Pasar Minggu Baru","line":2},{"transit":false,"line":2,"is_transit":false,"i_long":106.843999,"station_name":"Pasar Minggu","time":2,"distance":2380,"i_lat":-6.2842400000000005,"station_id":"PSM"},{"distance":2820,"i_lat":-6.3080680000000005,"time":4,"station_name":"Tanjung Barat","station_id":"TNT","is_transit":false,"line":2,"i_long":106.838896,"transit":false},{"line":2,"i_long":106.832616,"transit":false,"station_id":"LNA","distance":2671,"station_name":"Lenteng Agung","time":3,"is_transit":false,"i_lat":-6.330363},{"i_long":106.834175,"station_id":"UP","transit":false,"distance":1029,"i_lat":-6.339291,"line":2,"station_name":"Univ. Pancasila","is_transit":false,"time":2},{"station_id":"UI","line":2,"transit":false,"station_name":"Univ. Indonesia","distance":2264,"i_lat":-6.360749,"i_long":106.831474,"is_transit":false,"time":3},{"distance":1109,"station_name":"Pondok Cina","is_transit":false,"i_long":106.831114,"transit":false,"i_lat":-6.369073,"station_id":"POC","time":2,"line":2}]]}