{"data":[[{"is_transit":false,"station_name":"Pasar Senen","time":0,"transit":false,"i_lat":-6.174784,"line":11,"station_id":"PSE","distance":0,"i_long":106.84368},{"station_id":"KMO","is_transit":false,"i_long":106.839204,"time":4,"i_lat":-6.161728,"line":11,"transit":false,"distance":1436,"station_name":"Kemayoran"},{"time":5,"distance":1901,"is_transit":false,"station_name":"Rajawali","station_id":"RJW","transit":false,"i_lat":-6.14505,"i_long":106.836569,"line":11},{"i_lat":-6.132549,"line":4,"i_long":106.826365,"time":3,"station_name":"Kampung Bandan","station_id":"KPB","transit":true,"distance":1444,"is_transit":true},{"station_id":"AK","transit":false,"is_transit":false,"i_lat":-6.144674,"line":1,"station_name":"Angke","distance":4102,"i_long":106.79867,"time":9},{"line":1,"station_id":"DU","station_name":"Duri","is_transit":true,"i_lat":-6.155215,"i_long":106.800832,"time":4,"distance":1230,"transit":true},{"time":3,"line":5,"distance":1700,"transit":false,"is_transit":false,"i_long":106.788277,"station_name":"Grogol","station_id":"GGL","i_lat":-6.162021},{"i_lat":-6.161433,"station_id":"PSG","distance":2036,"i_long":106.771379,"station_name":"Pesing","transit":false,"is_transit":false,"time":2,"line":5},{"distance":1614,"is_transit":false,"i_long":106.756522,"station_id":"TKO","time":2,"station_name":"Taman Kota","transit":false,"line":5,"i_lat":-6.1587309999999995},{"station_name":"Bojongindah","time":2,"line":5,"is_transit":false,"transit":false,"distance":2334,"i_lat":-6.159876,"i_long":106.737035,"station_id":"BOI"},{"i_long":106.723064,"transit":false,"i_lat":-6.162758,"line":5,"distance":1152,"time":4,"station_id":"RW","station_name":"Rawa Buaya","is_transit":false},{"i_long":106.701612,"line":5,"is_transit":false,"station_id":"KDS","transit":false,"distance":2504,"time":3,"station_name":"Kalideres","i_lat":-6.166068}],[{"station_name":"Pasar Senen","station_id":"PSE","line":11,"distance":0,"is_transit":false,"i_lat":-6.174784,"transit":false,"i_long":106.84368,"time":0},{"station_id":"GST","is_transit":false,"line":11,"i_long":106.850107,"station_name":"Gang Sentiong","i_lat":-6.185975,"transit":false,"distance":1567,"time":8},{"time":1,"i_long":106.855437,"distance":973,"station_id":"KMT","station_name":"Kramat","is_transit":false,"i_lat":-6.193792,"transit":false,"line":11},{"line":11,"time":2,"station_id":"POK","distance":1829,"station_name":"Pondok Jati","is_transit":false,"i_lat":-6.209188,"i_long":106.861737,"transit":false},{"time":9,"line":1,"is_transit":true,"station_id":"JNG","transit":true,"station_name":"Jatinegara","distance":1236,"i_lat":-6.215091,"i_long":106.86807400000001},{"station_name":"Matraman","i_long":106.858896,"time":2,"is_transit":false,"distance":1377,"i_lat":-6.212485,"line":1,"transit":false,"station_id":"MTR"},{"i_lat":-6.209883,"i_long":106.84912,"line":2,"time":2,"distance":1275,"station_name":"Manggarai","is_transit":false,"station_id":"MRI","transit":false},{"i_long":106.822649,"i_lat":-6.202263,"is_transit":false,"distance":3186,"station_id":"SUD","time":4,"station_name":"Sudirman","transit":false,"line":1},{"station_id":"SUDB","is_transit":false,"distance":280,"station_name":"Sudirman Baru","transit":false,"line":1,"time":1,"i_lat":-6.201433,"i_long":106.819881},{"distance":471,"i_lat":-6.20132,"i_long":106.816351,"station_id":"KAT","time":1,"transit":false,"is_transit":false,"station_name":"Karet","line":1},{"i_long":106.811091,"is_transit":false,"transit":false,"station_id":"THB","station_name":"Tanah Abang","line":1,"distance":2029,"i_lat":-6.185545,"time":5},{"i_lat":-6.155215,"station_name":"Duri","transit":true,"i_long":106.800832,"line":1,"time":8,"distance":3632,"station_id":"DU","is_transit":true},{"station_name":"Grogol","is_transit":false,"distance":1700,"time":3,"transit":false,"station_id":"GGL","i_lat":-6.162021,"i_long":106.788277,"line":5},{"time":2,"line":5,"i_long":106.771379,"station_name":"Pesing","transit":false,"distance":2036,"is_transit":false,"i_lat":-6.161433,"station_id":"PSG"},{"station_name":"Taman Kota","i_long":106.756522,"time":2,"transit":false,"i_lat":-6.1587309999999995,"line":5,"is_transit":false,"distance":1614,"station_id":"TKO"},{"is_transit":false,"time":2,"i_lat":-6.159876,"i_long":106.737035,"distance":2334,"station_name":"Bojongindah","transit":false,"station_id":"BOI","line":5},{"station_name":"Rawa Buaya","distance":1152,"time":4,"is_transit":false,"i_lat":-6.162758,"i_long":106.723064,"transit":false,"station_id":"RW","line":5},{"transit":false,"station_id":"KDS","distance":2504,"station_name":"Kalideres","i_lat":-6.166068,"time":3,"is_transit":false,"i_long":106.701612,"line":5}],[{"station_name":"Pasar Senen","is_transit":false,"station_id":"PSE","distance":0,"i_long":106.84368,"time":0,"line":11,"transit":false,"i_lat":-6.174784},{"station_name":"Gang Sentiong","distance":1567,"is_transit":false,"i_lat":-6.185975,"time":8,"i_long":106.850107,"line":11,"station_id":"GST","transit":false},{"line":11,"station_id":"KMT","i_lat":-6.193792,"transit":false,"station_name":"Kramat","distance":973,"is_transit":false,"time":1,"i_long":106.855437},{"station_name":"Pondok Jati","transit":false,"line":11,"i_lat":-6.209188,"time":2,"distance":1829,"station_id":"POK","i_long":106.861737,"is_transit":false},{"line":1,"time":9,"station_id":"JNG","station_name":"Jatinegara","i_lat":-6.215091,"i_long":106.86807400000001,"transit":true,"is_transit":true,"distance":1236},{"transit":false,"distance":1377,"station_name":"Matraman","i_long":106.858896,"i_lat":-6.212485,"time":2,"station_id":"MTR","line":1,"is_transit":false},{"station_name":"Manggarai","is_transit":true,"i_lat":-6.209883,"distance":1275,"transit":true,"time":2,"i_long":106.84912,"line":2,"station_id":"MRI"},{"time":4,"station_name":"Cikini","station_id":"CKI","i_long":106.840169,"distance":1590,"transit":false,"i_lat":-6.198556,"line":2,"is_transit":false},{"is_transit":false,"station_name":"Gondangdia","station_id":"GDD","i_long":106.832183,"time":3,"distance":1750,"transit":false,"i_lat":-6.186295,"line":2},{"transit":false,"i_long":106.828284,"line":2,"i_lat":-6.166716,"time":4,"is_transit":false,"station_name":"Juanda","distance":2015,"station_id":"JUA"},{"transit":false,"time":2,"i_lat":-6.160725,"i_long":106.827103,"is_transit":false,"station_name":"Sawah Besar","line":2,"distance":1149,"station_id":"SW"},{"transit":false,"time":2,"distance":906,"is_transit":false,"station_name":"Manggabesar","station_id":"MGB","line":2,"i_lat":-6.149769,"i_long":106.82482},{"i_long":106.820901,"line":2,"time":2,"transit":false,"i_lat":-6.141205,"distance":1080,"is_transit":false,"station_name":"Jayakarta","station_id":"JAY"},{"i_lat":-6.137569,"time":4,"i_long":106.812439,"line":2,"station_id":"JAKK","distance":1264,"is_transit":true,"transit":true,"station_name":"Jakarta Kota"},{"is_transit":true,"i_long":106.826365,"distance":1364,"transit":true,"line":4,"station_name":"Kampung Bandan","station_id":"KPB","i_lat":-6.132549,"time":3},{"station_name":"Angke","time":9,"distance":4102,"transit":false,"station_id":"AK","line":1,"is_transit":false,"i_lat":-6.144674,"i_long":106.79867},{"i_long":106.800832,"time":4,"distance":1230,"transit":true,"line":1,"station_id":"DU","i_lat":-6.155215,"station_name":"Duri","is_transit":true},{"line":5,"is_transit":false,"transit":false,"time":3,"distance":1700,"i_lat":-6.162021,"station_id":"GGL","station_name":"Grogol","i_long":106.788277},{"time":2,"line":5,"station_id":"PSG","i_lat":-6.161433,"transit":false,"distance":2036,"station_name":"Pesing","i_long":106.771379,"is_transit":false},{"i_long":106.756522,"i_lat":-6.1587309999999995,"station_id":"TKO","transit":false,"is_transit":false,"line":5,"distance":1614,"station_name":"Taman Kota","time":2},{"i_long":106.737035,"is_transit":false,"station_id":"BOI","line":5,"distance":2334,"transit":false,"time":2,"station_name":"Bojongindah","i_lat":-6.159876},{"transit":false,"distance":1152,"i_lat":-6.162758,"station_id":"RW","time":4,"line":5,"station_name":"Rawa Buaya","i_long":106.723064,"is_transit":false},{"distance":2504,"station_name":"Kalideres","is_transit":false,"i_long":106.701612,"i_lat":-6.166068,"line":5,"transit":false,"time":3,"station_id":"KDS"}],[{"distance":0,"i_long":106.84368,"station_id":"PSE","line":11,"transit":false,"time":0,"station_name":"Pasar Senen","i_lat":-6.174784,"is_transit":false},{"is_transit":false,"transit":false,"station_name":"Kemayoran","time":4,"i_lat":-6.161728,"line":11,"station_id":"KMO","distance":1436,"i_long":106.839204},{"transit":false,"line":11,"station_id":"RJW","distance":1901,"station_name":"Rajawali","i_lat":-6.14505,"is_transit":false,"time":5,"i_long":106.836569},{"transit":true,"is_transit":true,"time":3,"distance":1444,"station_id":"KPB","i_lat":-6.132549,"station_name":"Kampung Bandan","i_long":106.826365,"line":4},{"station_id":"JAKK","station_name":"Jakarta Kota","i_lat":-6.137569,"transit":true,"distance":1364,"is_transit":true,"i_long":106.812439,"time":3,"line":2},{"i_long":106.820901,"i_lat":-6.141205,"is_transit":false,"time":4,"station_name":"Jayakarta","station_id":"JAY","line":2,"distance":1264,"transit":false},{"i_long":106.82482,"station_id":"MGB","line":2,"is_transit":false,"transit":false,"i_lat":-6.149769,"time":2,"distance":1080,"station_name":"Manggabesar"},{"i_lat":-6.160725,"station_id":"SW","i_long":106.827103,"is_transit":false,"distance":906,"line":2,"station_name":"Sawah Besar","transit":false,"time":2},{"transit":false,"station_id":"JUA","station_name":"Juanda","i_lat":-6.166716,"is_transit":false,"distance":1149,"line":2,"time":2,"i_long":106.828284},{"transit":false,"i_lat":-6.186295,"station_name":"Gondangdia","station_id":"GDD","distance":2015,"is_transit":false,"line":2,"time":4,"i_long":106.832183},{"is_transit":false,"distance":1750,"i_lat":-6.198556,"station_id":"CKI","time":3,"station_name":"Cikini","transit":false,"line":2,"i_long":106.840169},{"time":4,"line":2,"station_name":"Manggarai","i_long":106.84912,"transit":true,"is_transit":true,"i_lat":-6.209883,"station_id":"MRI","distance":1590},{"station_name":"Sudirman","i_lat":-6.202263,"station_id":"SUD","is_transit":false,"transit":false,"distance":3186,"i_long":106.822649,"line":1,"time":4},{"station_name":"Sudirman Baru","time":1,"is_transit":false,"transit":false,"distance":280,"i_lat":-6.201433,"i_long":106.819881,"station_id":"SUDB","line":1},{"line":1,"time":1,"i_lat":-6.20132,"station_id":"KAT","station_name":"Karet","i_long":106.816351,"is_transit":false,"transit":false,"distance":471},{"transit":false,"time":5,"distance":2029,"i_lat":-6.185545,"i_long":106.811091,"station_name":"Tanah Abang","is_transit":false,"line":1,"station_id":"THB"},{"line":1,"i_lat":-6.155215,"station_name":"Duri","time":8,"is_transit":true,"transit":true,"station_id":"DU","i_long":106.800832,"distance":3632},{"i_long":106.788277,"time":3,"station_name":"Grogol","i_lat":-6.162021,"is_transit":false,"transit":false,"line":5,"distance":1700,"station_id":"GGL"},{"time":2,"is_transit":false,"transit":false,"station_id":"PSG","station_name":"Pesing","distance":2036,"i_lat":-6.161433,"i_long":106.771379,"line":5},{"distance":1614,"time":2,"line":5,"station_name":"Taman Kota","i_lat":-6.1587309999999995,"i_long":106.756522,"transit":false,"station_id":"TKO","is_transit":false},{"station_name":"Bojongindah","i_lat":-6.159876,"line":5,"i_long":106.737035,"transit":false,"is_transit":false,"time":2,"distance":2334,"station_id":"BOI"},{"line":5,"i_long":106.723064,"distance":1152,"is_transit":false,"station_id":"RW","transit":false,"time":4,"station_name":"Rawa Buaya","i_lat":-6.162758},{"i_long":106.701612,"is_transit":false,"distance":2504,"i_lat":-6.166068,"line":5,"station_id":"KDS","time":3,"station_name":"Kalideres","transit":false}]]}