{"data":[[{"distance":0,"line":11,"i_lat":-6.174784,"is_transit":false,"station_id":"PSE","i_long":106.84368,"transit":false,"station_name":"Pasar Senen","time":0},{"i_lat":-6.161728,"i_long":106.839204,"transit":false,"time":4,"station_name":"Kemayoran","is_transit":false,"line":11,"distance":1436,"station_id":"KMO"},{"is_transit":false,"station_id":"RJW","i_long":106.836569,"time":5,"distance":1901,"i_lat":-6.14505,"transit":false,"station_name":"Rajawali","line":11},{"i_lat":-6.132549,"line":4,"i_long":106.826365,"is_transit":true,"station_name":"Kampung Bandan","transit":true,"station_id":"KPB","time":3,"distance":1444},{"i_lat":-6.144674,"station_name":"Angke","is_transit":false,"distance":4102,"i_long":106.79867,"time":9,"line":1,"station_id":"AK","transit":false},{"i_long":106.800832,"line":1,"transit":true,"distance":1230,"station_id":"DU","is_transit":true,"station_name":"Duri","time":4,"i_lat":-6.155215},{"station_name":"Grogol","transit":false,"is_transit":false,"time":3,"i_long":106.788277,"line":5,"i_lat":-6.162021,"distance":1700,"station_id":"GGL"},{"station_id":"PSG","is_transit":false,"distance":2036,"i_lat":-6.161433,"i_long":106.771379,"line":5,"station_name":"Pesing","time":2,"transit":false},{"i_long":106.756522,"station_id":"TKO","line":5,"is_transit":false,"distance":1614,"time":2,"station_name":"Taman Kota","transit":false,"i_lat":-6.1587309999999995},{"i_lat":-6.159876,"transit":false,"station_id":"BOI","distance":2334,"is_transit":false,"station_name":"Bojongindah","i_long":106.737035,"time":2,"line":5},{"line":5,"i_lat":-6.162758,"is_transit":false,"time":4,"i_long":106.723064,"transit":false,"station_id":"RW","station_name":"Rawa Buaya","distance":1152},{"station_name":"Kalideres","time":3,"station_id":"KDS","distance":2504,"transit":false,"line":5,"i_lat":-6.166068,"is_transit":false,"i_long":106.701612},{"is_transit":false,"time":3,"line":5,"i_lat":-6.169933,"i_long":106.679458,"distance":2548,"transit":false,"station_id":"PI","station_name":"Poris"},{"distance":1834,"time":3,"transit":false,"station_id":"BPR","i_lat":-6.171811,"i_long":106.665036,"station_name":"Batuceper","line":5,"is_transit":false}],[{"station_id":"PSE","distance":0,"i_lat":-6.174784,"i_long":106.84368,"time":0,"line":11,"is_transit":false,"transit":false,"station_name":"Pasar Senen"},{"distance":1567,"station_name":"Gang Sentiong","is_transit":false,"i_lat":-6.185975,"line":11,"transit":false,"i_long":106.850107,"station_id":"GST","time":8},{"station_id":"KMT","line":11,"transit":false,"i_lat":-6.193792,"distance":973,"i_long":106.855437,"station_name":"Kramat","time":1,"is_transit":false},{"is_transit":false,"line":11,"time":2,"transit":false,"i_lat":-6.209188,"station_id":"POK","i_long":106.861737,"station_name":"Pondok Jati","distance":1829},{"distance":1236,"i_lat":-6.215091,"i_long":106.86807400000001,"line":1,"station_name":"Jatinegara","time":9,"transit":true,"station_id":"JNG","is_transit":true},{"transit":false,"i_long":106.858896,"i_lat":-6.212485,"time":2,"distance":1377,"line":1,"station_id":"MTR","is_transit":false,"station_name":"Matraman"},{"station_name":"Manggarai","time":2,"transit":false,"station_id":"MRI","line":2,"distance":1275,"i_long":106.84912,"is_transit":false,"i_lat":-6.209883},{"station_name":"Sudirman","station_id":"SUD","is_transit":false,"distance":3186,"i_long":106.822649,"i_lat":-6.202263,"transit":false,"time":4,"line":1},{"transit":false,"i_long":106.819881,"time":1,"line":1,"distance":280,"i_lat":-6.201433,"is_transit":false,"station_name":"Sudirman Baru","station_id":"SUDB"},{"station_id":"KAT","time":1,"distance":471,"station_name":"Karet","i_long":106.816351,"is_transit":false,"transit":false,"i_lat":-6.20132,"line":1},{"is_transit":false,"distance":2029,"i_long":106.811091,"station_id":"THB","i_lat":-6.185545,"time":5,"station_name":"Tanah Abang","transit":false,"line":1},{"transit":true,"distance":3632,"station_name":"Duri","station_id":"DU","line":1,"is_transit":true,"time":8,"i_lat":-6.155215,"i_long":106.800832},{"line":5,"time":3,"transit":false,"station_id":"GGL","station_name":"Grogol","distance":1700,"i_lat":-6.162021,"is_transit":false,"i_long":106.788277},{"transit":false,"line":5,"time":2,"is_transit":false,"station_id":"PSG","distance":2036,"station_name":"Pesing","i_long":106.771379,"i_lat":-6.161433},{"distance":1614,"i_long":106.756522,"line":5,"transit":false,"station_id":"TKO","station_name":"Taman Kota","time":2,"i_lat":-6.1587309999999995,"is_transit":false},{"distance":2334,"i_lat":-6.159876,"time":2,"is_transit":false,"station_name":"Bojongindah","i_long":106.737035,"line":5,"transit":false,"station_id":"BOI"},{"time":4,"station_id":"RW","is_transit":false,"i_lat":-6.162758,"line":5,"station_name":"Rawa Buaya","transit":false,"distance":1152,"i_long":106.723064},{"distance":2504,"i_long":106.701612,"transit":false,"station_name":"Kalideres","time":3,"line":5,"station_id":"KDS","i_lat":-6.166068,"is_transit":false},{"station_name":"Poris","is_transit":false,"station_id":"PI","distance":2548,"i_long":106.679458,"time":3,"line":5,"i_lat":-6.169933,"transit":false},{"distance":1834,"i_lat":-6.171811,"line":5,"is_transit":false,"time":3,"transit":false,"i_long":106.665036,"station_name":"Batuceper","station_id":"BPR"}],[{"line":11,"transit":false,"distance":0,"time":0,"i_lat":-6.174784,"i_long":106.84368,"station_id":"PSE","station_name":"Pasar Senen","is_transit":false},{"transit":false,"time":8,"is_transit":false,"line":11,"i_lat":-6.185975,"station_id":"GST","distance":1567,"i_long":106.850107,"station_name":"Gang Sentiong"},{"transit":false,"i_lat":-6.193792,"time":1,"station_id":"KMT","is_transit":false,"line":11,"i_long":106.855437,"station_name":"Kramat","distance":973},{"i_long":106.861737,"line":11,"distance":1829,"i_lat":-6.209188,"transit":false,"station_name":"Pondok Jati","station_id":"POK","time":2,"is_transit":false},{"station_id":"JNG","is_transit":true,"i_lat":-6.215091,"distance":1236,"station_name":"Jatinegara","i_long":106.86807400000001,"time":9,"transit":true,"line":1},{"station_name":"Matraman","time":2,"distance":1377,"is_transit":false,"line":1,"transit":false,"i_lat":-6.212485,"station_id":"MTR","i_long":106.858896},{"station_name":"Manggarai","i_lat":-6.209883,"time":2,"i_long":106.84912,"distance":1275,"station_id":"MRI","line":2,"is_transit":true,"transit":true},{"distance":1590,"i_lat":-6.198556,"line":2,"time":4,"is_transit":false,"transit":false,"i_long":106.840169,"station_name":"Cikini","station_id":"CKI"},{"transit":false,"station_name":"Gondangdia","i_long":106.832183,"i_lat":-6.186295,"line":2,"is_transit":false,"station_id":"GDD","time":3,"distance":1750},{"station_id":"JUA","i_lat":-6.166716,"is_transit":false,"transit":false,"i_long":106.828284,"distance":2015,"line":2,"time":4,"station_name":"Juanda"},{"station_name":"Sawah Besar","time":2,"transit":false,"is_transit":false,"distance":1149,"i_lat":-6.160725,"i_long":106.827103,"station_id":"SW","line":2},{"distance":906,"line":2,"time":2,"is_transit":false,"transit":false,"station_name":"Manggabesar","station_id":"MGB","i_lat":-6.149769,"i_long":106.82482},{"i_long":106.820901,"transit":false,"is_transit":false,"station_id":"JAY","distance":1080,"line":2,"time":2,"i_lat":-6.141205,"station_name":"Jayakarta"},{"line":2,"time":4,"station_id":"JAKK","is_transit":true,"i_long":106.812439,"transit":true,"i_lat":-6.137569,"station_name":"Jakarta Kota","distance":1264},{"station_id":"KPB","time":3,"line":4,"is_transit":true,"i_long":106.826365,"transit":true,"i_lat":-6.132549,"distance":1364,"station_name":"Kampung Bandan"},{"station_id":"AK","i_long":106.79867,"distance":4102,"transit":false,"time":9,"is_transit":false,"line":1,"i_lat":-6.144674,"station_name":"Angke"},{"line":1,"is_transit":true,"distance":1230,"transit":true,"i_long":106.800832,"i_lat":-6.155215,"station_name":"Duri","time":4,"station_id":"DU"},{"i_long":106.788277,"time":3,"is_transit":false,"distance":1700,"i_lat":-6.162021,"station_id":"GGL","transit":false,"station_name":"Grogol","line":5},{"station_id":"PSG","transit":false,"time":2,"distance":2036,"station_name":"Pesing","i_long":106.771379,"line":5,"i_lat":-6.161433,"is_transit":false},{"line":5,"transit":false,"station_id":"TKO","distance":1614,"i_lat":-6.1587309999999995,"station_name":"Taman Kota","time":2,"is_transit":false,"i_long":106.756522},{"time":2,"transit":false,"distance":2334,"is_transit":false,"i_lat":-6.159876,"i_long":106.737035,"station_name":"Bojongindah","station_id":"BOI","line":5},{"is_transit":false,"distance":1152,"line":5,"time":4,"i_lat":-6.162758,"transit":false,"station_name":"Rawa Buaya","station_id":"RW","i_long":106.723064},{"transit":false,"station_id":"KDS","time":3,"distance":2504,"line":5,"is_transit":false,"i_lat":-6.166068,"i_long":106.701612,"station_name":"Kalideres"},{"station_name":"Poris","is_transit":false,"line":5,"distance":2548,"i_long":106.679458,"transit":false,"i_lat":-6.169933,"time":3,"station_id":"PI"},{"station_name":"Batuceper","distance":1834,"i_lat":-6.171811,"time":3,"line":5,"transit":false,"station_id":"BPR","is_transit":false,"i_long":106.665036}],[{"station_name":"Pasar Senen","distance":0,"i_long":106.84368,"time":0,"transit":false,"station_id":"PSE","is_transit":false,"line":11,"i_lat":-6.174784},{"distance":1436,"is_transit":false,"transit":false,"i_lat":-6.161728,"station_id":"KMO","i_long":106.839204,"line":11,"station_name":"Kemayoran","time":4},{"i_lat":-6.14505,"time":5,"station_id":"RJW","i_long":106.836569,"is_transit":false,"line":11,"transit":false,"distance":1901,"station_name":"Rajawali"},{"line":4,"time":3,"transit":true,"station_name":"Kampung Bandan","is_transit":true,"station_id":"KPB","distance":1444,"i_lat":-6.132549,"i_long":106.826365},{"time":3,"is_transit":true,"line":2,"station_id":"JAKK","transit":true,"distance":1364,"i_long":106.812439,"i_lat":-6.137569,"station_name":"Jakarta Kota"},{"line":2,"distance":1264,"transit":false,"station_name":"Jayakarta","station_id":"JAY","i_long":106.820901,"is_transit":false,"time":4,"i_lat":-6.141205},{"transit":false,"distance":1080,"station_name":"Manggabesar","i_long":106.82482,"is_transit":false,"time":2,"station_id":"MGB","i_lat":-6.149769,"line":2},{"line":2,"is_transit":false,"i_lat":-6.160725,"time":2,"station_name":"Sawah Besar","transit":false,"distance":906,"station_id":"SW","i_long":106.827103},{"time":2,"station_id":"JUA","distance":1149,"i_long":106.828284,"line":2,"station_name":"Juanda","transit":false,"i_lat":-6.166716,"is_transit":false},{"transit":false,"station_name":"Gondangdia","time":4,"is_transit":false,"i_lat":-6.186295,"distance":2015,"i_long":106.832183,"station_id":"GDD","line":2},{"i_lat":-6.198556,"transit":false,"line":2,"is_transit":false,"distance":1750,"i_long":106.840169,"station_name":"Cikini","station_id":"CKI","time":3},{"station_id":"MRI","is_transit":true,"transit":true,"i_lat":-6.209883,"time":4,"i_long":106.84912,"line":2,"station_name":"Manggarai","distance":1590},{"station_name":"Sudirman","time":4,"distance":3186,"i_lat":-6.202263,"line":1,"transit":false,"is_transit":false,"i_long":106.822649,"station_id":"SUD"},{"station_name":"Sudirman Baru","line":1,"transit":false,"i_lat":-6.201433,"is_transit":false,"time":1,"i_long":106.819881,"distance":280,"station_id":"SUDB"},{"i_long":106.816351,"time":1,"transit":false,"is_transit":false,"line":1,"distance":471,"station_name":"Karet","i_lat":-6.20132,"station_id":"KAT"},{"line":1,"time":5,"station_id":"THB","i_long":106.811091,"transit":false,"distance":2029,"i_lat":-6.185545,"is_transit":false,"station_name":"Tanah Abang"},{"transit":true,"distance":3632,"is_transit":true,"i_lat":-6.155215,"time":8,"station_name":"Duri","station_id":"DU","i_long":106.800832,"line":1},{"i_long":106.788277,"station_name":"Grogol","i_lat":-6.162021,"time":3,"transit":false,"station_id":"GGL","is_transit":false,"distance":1700,"line":5},{"transit":false,"i_long":106.771379,"line":5,"time":2,"is_transit":false,"distance":2036,"station_id":"PSG","station_name":"Pesing","i_lat":-6.161433},{"i_long":106.756522,"station_name":"Taman Kota","distance":1614,"i_lat":-6.1587309999999995,"is_transit":false,"line":5,"transit":false,"time":2,"station_id":"TKO"},{"time":2,"i_lat":-6.159876,"line":5,"station_id":"BOI","distance":2334,"is_transit":false,"i_long":106.737035,"transit":false,"station_name":"Bojongindah"},{"is_transit":false,"distance":1152,"i_long":106.723064,"time":4,"station_name":"Rawa Buaya","transit":false,"i_lat":-6.162758,"line":5,"station_id":"RW"},{"station_name":"Kalideres","i_lat":-6.166068,"station_id":"KDS","transit":false,"time":3,"is_transit":false,"line":5,"i_long":106.701612,"distance":2504},{"distance":2548,"i_lat":-6.169933,"time":3,"station_name":"Poris","is_transit":false,"transit":false,"i_long":106.679458,"station_id":"PI","line":5},{"transit":false,"i_long":106.665036,"time":3,"station_id":"BPR","is_transit":false,"distance":1834,"i_lat":-6.171811,"line":5,"station_name":"Batuceper"}]]}