{"data":[[{"line":11,"station_id":"PSE","is_transit":false,"time":0,"station_name":"Pasar Senen","transit":false,"distance":0,"i_lat":-6.174784,"i_long":106.84368},{"i_lat":-6.161728,"transit":false,"station_id":"KMO","is_transit":false,"distance":1436,"time":4,"i_long":106.839204,"line":11,"station_name":"Kemayoran"},{"line":11,"station_name":"Rajawali","time":5,"is_transit":false,"i_lat":-6.14505,"distance":1901,"station_id":"RJW","i_long":106.836569,"transit":false},{"station_name":"Kampung Bandan","i_long":106.826365,"transit":true,"distance":1444,"line":4,"is_transit":true,"time":3,"i_lat":-6.132549,"station_id":"KPB"},{"is_transit":false,"time":9,"station_name":"Angke","distance":4102,"i_lat":-6.144674,"i_long":106.79867,"line":1,"station_id":"AK","transit":false},{"i_long":106.800832,"time":4,"line":1,"transit":false,"station_id":"DU","distance":1230,"station_name":"Duri","i_lat":-6.155215,"is_transit":false},{"line":1,"is_transit":false,"station_name":"Tanah Abang","time":8,"transit":false,"station_id":"THB","distance":3632,"i_lat":-6.185545,"i_long":106.811091},{"distance":2029,"station_name":"Karet","i_long":106.816351,"is_transit":false,"time":5,"i_lat":-6.20132,"line":1,"station_id":"KAT","transit":false}],[{"line":11,"station_id":"PSE","transit":false,"distance":0,"station_name":"Pasar Senen","i_lat":-6.174784,"i_long":106.84368,"is_transit":false,"time":0},{"i_long":106.850107,"i_lat":-6.185975,"is_transit":false,"station_id":"GST","time":8,"transit":false,"distance":1567,"line":11,"station_name":"Gang Sentiong"},{"station_name":"Kramat","transit":false,"is_transit":false,"line":11,"i_lat":-6.193792,"station_id":"KMT","time":1,"i_long":106.855437,"distance":973},{"station_id":"POK","transit":false,"station_name":"Pondok Jati","line":11,"distance":1829,"i_long":106.861737,"is_transit":false,"i_lat":-6.209188,"time":2},{"i_long":106.86807400000001,"distance":1236,"station_id":"JNG","transit":true,"line":1,"is_transit":true,"i_lat":-6.215091,"time":9,"station_name":"Jatinegara"},{"station_id":"MTR","station_name":"Matraman","is_transit":false,"transit":false,"i_lat":-6.212485,"time":2,"distance":1377,"i_long":106.858896,"line":1},{"transit":false,"i_long":106.84912,"distance":1275,"time":2,"line":2,"is_transit":false,"station_name":"Manggarai","i_lat":-6.209883,"station_id":"MRI"},{"distance":3186,"time":4,"line":1,"station_id":"SUD","transit":false,"i_long":106.822649,"is_transit":false,"i_lat":-6.202263,"station_name":"Sudirman"},{"time":1,"i_lat":-6.201433,"station_name":"Sudirman Baru","i_long":106.819881,"line":1,"transit":false,"station_id":"SUDB","is_transit":false,"distance":280},{"time":1,"i_lat":-6.20132,"line":1,"distance":471,"station_name":"Karet","transit":false,"i_long":106.816351,"station_id":"KAT","is_transit":false}],[{"i_long":106.84368,"distance":0,"i_lat":-6.174784,"station_name":"Pasar Senen","time":0,"transit":false,"line":11,"is_transit":false,"station_id":"PSE"},{"i_lat":-6.161728,"station_id":"KMO","transit":false,"is_transit":false,"station_name":"Kemayoran","time":4,"i_long":106.839204,"distance":1436,"line":11},{"i_long":106.836569,"is_transit":false,"transit":false,"station_id":"RJW","distance":1901,"line":11,"time":5,"i_lat":-6.14505,"station_name":"Rajawali"},{"line":4,"station_id":"KPB","time":3,"is_transit":true,"i_long":106.826365,"transit":true,"i_lat":-6.132549,"station_name":"Kampung Bandan","distance":1444},{"station_name":"Jakarta Kota","time":3,"line":2,"is_transit":true,"i_long":106.812439,"transit":true,"i_lat":-6.137569,"distance":1364,"station_id":"JAKK"},{"station_id":"JAY","i_long":106.820901,"distance":1264,"transit":false,"time":4,"is_transit":false,"line":2,"i_lat":-6.141205,"station_name":"Jayakarta"},{"line":2,"is_transit":false,"distance":1080,"transit":false,"i_long":106.82482,"i_lat":-6.149769,"station_name":"Manggabesar","time":2,"station_id":"MGB"},{"distance":906,"line":2,"transit":false,"time":2,"is_transit":false,"i_long":106.827103,"station_name":"Sawah Besar","i_lat":-6.160725,"station_id":"SW"},{"time":2,"station_name":"Juanda","i_lat":-6.166716,"distance":1149,"transit":false,"line":2,"is_transit":false,"station_id":"JUA","i_long":106.828284},{"time":4,"transit":false,"is_transit":false,"i_lat":-6.186295,"station_name":"Gondangdia","distance":2015,"i_long":106.832183,"line":2,"station_id":"GDD"},{"is_transit":false,"time":3,"i_long":106.840169,"distance":1750,"line":2,"i_lat":-6.198556,"station_name":"Cikini","transit":false,"station_id":"CKI"},{"is_transit":true,"line":2,"distance":1590,"i_lat":-6.209883,"time":4,"station_name":"Manggarai","i_long":106.84912,"station_id":"MRI","transit":true},{"transit":false,"station_name":"Sudirman","time":4,"is_transit":false,"i_lat":-6.202263,"i_long":106.822649,"line":1,"station_id":"SUD","distance":3186},{"i_lat":-6.201433,"station_id":"SUDB","i_long":106.819881,"transit":false,"is_transit":false,"distance":280,"station_name":"Sudirman Baru","line":1,"time":1},{"time":1,"i_lat":-6.20132,"is_transit":false,"line":1,"transit":false,"station_id":"KAT","i_long":106.816351,"distance":471,"station_name":"Karet"}],[{"time":0,"station_name":"Pasar Senen","i_lat":-6.174784,"line":11,"transit":false,"is_transit":false,"distance":0,"station_id":"PSE","i_long":106.84368},{"station_name":"Gang Sentiong","line":11,"time":8,"station_id":"GST","transit":false,"i_long":106.850107,"is_transit":false,"i_lat":-6.185975,"distance":1567},{"i_long":106.855437,"line":11,"station_id":"KMT","distance":973,"i_lat":-6.193792,"station_name":"Kramat","is_transit":false,"transit":false,"time":1},{"station_id":"POK","i_lat":-6.209188,"distance":1829,"transit":false,"is_transit":false,"i_long":106.861737,"station_name":"Pondok Jati","time":2,"line":11},{"station_id":"JNG","is_transit":true,"transit":true,"station_name":"Jatinegara","distance":1236,"time":9,"i_lat":-6.215091,"line":1,"i_long":106.86807400000001},{"i_lat":-6.212485,"line":1,"station_name":"Matraman","station_id":"MTR","is_transit":false,"distance":1377,"time":2,"transit":false,"i_long":106.858896},{"transit":true,"i_long":106.84912,"is_transit":true,"distance":1275,"station_name":"Manggarai","station_id":"MRI","i_lat":-6.209883,"line":2,"time":2},{"i_long":106.840169,"distance":1590,"transit":false,"time":4,"i_lat":-6.198556,"is_transit":false,"station_name":"Cikini","station_id":"CKI","line":2},{"time":3,"i_long":106.832183,"station_id":"GDD","is_transit":false,"line":2,"station_name":"Gondangdia","i_lat":-6.186295,"transit":false,"distance":1750},{"transit":false,"i_long":106.828284,"i_lat":-6.166716,"station_id":"JUA","is_transit":false,"time":4,"distance":2015,"station_name":"Juanda","line":2},{"i_lat":-6.160725,"distance":1149,"transit":false,"i_long":106.827103,"line":2,"station_name":"Sawah Besar","station_id":"SW","is_transit":false,"time":2},{"transit":false,"time":2,"is_transit":false,"station_name":"Manggabesar","line":2,"station_id":"MGB","i_lat":-6.149769,"i_long":106.82482,"distance":906},{"line":2,"distance":1080,"i_long":106.820901,"i_lat":-6.141205,"station_id":"JAY","is_transit":false,"time":2,"station_name":"Jayakarta","transit":false},{"is_transit":true,"distance":1264,"transit":true,"i_lat":-6.137569,"line":2,"i_long":106.812439,"station_id":"JAKK","time":4,"station_name":"Jakarta Kota"},{"line":4,"station_id":"KPB","station_name":"Kampung Bandan","distance":1364,"i_lat":-6.132549,"is_transit":true,"time":3,"i_long":106.826365,"transit":true},{"is_transit":false,"distance":4102,"i_long":106.79867,"time":9,"transit":false,"i_lat":-6.144674,"station_name":"Angke","line":1,"station_id":"AK"},{"i_long":106.800832,"line":1,"distance":1230,"transit":false,"is_transit":false,"time":4,"station_id":"DU","i_lat":-6.155215,"station_name":"Duri"},{"is_transit":false,"time":8,"station_name":"Tanah Abang","i_lat":-6.185545,"i_long":106.811091,"line":1,"transit":false,"distance":3632,"station_id":"THB"},{"station_id":"KAT","distance":2029,"line":1,"time":5,"transit":false,"station_name":"Karet","is_transit":false,"i_lat":-6.20132,"i_long":106.816351}]]}