{"data":[[{"i_lat":-6.174784,"station_id":"PSE","line":11,"station_name":"Pasar Senen","time":0,"is_transit":false,"distance":0,"i_long":106.84368,"transit":false},{"i_long":106.839204,"station_id":"KMO","line":11,"is_transit":false,"station_name":"Kemayoran","transit":false,"i_lat":-6.161728,"time":4,"distance":1436},{"station_id":"RJW","transit":false,"is_transit":false,"station_name":"Rajawali","distance":1901,"line":11,"i_long":106.836569,"i_lat":-6.14505,"time":5},{"distance":1444,"i_lat":-6.132549,"time":3,"station_id":"KPB","is_transit":true,"line":4,"transit":true,"station_name":"Kampung Bandan","i_long":106.826365},{"time":3,"station_name":"Jakarta Kota","station_id":"JAKK","is_transit":true,"distance":1364,"i_long":106.812439,"transit":true,"line":2,"i_lat":-6.137569},{"i_long":106.820901,"distance":1264,"line":2,"is_transit":false,"station_id":"JAY","time":4,"i_lat":-6.141205,"transit":false,"station_name":"Jayakarta"},{"i_long":106.82482,"is_transit":false,"station_id":"MGB","transit":false,"time":2,"distance":1080,"i_lat":-6.149769,"line":2,"station_name":"Manggabesar"}],[{"is_transit":false,"line":11,"station_id":"PSE","transit":false,"i_lat":-6.174784,"station_name":"Pasar Senen","time":0,"distance":0,"i_long":106.84368},{"time":8,"distance":1567,"station_id":"GST","i_lat":-6.185975,"i_long":106.850107,"transit":false,"is_transit":false,"station_name":"Gang Sentiong","line":11},{"time":1,"distance":973,"i_lat":-6.193792,"line":11,"transit":false,"station_name":"Kramat","is_transit":false,"station_id":"KMT","i_long":106.855437},{"distance":1829,"time":2,"station_id":"POK","is_transit":false,"line":11,"transit":false,"station_name":"Pondok Jati","i_long":106.861737,"i_lat":-6.209188},{"transit":true,"is_transit":true,"time":9,"i_lat":-6.215091,"distance":1236,"line":1,"station_name":"Jatinegara","station_id":"JNG","i_long":106.86807400000001},{"i_long":106.858896,"transit":false,"is_transit":false,"distance":1377,"station_id":"MTR","line":1,"time":2,"i_lat":-6.212485,"station_name":"Matraman"},{"line":2,"time":2,"station_id":"MRI","is_transit":true,"i_long":106.84912,"transit":true,"i_lat":-6.209883,"station_name":"Manggarai","distance":1275},{"station_id":"CKI","time":4,"line":2,"is_transit":false,"i_long":106.840169,"transit":false,"i_lat":-6.198556,"distance":1590,"station_name":"Cikini"},{"station_id":"GDD","i_long":106.832183,"distance":1750,"transit":false,"time":3,"is_transit":false,"line":2,"i_lat":-6.186295,"station_name":"Gondangdia"},{"line":2,"is_transit":false,"distance":2015,"transit":false,"i_long":106.828284,"i_lat":-6.166716,"station_name":"Juanda","time":4,"station_id":"JUA"},{"distance":1149,"line":2,"transit":false,"time":2,"is_transit":false,"i_long":106.827103,"station_name":"Sawah Besar","i_lat":-6.160725,"station_id":"SW"},{"time":2,"station_name":"Manggabesar","i_lat":-6.149769,"distance":906,"transit":false,"line":2,"is_transit":false,"station_id":"MGB","i_long":106.82482}],[{"time":0,"transit":false,"is_transit":false,"i_lat":-6.174784,"station_name":"Pasar Senen","distance":0,"i_long":106.84368,"line":11,"station_id":"PSE"},{"is_transit":false,"station_id":"KMO","i_long":106.839204,"distance":1436,"line":11,"i_lat":-6.161728,"station_name":"Kemayoran","transit":false,"time":4},{"is_transit":false,"line":11,"distance":1901,"i_lat":-6.14505,"time":5,"station_name":"Rajawali","i_long":106.836569,"station_id":"RJW","transit":false},{"transit":true,"station_name":"Kampung Bandan","time":3,"is_transit":true,"i_lat":-6.132549,"i_long":106.826365,"line":4,"distance":1444,"station_id":"KPB"},{"i_lat":-6.144674,"station_id":"AK","i_long":106.79867,"transit":false,"is_transit":false,"station_name":"Angke","distance":4102,"line":1,"time":9},{"time":4,"i_lat":-6.155215,"is_transit":false,"line":1,"transit":false,"station_id":"DU","i_long":106.800832,"station_name":"Duri","distance":1230},{"station_name":"Tanah Abang","time":8,"i_lat":-6.185545,"line":1,"transit":false,"is_transit":false,"distance":3632,"station_id":"THB","i_long":106.811091},{"station_name":"Karet","line":1,"time":5,"station_id":"KAT","transit":false,"i_long":106.816351,"is_transit":false,"i_lat":-6.20132,"distance":2029},{"i_long":106.819881,"line":1,"station_id":"SUDB","distance":471,"i_lat":-6.201433,"station_name":"Sudirman Baru","is_transit":false,"transit":false,"time":1},{"station_id":"SUD","i_lat":-6.202263,"distance":280,"transit":false,"is_transit":false,"i_long":106.822649,"station_name":"Sudirman","time":1,"line":1},{"transit":true,"is_transit":true,"station_name":"Manggarai","station_id":"MRI","distance":3186,"time":4,"i_lat":-6.209883,"line":2,"i_long":106.84912},{"i_lat":-6.198556,"line":2,"station_name":"Cikini","station_id":"CKI","is_transit":false,"time":4,"distance":1590,"transit":false,"i_long":106.840169},{"transit":false,"i_long":106.832183,"is_transit":false,"station_name":"Gondangdia","distance":1750,"station_id":"GDD","i_lat":-6.186295,"line":2,"time":3},{"i_long":106.828284,"distance":2015,"transit":false,"time":4,"i_lat":-6.166716,"is_transit":false,"station_name":"Juanda","station_id":"JUA","line":2},{"time":2,"i_long":106.827103,"is_transit":false,"station_id":"SW","line":2,"station_name":"Sawah Besar","i_lat":-6.160725,"transit":false,"distance":1149},{"transit":false,"i_long":106.82482,"i_lat":-6.149769,"station_id":"MGB","is_transit":false,"time":2,"distance":906,"station_name":"Manggabesar","line":2}],[{"i_lat":-6.174784,"distance":0,"transit":false,"i_long":106.84368,"line":11,"station_name":"Pasar Senen","station_id":"PSE","is_transit":false,"time":0},{"transit":false,"station_name":"Gang Sentiong","is_transit":false,"time":8,"line":11,"station_id":"GST","i_lat":-6.185975,"i_long":106.850107,"distance":1567},{"line":11,"distance":973,"i_long":106.855437,"i_lat":-6.193792,"station_id":"KMT","is_transit":false,"station_name":"Kramat","time":1,"transit":false},{"is_transit":false,"distance":1829,"transit":false,"i_lat":-6.209188,"line":11,"i_long":106.861737,"station_id":"POK","time":2,"station_name":"Pondok Jati"},{"line":1,"station_id":"JNG","station_name":"Jatinegara","distance":1236,"i_lat":-6.215091,"is_transit":true,"time":9,"i_long":106.86807400000001,"transit":true},{"is_transit":false,"distance":1377,"i_long":106.858896,"time":2,"transit":false,"i_lat":-6.212485,"station_name":"Matraman","line":1,"station_id":"MTR"},{"i_long":106.84912,"line":2,"distance":1275,"transit":false,"is_transit":false,"time":2,"station_id":"MRI","i_lat":-6.209883,"station_name":"Manggarai"},{"is_transit":false,"time":4,"station_id":"SUD","i_lat":-6.202263,"i_long":106.822649,"line":1,"transit":false,"station_name":"Sudirman","distance":3186},{"station_id":"SUDB","distance":280,"line":1,"time":1,"transit":false,"station_name":"Sudirman Baru","is_transit":false,"i_lat":-6.201433,"i_long":106.819881},{"station_name":"Karet","i_lat":-6.20132,"i_long":106.816351,"line":1,"time":1,"is_transit":false,"distance":471,"station_id":"KAT","transit":false},{"station_name":"Tanah Abang","transit":false,"distance":2029,"i_lat":-6.185545,"time":5,"station_id":"THB","is_transit":false,"i_long":106.811091,"line":1},{"is_transit":false,"transit":false,"station_name":"Duri","i_long":106.800832,"time":8,"distance":3632,"station_id":"DU","i_lat":-6.155215,"line":1},{"i_lat":-6.144674,"station_name":"Angke","transit":false,"distance":1230,"i_long":106.79867,"is_transit":false,"line":1,"time":4,"station_id":"AK"},{"i_long":106.826365,"distance":4102,"station_id":"KPB","is_transit":true,"i_lat":-6.132549,"transit":true,"line":4,"station_name":"Kampung Bandan","time":9},{"line":2,"station_name":"Jakarta Kota","station_id":"JAKK","i_long":106.812439,"distance":1364,"i_lat":-6.137569,"transit":true,"time":3,"is_transit":true},{"transit":false,"is_transit":false,"i_long":106.820901,"distance":1264,"station_id":"JAY","time":4,"i_lat":-6.141205,"line":2,"station_name":"Jayakarta"},{"is_transit":false,"time":2,"i_lat":-6.149769,"distance":1080,"line":2,"transit":false,"station_name":"Manggabesar","station_id":"MGB","i_long":106.82482}]]}