{"data":[[{"line":11,"station_id":"PSE","i_long":106.84368,"distance":0,"station_name":"Pasar Senen","time":0,"is_transit":false,"i_lat":-6.174784,"transit":false},{"i_lat":-6.185975,"station_id":"GST","station_name":"Gang Sentiong","distance":1567,"time":8,"i_long":106.850107,"line":11,"is_transit":false,"transit":false},{"station_id":"KMT","time":1,"i_long":106.855437,"distance":973,"line":11,"transit":false,"i_lat":-6.193792,"station_name":"Kramat","is_transit":false},{"i_lat":-6.209188,"line":11,"station_name":"Pondok Jati","station_id":"POK","time":2,"is_transit":false,"i_long":106.861737,"distance":1829,"transit":false},{"distance":1236,"i_lat":-6.215091,"is_transit":true,"transit":true,"i_long":106.86807400000001,"station_name":"Jatinegara","line":0,"time":9,"station_id":"JNG"},{"line":1,"is_transit":false,"station_name":"Matraman","distance":1377,"station_id":"MTR","i_long":106.858896,"transit":false,"i_lat":-6.212485,"time":2},{"station_name":"Manggarai","i_lat":-6.209883,"is_transit":true,"station_id":"MRI","time":2,"distance":1275,"line":0,"transit":true,"i_long":106.84912},{"is_transit":false,"i_long":106.857948,"station_name":"Tebet","transit":false,"station_id":"TEB","time":4,"distance":2610,"i_lat":-6.226659,"line":2},{"is_transit":false,"station_id":"CW","i_lat":-6.242512,"i_long":106.856607,"station_name":"Cawang","time":2,"distance":1230,"transit":false,"line":0},{"is_transit":false,"line":0,"i_long":106.85449,"distance":1546,"i_lat":-6.255332,"time":3,"station_id":"DRN","transit":false,"station_name":"Duren Kalibata"},{"distance":824,"is_transit":false,"station_id":"PSMB","time":2,"transit":false,"i_long":106.851577,"station_name":"Pasar Minggu Baru","line":2,"i_lat":-6.263214},{"distance":2380,"transit":false,"i_long":106.843999,"line":2,"station_name":"Pasar Minggu","station_id":"PSM","is_transit":false,"time":2,"i_lat":-6.2842400000000005},{"transit":false,"time":4,"distance":2820,"is_transit":false,"i_lat":-6.3080680000000005,"i_long":106.838896,"line":2,"station_id":"TNT","station_name":"Tanjung Barat"},{"line":2,"transit":false,"station_name":"Lenteng Agung","i_lat":-6.330363,"time":3,"is_transit":false,"distance":2671,"station_id":"LNA","i_long":106.832616},{"i_lat":-6.339291,"transit":false,"i_long":106.834175,"time":2,"line":2,"station_id":"UP","is_transit":false,"distance":1029,"station_name":"Univ. Pancasila"},{"line":2,"transit":false,"station_id":"UI","distance":2264,"is_transit":false,"time":3,"i_lat":-6.360749,"i_long":106.831474,"station_name":"Univ. Indonesia"},{"station_name":"Pondok Cina","i_long":106.831114,"station_id":"POC","time":2,"i_lat":-6.369073,"is_transit":false,"line":2,"transit":false,"distance":1109},{"is_transit":false,"station_id":"DPB","transit":false,"time":4,"i_lat":-6.391065,"i_long":106.819451,"distance":2727,"line":0,"station_name":"Depokbaru"},{"transit":false,"station_id":"DP","i_long":106.816926,"line":0,"i_lat":-6.405256,"station_name":"Depok","time":3,"is_transit":false,"distance":1584},{"i_long":106.800298,"is_transit":true,"line":1,"i_lat":-6.448811,"time":6,"station_id":"CTA","transit":false,"distance":5084,"station_name":"Citayam"},{"distance":6740,"i_lat":-6.46424,"i_long":106.851978,"line":0,"time":10,"transit":false,"is_transit":false,"station_name":"Cibinong","station_id":"CBN"},{"i_long":106.905196,"line":21,"time":10,"station_name":"Nambo","i_lat":-6.466285,"station_id":"NMO","is_transit":false,"distance":6527,"transit":false}],[{"transit":false,"line":11,"is_transit":false,"i_lat":-6.174784,"time":0,"station_id":"PSE","distance":0,"i_long":106.84368,"station_name":"Pasar Senen"},{"station_name":"Kemayoran","i_long":106.839204,"line":11,"transit":false,"is_transit":false,"i_lat":-6.161728,"station_id":"KMO","time":4,"distance":1436},{"line":11,"time":5,"transit":false,"distance":1901,"is_transit":false,"i_long":106.836569,"station_id":"RJW","i_lat":-6.14505,"station_name":"Rajawali"},{"i_long":106.826365,"time":3,"station_name":"Kampung Bandan","is_transit":true,"transit":true,"station_id":"KPB","i_lat":-6.132549,"distance":1444,"line":0},{"line":0,"distance":4102,"is_transit":false,"station_id":"AK","station_name":"Angke","transit":false,"i_lat":-6.144674,"time":9,"i_long":106.79867},{"is_transit":true,"station_id":"DU","i_lat":-6.155215,"i_long":106.800832,"line":1,"station_name":"Duri","distance":1230,"transit":true,"time":4},{"transit":false,"line":1,"i_lat":-6.185545,"is_transit":true,"distance":3632,"time":8,"station_id":"THB","station_name":"Tanah Abang","i_long":106.811091},{"distance":2029,"time":5,"line":1,"station_id":"KAT","i_long":106.816351,"i_lat":-6.20132,"is_transit":false,"station_name":"Karet","transit":false},{"i_long":106.819881,"i_lat":-6.201433,"station_name":"Sudirman Baru","station_id":"SUDB","line":1,"distance":471,"is_transit":false,"transit":false,"time":1},{"transit":false,"station_name":"Sudirman","i_long":106.822649,"distance":280,"station_id":"SUD","time":1,"is_transit":false,"i_lat":-6.202263,"line":1},{"line":0,"time":4,"i_long":106.84912,"station_id":"MRI","i_lat":-6.209883,"station_name":"Manggarai","is_transit":true,"transit":true,"distance":3186},{"station_id":"TEB","line":2,"i_long":106.857948,"distance":2610,"station_name":"Tebet","time":4,"i_lat":-6.226659,"transit":false,"is_transit":false},{"station_id":"CW","i_long":106.856607,"time":2,"transit":false,"distance":1230,"line":0,"is_transit":false,"station_name":"Cawang","i_lat":-6.242512},{"transit":false,"line":0,"station_name":"Duren Kalibata","time":3,"is_transit":false,"i_long":106.85449,"station_id":"DRN","distance":1546,"i_lat":-6.255332},{"station_id":"PSMB","time":2,"distance":824,"is_transit":false,"station_name":"Pasar Minggu Baru","transit":false,"i_lat":-6.263214,"i_long":106.851577,"line":2},{"i_long":106.843999,"distance":2380,"transit":false,"time":2,"line":2,"is_transit":false,"station_id":"PSM","station_name":"Pasar Minggu","i_lat":-6.2842400000000005},{"station_id":"TNT","distance":2820,"is_transit":false,"station_name":"Tanjung Barat","time":4,"line":2,"i_lat":-6.3080680000000005,"i_long":106.838896,"transit":false},{"line":2,"transit":false,"distance":2671,"station_id":"LNA","time":3,"is_transit":false,"i_lat":-6.330363,"station_name":"Lenteng Agung","i_long":106.832616},{"distance":1029,"station_id":"UP","station_name":"Univ. Pancasila","i_lat":-6.339291,"time":2,"i_long":106.834175,"transit":false,"line":2,"is_transit":false},{"station_name":"Univ. Indonesia","station_id":"UI","transit":false,"is_transit":false,"i_lat":-6.360749,"line":2,"distance":2264,"time":3,"i_long":106.831474},{"i_long":106.831114,"station_id":"POC","i_lat":-6.369073,"line":2,"time":2,"is_transit":false,"station_name":"Pondok Cina","distance":1109,"transit":false},{"time":4,"is_transit":false,"station_id":"DPB","distance":2727,"station_name":"Depokbaru","line":0,"transit":false,"i_long":106.819451,"i_lat":-6.391065},{"distance":1584,"i_lat":-6.405256,"transit":false,"time":3,"station_name":"Depok","i_long":106.816926,"is_transit":false,"station_id":"DP","line":0},{"is_transit":true,"transit":false,"distance":5084,"station_id":"CTA","i_lat":-6.448811,"time":6,"station_name":"Citayam","line":1,"i_long":106.800298},{"is_transit":false,"station_name":"Cibinong","i_long":106.851978,"line":0,"station_id":"CBN","transit":false,"time":10,"i_lat":-6.46424,"distance":6740},{"i_lat":-6.466285,"station_name":"Nambo","is_transit":false,"time":10,"distance":6527,"i_long":106.905196,"transit":false,"station_id":"NMO","line":21}],[{"transit":false,"line":11,"i_long":106.84368,"distance":0,"time":0,"station_name":"Pasar Senen","i_lat":-6.174784,"station_id":"PSE","is_transit":false},{"station_name":"Kemayoran","i_lat":-6.161728,"line":11,"transit":false,"distance":1436,"i_long":106.839204,"station_id":"KMO","is_transit":false,"time":4},{"transit":false,"time":5,"i_lat":-6.14505,"i_long":106.836569,"station_id":"RJW","distance":1901,"station_name":"Rajawali","line":11,"is_transit":false},{"is_transit":true,"i_lat":-6.132549,"station_id":"KPB","distance":1444,"station_name":"Kampung Bandan","i_long":106.826365,"line":0,"transit":true,"time":3},{"station_name":"Jakarta Kota","station_id":"JAKK","transit":true,"i_lat":-6.137569,"i_long":106.812439,"line":0,"distance":1364,"is_transit":true,"time":3},{"transit":false,"distance":1264,"is_transit":false,"station_id":"JAY","time":4,"i_lat":-6.141205,"i_long":106.820901,"line":7,"station_name":"Jayakarta"},{"time":2,"distance":1080,"station_name":"Manggabesar","i_lat":-6.149769,"i_long":106.82482,"line":2,"station_id":"MGB","transit":false,"is_transit":false},{"distance":906,"is_transit":false,"i_lat":-6.160725,"station_id":"SW","time":2,"station_name":"Sawah Besar","transit":false,"line":2,"i_long":106.827103},{"distance":1149,"line":2,"is_transit":false,"i_lat":-6.166716,"station_id":"JUA","transit":false,"station_name":"Juanda","i_long":106.828284,"time":2},{"i_lat":-6.186295,"is_transit":false,"transit":false,"distance":2015,"time":4,"station_name":"Gondangdia","i_long":106.832183,"line":2,"station_id":"GDD"},{"distance":1750,"time":3,"i_lat":-6.198556,"i_long":106.840169,"is_transit":false,"line":0,"station_name":"Cikini","station_id":"CKI","transit":false},{"time":4,"is_transit":true,"distance":1590,"line":0,"station_id":"MRI","transit":true,"station_name":"Manggarai","i_long":106.84912,"i_lat":-6.209883},{"station_name":"Tebet","transit":false,"station_id":"TEB","time":4,"i_long":106.857948,"line":2,"distance":2610,"i_lat":-6.226659,"is_transit":false},{"is_transit":false,"station_id":"CW","station_name":"Cawang","i_lat":-6.242512,"i_long":106.856607,"transit":false,"line":0,"time":2,"distance":1230},{"is_transit":false,"distance":1546,"i_lat":-6.255332,"transit":false,"station_name":"Duren Kalibata","time":3,"i_long":106.85449,"line":0,"station_id":"DRN"},{"time":2,"i_lat":-6.263214,"station_name":"Pasar Minggu Baru","is_transit":false,"distance":824,"line":2,"station_id":"PSMB","transit":false,"i_long":106.851577},{"transit":false,"distance":2380,"i_long":106.843999,"time":2,"station_id":"PSM","i_lat":-6.2842400000000005,"is_transit":false,"station_name":"Pasar Minggu","line":2},{"line":2,"is_transit":false,"station_name":"Tanjung Barat","transit":false,"distance":2820,"time":4,"i_long":106.838896,"i_lat":-6.3080680000000005,"station_id":"TNT"},{"line":2,"time":3,"i_lat":-6.330363,"is_transit":false,"station_name":"Lenteng Agung","distance":2671,"transit":false,"i_long":106.832616,"station_id":"LNA"},{"i_long":106.834175,"line":2,"time":2,"station_name":"Univ. Pancasila","is_transit":false,"distance":1029,"station_id":"UP","transit":false,"i_lat":-6.339291},{"i_lat":-6.360749,"is_transit":false,"i_long":106.831474,"transit":false,"line":2,"distance":2264,"station_name":"Univ. Indonesia","time":3,"station_id":"UI"},{"transit":false,"i_lat":-6.369073,"line":2,"time":2,"is_transit":false,"station_name":"Pondok Cina","distance":1109,"i_long":106.831114,"station_id":"POC"},{"station_id":"DPB","is_transit":false,"transit":false,"time":4,"line":0,"i_lat":-6.391065,"distance":2727,"station_name":"Depokbaru","i_long":106.819451},{"time":3,"is_transit":false,"station_name":"Depok","i_long":106.816926,"station_id":"DP","transit":false,"distance":1584,"i_lat":-6.405256,"line":0},{"is_transit":true,"i_lat":-6.448811,"station_id":"CTA","station_name":"Citayam","line":1,"i_long":106.800298,"time":6,"distance":5084,"transit":false},{"line":0,"time":10,"is_transit":false,"station_name":"Cibinong","transit":false,"i_long":106.851978,"i_lat":-6.46424,"station_id":"CBN","distance":6740},{"transit":false,"station_name":"Nambo","line":21,"time":10,"is_transit":false,"station_id":"NMO","i_long":106.905196,"distance":6527,"i_lat":-6.466285}]]}