{"data":[[{"distance":0,"i_long":106.84368,"station_name":"Pasar Senen","transit":false,"time":0,"is_transit":false,"line":11,"station_id":"PSE","i_lat":-6.174784},{"is_transit":false,"distance":1567,"i_lat":-6.185975,"line":11,"i_long":106.850107,"station_name":"Gang Sentiong","transit":false,"station_id":"GST","time":8},{"station_name":"Kramat","transit":false,"station_id":"KMT","is_transit":false,"i_lat":-6.193792,"line":11,"i_long":106.855437,"distance":973,"time":1},{"i_lat":-6.209188,"line":11,"time":2,"i_long":106.861737,"is_transit":false,"distance":1829,"station_name":"Pondok Jati","transit":false,"station_id":"POK"},{"line":1,"station_name":"Jatinegara","distance":1236,"i_long":106.86807400000001,"i_lat":-6.215091,"transit":true,"is_transit":true,"time":9,"station_id":"JNG"},{"line":1,"distance":1377,"is_transit":false,"transit":false,"station_name":"Matraman","station_id":"MTR","i_long":106.858896,"time":2,"i_lat":-6.212485},{"station_name":"Manggarai","is_transit":true,"station_id":"MRI","i_long":106.84912,"time":2,"line":2,"i_lat":-6.209883,"distance":1275,"transit":true},{"is_transit":false,"station_id":"TEB","i_long":106.857948,"transit":false,"i_lat":-6.226659,"station_name":"Tebet","time":4,"line":2,"distance":2610},{"i_lat":-6.242512,"station_name":"Cawang","distance":1230,"line":2,"i_long":106.856607,"station_id":"CW","is_transit":false,"transit":false,"time":2}],[{"station_id":"PSE","is_transit":false,"i_lat":-6.174784,"i_long":106.84368,"station_name":"Pasar Senen","line":11,"transit":false,"distance":0,"time":0},{"line":11,"distance":1436,"is_transit":false,"transit":false,"i_long":106.839204,"i_lat":-6.161728,"time":4,"station_id":"KMO","station_name":"Kemayoran"},{"is_transit":false,"i_long":106.836569,"station_name":"Rajawali","station_id":"RJW","time":5,"distance":1901,"line":11,"i_lat":-6.14505,"transit":false},{"time":3,"i_lat":-6.132549,"i_long":106.826365,"transit":true,"distance":1444,"line":4,"station_id":"KPB","is_transit":true,"station_name":"Kampung Bandan"},{"line":1,"time":9,"station_id":"AK","i_long":106.79867,"transit":false,"is_transit":false,"distance":4102,"station_name":"Angke","i_lat":-6.144674},{"station_name":"Duri","i_long":106.800832,"line":1,"station_id":"DU","i_lat":-6.155215,"distance":1230,"time":4,"transit":false,"is_transit":false},{"i_long":106.811091,"distance":3632,"i_lat":-6.185545,"line":1,"time":8,"station_name":"Tanah Abang","is_transit":false,"transit":false,"station_id":"THB"},{"line":1,"station_name":"Karet","time":5,"distance":2029,"is_transit":false,"i_long":106.816351,"transit":false,"station_id":"KAT","i_lat":-6.20132},{"station_name":"Sudirman Baru","station_id":"SUDB","is_transit":false,"time":1,"line":1,"transit":false,"i_long":106.819881,"distance":471,"i_lat":-6.201433},{"transit":false,"is_transit":false,"time":1,"distance":280,"i_lat":-6.202263,"station_id":"SUD","i_long":106.822649,"line":1,"station_name":"Sudirman"},{"transit":true,"distance":3186,"is_transit":true,"i_long":106.84912,"line":2,"station_id":"MRI","time":4,"station_name":"Manggarai","i_lat":-6.209883},{"station_id":"TEB","time":4,"station_name":"Tebet","i_lat":-6.226659,"line":2,"is_transit":false,"distance":2610,"transit":false,"i_long":106.857948},{"station_name":"Cawang","line":2,"i_long":106.856607,"distance":1230,"is_transit":false,"i_lat":-6.242512,"time":2,"transit":false,"station_id":"CW"}],[{"line":11,"time":0,"is_transit":false,"i_long":106.84368,"station_name":"Pasar Senen","distance":0,"station_id":"PSE","transit":false,"i_lat":-6.174784},{"station_name":"Kemayoran","i_long":106.839204,"is_transit":false,"line":11,"station_id":"KMO","time":4,"i_lat":-6.161728,"transit":false,"distance":1436},{"i_lat":-6.14505,"is_transit":false,"distance":1901,"transit":false,"station_name":"Rajawali","time":5,"i_long":106.836569,"line":11,"station_id":"RJW"},{"station_name":"Kampung Bandan","i_lat":-6.132549,"distance":1444,"station_id":"KPB","time":3,"transit":true,"is_transit":true,"i_long":106.826365,"line":4},{"line":2,"i_lat":-6.137569,"is_transit":true,"transit":true,"station_name":"Jakarta Kota","i_long":106.812439,"distance":1364,"station_id":"JAKK","time":3},{"i_long":106.820901,"line":2,"station_id":"JAY","is_transit":false,"transit":false,"distance":1264,"station_name":"Jayakarta","i_lat":-6.141205,"time":4},{"time":2,"i_lat":-6.149769,"station_id":"MGB","i_long":106.82482,"is_transit":false,"distance":1080,"line":2,"transit":false,"station_name":"Manggabesar"},{"line":2,"station_name":"Sawah Besar","i_lat":-6.160725,"time":2,"is_transit":false,"distance":906,"transit":false,"station_id":"SW","i_long":106.827103},{"time":2,"i_lat":-6.166716,"transit":false,"station_name":"Juanda","is_transit":false,"distance":1149,"i_long":106.828284,"line":2,"station_id":"JUA"},{"i_long":106.832183,"line":2,"is_transit":false,"distance":2015,"station_id":"GDD","station_name":"Gondangdia","i_lat":-6.186295,"time":4,"transit":false},{"time":3,"station_name":"Cikini","station_id":"CKI","transit":false,"distance":1750,"is_transit":false,"line":2,"i_long":106.840169,"i_lat":-6.198556},{"station_name":"Manggarai","line":2,"transit":false,"i_lat":-6.209883,"station_id":"MRI","is_transit":false,"distance":1590,"time":4,"i_long":106.84912},{"station_id":"TEB","line":2,"i_long":106.857948,"i_lat":-6.226659,"transit":false,"distance":2610,"is_transit":false,"time":4,"station_name":"Tebet"},{"is_transit":false,"i_lat":-6.242512,"transit":false,"line":2,"time":2,"i_long":106.856607,"distance":1230,"station_id":"CW","station_name":"Cawang"}]]}