{"data":[[{"is_transit":false,"distance":0,"time":0,"station_name":"Pasar Senen","i_long":106.84368,"station_id":"PSE","line":11,"i_lat":-6.174784,"transit":false},{"distance":1436,"i_long":106.839204,"is_transit":false,"station_id":"KMO","i_lat":-6.161728,"transit":false,"station_name":"Kemayoran","time":4,"line":11},{"distance":1901,"station_name":"Rajawali","time":5,"line":11,"i_lat":-6.14505,"i_long":106.836569,"is_transit":false,"transit":false,"station_id":"RJW"},{"transit":true,"time":3,"i_long":106.826365,"station_name":"Kampung Bandan","distance":1444,"station_id":"KPB","line":4,"is_transit":true,"i_lat":-6.132549},{"station_name":"Angke","transit":false,"station_id":"AK","line":1,"is_transit":false,"distance":4102,"i_long":106.79867,"i_lat":-6.144674,"time":9},{"time":4,"i_lat":-6.155215,"line":1,"station_id":"DU","is_transit":false,"distance":1230,"i_long":106.800832,"transit":false,"station_name":"Duri"},{"time":8,"i_lat":-6.185545,"station_id":"THB","distance":3632,"transit":true,"i_long":106.811091,"line":1,"station_name":"Tanah Abang","is_transit":true},{"station_id":"PLM","time":6,"i_long":106.79689,"transit":false,"i_lat":-6.207404,"is_transit":false,"distance":3191,"station_name":"Palmerah","line":6},{"transit":false,"distance":3737,"is_transit":false,"station_name":"Kebayoran","station_id":"KBY","time":7,"i_lat":-6.237242,"i_long":106.780334,"line":6},{"i_lat":-6.276362,"line":6,"distance":6218,"station_name":"Pondokranji","station_id":"PDJ","is_transit":false,"transit":false,"time":8,"i_long":106.74273},{"station_id":"JMU","is_transit":false,"transit":false,"i_long":106.728916,"i_lat":-6.288927,"time":3,"line":6,"station_name":"Jurangmangu","distance":2179},{"line":6,"is_transit":false,"i_long":106.712277,"station_id":"SDM","transit":false,"station_name":"Sudimara","time":4,"i_lat":-6.296963,"distance":1994},{"is_transit":false,"station_name":"Rawa Buntu","station_id":"RU","transit":false,"time":6,"line":6,"i_long":106.675475,"distance":4566,"i_lat":-6.314823},{"station_id":"SRP","i_lat":-6.319871,"line":6,"distance":2413,"transit":false,"time":4,"i_long":106.66566,"is_transit":false,"station_name":"Serpong"},{"distance":1784,"i_lat":-6.32484,"station_name":"Cisauk","is_transit":false,"transit":false,"line":3,"station_id":"CSK","time":4,"i_long":106.640411},{"transit":false,"time":4,"i_long":106.617853,"is_transit":false,"i_lat":-6.329547,"line":3,"station_name":"Cicayur","distance":2519,"station_id":"CC"},{"station_name":"Parung Panjang","time":8,"i_lat":-6.3441410000000005,"station_id":"PRP","is_transit":false,"transit":false,"distance":5968,"i_long":106.568863,"line":6},{"is_transit":false,"station_name":"Cilejit","transit":false,"i_long":106.508482,"station_id":"CJT","distance":7025,"time":9,"line":3,"i_lat":-6.354349},{"station_name":"Daru","i_lat":-6.338021,"station_id":"DAR","transit":false,"time":6,"is_transit":false,"i_long":106.491338,"distance":2675,"line":0},{"i_long":106.460812,"transit":false,"distance":3902,"time":5,"is_transit":false,"i_lat":-6.327251,"station_name":"Tenjo","line":6,"station_id":"TEJ"},{"i_long":106.425991,"is_transit":false,"transit":false,"distance":2974,"line":6,"time":5,"station_id":"TGS","i_lat":-6.328533,"station_name":"Tigaraksa"},{"line":3,"is_transit":false,"distance":2651,"i_long":106.411216,"time":3,"station_id":"CKY","transit":false,"station_name":"Cikoya","i_lat":-6.33561}],[{"is_transit":false,"transit":false,"distance":0,"i_long":106.84368,"line":11,"time":0,"station_name":"Pasar Senen","station_id":"PSE","i_lat":-6.174784},{"time":8,"i_lat":-6.185975,"station_id":"GST","transit":false,"line":11,"station_name":"Gang Sentiong","distance":1567,"i_long":106.850107,"is_transit":false},{"line":11,"station_name":"Kramat","time":1,"distance":973,"transit":false,"is_transit":false,"i_long":106.855437,"station_id":"KMT","i_lat":-6.193792},{"transit":false,"time":2,"i_long":106.861737,"i_lat":-6.209188,"line":11,"distance":1829,"station_name":"Pondok Jati","station_id":"POK","is_transit":false},{"i_long":106.86807400000001,"line":1,"station_id":"JNG","transit":true,"i_lat":-6.215091,"distance":1236,"time":9,"is_transit":true,"station_name":"Jatinegara"},{"i_long":106.858896,"distance":1377,"time":2,"station_id":"MTR","i_lat":-6.212485,"line":1,"station_name":"Matraman","is_transit":false,"transit":false},{"distance":1275,"line":2,"station_id":"MRI","is_transit":false,"i_lat":-6.209883,"station_name":"Manggarai","time":2,"i_long":106.84912,"transit":false},{"transit":false,"i_lat":-6.202263,"is_transit":false,"distance":3186,"time":4,"i_long":106.822649,"station_id":"SUD","line":1,"station_name":"Sudirman"},{"time":1,"is_transit":false,"i_long":106.819881,"transit":false,"i_lat":-6.201433,"line":1,"station_name":"Sudirman Baru","station_id":"SUDB","distance":280},{"i_lat":-6.20132,"distance":471,"i_long":106.816351,"transit":false,"line":1,"time":1,"station_id":"KAT","is_transit":false,"station_name":"Karet"},{"transit":true,"is_transit":true,"station_name":"Tanah Abang","time":5,"line":1,"station_id":"THB","i_lat":-6.185545,"distance":2029,"i_long":106.811091},{"i_lat":-6.207404,"i_long":106.79689,"transit":false,"line":6,"is_transit":false,"distance":3191,"station_name":"Palmerah","station_id":"PLM","time":6},{"station_id":"KBY","i_lat":-6.237242,"time":7,"line":6,"is_transit":false,"distance":3737,"transit":false,"station_name":"Kebayoran","i_long":106.780334},{"is_transit":false,"distance":6218,"station_id":"PDJ","station_name":"Pondokranji","time":8,"i_lat":-6.276362,"i_long":106.74273,"line":6,"transit":false},{"transit":false,"distance":2179,"line":6,"station_name":"Jurangmangu","is_transit":false,"i_long":106.728916,"i_lat":-6.288927,"time":3,"station_id":"JMU"},{"time":4,"line":6,"distance":1994,"station_id":"SDM","transit":false,"station_name":"Sudimara","is_transit":false,"i_long":106.712277,"i_lat":-6.296963},{"i_long":106.675475,"is_transit":false,"transit":false,"distance":4566,"station_id":"RU","line":6,"time":6,"i_lat":-6.314823,"station_name":"Rawa Buntu"},{"is_transit":false,"station_name":"Serpong","i_lat":-6.319871,"time":4,"distance":2413,"transit":false,"line":6,"station_id":"SRP","i_long":106.66566},{"station_name":"Cisauk","i_long":106.640411,"line":3,"time":4,"distance":1784,"station_id":"CSK","i_lat":-6.32484,"is_transit":false,"transit":false},{"i_long":106.617853,"distance":2519,"station_id":"CC","is_transit":false,"time":4,"i_lat":-6.329547,"line":3,"transit":false,"station_name":"Cicayur"},{"time":8,"line":6,"i_long":106.568863,"transit":false,"distance":5968,"station_id":"PRP","is_transit":false,"i_lat":-6.3441410000000005,"station_name":"Parung Panjang"},{"i_long":106.508482,"time":9,"is_transit":false,"distance":7025,"i_lat":-6.354349,"station_id":"CJT","transit":false,"station_name":"Cilejit","line":3},{"distance":2675,"transit":false,"station_id":"DAR","time":6,"station_name":"Daru","i_long":106.491338,"line":0,"i_lat":-6.338021,"is_transit":false},{"line":6,"transit":false,"station_id":"TEJ","distance":3902,"i_lat":-6.327251,"station_name":"Tenjo","time":5,"is_transit":false,"i_long":106.460812},{"time":5,"transit":false,"distance":2974,"is_transit":false,"i_lat":-6.328533,"i_long":106.425991,"station_name":"Tigaraksa","station_id":"TGS","line":6},{"is_transit":false,"distance":2651,"line":3,"time":3,"i_lat":-6.33561,"transit":false,"station_name":"Cikoya","station_id":"CKY","i_long":106.411216}],[{"transit":false,"station_id":"PSE","time":0,"distance":0,"line":11,"is_transit":false,"i_lat":-6.174784,"i_long":106.84368,"station_name":"Pasar Senen"},{"station_name":"Kemayoran","is_transit":false,"line":11,"distance":1436,"i_long":106.839204,"transit":false,"i_lat":-6.161728,"time":4,"station_id":"KMO"},{"station_name":"Rajawali","distance":1901,"i_lat":-6.14505,"time":5,"line":11,"transit":false,"is_transit":false,"station_id":"RJW","i_long":106.836569},{"station_name":"Kampung Bandan","distance":1444,"i_long":106.826365,"time":3,"transit":true,"is_transit":true,"station_id":"KPB","line":4,"i_lat":-6.132549},{"distance":1364,"is_transit":true,"transit":true,"i_lat":-6.137569,"station_id":"JAKK","i_long":106.812439,"line":2,"station_name":"Jakarta Kota","time":3},{"i_lat":-6.141205,"time":4,"station_id":"JAY","i_long":106.820901,"is_transit":false,"line":2,"transit":false,"distance":1264,"station_name":"Jayakarta"},{"line":2,"is_transit":false,"transit":false,"station_name":"Manggabesar","time":2,"station_id":"MGB","distance":1080,"i_lat":-6.149769,"i_long":106.82482},{"time":2,"is_transit":false,"line":2,"station_id":"SW","transit":false,"distance":906,"i_long":106.827103,"i_lat":-6.160725,"station_name":"Sawah Besar"},{"line":2,"distance":1149,"transit":false,"station_name":"Juanda","station_id":"JUA","i_long":106.828284,"is_transit":false,"time":2,"i_lat":-6.166716},{"transit":false,"distance":2015,"station_name":"Gondangdia","i_long":106.832183,"is_transit":false,"station_id":"GDD","time":4,"i_lat":-6.186295,"line":2},{"line":2,"is_transit":false,"i_lat":-6.198556,"time":3,"station_name":"Cikini","transit":false,"distance":1750,"station_id":"CKI","i_long":106.840169},{"station_id":"MRI","time":4,"distance":1590,"i_long":106.84912,"line":2,"station_name":"Manggarai","transit":true,"i_lat":-6.209883,"is_transit":true},{"transit":false,"station_name":"Sudirman","time":4,"is_transit":false,"i_lat":-6.202263,"distance":3186,"i_long":106.822649,"station_id":"SUD","line":1},{"i_lat":-6.201433,"transit":false,"line":1,"is_transit":false,"distance":280,"i_long":106.819881,"station_name":"Sudirman Baru","station_id":"SUDB","time":1},{"is_transit":false,"station_id":"KAT","transit":false,"i_lat":-6.20132,"time":1,"i_long":106.816351,"line":1,"station_name":"Karet","distance":471},{"station_name":"Tanah Abang","distance":2029,"time":5,"i_lat":-6.185545,"line":1,"transit":true,"is_transit":true,"i_long":106.811091,"station_id":"THB"},{"station_name":"Palmerah","line":6,"transit":false,"i_lat":-6.207404,"is_transit":false,"time":6,"i_long":106.79689,"distance":3191,"station_id":"PLM"},{"i_lat":-6.237242,"distance":3737,"i_long":106.780334,"is_transit":false,"station_name":"Kebayoran","transit":false,"station_id":"KBY","line":6,"time":7},{"time":8,"i_long":106.74273,"station_name":"Pondokranji","station_id":"PDJ","i_lat":-6.276362,"is_transit":false,"transit":false,"line":6,"distance":6218},{"station_name":"Jurangmangu","is_transit":false,"transit":false,"i_lat":-6.288927,"i_long":106.728916,"station_id":"JMU","time":3,"line":6,"distance":2179},{"i_long":106.712277,"station_name":"Sudimara","i_lat":-6.296963,"distance":1994,"is_transit":false,"transit":false,"station_id":"SDM","time":4,"line":6},{"transit":false,"i_long":106.675475,"line":6,"distance":4566,"is_transit":false,"time":6,"station_id":"RU","station_name":"Rawa Buntu","i_lat":-6.314823},{"i_long":106.66566,"distance":2413,"station_name":"Serpong","i_lat":-6.319871,"is_transit":false,"line":6,"transit":false,"station_id":"SRP","time":4},{"time":4,"i_lat":-6.32484,"line":3,"distance":1784,"station_id":"CSK","is_transit":false,"i_long":106.640411,"transit":false,"station_name":"Cisauk"},{"is_transit":false,"distance":2519,"i_long":106.617853,"time":4,"station_name":"Cicayur","transit":false,"i_lat":-6.329547,"line":3,"station_id":"CC"},{"station_name":"Parung Panjang","i_lat":-6.3441410000000005,"station_id":"PRP","transit":false,"is_transit":false,"time":8,"line":6,"i_long":106.568863,"distance":5968},{"distance":7025,"i_lat":-6.354349,"time":9,"is_transit":false,"station_name":"Cilejit","transit":false,"i_long":106.508482,"station_id":"CJT","line":3},{"transit":false,"i_long":106.491338,"time":6,"station_id":"DAR","is_transit":false,"distance":2675,"i_lat":-6.338021,"line":0,"station_name":"Daru"},{"line":6,"i_lat":-6.327251,"transit":false,"station_name":"Tenjo","time":5,"is_transit":false,"i_long":106.460812,"distance":3902,"station_id":"TEJ"},{"transit":false,"is_transit":false,"distance":2974,"i_lat":-6.328533,"i_long":106.425991,"time":5,"station_id":"TGS","line":6,"station_name":"Tigaraksa"},{"i_long":106.411216,"distance":2651,"is_transit":false,"i_lat":-6.33561,"transit":false,"line":3,"station_id":"CKY","station_name":"Cikoya","time":3}],[{"station_name":"Pasar Senen","i_long":106.84368,"transit":false,"i_lat":-6.174784,"line":11,"distance":0,"station_id":"PSE","is_transit":false,"time":0},{"i_lat":-6.185975,"transit":false,"is_transit":false,"distance":1567,"line":11,"time":8,"station_id":"GST","station_name":"Gang Sentiong","i_long":106.850107},{"station_name":"Kramat","is_transit":false,"line":11,"distance":973,"transit":false,"time":1,"i_lat":-6.193792,"station_id":"KMT","i_long":106.855437},{"transit":false,"distance":1829,"station_name":"Pondok Jati","time":2,"i_lat":-6.209188,"is_transit":false,"i_long":106.861737,"line":11,"station_id":"POK"},{"station_id":"JNG","time":9,"station_name":"Jatinegara","transit":true,"is_transit":true,"i_lat":-6.215091,"i_long":106.86807400000001,"line":1,"distance":1236},{"time":2,"station_id":"MTR","line":1,"is_transit":false,"distance":1377,"i_lat":-6.212485,"i_long":106.858896,"transit":false,"station_name":"Matraman"},{"station_id":"MRI","is_transit":true,"line":2,"i_lat":-6.209883,"i_long":106.84912,"distance":1275,"station_name":"Manggarai","time":2,"transit":true},{"is_transit":false,"time":4,"distance":1590,"station_name":"Cikini","i_lat":-6.198556,"station_id":"CKI","i_long":106.840169,"line":2,"transit":false},{"station_id":"GDD","i_long":106.832183,"time":3,"i_lat":-6.186295,"transit":false,"distance":1750,"station_name":"Gondangdia","is_transit":false,"line":2},{"station_id":"JUA","i_long":106.828284,"i_lat":-6.166716,"transit":false,"line":2,"distance":2015,"time":4,"is_transit":false,"station_name":"Juanda"},{"i_long":106.827103,"is_transit":false,"transit":false,"time":2,"distance":1149,"station_id":"SW","line":2,"station_name":"Sawah Besar","i_lat":-6.160725},{"transit":false,"station_id":"MGB","is_transit":false,"distance":906,"time":2,"i_lat":-6.149769,"station_name":"Manggabesar","i_long":106.82482,"line":2},{"i_long":106.820901,"i_lat":-6.141205,"transit":false,"is_transit":false,"line":2,"time":2,"station_id":"JAY","distance":1080,"station_name":"Jayakarta"},{"distance":1264,"time":4,"i_lat":-6.137569,"line":2,"i_long":106.812439,"station_name":"Jakarta Kota","station_id":"JAKK","transit":true,"is_transit":true},{"station_name":"Kampung Bandan","time":3,"i_lat":-6.132549,"distance":1364,"station_id":"KPB","is_transit":true,"i_long":106.826365,"transit":true,"line":4},{"is_transit":false,"transit":false,"distance":4102,"station_id":"AK","time":9,"i_lat":-6.144674,"i_long":106.79867,"station_name":"Angke","line":1},{"station_id":"DU","is_transit":false,"line":1,"transit":false,"distance":1230,"station_name":"Duri","i_long":106.800832,"time":4,"i_lat":-6.155215},{"time":8,"distance":3632,"station_name":"Tanah Abang","station_id":"THB","i_lat":-6.185545,"line":1,"is_transit":true,"transit":true,"i_long":106.811091},{"distance":3191,"station_name":"Palmerah","time":6,"i_lat":-6.207404,"is_transit":false,"i_long":106.79689,"line":6,"station_id":"PLM","transit":false},{"station_id":"KBY","i_lat":-6.237242,"is_transit":false,"transit":false,"line":6,"time":7,"i_long":106.780334,"distance":3737,"station_name":"Kebayoran"},{"transit":false,"i_lat":-6.276362,"i_long":106.74273,"distance":6218,"time":8,"station_id":"PDJ","station_name":"Pondokranji","line":6,"is_transit":false},{"station_id":"JMU","distance":2179,"is_transit":false,"transit":false,"i_lat":-6.288927,"line":6,"time":3,"station_name":"Jurangmangu","i_long":106.728916},{"distance":1994,"station_id":"SDM","i_long":106.712277,"is_transit":false,"time":4,"i_lat":-6.296963,"transit":false,"line":6,"station_name":"Sudimara"},{"i_lat":-6.314823,"time":6,"distance":4566,"station_id":"RU","station_name":"Rawa Buntu","i_long":106.675475,"line":6,"is_transit":false,"transit":false},{"distance":2413,"transit":false,"station_name":"Serpong","station_id":"SRP","i_long":106.66566,"is_transit":false,"line":6,"i_lat":-6.319871,"time":4},{"i_long":106.640411,"line":3,"transit":false,"station_name":"Cisauk","station_id":"CSK","is_transit":false,"distance":1784,"time":4,"i_lat":-6.32484},{"station_name":"Cicayur","line":3,"time":4,"is_transit":false,"transit":false,"i_lat":-6.329547,"station_id":"CC","i_long":106.617853,"distance":2519},{"distance":5968,"station_name":"Parung Panjang","line":6,"is_transit":false,"station_id":"PRP","i_long":106.568863,"transit":false,"i_lat":-6.3441410000000005,"time":8},{"i_lat":-6.354349,"transit":false,"line":3,"time":9,"is_transit":false,"i_long":106.508482,"station_id":"CJT","station_name":"Cilejit","distance":7025},{"station_id":"DAR","is_transit":false,"line":0,"transit":false,"i_lat":-6.338021,"distance":2675,"station_name":"Daru","i_long":106.491338,"time":6},{"time":5,"i_long":106.460812,"line":6,"station_name":"Tenjo","distance":3902,"is_transit":false,"i_lat":-6.327251,"transit":false,"station_id":"TEJ"},{"is_transit":false,"transit":false,"station_name":"Tigaraksa","distance":2974,"station_id":"TGS","i_lat":-6.328533,"line":6,"i_long":106.425991,"time":5},{"is_transit":false,"transit":false,"time":3,"distance":2651,"line":3,"i_long":106.411216,"station_name":"Cikoya","station_id":"CKY","i_lat":-6.33561}]]}